{"meta":{"code":"200"},"response":{"venues":[{"id":"4b361abff964a5202e3025e3","name":"Fitness First","contact":{"phone":"+448445712933","formattedPhone":"+44 844 571 2933"},"location":{"address":"37 Harrington Rd.","lat":"51.49388007573451","lng":"-0.17729734832623664","distance":"57","postalCode":"SW7 3HD","cc":"GB","city":"London","state":"Greater London","country":"United Kingdom"},"categories":[{"id":"4bf58dd8d48988d176941735","name":"Gym","pluralName":"Gyms","shortName":"Gym","icon":{"prefix":"https:\/\/ss1.4sqi.net\/img\/categories_v2\/building\/gym_","suffix":".png"},"primary":"true"}],"verified":"true","restricted":"true","stats":{"checkinsCount":"1626","usersCount":"155","tipCount":"3"},"specials":{"count":"0"},"hereNow":{"count":"1","groups":[{"type":"others","name":"Other people here","count":"1"}]},"referralId":"v-1392478063"},{"id":"4c8f224aad70a1437c548f0f","name":"Gallery Hotel","location":{"address":"8-10 Queensberry St","lat":"51.494777821091034","lng":"-0.1776938093691871","distance":"54","postalCode":"SW7 2EA","cc":"GB","city":"London","state":"Greater London","country":"United Kingdom"},"categories":[{"id":"4bf58dd8d48988d1fa931735","name":"Hotel","pluralName":"Hotels","shortName":"Hotel","icon":{"prefix":"https:\/\/ss1.4sqi.net\/img\/categories_v2\/travel\/hotel_","suffix":".png"},"primary":"true"}],"verified":"false","restricted":"true","stats":{"checkinsCount":"90","usersCount":"52","tipCount":"1"},"specials":{"count":"0"},"hereNow":{"count":"1","groups":[{"type":"others","name":"Other people here","count":"1"}]},"referralId":"v-1392478063"},{"id":"4ac518e8f964a5208fab20e3","name":"Cin\u00e9 Lumi\u00e8re (at the French Institute)","contact":{"phone":"+442078382144","formattedPhone":"+44 20 7838 2144"},"location":{"address":"17 Queensberry Pl.","lat":"51.49460427945535","lng":"-0.17706113337342336","distance":"62","postalCode":"SW7 2DT","cc":"GB","city":"London","state":"Greater London","country":"United Kingdom"},"categories":[{"id":"4bf58dd8d48988d17e941735","name":"Indie Movie Theater","pluralName":"Indie Movie Theaters","shortName":"Indie Theater","icon":{"prefix":"https:\/\/ss1.4sqi.net\/img\/categories_v2\/arts_entertainment\/movietheater_indietheater_","suffix":".png"},"primary":"true"}],"verified":"false","restricted":"true","stats":{"checkinsCount":"649","usersCount":"460","tipCount":"6"},"specials":{"count":"0"},"events":{"count":"2","summary":"2 movies"},"hereNow":{"count":"0"},"referralId":"v-1392478063"},{"id":"52f255ef498e1ff9ec744e04","name":"Institut Fran\u00e7ais La Mediatheque","location":{"address":"17 Queensberry Place","lat":"51.494421815967364","lng":"-0.17796993255615234","distance":"18","postalCode":"SW7 2DT","cc":"GB","city":"London","state":"Greater London","country":"United Kingdom"},"categories":[{"id":"4bf58dd8d48988d12f941735","name":"Library","pluralName":"Libraries","shortName":"Library","icon":{"prefix":"https:\/\/ss1.4sqi.net\/img\/categories_v2\/building\/library_","suffix":".png"},"primary":"true"}],"verified":"false","restricted":"true","stats":{"checkinsCount":"1","usersCount":"1","tipCount":"0"},"specials":{"count":"0"},"hereNow":{"count":"0"},"referralId":"v-1392478063"},{"id":"4bc8e379762beee1c3a63d38","name":"Acacia Hostel London","location":{"address":"14 Queensberry Place","lat":"51.494657","lng":"-0.177658","distance":"42","cc":"GB","city":"London","state":"Greater London","country":"United Kingdom"},"categories":[{"id":"4bf58dd8d48988d1fa931735","name":"Hotel","pluralName":"Hotels","shortName":"Hotel","icon":{"prefix":"https:\/\/ss1.4sqi.net\/img\/categories_v2\/travel\/hotel_","suffix":".png"},"primary":"true"}],"verified":"false","restricted":"true","stats":{"checkinsCount":"154","usersCount":"67","tipCount":"3"},"specials":{"count":"0"},"hereNow":{"count":"0"},"referralId":"v-1392478063"},{"id":"4acf61f4f964a52052d320e3","name":"The Hummingbird Bakery","contact":{"phone":"+442078511795","formattedPhone":"+44 20 7851 1795","twitter":"hummingbbakery"},"location":{"address":"47 Old Brompton Rd.","lat":"51.49349864759362","lng":"-0.1754966410717191","distance":"182","postalCode":"SW7 3JP","cc":"GB","city":"London","state":"Greater London","country":"United Kingdom"},"categories":[{"id":"4bf58dd8d48988d1bc941735","name":"Cupcake Shop","pluralName":"Cupcake Shops","shortName":"Cupcakes","icon":{"prefix":"https:\/\/ss1.4sqi.net\/img\/categories_v2\/food\/cupcakes_","suffix":".png"},"primary":"true"}],"verified":"true","restricted":"true","stats":{"checkinsCount":"2200","usersCount":"1420","tipCount":"47"},"url":"http:\/\/hummingbirdbakery.com","specials":{"count":"0"},"hereNow":{"count":"0"},"storeId":"","referralId":"v-1392478063"},{"id":"4ac518bdf964a520cca220e3","name":"Zetland Arms","location":{"address":"2 Bute Street","lat":"51.493343228446314","lng":"-0.1759216016996972","distance":"167","postalCode":"SW7 3EX","cc":"GB","city":"London","state":"Greater London","country":"United Kingdom"},"categories":[{"id":"4bf58dd8d48988d11b941735","name":"Pub","pluralName":"Pubs","shortName":"Pub","icon":{"prefix":"https:\/\/ss1.4sqi.net\/img\/categories_v2\/nightlife\/pub_","suffix":".png"},"primary":"true"}],"verified":"false","restricted":"true","stats":{"checkinsCount":"1694","usersCount":"1184","tipCount":"24"},"specials":{"count":"0"},"hereNow":{"count":"0"},"referralId":"v-1392478063"},{"id":"4f856657e4b0cd08a4893b3b","name":"The Ampersand","contact":{"phone":"+442075895895","formattedPhone":"+44 20 7589 5895","twitter":"ampersandhotel","facebook":"191274294278932"},"location":{"address":"10 Harrington Rd.","lat":"51.494129579253276","lng":"-0.1754593849182129","distance":"163","postalCode":"SW7 3ER","cc":"GB","city":"London","state":"Greater London","country":"United Kingdom"},"categories":[{"id":"4bf58dd8d48988d1fa931735","name":"Hotel","pluralName":"Hotels","shortName":"Hotel","icon":{"prefix":"https:\/\/ss1.4sqi.net\/img\/categories_v2\/travel\/hotel_","suffix":".png"},"primary":"true"}],"verified":"true","restricted":"true","stats":{"checkinsCount":"1135","usersCount":"434","tipCount":"9"},"url":"http:\/\/www.ampersandhotel.com","menu":{"type":"Menu","label":"Menu","anchor":"View Menu","url":"https:\/\/foursquare.com\/v\/the-ampersand\/4f856657e4b0cd08a4893b3b\/menu","mobileUrl":"https:\/\/foursquare.com\/v\/4f856657e4b0cd08a4893b3b\/device_menu"},"specials":{"count":"0"},"hereNow":{"count":"1","groups":[{"type":"others","name":"Other people here","count":"1"}]},"venuePage":{"id":"38215775"},"storeId":"","referralId":"v-1392478063"},{"id":"50db572fe4b0fb6f1b53dad3","name":"Queen's Gate Apartments","location":{"address":"130 Queen's Gate","lat":"51.49466889338767","lng":"-0.178691200768333","distance":"74","cc":"GB","city":"London","state":"Greater London","country":"United Kingdom"},"categories":[{"id":"4bf58dd8d48988d1fa931735","name":"Hotel","pluralName":"Hotels","shortName":"Hotel","icon":{"prefix":"https:\/\/ss1.4sqi.net\/img\/categories_v2\/travel\/hotel_","suffix":".png"},"primary":"true"}],"verified":"false","restricted":"true","stats":{"checkinsCount":"145","usersCount":"55","tipCount":"1"},"specials":{"count":"0"},"hereNow":{"count":"0"},"referralId":"v-1392478063"},{"id":"51b23327498ef5790a5a347e","name":"French Institute","location":{"lat":"51.49448042037449","lng":"-0.1771974364375965","distance":"47","cc":"GB","country":"United Kingdom"},"categories":[{"id":"4bf58dd8d48988d1f1931735","name":"General Entertainment","pluralName":"General Entertainment","shortName":"Entertainment","icon":{"prefix":"https:\/\/ss1.4sqi.net\/img\/categories_v2\/arts_entertainment\/default_","suffix":".png"},"primary":"true"}],"verified":"false","restricted":"true","stats":{"checkinsCount":"26","usersCount":"23","tipCount":"0"},"specials":{"count":"0"},"hereNow":{"count":"0"},"referralId":"v-1392478063"},{"id":"4d03af370e49721e1b696c7f","name":"Baden Powell House","location":{"address":"65-67 Queen's Gate","lat":"51.4954110895313","lng":"-0.17919592339102042","distance":"157","postalCode":"SW7 5JS","cc":"GB","city":"London","state":"Greater London","country":"United Kingdom"},"categories":[{"id":"4bf58dd8d48988d1ff931735","name":"Convention Center","pluralName":"Convention Centers","shortName":"Convention Center","icon":{"prefix":"https:\/\/ss1.4sqi.net\/img\/categories_v2\/building\/conventioncenter_","suffix":".png"},"primary":"true"}],"verified":"false","restricted":"true","stats":{"checkinsCount":"609","usersCount":"333","tipCount":"7"},"specials":{"count":"0"},"hereNow":{"count":"0"},"referralId":"v-1392478063"},{"id":"4bc8f12b762beee107ba3d38","name":"Eden Plaza Hotel","contact":{"phone":"+442073706111","formattedPhone":"+44 20 7370 6111"},"location":{"address":"68-69 Queens Gate","lat":"51.495257322966005","lng":"-0.17923058990433566","distance":"146","postalCode":"SW7 5JT","cc":"GB","city":"London","state":"Greater London","country":"United Kingdom"},"categories":[{"id":"4bf58dd8d48988d1fa931735","name":"Hotel","pluralName":"Hotels","shortName":"Hotel","icon":{"prefix":"https:\/\/ss1.4sqi.net\/img\/categories_v2\/travel\/hotel_","suffix":".png"},"primary":"true"}],"verified":"false","restricted":"true","stats":{"checkinsCount":"619","usersCount":"305","tipCount":"13"},"url":"http:\/\/www.edenplazakensington.co.uk","specials":{"count":"0"},"hereNow":{"count":"0"},"referralId":"v-1392478063"},{"id":"4ad8e61af964a520cc1521e3","name":"Oddono's","contact":{"phone":"+442070520732","formattedPhone":"+44 20 7052 0732","twitter":"oddonos"},"location":{"address":"14 Bute St.","lat":"51.493599126064794","lng":"-0.17623291494673854","distance":"133","postalCode":"SW7 3EX","cc":"GB","city":"South Kensington","state":"Greater London","country":"United Kingdom"},"categories":[{"id":"4bf58dd8d48988d1c9941735","name":"Ice Cream Shop","pluralName":"Ice Cream Shops","shortName":"Ice Cream","icon":{"prefix":"https:\/\/ss1.4sqi.net\/img\/categories_v2\/food\/icecream_","suffix":".png"},"primary":"true"}],"verified":"false","restricted":"true","stats":{"checkinsCount":"669","usersCount":"319","tipCount":"25"},"url":"http:\/\/www.oddonos.com","menu":{"type":"Menu","label":"Menu","anchor":"View Menu","url":"https:\/\/foursquare.com\/v\/oddonos\/4ad8e61af964a520cc1521e3\/menu","mobileUrl":"https:\/\/foursquare.com\/v\/4ad8e61af964a520cc1521e3\/device_menu"},"specials":{"count":"0"},"hereNow":{"count":"0"},"referralId":"v-1392478063"},{"id":"51562b58e4b0001cddf874f1","name":"HTB Queen\u2019s Gate","contact":{"twitter":"htbchurch"},"location":{"address":"Queens Gate","lat":"51.49341682180366","lng":"-0.17808127934276474","distance":"98","postalCode":"SW7 5LP","cc":"GB","city":"London","state":"Greater London","country":"United Kingdom"},"categories":[{"id":"4bf58dd8d48988d132941735","name":"Church","pluralName":"Churches","shortName":"Church","icon":{"prefix":"https:\/\/ss1.4sqi.net\/img\/categories_v2\/building\/religious_church_","suffix":".png"},"primary":"true"}],"verified":"false","restricted":"true","stats":{"checkinsCount":"22","usersCount":"13","tipCount":"0"},"specials":{"count":"0"},"hereNow":{"count":"0"},"referralId":"v-1392478063"},{"id":"4b083987f964a520b40623e3","name":"Rocca di Papa","contact":{"phone":"+442072253413","formattedPhone":"+44 20 7225 3413"},"location":{"address":"73 Old Brompton Rd","lat":"51.49287043507085","lng":"-0.17659127712249756","distance":"178","postalCode":"SW7 3JS","cc":"GB","city":"South Kensington","state":"Greater London","country":"United Kingdom"},"categories":[{"id":"4bf58dd8d48988d110941735","name":"Italian Restaurant","pluralName":"Italian Restaurants","shortName":"Italian","icon":{"prefix":"https:\/\/ss1.4sqi.net\/img\/categories_v2\/food\/italian_","suffix":".png"},"primary":"true"}],"verified":"false","restricted":"true","stats":{"checkinsCount":"771","usersCount":"541","tipCount":"20"},"menu":{"type":"Menu","label":"Menu","anchor":"View Menu","url":"https:\/\/foursquare.com\/v\/rocca-di-papa\/4b083987f964a520b40623e3\/menu","mobileUrl":"https:\/\/foursquare.com\/v\/4b083987f964a520b40623e3\/device_menu"},"specials":{"count":"0"},"hereNow":{"count":"0"},"referralId":"v-1392478063"},{"id":"4dd143bec65bdac713a4f3c6","name":"MPW","location":{"address":"90-92 queensgate","lat":"51.49352840069308","lng":"-0.1787853240966797","distance":"108","cc":"GB","city":"London","state":"Greater London","country":"United Kingdom"},"categories":[{"id":"4bf58dd8d48988d197941735","name":"College Administrative Building","pluralName":"College Administrative Buildings","shortName":"Administrative Building","icon":{"prefix":"https:\/\/ss1.4sqi.net\/img\/categories_v2\/education\/administrativebuilding_","suffix":".png"},"primary":"true"}],"verified":"false","restricted":"true","stats":{"checkinsCount":"1420","usersCount":"75","tipCount":"1"},"specials":{"count":"0"},"hereNow":{"count":"0"},"referralId":"v-1392478063"},{"id":"4bd85db70b779c74a1f006a0","name":"Faiza Unique","location":{"lat":"51.494236","lng":"-0.177741","distance":"7","cc":"GB","country":"United Kingdom"},"categories":[{"id":"4bf58dd8d48988d1fc941735","name":"Laundry Service","pluralName":"Laundry Services","shortName":"Laundry","icon":{"prefix":"https:\/\/ss1.4sqi.net\/img\/categories_v2\/shops\/laundry_","suffix":".png"},"primary":"true"}],"verified":"false","restricted":"true","stats":{"checkinsCount":"8","usersCount":"6","tipCount":"0"},"specials":{"count":"0"},"hereNow":{"count":"0"},"referralId":"v-1392478063"},{"id":"4dad7fd3a86e0d401b88650d","name":"Natural History Museum Wildlife Garden","contact":{"phone":"+442079425011","formattedPhone":"+44 20 7942 5011","twitter":"nhmgarden"},"location":{"address":"138-140 Queensgate Mews","lat":"51.49578611915106","lng":"-0.17861366271972656","distance":"175","postalCode":"SW7 5","cc":"GB","city":"Kensington","state":"Greater London","country":"United Kingdom"},"categories":[{"id":"4bf58dd8d48988d15a941735","name":"Garden","pluralName":"Gardens","shortName":"Garden","icon":{"prefix":"https:\/\/ss1.4sqi.net\/img\/categories_v2\/parks_outdoors\/garden_","suffix":".png"},"primary":"true"}],"verified":"false","restricted":"true","stats":{"checkinsCount":"539","usersCount":"459","tipCount":"4"},"specials":{"count":"0"},"hereNow":{"count":"0"},"referralId":"v-1392478063"},{"id":"4ceb6229b99754819a6d0c45","name":"MEININGER Hotel London Hyde Park","contact":{"phone":"+442033181407","formattedPhone":"+44 20 3318 1407"},"location":{"address":"65-67 Queen's Gate","lat":"51.49535026177274","lng":"-0.17947141069498365","distance":"165","postalCode":"SW7 5JS","cc":"GB","city":"South Kensington","state":"Greater London","country":"United Kingdom"},"categories":[{"id":"4bf58dd8d48988d1ee931735","name":"Hostel","pluralName":"Hostels","shortName":"Hostel","icon":{"prefix":"https:\/\/ss1.4sqi.net\/img\/categories_v2\/travel\/hostel_","suffix":".png"},"primary":"true"}],"verified":"true","restricted":"true","stats":{"checkinsCount":"373","usersCount":"222","tipCount":"11"},"url":"http:\/\/www.meininger-hotels.com\/hotel-hostel\/hotelsuche\/london\/","specials":{"count":"0"},"hereNow":{"count":"0"},"storeId":"","referralId":"v-1392478063"},{"id":"4bd9422a11dcc928e956f933","name":"Caff\u00e8 Nero","contact":{"phone":"+442075811610","formattedPhone":"+44 20 7581 1610"},"location":{"address":"66 Old Brompton Rd.","crossStreet":"Kendrick Place","lat":"51.49293671134384","lng":"-0.17672810748720835","distance":"167","postalCode":"SW7 3LQ","cc":"GB","city":"Kensington","state":"Greater London","country":"United Kingdom"},"categories":[{"id":"4bf58dd8d48988d1e0931735","name":"Coffee Shop","pluralName":"Coffee Shops","shortName":"Coffee Shop","icon":{"prefix":"https:\/\/ss1.4sqi.net\/img\/categories_v2\/food\/coffeeshop_","suffix":".png"},"primary":"true"}],"verified":"false","restricted":"true","stats":{"checkinsCount":"446","usersCount":"255","tipCount":"3"},"url":"http:\/\/caffenero.com","specials":{"count":"0"},"hereNow":{"count":"0"},"referralId":"v-1392478063"},{"id":"4ca4669a1ee76dcb062301de","name":"evolve wellness centre","contact":{"phone":"+442075814090","formattedPhone":"+44 20 7581 4090","twitter":"evolvecentre","facebook":"140836385948492"},"location":{"address":"10 Kendrick Mews","lat":"51.49356510134722","lng":"-0.17709398681852426","distance":"94","cc":"GB","city":"South Kensington","state":"Greater London","country":"United Kingdom"},"categories":[{"id":"4bf58dd8d48988d102941735","name":"Yoga Studio","pluralName":"Yoga Studios","shortName":"Yoga Studio","icon":{"prefix":"https:\/\/ss1.4sqi.net\/img\/categories_v2\/shops\/gym_yogastudio_","suffix":".png"},"primary":"true"}],"verified":"true","restricted":"true","stats":{"checkinsCount":"136","usersCount":"39","tipCount":"4"},"url":"http:\/\/evolvewellnesscentre.com","specials":{"count":"0"},"hereNow":{"count":"0"},"venuePage":{"id":"42375428"},"storeId":"","referralId":"v-1392478063"},{"id":"52375f2911d2be5d60d52bee","name":"TheCollege Of Psychic Studies","location":{"lat":"51.494657","lng":"-0.177442","distance":"48","cc":"GB","country":"United Kingdom"},"categories":[{"id":"4bf58dd8d48988d198941735","name":"College Academic Building","pluralName":"College Academic Buildings","shortName":"Academic Building","icon":{"prefix":"https:\/\/ss1.4sqi.net\/img\/categories_v2\/education\/academicbuilding_","suffix":".png"},"primary":"true"}],"verified":"false","restricted":"true","stats":{"checkinsCount":"7","usersCount":"6","tipCount":"0"},"specials":{"count":"0"},"hereNow":{"count":"0"},"referralId":"v-1392478063"},{"id":"5079cf42e4b01b417a53a28e","name":"APERO","contact":{"phone":"+442075914410","formattedPhone":"+44 20 7591 4410"},"location":{"address":"10 Harrington Road,","lat":"51.49417535621754","lng":"-0.17551845468186777","distance":"158","postalCode":"SW7 3ER","cc":"GB","city":"London","state":"Greater London","country":"United Kingdom"},"categories":[{"id":"4bf58dd8d48988d1c0941735","name":"Mediterranean Restaurant","pluralName":"Mediterranean Restaurants","shortName":"Mediterranean","icon":{"prefix":"https:\/\/ss1.4sqi.net\/img\/categories_v2\/food\/mediterranean_","suffix":".png"},"primary":"true"}],"verified":"false","restricted":"true","stats":{"checkinsCount":"170","usersCount":"119","tipCount":"4"},"specials":{"count":"0"},"hereNow":{"count":"0"},"referralId":"v-1392478063"},{"id":"4ce13490c4f6a35d8df2d96c","name":"Raison d'etre","location":{"address":"Bute street","lat":"51.493711968584435","lng":"-0.17634231264008055","distance":"119","cc":"GB","city":"Kensington","state":"Greater London","country":"United Kingdom"},"categories":[{"id":"4bf58dd8d48988d16d941735","name":"Caf\u00e9","pluralName":"Caf\u00e9s","shortName":"Caf\u00e9","icon":{"prefix":"https:\/\/ss1.4sqi.net\/img\/categories_v2\/food\/cafe_","suffix":".png"},"primary":"true"}],"verified":"false","restricted":"true","stats":{"checkinsCount":"198","usersCount":"60","tipCount":"4"},"specials":{"count":"0"},"hereNow":{"count":"0"},"referralId":"v-1392478063"},{"id":"4b437270f964a52077e025e3","name":"Aubrey Restaurant & Bar","contact":{"phone":"+442075896300","formattedPhone":"+44 20 7589 6300","twitter":"aubrey_doyle"},"location":{"address":"The Kensington Hotel","crossStreet":"109-113 Queen's Gate","lat":"51.49282123570378","lng":"-0.17821318019778448","distance":"165","postalCode":"SW7 5LP","cc":"GB","city":"London","state":"Greater London","country":"United Kingdom"},"categories":[{"id":"4bf58dd8d48988d1c4941735","name":"Restaurant","pluralName":"Restaurants","shortName":"Restaurant","icon":{"prefix":"https:\/\/ss1.4sqi.net\/img\/categories_v2\/food\/default_","suffix":".png"},"primary":"true"}],"verified":"true","restricted":"true","stats":{"checkinsCount":"110","usersCount":"80","tipCount":"3"},"url":"http:\/\/www.doylecollection.com\/locations\/london_city_hotels\/the_kensington_hotel\/eat__drink\/restaurant__bar.aspx","reservations":{"url":"http:\/\/www.toptable.co.uk\/single.aspx?rid=88426&ref=9601"},"menu":{"type":"Menu","label":"Menu","anchor":"View Menu","url":"https:\/\/foursquare.com\/v\/aubrey-restaurant--bar\/4b437270f964a52077e025e3\/menu","mobileUrl":"https:\/\/foursquare.com\/v\/4b437270f964a52077e025e3\/device_menu"},"specials":{"count":"0"},"hereNow":{"count":"0"},"referralId":"v-1392478063"},{"id":"4ed8fc5b02d5244e2eb9276f","name":"Institut Fran\u00e7ais childrens library","location":{"lat":"51.49426456368611","lng":"-0.1774030938887441","distance":"27","cc":"GB","country":"United Kingdom"},"categories":[{"id":"4bf58dd8d48988d1a7941735","name":"College Library","pluralName":"College Libraries","shortName":"Library","icon":{"prefix":"https:\/\/ss1.4sqi.net\/img\/categories_v2\/building\/library_","suffix":".png"},"primary":"true"}],"verified":"false","restricted":"true","stats":{"checkinsCount":"20","usersCount":"16","tipCount":"0"},"specials":{"count":"0"},"hereNow":{"count":"0"},"referralId":"v-1392478063"},{"id":"4de0bba1e4cd846e4090349e","name":"South Kensington Farmers' Market","location":{"address":"Bute Street","crossStreet":"Old Brompton","lat":"51.49367085583434","lng":"-0.17636535404379497","distance":"121","postalCode":"SW7 3EX","cc":"GB","city":"Kensington","state":"Greater London","country":"United Kingdom"},"categories":[{"id":"4bf58dd8d48988d1fa941735","name":"Farmers Market","pluralName":"Farmers Markets","shortName":"Farmer's Market","icon":{"prefix":"https:\/\/ss1.4sqi.net\/img\/categories_v2\/shops\/food_farmersmarket_","suffix":".png"},"primary":"true"}],"verified":"false","restricted":"true","stats":{"checkinsCount":"113","usersCount":"45","tipCount":"1"},"specials":{"count":"0"},"hereNow":{"count":"0"},"referralId":"v-1392478063"},{"id":"523ef6eb11d21bbecb54e228","name":"La Grande Bouchee","location":{"lat":"51.494382","lng":"-0.177456","distance":"26","cc":"GB","country":"United Kingdom"},"categories":[{"id":"4bf58dd8d48988d146941735","name":"Deli \/ Bodega","pluralName":"Delis \/ Bodegas","shortName":"Deli \/ Bodega","icon":{"prefix":"https:\/\/ss1.4sqi.net\/img\/categories_v2\/food\/deli_","suffix":".png"},"primary":"true"}],"verified":"false","restricted":"true","stats":{"checkinsCount":"2","usersCount":"2","tipCount":"0"},"specials":{"count":"0"},"hereNow":{"count":"0"},"referralId":"v-1392478063"},{"id":"4ed4b2dd29c2bbe6611eb18a","name":"Adria Hotel","location":{"lat":"51.493912","lng":"-0.17906","distance":"96","cc":"GB","city":"London","state":"Greater London","country":"United Kingdom"},"categories":[{"id":"4bf58dd8d48988d1fa931735","name":"Hotel","pluralName":"Hotels","shortName":"Hotel","icon":{"prefix":"https:\/\/ss1.4sqi.net\/img\/categories_v2\/travel\/hotel_","suffix":".png"},"primary":"true"}],"verified":"false","restricted":"true","stats":{"checkinsCount":"50","usersCount":"36","tipCount":"2"},"specials":{"count":"0"},"hereNow":{"count":"0"},"referralId":"v-1392478063"},{"id":"4e6dde6eaeb7ba66d9d132b5","name":"Lyc\u00e9e Fran\u00e7ais Charles De Gaulle","location":{"address":"35 Cromwell Rd.","lat":"51.49490065987106","lng":"-0.1765215494633431","distance":"111","cc":"GB","city":"Kensington","state":"Greater London","country":"United Kingdom"},"categories":[{"id":"4bf58dd8d48988d13d941735","name":"High School","pluralName":"High Schools","shortName":"High School","icon":{"prefix":"https:\/\/ss1.4sqi.net\/img\/categories_v2\/building\/school_","suffix":".png"},"primary":"true"}],"verified":"false","restricted":"true","stats":{"checkinsCount":"226","usersCount":"102","tipCount":"6"},"url":"http:\/\/www.lyceefrancais.org.uk","specials":{"count":"0"},"hereNow":{"count":"0"},"referralId":"v-1392478063"}],"confident":"true"}}