{"meta":{"code":"200"},"response":{"venues":[{"id":"51277d33e4b0e675bccbd60f","name":"Florin Court","location":{"address":"70 Tanner Street","lat":"51.499889","lng":"-0.078042","distance":"68","postalCode":"SE1 3BP","cc":"GB","city":"London","state":"Greater London","country":"United Kingdom"},"categories":[{"id":"4d954b06a243a5684965b473","name":"Residential Building (Apartment \/ Condo)","pluralName":"Residential Buildings (Apartments \/ Condos)","shortName":"Residential","icon":{"prefix":"https:\/\/ss1.4sqi.net\/img\/categories_v2\/building\/apartment_","suffix":".png"},"primary":"true"}],"verified":"false","restricted":"true","stats":{"checkinsCount":"230","usersCount":"7","tipCount":"0"},"specials":{"count":"0"},"hereNow":{"count":"0"},"referralId":"v-1392478060"},{"id":"4bfbad2df214a593186faf0e","name":"No1 Studio Training","contact":{"phone":"+442074036660","formattedPhone":"+44 20 7403 6660","twitter":"no1fitness"},"location":{"address":"108 Maltings Place","lat":"51.499166844482374","lng":"-0.07894280393817941","distance":"80","postalCode":"SE1 3JB","cc":"GB","city":"London","state":"Greater London","country":"United Kingdom"},"categories":[{"id":"4bf58dd8d48988d175941735","name":"Gym \/ Fitness Center","pluralName":"Gyms or Fitness Centers","shortName":"Gym \/ Fitness","icon":{"prefix":"https:\/\/ss1.4sqi.net\/img\/categories_v2\/building\/gym_","suffix":".png"},"primary":"true"}],"verified":"false","restricted":"true","stats":{"checkinsCount":"475","usersCount":"39","tipCount":"3"},"url":"http:\/\/www.no1studiotraining.co.uk","specials":{"count":"0"},"hereNow":{"count":"0"},"referralId":"v-1392478060"},{"id":"4e184a7988777e96476e9ca1","name":"40 Maltby St","contact":{"phone":"+442072379247","formattedPhone":"+44 20 7237 9247","twitter":"maltbystmkt"},"location":{"address":"40 Maltby St","lat":"51.49973651109928","lng":"-0.07622700043340934","distance":"120","cc":"GB","city":"Camberwell","state":"Greater London","country":"United Kingdom"},"categories":[{"id":"4bf58dd8d48988d123941735","name":"Wine Bar","pluralName":"Wine Bars","shortName":"Wine Bar","icon":{"prefix":"https:\/\/ss1.4sqi.net\/img\/categories_v2\/nightlife\/wine_","suffix":".png"},"primary":"true"}],"verified":"false","restricted":"true","stats":{"checkinsCount":"245","usersCount":"158","tipCount":"4"},"specials":{"count":"0"},"hereNow":{"count":"0"},"referralId":"v-1392478060"},{"id":"4b488e8ef964a5204b4f26e3","name":"Constancia Argentine Grill","contact":{"phone":"+442072340676","formattedPhone":"+44 20 7234 0676"},"location":{"address":"52 Tanner St.","lat":"51.50010955679991","lng":"-0.07863009790371704","distance":"107","postalCode":"SE1 3PH","cc":"GB","city":"Bermondsey","state":"Greater London","country":"United Kingdom"},"categories":[{"id":"4bf58dd8d48988d107941735","name":"Argentinian Restaurant","pluralName":"Argentinian Restaurants","shortName":"Argentinian","icon":{"prefix":"https:\/\/ss1.4sqi.net\/img\/categories_v2\/food\/argentinian_","suffix":".png"},"primary":"true"}],"verified":"false","restricted":"true","stats":{"checkinsCount":"469","usersCount":"285","tipCount":"20"},"specials":{"count":"0"},"hereNow":{"count":"0"},"referralId":"v-1392478060"},{"id":"4bc8f151762beee11fba3d38","name":"Premier Inn","contact":{"phone":"+448715278678","formattedPhone":"+44 871 527 8678"},"location":{"address":"159 Tower Bridge Rd","lat":"51.49973938494536","lng":"-0.07902418078788939","distance":"98","postalCode":"SE1 3LP","cc":"GB","city":"London","state":"Greater London","country":"United Kingdom"},"categories":[{"id":"4bf58dd8d48988d1fa931735","name":"Hotel","pluralName":"Hotels","shortName":"Hotel","icon":{"prefix":"https:\/\/ss1.4sqi.net\/img\/categories_v2\/travel\/hotel_","suffix":".png"},"primary":"true"}],"verified":"false","restricted":"true","stats":{"checkinsCount":"644","usersCount":"300","tipCount":"7"},"url":"http:\/\/www.premierinn.com","specials":{"count":"0"},"hereNow":{"count":"0"},"referralId":"v-1392478060"},{"id":"51bda0d6498e55ee47a21126","name":"Think Apartments TBR","location":{"address":"Tower Bridge road 157","lat":"51.4989490418534","lng":"-0.07956732839073313","distance":"127","cc":"GB","city":"London","state":"Greater London","country":"United Kingdom"},"categories":[{"id":"4bf58dd8d48988d1fa931735","name":"Hotel","pluralName":"Hotels","shortName":"Hotel","icon":{"prefix":"https:\/\/ss1.4sqi.net\/img\/categories_v2\/travel\/hotel_","suffix":".png"},"primary":"true"}],"verified":"false","restricted":"true","stats":{"checkinsCount":"120","usersCount":"42","tipCount":"0"},"specials":{"count":"0"},"hereNow":{"count":"0"},"referralId":"v-1392478060"},{"id":"4ce1ab57aba88cfaeaa156d7","name":"Arnold estate","location":{"address":"Phoenix wharf road","lat":"51.499241324851084","lng":"-0.07799744221619946","distance":"14","cc":"GB","city":"Camberwell","state":"Greater London","country":"United Kingdom"},"categories":[{"id":"4f2a210c4b9023bd5841ed28","name":"Housing Development","pluralName":"Housing Developments","shortName":"Housing Development","icon":{"prefix":"https:\/\/ss1.4sqi.net\/img\/categories_v2\/building\/housingdevelopment_","suffix":".png"},"primary":"true"}],"verified":"false","restricted":"true","stats":{"checkinsCount":"27","usersCount":"11","tipCount":"0"},"specials":{"count":"0"},"hereNow":{"count":"0"},"referralId":"v-1392478060"},{"id":"5125ef2bb0ed415fa5101631","name":"Riot Digital","contact":{"twitter":"riotdigital"},"location":{"address":"3rd Floor, 54-58 Tanner St","lat":"51.49980698573817","lng":"-0.07784843444824219","distance":"57","postalCode":"SE1 3PH","cc":"GB","city":"London","state":"Greater London","country":"United Kingdom"},"categories":[{"id":"4bf58dd8d48988d124941735","name":"Office","pluralName":"Offices","shortName":"Office","icon":{"prefix":"https:\/\/ss1.4sqi.net\/img\/categories_v2\/building\/default_","suffix":".png"},"primary":"true"}],"verified":"false","restricted":"true","stats":{"checkinsCount":"16","usersCount":"1","tipCount":"0"},"specials":{"count":"0"},"hereNow":{"count":"0"},"referralId":"v-1392478060"},{"id":"50e8143fe4b00d69abca5816","name":"Market Gourmet","location":{"lat":"51.49938272961095","lng":"-0.07562957810486594","distance":"150","cc":"GB","country":"United Kingdom"},"categories":[{"id":"4bf58dd8d48988d146941735","name":"Deli \/ Bodega","pluralName":"Delis \/ Bodegas","shortName":"Deli \/ Bodega","icon":{"prefix":"https:\/\/ss1.4sqi.net\/img\/categories_v2\/food\/deli_","suffix":".png"},"primary":"true"}],"verified":"false","restricted":"true","stats":{"checkinsCount":"14","usersCount":"13","tipCount":"0"},"specials":{"count":"0"},"hereNow":{"count":"1","groups":[{"type":"others","name":"Other people here","count":"1"}]},"referralId":"v-1392478060"},{"id":"4d4846ad6db7236afe85d397","name":"Alliance for Workers' Liberty","location":{"address":"58 Riley Road","lat":"51.4987201342003","lng":"-0.07660216071456609","distance":"104","postalCode":"SE1 3DG","cc":"GB","city":"London","state":"Greater London","country":"United Kingdom"},"categories":[{"id":"4bf58dd8d48988d130941735","name":"Building","pluralName":"Buildings","shortName":"Building","icon":{"prefix":"https:\/\/ss1.4sqi.net\/img\/categories_v2\/building\/default_","suffix":".png"},"primary":"true"}],"verified":"false","restricted":"true","stats":{"checkinsCount":"87","usersCount":"8","tipCount":"0"},"specials":{"count":"0"},"hereNow":{"count":"0"},"referralId":"v-1392478060"},{"id":"5066d1f3e4b062f08eb9e4e2","name":"Craft Coffee","contact":{"twitter":"craft_coffee"},"location":{"address":"Maltby Street Market","crossStreet":"Maltby St.","lat":"51.49945968235501","lng":"-0.07623910903930663","distance":"110","postalCode":"SE1 3PA","cc":"GB","city":"Bermondsey","state":"Greater London","country":"United Kingdom"},"categories":[{"id":"4bf58dd8d48988d1e0931735","name":"Coffee Shop","pluralName":"Coffee Shops","shortName":"Coffee Shop","icon":{"prefix":"https:\/\/ss1.4sqi.net\/img\/categories_v2\/food\/coffeeshop_","suffix":".png"},"primary":"true"}],"verified":"false","restricted":"true","stats":{"checkinsCount":"48","usersCount":"40","tipCount":"3"},"specials":{"count":"0"},"hereNow":{"count":"0"},"referralId":"v-1392478060"},{"id":"4c73866e6b91b7135754fb20","name":"[PIAS] UK","contact":{"phone":"+442074712700","formattedPhone":"+44 20 7471 2700","twitter":"piasmusic","facebook":"256180104392015"},"location":{"address":"1 Bevington Path","crossStreet":"Tanner St","lat":"51.50011421344789","lng":"-0.07793426513671875","distance":"92","postalCode":"SE1 3PW","cc":"GB","city":"London","state":"Greater London","country":"United Kingdom"},"categories":[{"id":"4bf58dd8d48988d124941735","name":"Office","pluralName":"Offices","shortName":"Office","icon":{"prefix":"https:\/\/ss1.4sqi.net\/img\/categories_v2\/building\/default_","suffix":".png"},"primary":"true"}],"verified":"true","restricted":"true","stats":{"checkinsCount":"151","usersCount":"23","tipCount":"2"},"url":"http:\/\/www.pias.com","specials":{"count":"0"},"hereNow":{"count":"0"},"venuePage":{"id":"47061304"},"storeId":"","referralId":"v-1392478060"},{"id":"4fca163ee4b074f1b02c2964","name":"Little Bird @ Maltby St","location":{"address":"Rope Walk","lat":"51.499202","lng":"-0.075613","distance":"152","cc":"GB","city":"London","state":"Greater London","country":"United Kingdom"},"categories":[{"id":"4bf58dd8d48988d11e941735","name":"Cocktail Bar","pluralName":"Cocktail Bars","shortName":"Cocktail","icon":{"prefix":"https:\/\/ss1.4sqi.net\/img\/categories_v2\/nightlife\/cocktails_","suffix":".png"},"primary":"true"}],"verified":"false","restricted":"true","stats":{"checkinsCount":"168","usersCount":"101","tipCount":"6"},"specials":{"count":"0"},"hereNow":{"count":"0"},"referralId":"v-1392478060"},{"id":"4ed15ae55c5c9528fa704bda","name":"Papa John's","contact":{"phone":"+442074074077","formattedPhone":"+44 20 7407 4077"},"location":{"address":"168a Tower Bridge Road","lat":"51.499666728921234","lng":"-0.07872819900512694","distance":"76","postalCode":"SE13LS","cc":"GB","city":"London","state":"Greater London","country":"United Kingdom"},"categories":[{"id":"4bf58dd8d48988d1ca941735","name":"Pizza Place","pluralName":"Pizza Places","shortName":"Pizza","icon":{"prefix":"https:\/\/ss1.4sqi.net\/img\/categories_v2\/food\/pizza_","suffix":".png"},"primary":"true"}],"verified":"false","restricted":"true","stats":{"checkinsCount":"103","usersCount":"67","tipCount":"2"},"specials":{"count":"0"},"hereNow":{"count":"0"},"referralId":"v-1392478060"},{"id":"4e7ef999754afba26273f9fc","name":"Downside Fisher Youth Club","contact":{"phone":"+442074070093","formattedPhone":"+44 20 7407 0093","twitter":"downsidefisher"},"location":{"address":"Coxson Place","crossStreet":"Druid Street","lat":"51.50045650275061","lng":"-0.07634371519088745","distance":"164","postalCode":"SE1 2EZ","cc":"GB","city":"London","state":"Greater London","country":"United Kingdom"},"categories":[{"id":"50328a8e91d4c4b30a586d6c","name":"Non-Profit","pluralName":"Non-Profits","shortName":"Non-Profit","icon":{"prefix":"https:\/\/ss1.4sqi.net\/img\/categories_v2\/building\/default_","suffix":".png"},"primary":"true"}],"verified":"false","restricted":"true","stats":{"checkinsCount":"90","usersCount":"39","tipCount":"2"},"url":"http:\/\/www.downside-fisher.org","specials":{"count":"0"},"hereNow":{"count":"0"},"storeId":"","referralId":"v-1392478060"},{"id":"50afe52ae4b06b473820d322","name":"The Co-operative Food","contact":{"twitter":"cooperativefood"},"location":{"address":"Tower Bridge Rd.","crossStreet":"Tanner St.","lat":"51.500017133400725","lng":"-0.07863574501155303","distance":"99","postalCode":"SE1","cc":"GB","city":"London","state":"Greater London","country":"United Kingdom"},"categories":[{"id":"4bf58dd8d48988d118951735","name":"Grocery Store","pluralName":"Grocery Stores","shortName":"Grocery Store","icon":{"prefix":"https:\/\/ss1.4sqi.net\/img\/categories_v2\/shops\/food_grocery_","suffix":".png"},"primary":"true"}],"verified":"false","restricted":"true","stats":{"checkinsCount":"70","usersCount":"29","tipCount":"0"},"specials":{"count":"0"},"hereNow":{"count":"0"},"referralId":"v-1392478060"},{"id":"4efef9c80aaffcf6f39f57d6","name":"\uf43b Unit N","location":{"lat":"51.499495","lng":"-0.077975","distance":"25","cc":"GB","country":"United Kingdom"},"verified":"false","restricted":"true","stats":{"checkinsCount":"0","usersCount":"0","tipCount":"0"},"specials":{"count":"0"},"hereNow":{"count":"0"},"referralId":"v-1392478060"},{"id":"4e6b4266b0fb8b8a848e2492","name":"LASSCO","location":{"address":"Maltby St","crossStreet":"Rope Walk","lat":"51.49922907039912","lng":"-0.07557156372793346","distance":"154","cc":"GB","city":"Bermondsey","state":"Greater London","country":"United Kingdom"},"categories":[{"id":"4bf58dd8d48988d116951735","name":"Antique Shop","pluralName":"Antique Shops","shortName":"Antiques","icon":{"prefix":"https:\/\/ss1.4sqi.net\/img\/categories_v2\/shops\/antique_","suffix":".png"},"primary":"true"}],"verified":"false","restricted":"true","stats":{"checkinsCount":"57","usersCount":"42","tipCount":"0"},"specials":{"count":"0"},"hereNow":{"count":"0"},"referralId":"v-1392478060"},{"id":"52cec8a5498eb10f761eff4f","name":"aparthotels","location":{"address":"153 Tower Bridge Road","lat":"51.498993","lng":"-0.079191","distance":"101","cc":"GB","city":"London","state":"Greater London","country":"United Kingdom"},"categories":[{"id":"4bf58dd8d48988d1fa931735","name":"Hotel","pluralName":"Hotels","shortName":"Hotel","icon":{"prefix":"https:\/\/ss1.4sqi.net\/img\/categories_v2\/travel\/hotel_","suffix":".png"},"primary":"true"}],"verified":"false","restricted":"true","stats":{"checkinsCount":"1","usersCount":"1","tipCount":"0"},"specials":{"count":"0"},"hereNow":{"count":"0"},"referralId":"v-1392478060"},{"id":"4c4f14a092b6a593f051fe70","name":"Three Oak Lane","location":{"crossStreet":"Tooley St","lat":"51.499014","lng":"-0.078066","distance":"35","postalCode":"SE1","cc":"GB","city":"London","state":"Greater London","country":"United Kingdom"},"verified":"false","restricted":"true","stats":{"checkinsCount":"2","usersCount":"2","tipCount":"0"},"specials":{"count":"0"},"hereNow":{"count":"0"},"referralId":"v-1392478060"},{"id":"4f605411e4b06b55134c0856","name":"Thrifty Car Rental Tower Bridge","location":{"lat":"51.500540909126336","lng":"-0.07818423937761046","distance":"141","cc":"GB","country":"United Kingdom"},"categories":[{"id":"4bf58dd8d48988d1ef941735","name":"Rental Car Location","pluralName":"Rental Car Locations","shortName":"Rental Car","icon":{"prefix":"https:\/\/ss1.4sqi.net\/img\/categories_v2\/shops\/airport_rentalcar_","suffix":".png"},"primary":"true"}],"verified":"false","restricted":"true","stats":{"checkinsCount":"13","usersCount":"12","tipCount":"3"},"specials":{"count":"0"},"hereNow":{"count":"0"},"referralId":"v-1392478060"},{"id":"4eb2e6246c2516d23807e7d2","name":"Effective Mobile Marketing Awards","location":{"lat":"51.499036","lng":"-0.077436","distance":"37","cc":"GB","city":"Camberwell","state":"Greater London","country":"United Kingdom"},"categories":[{"id":"4bf58dd8d48988d171941735","name":"Event Space","pluralName":"Event Spaces","shortName":"Event Space","icon":{"prefix":"https:\/\/ss1.4sqi.net\/img\/categories_v2\/building\/eventspace_","suffix":".png"},"primary":"true"}],"verified":"false","restricted":"true","stats":{"checkinsCount":"1","usersCount":"1","tipCount":"0"},"specials":{"count":"0"},"hereNow":{"count":"0"},"referralId":"v-1392478060"},{"id":"4ae95e6bf964a520c6b421e3","name":"Dusted","contact":{"phone":"+442074037776","formattedPhone":"+44 20 7403 7776","twitter":"dusteddesign","facebook":"7234778145"},"location":{"address":"Studio 5, 151 Tower Bridge Road","lat":"51.498768407168065","lng":"-0.07944703102111816","distance":"127","postalCode":"SE1 3JE","cc":"GB","city":"London","state":"Greater London","country":"United Kingdom"},"categories":[{"id":"4bf58dd8d48988d1f4941735","name":"Design Studio","pluralName":"Design Studios","shortName":"Design","icon":{"prefix":"https:\/\/ss1.4sqi.net\/img\/categories_v2\/shops\/design_","suffix":".png"},"primary":"true"}],"verified":"true","restricted":"true","stats":{"checkinsCount":"157","usersCount":"8","tipCount":"1"},"url":"http:\/\/www.dusteddesign.com","specials":{"count":"0"},"hereNow":{"count":"0"},"storeId":"","referralId":"v-1392478060"},{"id":"52e3e1af498e59e409a6c005","name":"Modern Beer Bar","location":{"lat":"51.49931085546916","lng":"-0.07566951687375661","distance":"147","cc":"GB","country":"United Kingdom"},"categories":[{"id":"4bf58dd8d48988d116941735","name":"Bar","pluralName":"Bars","shortName":"Bar","icon":{"prefix":"https:\/\/ss1.4sqi.net\/img\/categories_v2\/nightlife\/bar_","suffix":".png"},"primary":"true"}],"verified":"false","restricted":"true","stats":{"checkinsCount":"1","usersCount":"1","tipCount":"0"},"specials":{"count":"0"},"hereNow":{"count":"0"},"referralId":"v-1392478060"},{"id":"4fa90d79e4b0f8fbf11ced11","name":"Abbey Street Bus Stop M","location":{"address":"153 Tower Bridge Road","lat":"51.49888774427831","lng":"-0.07925799889179362","distance":"110","cc":"GB","city":"London","state":"Greater London","country":"United Kingdom"},"categories":[{"id":"4bf58dd8d48988d12b951735","name":"Bus Line","pluralName":"Bus Lines","shortName":"Bus","icon":{"prefix":"https:\/\/ss1.4sqi.net\/img\/categories_v2\/travel\/busstation_","suffix":".png"},"primary":"true"}],"verified":"false","restricted":"true","stats":{"checkinsCount":"25","usersCount":"12","tipCount":"0"},"specials":{"count":"0"},"hereNow":{"count":"0"},"referralId":"v-1392478060"},{"id":"50a24c58e4b04e11e8033e55","name":"Tibbalds","location":{"lat":"51.50028356294572","lng":"-0.07929016611796934","distance":"151","cc":"GB","country":"United Kingdom"},"categories":[{"id":"4bf58dd8d48988d130941735","name":"Building","pluralName":"Buildings","shortName":"Building","icon":{"prefix":"https:\/\/ss1.4sqi.net\/img\/categories_v2\/building\/default_","suffix":".png"},"primary":"true"}],"verified":"false","restricted":"true","stats":{"checkinsCount":"2","usersCount":"1","tipCount":"0"},"specials":{"count":"0"},"hereNow":{"count":"0"},"referralId":"v-1392478060"},{"id":"4e9c3402b8f7831366f3fda2","name":"Stellarise","location":{"address":"54 Maltings Place","lat":"51.500512","lng":"-0.07938","distance":"174","cc":"GB","city":"London","state":"Greater London","country":"United Kingdom"},"categories":[{"id":"4bf58dd8d48988d125941735","name":"Tech Startup","pluralName":"Tech Startups","shortName":"Tech Startup","icon":{"prefix":"https:\/\/ss1.4sqi.net\/img\/categories_v2\/shops\/technology_","suffix":".png"},"primary":"true"}],"verified":"false","restricted":"true","stats":{"checkinsCount":"79","usersCount":"3","tipCount":"0"},"specials":{"count":"0"},"hereNow":{"count":"0"},"referralId":"v-1392478060"},{"id":"4f3a3bfee4b011903915cb52","name":"Romanski Limited","contact":{"twitter":"romanskimktg"},"location":{"address":"Unit 4, 2 Archie Street","lat":"51.500160129245124","lng":"-0.07967972674517287","distance":"162","postalCode":"SE1 3JT","cc":"GB","city":"London","state":"Greater London","country":"United Kingdom"},"categories":[{"id":"4bf58dd8d48988d124941735","name":"Office","pluralName":"Offices","shortName":"Office","icon":{"prefix":"https:\/\/ss1.4sqi.net\/img\/categories_v2\/building\/default_","suffix":".png"},"primary":"true"}],"verified":"false","restricted":"true","stats":{"checkinsCount":"37","usersCount":"3","tipCount":"2"},"specials":{"count":"0"},"hereNow":{"count":"0"},"referralId":"v-1392478060"},{"id":"4ac518edf964a520b2ac20e3","name":"Tower Bridge Antiques","location":{"address":"71 Tanner Street","lat":"51.49989855","lng":"-0.07696131","distance":"89","postalCode":"SE1 3PL","cc":"GB","city":"London","state":"Greater London","country":"United Kingdom"},"categories":[{"id":"4bf58dd8d48988d116951735","name":"Antique Shop","pluralName":"Antique Shops","shortName":"Antiques","icon":{"prefix":"https:\/\/ss1.4sqi.net\/img\/categories_v2\/shops\/antique_","suffix":".png"},"primary":"true"}],"verified":"false","restricted":"true","stats":{"checkinsCount":"26","usersCount":"19","tipCount":"1"},"specials":{"count":"0"},"hereNow":{"count":"0"},"referralId":"v-1392478060"},{"id":"513f4a2b19a9a47c452351d4","name":"Worldview Space","location":{"address":"1 Pope Street","lat":"51.4996867656358","lng":"-0.0783848762512207","distance":"59","postalCode":"SE1 3PR","cc":"GB","city":"London","state":"Greater London","country":"United Kingdom"},"categories":[{"id":"4bf58dd8d48988d124941735","name":"Office","pluralName":"Offices","shortName":"Office","icon":{"prefix":"https:\/\/ss1.4sqi.net\/img\/categories_v2\/building\/default_","suffix":".png"},"primary":"true"}],"verified":"false","restricted":"true","stats":{"checkinsCount":"6","usersCount":"2","tipCount":"0"},"specials":{"count":"0"},"hereNow":{"count":"0"},"referralId":"v-1392478060"}],"confident":"false"}}