{"meta":{"code":"200"},"response":{"venues":[{"id":"510bb09de4b01d3ae22bb38b","name":"Victoria","location":{"address":"Everywhere!","lat":"51.49469732418631","lng":"-0.14259518191635906","distance":"47","cc":"GB","city":"Victoria","state":"Greater London","country":"United Kingdom"},"categories":[{"id":"4f2a25ac4b909258e854f55f","name":"Neighborhood","pluralName":"Neighborhoods","shortName":"Neighborhood","icon":{"prefix":"https:\/\/ss1.4sqi.net\/img\/categories_v2\/parks_outdoors\/neighborhood_","suffix":".png"},"primary":"true"}],"verified":"false","restricted":"true","stats":{"checkinsCount":"1171","usersCount":"481","tipCount":"2"},"specials":{"count":"0"},"hereNow":{"count":"0"},"referralId":"v-1392478066"},{"id":"4f4c7787e4b0ed369247018a","name":"DoubleTree by Hilton Hotel","contact":{"phone":"+442078348123","formattedPhone":"+44 20 7834 8123"},"location":{"address":"2 Bridge Pl","crossStreet":"Victoria","lat":"51.493982516847595","lng":"-0.14353310017274487","distance":"61","postalCode":"SW1V 1QA","cc":"GB","city":"London","state":"Greater London","country":"United Kingdom"},"categories":[{"id":"4bf58dd8d48988d1fa931735","name":"Hotel","pluralName":"Hotels","shortName":"Hotel","icon":{"prefix":"https:\/\/ss1.4sqi.net\/img\/categories_v2\/travel\/hotel_","suffix":".png"},"primary":"true"}],"verified":"false","restricted":"true","stats":{"checkinsCount":"1406","usersCount":"575","tipCount":"18"},"url":"http:\/\/www.placesdoubletree.com\/london-victoria","specials":{"count":"0"},"hereNow":{"count":"0"},"referralId":"v-1392478066"},{"id":"4d84b8309324236aec02bf0e","name":"Le Pain Quotidien","contact":{"phone":"+442074866154","formattedPhone":"+44 20 7486 6154","twitter":"lpquk"},"location":{"address":"128 Wilton Rd","crossStreet":"near Vauxhall Bridge Rd","lat":"51.49394254677304","lng":"-0.14196395874023438","distance":"69","postalCode":"SW1V 1JZ","cc":"GB","city":"London","state":"Greater London","country":"United Kingdom"},"categories":[{"id":"4bf58dd8d48988d16a941735","name":"Bakery","pluralName":"Bakeries","shortName":"Bakery","icon":{"prefix":"https:\/\/ss1.4sqi.net\/img\/categories_v2\/food\/bakery_","suffix":".png"},"primary":"true"}],"verified":"false","restricted":"true","stats":{"checkinsCount":"1664","usersCount":"913","tipCount":"21"},"url":"http:\/\/www.lepainquotidien.co.uk","specials":{"count":"0"},"hereNow":{"count":"2","groups":[{"type":"others","name":"Other people here","count":"2"}]},"referralId":"v-1392478066"},{"id":"4af3e1c4f964a52089ef21e3","name":"Giraffe","contact":{"phone":"+442072338303","formattedPhone":"+44 20 7233 8303","twitter":"giraffetweet"},"location":{"address":"120 Wilton Rd.","lat":"51.493961","lng":"-0.141858","distance":"74","postalCode":"SW1V 1JZ","cc":"GB","city":"Victoria","state":"Greater London","country":"United Kingdom"},"categories":[{"id":"4bf58dd8d48988d1c4941735","name":"Restaurant","pluralName":"Restaurants","shortName":"Restaurant","icon":{"prefix":"https:\/\/ss1.4sqi.net\/img\/categories_v2\/food\/default_","suffix":".png"},"primary":"true"}],"verified":"true","restricted":"true","stats":{"checkinsCount":"1145","usersCount":"755","tipCount":"20"},"menu":{"type":"Menu","label":"Menu","anchor":"View Menu","url":"https:\/\/foursquare.com\/v\/giraffe\/4af3e1c4f964a52089ef21e3\/menu","mobileUrl":"https:\/\/foursquare.com\/v\/4af3e1c4f964a52089ef21e3\/device_menu"},"specials":{"count":"0"},"hereNow":{"count":"1","groups":[{"type":"others","name":"Other people here","count":"1"}]},"referralId":"v-1392478066"},{"id":"4b1706bdf964a5201fc123e3","name":"Park Plaza Hotel Victoria London","contact":{"phone":"+442077699999","formattedPhone":"+44 20 7769 9999"},"location":{"address":"239 Vauxhall Bridge Rd.","lat":"51.49407614148009","lng":"-0.14162063598632812","distance":"85","postalCode":"SW1V 1EQ","cc":"GB","city":"London","state":"Greater London","country":"United Kingdom"},"categories":[{"id":"4bf58dd8d48988d1fa931735","name":"Hotel","pluralName":"Hotels","shortName":"Hotel","icon":{"prefix":"https:\/\/ss1.4sqi.net\/img\/categories_v2\/travel\/hotel_","suffix":".png"},"primary":"true"}],"verified":"true","restricted":"true","stats":{"checkinsCount":"3053","usersCount":"1642","tipCount":"25"},"specials":{"count":"0"},"hereNow":{"count":"0"},"storeId":"LNUK","referralId":"v-1392478066"},{"id":"5040b0f4e4b06be18f8260d7","name":"Victoria Control Point","location":{"lat":"51.49406323089218","lng":"-0.143975530889447","distance":"85","cc":"GB","country":"United Kingdom"},"categories":[{"id":"4f4531504b9074f6e4fb0102","name":"Platform","pluralName":"Platforms","shortName":"Platform","icon":{"prefix":"https:\/\/ss1.4sqi.net\/img\/categories_v2\/travel\/trainstation_","suffix":".png"},"primary":"true"}],"verified":"false","restricted":"true","stats":{"checkinsCount":"411","usersCount":"31","tipCount":"1"},"specials":{"count":"0"},"hereNow":{"count":"1","groups":[{"type":"others","name":"Other people here","count":"1"}]},"referralId":"v-1392478066"},{"id":"4b2d579bf964a520a6d424e3","name":"The Willow Walk (Wetherspoon)","contact":{"phone":"+442078282953","formattedPhone":"+44 20 7828 2953","twitter":"jdwtweet"},"location":{"address":"25 Wilton Rd.","lat":"51.49498457510481","lng":"-0.1423501968383789","distance":"83","postalCode":"SW1V 1LW","cc":"GB","city":"Victoria","state":"Greater London","country":"United Kingdom"},"categories":[{"id":"4bf58dd8d48988d11b941735","name":"Pub","pluralName":"Pubs","shortName":"Pub","icon":{"prefix":"https:\/\/ss1.4sqi.net\/img\/categories_v2\/nightlife\/pub_","suffix":".png"},"primary":"true"}],"verified":"false","restricted":"true","stats":{"checkinsCount":"1362","usersCount":"857","tipCount":"20"},"specials":{"count":"0"},"hereNow":{"count":"0"},"referralId":"v-1392478066"},{"id":"4b61cd03f964a520b1232ae3","name":"Argos","contact":{"twitter":"argos_online"},"location":{"address":"279 Vauxhall Bridge Road, ,","lat":"51.49472776676929","lng":"-0.14241115051506278","distance":"55","postalCode":"SW1V 1EJ","cc":"GB","city":"London","state":"Greater London","country":"United Kingdom"},"categories":[{"id":"4bf58dd8d48988d1ff941735","name":"Miscellaneous Shop","pluralName":"Miscellaneous Shops","shortName":"Shop","icon":{"prefix":"https:\/\/ss1.4sqi.net\/img\/categories_v2\/shops\/default_","suffix":".png"},"primary":"true"}],"verified":"true","restricted":"true","stats":{"checkinsCount":"437","usersCount":"299","tipCount":"3"},"specials":{"count":"0"},"hereNow":{"count":"0"},"storeId":"","referralId":"v-1392478066"},{"id":"4c5c41207735c9b6d9b98b72","name":"Platform 7","location":{"address":"London Victoria Station (VIC)","lat":"51.49407772738276","lng":"-0.14446859670572493","distance":"117","postalCode":"SW1V 1JU","cc":"GB","city":"City of Westminster","state":"Greater London","country":"United Kingdom"},"categories":[{"id":"4f4531504b9074f6e4fb0102","name":"Platform","pluralName":"Platforms","shortName":"Platform","icon":{"prefix":"https:\/\/ss1.4sqi.net\/img\/categories_v2\/travel\/trainstation_","suffix":".png"},"primary":"true"}],"verified":"false","restricted":"true","stats":{"checkinsCount":"679","usersCount":"221","tipCount":"1"},"specials":{"count":"0"},"hereNow":{"count":"0"},"referralId":"v-1392478066"},{"id":"51781c62498e74dbd0c9871b","name":"Tozi Restaurant and Bar","location":{"address":"Gillingham Street","lat":"51.494074","lng":"-0.141438","distance":"97","cc":"GB","city":"London","state":"Greater London","country":"United Kingdom"},"categories":[{"id":"4bf58dd8d48988d110941735","name":"Italian Restaurant","pluralName":"Italian Restaurants","shortName":"Italian","icon":{"prefix":"https:\/\/ss1.4sqi.net\/img\/categories_v2\/food\/italian_","suffix":".png"},"primary":"true"}],"verified":"false","restricted":"true","stats":{"checkinsCount":"381","usersCount":"275","tipCount":"18"},"menu":{"type":"Menu","label":"Menu","anchor":"View Menu","url":"https:\/\/foursquare.com\/v\/tozi-restaurant-and-bar-london\/51781c62498e74dbd0c9871b\/menu","mobileUrl":"https:\/\/foursquare.com\/v\/51781c62498e74dbd0c9871b\/device_menu"},"specials":{"count":"0"},"hereNow":{"count":"0"},"referralId":"v-1392478066"},{"id":"4b0eb408f964a520dd5923e3","name":"The Elusive Camel","contact":{"phone":"+442072339004","formattedPhone":"+44 20 7233 9004"},"location":{"address":"27 Gillingham St","crossStreet":"Wilton street","lat":"51.493862","lng":"-0.141812","distance":"83","postalCode":"SW1V 1HP","cc":"GB","city":"London","state":"Greater London","country":"United Kingdom"},"categories":[{"id":"4bf58dd8d48988d116941735","name":"Bar","pluralName":"Bars","shortName":"Bar","icon":{"prefix":"https:\/\/ss1.4sqi.net\/img\/categories_v2\/nightlife\/bar_","suffix":".png"},"primary":"true"}],"verified":"false","restricted":"true","stats":{"checkinsCount":"586","usersCount":"458","tipCount":"14"},"specials":{"count":"0"},"hereNow":{"count":"0"},"referralId":"v-1392478066"},{"id":"4bfe2b4c4cf820a10c85edf4","name":"McDonald's","contact":{"phone":"+442078029730","formattedPhone":"+44 20 7802 9730"},"location":{"address":"London Victoria Station (VIC)","lat":"51.49517671910653","lng":"-0.14344215961908557","distance":"108","postalCode":"SW1V 1JU","cc":"GB","city":"City of Westminster","state":"Greater London","country":"United Kingdom"},"categories":[{"id":"4bf58dd8d48988d16e941735","name":"Fast Food Restaurant","pluralName":"Fast Food Restaurants","shortName":"Fast Food","icon":{"prefix":"https:\/\/ss1.4sqi.net\/img\/categories_v2\/food\/fastfood_","suffix":".png"},"primary":"true"}],"verified":"false","restricted":"true","stats":{"checkinsCount":"802","usersCount":"504","tipCount":"5"},"url":"http:\/\/www.mcdonalds.co.uk","menu":{"type":"Menu","label":"Menu","anchor":"View Menu","url":"https:\/\/foursquare.com\/v\/mcdonalds\/4bfe2b4c4cf820a10c85edf4\/menu","mobileUrl":"https:\/\/foursquare.com\/v\/4bfe2b4c4cf820a10c85edf4\/device_menu"},"specials":{"count":"0"},"hereNow":{"count":"0"},"referralId":"v-1392478066"},{"id":"4be0561c98f2a59344ddc15a","name":"Platform 1","location":{"address":"London Victoria Railway Station (VIC)","lat":"51.49402344354498","lng":"-0.1441403863432258","distance":"97","postalCode":"SW1V 1JU","cc":"GB","city":"City of Westminster","state":"Greater London","country":"United Kingdom"},"categories":[{"id":"4f4531504b9074f6e4fb0102","name":"Platform","pluralName":"Platforms","shortName":"Platform","icon":{"prefix":"https:\/\/ss1.4sqi.net\/img\/categories_v2\/travel\/trainstation_","suffix":".png"},"primary":"true"}],"verified":"false","restricted":"true","stats":{"checkinsCount":"1687","usersCount":"723","tipCount":"3"},"specials":{"count":"0"},"hereNow":{"count":"0"},"referralId":"v-1392478066"},{"id":"50be0b3ee4b024d48f9b0d7f","name":"Shepherds Bookbinders Materials","location":{"address":"Gillingham Street 30","lat":"51.4939938476952","lng":"-0.1421418442411195","distance":"56","cc":"GB","country":"United Kingdom"},"categories":[{"id":"4bf58dd8d48988d127951735","name":"Arts & Crafts Store","pluralName":"Arts & Crafts Stores","shortName":"Arts & Crafts","icon":{"prefix":"https:\/\/ss1.4sqi.net\/img\/categories_v2\/shops\/artstore_","suffix":".png"},"primary":"true"}],"verified":"false","restricted":"true","stats":{"checkinsCount":"25","usersCount":"14","tipCount":"0"},"specials":{"count":"0"},"hereNow":{"count":"0"},"referralId":"v-1392478066"},{"id":"4ba8e794f964a520bcf839e3","name":"Evans Cycles","contact":{"phone":"+442079766298","formattedPhone":"+44 20 7976 6298"},"location":{"address":"320-320b Vauxhall Bridge Rd.","lat":"51.49470325196406","lng":"-0.1424515630949834","distance":"52","postalCode":"SW1V 1AA","cc":"GB","city":"London","state":"Greater London","country":"United Kingdom"},"categories":[{"id":"4bf58dd8d48988d115951735","name":"Bike Shop","pluralName":"Bike Shops","shortName":"Bike shop","icon":{"prefix":"https:\/\/ss1.4sqi.net\/img\/categories_v2\/shops\/bikeshop_","suffix":".png"},"primary":"true"}],"verified":"true","restricted":"true","stats":{"checkinsCount":"302","usersCount":"102","tipCount":"1"},"specials":{"count":"0"},"hereNow":{"count":"0"},"referralId":"v-1392478066"},{"id":"4b7efc81f964a520680e30e3","name":"Platform 16","location":{"address":"London Victoria Station (VIC)","lat":"51.49437004845741","lng":"-0.1444530487060547","distance":"114","postalCode":"SW1V 1JU","cc":"GB","city":"City of Westminster","state":"Greater London","country":"United Kingdom"},"categories":[{"id":"4f4531504b9074f6e4fb0102","name":"Platform","pluralName":"Platforms","shortName":"Platform","icon":{"prefix":"https:\/\/ss1.4sqi.net\/img\/categories_v2\/travel\/trainstation_","suffix":".png"},"primary":"true"}],"verified":"false","restricted":"true","stats":{"checkinsCount":"1192","usersCount":"516","tipCount":"1"},"specials":{"count":"0"},"hereNow":{"count":"0"},"referralId":"v-1392478066"},{"id":"51776fbfe4b0de6e7cd614a7","name":"Orient Express Check- In Lounge Platform 2","location":{"lat":"51.49461304627326","lng":"-0.14336974090796803","distance":"53","cc":"GB","country":"United Kingdom"},"categories":[{"id":"4bf58dd8d48988d124941735","name":"Office","pluralName":"Offices","shortName":"Office","icon":{"prefix":"https:\/\/ss1.4sqi.net\/img\/categories_v2\/building\/default_","suffix":".png"},"primary":"true"}],"verified":"false","restricted":"true","stats":{"checkinsCount":"44","usersCount":"15","tipCount":"1"},"specials":{"count":"0"},"hereNow":{"count":"0"},"referralId":"v-1392478066"},{"id":"4c398d7518e72d7f09711af5","name":"Platform 3","location":{"address":"London Victoria Station (VIC)","lat":"51.494396767179566","lng":"-0.14432430267333984","distance":"106","postalCode":"SW1V 1JU","cc":"GB","city":"City of Westminster","state":"Greater London","country":"United Kingdom"},"categories":[{"id":"4f4531504b9074f6e4fb0102","name":"Platform","pluralName":"Platforms","shortName":"Platform","icon":{"prefix":"https:\/\/ss1.4sqi.net\/img\/categories_v2\/travel\/trainstation_","suffix":".png"},"primary":"true"}],"verified":"false","restricted":"true","stats":{"checkinsCount":"495","usersCount":"189","tipCount":"1"},"specials":{"count":"0"},"hereNow":{"count":"0"},"referralId":"v-1392478066"},{"id":"4add6210f964a520ef6421e3","name":"Caffe Nero Express","contact":{"phone":"+442076308564","formattedPhone":"+44 20 7630 8564"},"location":{"address":"Victoria Station","crossStreet":"Platform 18","lat":"51.49431661096613","lng":"-0.14449596405029297","distance":"117","postalCode":"SW1V1GF","cc":"GB","city":"London","state":"Greater London","country":"United Kingdom"},"categories":[{"id":"4bf58dd8d48988d1e0931735","name":"Coffee Shop","pluralName":"Coffee Shops","shortName":"Coffee Shop","icon":{"prefix":"https:\/\/ss1.4sqi.net\/img\/categories_v2\/food\/coffeeshop_","suffix":".png"},"primary":"true"}],"verified":"false","restricted":"true","stats":{"checkinsCount":"478","usersCount":"198","tipCount":"6"},"specials":{"count":"0"},"hereNow":{"count":"0"},"referralId":"v-1392478066"},{"id":"4c1be004fcf8c9b66920a90b","name":"Goldsmid House","location":{"lat":"51.49411958133763","lng":"-0.1416004444171873","distance":"85","cc":"GB","country":"United Kingdom"},"categories":[{"id":"4bf58dd8d48988d1a3941735","name":"College Residence Hall","pluralName":"College Residence Halls","shortName":"Residence Hall","icon":{"prefix":"https:\/\/ss1.4sqi.net\/img\/categories_v2\/education\/residencehall_","suffix":".png"},"primary":"true"}],"verified":"false","restricted":"true","stats":{"checkinsCount":"335","usersCount":"36","tipCount":"1"},"specials":{"count":"0"},"hereNow":{"count":"0"},"referralId":"v-1392478066"},{"id":"4c1786a5f1c976b02c4aa272","name":"Balfour Beatty plc","location":{"address":"130 Wilton Road","lat":"51.49493113833391","lng":"-0.1425647735595703","distance":"73","cc":"GB","city":"London","state":"Greater London","country":"United Kingdom"},"categories":[{"id":"4bf58dd8d48988d124941735","name":"Office","pluralName":"Offices","shortName":"Office","icon":{"prefix":"https:\/\/ss1.4sqi.net\/img\/categories_v2\/building\/default_","suffix":".png"},"primary":"true"}],"verified":"false","restricted":"true","stats":{"checkinsCount":"287","usersCount":"34","tipCount":"0"},"specials":{"count":"0"},"hereNow":{"count":"0"},"referralId":"v-1392478066"},{"id":"4ac518e3f964a520acaa20e3","name":"2 Bridge Place","location":{"address":"2 Bridge Place","lat":"51.49404905948509","lng":"-0.14382030247492122","distance":"75","postalCode":"SW1V 1QA","cc":"GB","city":"London","state":"Greater London","country":"United Kingdom"},"categories":[{"id":"4bf58dd8d48988d1c4941735","name":"Restaurant","pluralName":"Restaurants","shortName":"Restaurant","icon":{"prefix":"https:\/\/ss1.4sqi.net\/img\/categories_v2\/food\/default_","suffix":".png"},"primary":"true"}],"verified":"false","restricted":"true","stats":{"checkinsCount":"37","usersCount":"23","tipCount":"2"},"url":"http:\/\/www.crimsonhotels.com\/doubletreelondonvictoria\/dining-en.html","reservations":{"url":"http:\/\/www.toptable.co.uk\/single.aspx?rid=87181&ref=9601"},"menu":{"type":"Menu","label":"Menu","anchor":"View Menu","url":"https:\/\/foursquare.com\/v\/2-bridge-place\/4ac518e3f964a520acaa20e3\/menu","mobileUrl":"https:\/\/foursquare.com\/v\/4ac518e3f964a520acaa20e3\/device_menu"},"specials":{"count":"0"},"hereNow":{"count":"0"},"referralId":"v-1392478066"},{"id":"4f64820fe4b02cbb7f075543","name":"London Victoria to Streatham Hill train","location":{"lat":"51.494918","lng":"-0.143659","distance":"91","cc":"GB","country":"United Kingdom"},"categories":[{"id":"4f2a23984b9023bd5841ed2c","name":"Moving Target","pluralName":"Moving Targets","shortName":"Moving Target","icon":{"prefix":"https:\/\/ss1.4sqi.net\/img\/categories_v2\/travel\/movingtarget_","suffix":".png"},"primary":"true"}],"verified":"false","restricted":"true","stats":{"checkinsCount":"261","usersCount":"25","tipCount":"0"},"specials":{"count":"0"},"hereNow":{"count":"0"},"referralId":"v-1392478066"},{"id":"4c85f18ed34ca14321904b80","name":"A Piece Of Cake","location":{"address":"Victoria Station","lat":"51.49416227669124","lng":"-0.14387548450913046","distance":"75","postalCode":"W1","cc":"GB","city":"London","state":"Greater London","country":"United Kingdom"},"categories":[{"id":"4bf58dd8d48988d16a941735","name":"Bakery","pluralName":"Bakeries","shortName":"Bakery","icon":{"prefix":"https:\/\/ss1.4sqi.net\/img\/categories_v2\/food\/bakery_","suffix":".png"},"primary":"true"}],"verified":"false","restricted":"true","stats":{"checkinsCount":"313","usersCount":"69","tipCount":"0"},"specials":{"count":"0"},"hereNow":{"count":"0"},"referralId":"v-1392478066"},{"id":"4f2f85d2e4b0d411bd310162","name":"Costa Coffee (Victoria Station Platform 9)","location":{"lat":"51.49471104566448","lng":"-0.14388627678013197","distance":"88","cc":"GB","country":"United Kingdom"},"categories":[{"id":"4bf58dd8d48988d1e0931735","name":"Coffee Shop","pluralName":"Coffee Shops","shortName":"Coffee Shop","icon":{"prefix":"https:\/\/ss1.4sqi.net\/img\/categories_v2\/food\/coffeeshop_","suffix":".png"},"primary":"true"}],"verified":"false","restricted":"true","stats":{"checkinsCount":"207","usersCount":"136","tipCount":"3"},"specials":{"count":"0"},"hereNow":{"count":"0"},"referralId":"v-1392478066"},{"id":"5118eec1e4b04e9f78b60559","name":"Wilton Grill","contact":{"phone":"+442078346358","formattedPhone":"+44 20 7834 6358"},"location":{"address":"25 Gillingham St.","crossStreet":"Wilton Rd.","lat":"51.493742872575815","lng":"-0.14182100057512376","distance":"91","postalCode":"SW1V 1HN","cc":"GB","city":"Victoria","state":"Greater London","country":"United Kingdom"},"categories":[{"id":"4f04af1f2fb6e1c99f3db0bb","name":"Turkish Restaurant","pluralName":"Turkish Restaurants","shortName":"Turkish","icon":{"prefix":"https:\/\/ss1.4sqi.net\/img\/categories_v2\/food\/turkish_","suffix":".png"},"primary":"true"}],"verified":"false","restricted":"true","stats":{"checkinsCount":"39","usersCount":"31","tipCount":"2"},"specials":{"count":"0"},"hereNow":{"count":"0"},"referralId":"v-1392478066"},{"id":"4c7e1dc2d461a143db107ff5","name":"Draftfcb London Account Management","location":{"address":"1st Floor 84 Eccleston Sq","lat":"51.494257","lng":"-0.142994","distance":"13","postalCode":"SW1V1PX","cc":"GB","city":"London","state":"Greater London","country":"United Kingdom"},"verified":"false","restricted":"true","stats":{"checkinsCount":"24","usersCount":"2","tipCount":"0"},"specials":{"count":"0"},"hereNow":{"count":"0"},"referralId":"v-1392478066"},{"id":"520df2a611d2f2d843478bf3","name":"Three","location":{"address":"Victoria Station","lat":"51.494238","lng":"-0.14383","distance":"71","postalCode":"London","cc":"GB","city":"London","country":"United Kingdom"},"categories":[{"id":"4f04afc02fb6e1c99f3db0bc","name":"Mobile Phone Shop","pluralName":"Mobile Phone Shops","shortName":"Mobile Phone","icon":{"prefix":"https:\/\/ss1.4sqi.net\/img\/categories_v2\/shops\/mobilephoneshop_","suffix":".png"},"primary":"true"}],"verified":"false","restricted":"true","stats":{"checkinsCount":"2","usersCount":"2","tipCount":"0"},"specials":{"count":"0"},"hereNow":{"count":"0"},"referralId":"v-1392478066"},{"id":"4e57caed2fb6cfb3a2c4b11a","name":"Blacks","contact":{"phone":"+442078346007","formattedPhone":"+44 20 7834 6007"},"location":{"address":"27 Buckingham Palace Road","lat":"51.49455153687782","lng":"-0.14388569486138297","distance":"80","postalCode":"SW1W 0PP","cc":"GB","city":"London","state":"Greater London","country":"United Kingdom"},"categories":[{"id":"4bf58dd8d48988d1f2941735","name":"Sporting Goods Shop","pluralName":"Sporting Goods Shops","shortName":"Sporting Goods","icon":{"prefix":"https:\/\/ss1.4sqi.net\/img\/categories_v2\/shops\/sports_outdoors_","suffix":".png"},"primary":"true"}],"verified":"true","restricted":"true","stats":{"checkinsCount":"50","usersCount":"18","tipCount":"1"},"url":"http:\/\/www.blacks.co.uk","specials":{"count":"0"},"hereNow":{"count":"0"},"storeId":"5297","referralId":"v-1392478066"},{"id":"50da22c4e4b0be098804c1db","name":"Gym At Park Plaza Victoria Hotel London","contact":{"phone":"+442077699999","formattedPhone":"+44 20 7769 9999"},"location":{"address":"239 Vauxhall Bridge Road","lat":"51.49412316413798","lng":"-0.14167368636697214","distance":"80","postalCode":"SW1V 1EQ","cc":"GB","city":"London","state":"Greater London","country":"United Kingdom"},"categories":[{"id":"4bf58dd8d48988d176941735","name":"Gym","pluralName":"Gyms","shortName":"Gym","icon":{"prefix":"https:\/\/ss1.4sqi.net\/img\/categories_v2\/building\/gym_","suffix":".png"},"primary":"true"}],"verified":"false","restricted":"true","stats":{"checkinsCount":"36","usersCount":"10","tipCount":"0"},"specials":{"count":"0"},"hereNow":{"count":"0"},"referralId":"v-1392478066"}],"confident":"true"}}