{"meta":{"code":"200"},"response":{"venues":[{"id":"4d5574b2fb65236aaab7f9b3","name":"Prince of Wales Drive","location":{"address":"Battersea Park","lat":"51.47503451477104","lng":"-0.16499658634537123","distance":"173","postalCode":"SW11","cc":"GB","city":"London","state":"Greater London","country":"United Kingdom"},"categories":[{"id":"4bf58dd8d48988d162941735","name":"Other Great Outdoors","pluralName":"Other Great Outdoors","shortName":"Other Outdoors","icon":{"prefix":"https:\/\/ss1.4sqi.net\/img\/categories_v2\/parks_outdoors\/outdoors_","suffix":".png"},"primary":"true"}],"verified":"false","restricted":"true","stats":{"checkinsCount":"963","usersCount":"128","tipCount":"2"},"specials":{"count":"0"},"hereNow":{"count":"0"},"referralId":"v-1392478116"},{"id":"4b4393cbf964a5209ae325e3","name":"The Lighthouse","contact":{"twitter":"lighthousesw11"},"location":{"address":"441 Battersea Park Rd","lat":"51.472823585353815","lng":"-0.16262635628680888","distance":"163","postalCode":"SW11 4LR","cc":"GB","city":"London","state":"Greater London","country":"United Kingdom"},"categories":[{"id":"4bf58dd8d48988d11b941735","name":"Pub","pluralName":"Pubs","shortName":"Pub","icon":{"prefix":"https:\/\/ss1.4sqi.net\/img\/categories_v2\/nightlife\/pub_","suffix":".png"},"primary":"true"}],"verified":"false","restricted":"true","stats":{"checkinsCount":"1079","usersCount":"400","tipCount":"18"},"url":"http:\/\/www.thelighthousebattersea.com","reservations":{"url":"http:\/\/www.toptable.co.uk\/single.aspx?rid=67525&ref=9601"},"menu":{"type":"Menu","label":"Menu","anchor":"View Menu","url":"https:\/\/foursquare.com\/v\/the-lighthouse\/4b4393cbf964a5209ae325e3\/menu","mobileUrl":"https:\/\/foursquare.com\/v\/4b4393cbf964a5209ae325e3\/device_menu"},"specials":{"count":"0"},"hereNow":{"count":"0"},"referralId":"v-1392478116"},{"id":"4aeae6d6f964a52086bc21e3","name":"Prince of Wales","contact":{"phone":"+442072280395","formattedPhone":"+44 20 7228 0395"},"location":{"address":"186 Battersea Bridge Rd.","lat":"51.474694","lng":"-0.166508","distance":"260","postalCode":"SW11 3AE","cc":"GB","city":"London","state":"Greater London","country":"United Kingdom"},"categories":[{"id":"4bf58dd8d48988d11b941735","name":"Pub","pluralName":"Pubs","shortName":"Pub","icon":{"prefix":"https:\/\/ss1.4sqi.net\/img\/categories_v2\/nightlife\/pub_","suffix":".png"},"primary":"true"}],"verified":"false","restricted":"true","stats":{"checkinsCount":"736","usersCount":"252","tipCount":"11"},"menu":{"type":"Menu","label":"Menu","anchor":"View Menu","url":"https:\/\/foursquare.com\/v\/prince-of-wales\/4aeae6d6f964a52086bc21e3\/menu","mobileUrl":"https:\/\/foursquare.com\/v\/4aeae6d6f964a52086bc21e3\/device_menu"},"specials":{"count":"0"},"hereNow":{"count":"0"},"referralId":"v-1392478116"},{"id":"4bb4f358c29a95219dffa735","name":"Duke Of Cambridge","contact":{"phone":"+442072235662","formattedPhone":"+44 20 7223 5662"},"location":{"address":"228 Battersea Bridge Rd.","crossStreet":"corner of Banbury St.","lat":"51.47292990732509","lng":"-0.16596436500549316","distance":"266","postalCode":"SW11 3AA","cc":"GB","city":"London","state":"Greater London","country":"United Kingdom"},"categories":[{"id":"4bf58dd8d48988d11b941735","name":"Pub","pluralName":"Pubs","shortName":"Pub","icon":{"prefix":"https:\/\/ss1.4sqi.net\/img\/categories_v2\/nightlife\/pub_","suffix":".png"},"primary":"true"}],"verified":"false","restricted":"true","stats":{"checkinsCount":"720","usersCount":"298","tipCount":"10"},"menu":{"type":"Menu","label":"Menu","anchor":"View Menu","url":"https:\/\/foursquare.com\/v\/duke-of-cambridge\/4bb4f358c29a95219dffa735\/menu","mobileUrl":"https:\/\/foursquare.com\/v\/4bb4f358c29a95219dffa735\/device_menu"},"specials":{"count":"0"},"hereNow":{"count":"0"},"referralId":"v-1392478116"},{"id":"4fed68abe4b00a5fd3941c76","name":"Battersea","location":{"address":"Everywhere!","lat":"51.472457398597605","lng":"-0.16534436247885426","distance":"269","cc":"GB","city":"London","state":"Greater London","country":"United Kingdom"},"categories":[{"id":"4f2a25ac4b909258e854f55f","name":"Neighborhood","pluralName":"Neighborhoods","shortName":"Neighborhood","icon":{"prefix":"https:\/\/ss1.4sqi.net\/img\/categories_v2\/parks_outdoors\/neighborhood_","suffix":".png"},"primary":"true"}],"verified":"false","restricted":"true","stats":{"checkinsCount":"809","usersCount":"332","tipCount":"2"},"specials":{"count":"0"},"hereNow":{"count":"0"},"referralId":"v-1392478116"},{"id":"4e1ee38662e19e27e24de8eb","name":"Caffettino","contact":{"phone":"+442077203833","formattedPhone":"+44 20 7720 3833"},"location":{"address":"230-232 Battersea Park Rd.","lat":"51.472931","lng":"-0.16194909811019897","distance":"162","postalCode":"SW11 4ND","cc":"GB","city":"London","state":"Greater London","country":"United Kingdom"},"categories":[{"id":"4bf58dd8d48988d16d941735","name":"Caf\u00e9","pluralName":"Caf\u00e9s","shortName":"Caf\u00e9","icon":{"prefix":"https:\/\/ss1.4sqi.net\/img\/categories_v2\/food\/cafe_","suffix":".png"},"primary":"true"}],"verified":"false","restricted":"true","stats":{"checkinsCount":"256","usersCount":"85","tipCount":"10"},"specials":{"count":"0"},"hereNow":{"count":"0"},"referralId":"v-1392478116"},{"id":"4acddb7cf964a52049cd20e3","name":"3B Digital headquarters","contact":{"phone":"+448444140906","formattedPhone":"+44 844 414 0906"},"location":{"address":"Unit 5 Dovedale Studios, 465 Battersea Park Road","lat":"51.472301514304284","lng":"-0.1634779682312245","distance":"226","postalCode":"SW11 4LR","cc":"GB","city":"London","state":"Greater London","country":"United Kingdom"},"categories":[{"id":"4bf58dd8d48988d124941735","name":"Office","pluralName":"Offices","shortName":"Office","icon":{"prefix":"https:\/\/ss1.4sqi.net\/img\/categories_v2\/building\/default_","suffix":".png"},"primary":"true"}],"verified":"true","restricted":"true","stats":{"checkinsCount":"1198","usersCount":"42","tipCount":"9"},"url":"http:\/\/www.3bweb.com","specials":{"count":"0"},"hereNow":{"count":"0"},"venuePage":{"id":"58382332"},"storeId":"","referralId":"v-1392478116"},{"id":"4e0e05d462843e04afa7207e","name":"TfL Bus 319","location":{"address":"Moving Target!","lat":"51.47191463844573","lng":"-0.16513556563284917","distance":"309","cc":"GB","city":"London","state":"Greater London","country":"United Kingdom"},"categories":[{"id":"4bf58dd8d48988d12b951735","name":"Bus Line","pluralName":"Bus Lines","shortName":"Bus","icon":{"prefix":"https:\/\/ss1.4sqi.net\/img\/categories_v2\/travel\/busstation_","suffix":".png"},"primary":"true"}],"verified":"false","restricted":"true","stats":{"checkinsCount":"502","usersCount":"99","tipCount":"3"},"specials":{"count":"0"},"hereNow":{"count":"0"},"referralId":"v-1392478116"},{"id":"4edb7a2029c2b91229b21f76","name":"Latchmere Bus Stop LB","location":{"lat":"51.47469758313296","lng":"-0.16519764048993818","distance":"172","cc":"GB","country":"United Kingdom"},"categories":[{"id":"4bf58dd8d48988d12b951735","name":"Bus Line","pluralName":"Bus Lines","shortName":"Bus","icon":{"prefix":"https:\/\/ss1.4sqi.net\/img\/categories_v2\/travel\/busstation_","suffix":".png"},"primary":"true"}],"verified":"false","restricted":"true","stats":{"checkinsCount":"55","usersCount":"11","tipCount":"0"},"specials":{"count":"0"},"hereNow":{"count":"0"},"referralId":"v-1392478116"},{"id":"4ac518e8f964a52086ab20e3","name":"Theatre 503","contact":{"phone":"+442079787040","formattedPhone":"+44 20 7978 7040","twitter":"theatre503"},"location":{"address":"503 Battersea Park Rd.","lat":"51.472095251083374","lng":"-0.165463","distance":"306","postalCode":"SW11 3BW","cc":"GB","city":"London","state":"Greater London","country":"United Kingdom"},"categories":[{"id":"4bf58dd8d48988d137941735","name":"Theater","pluralName":"Theaters","shortName":"Theater","icon":{"prefix":"https:\/\/ss1.4sqi.net\/img\/categories_v2\/arts_entertainment\/performingarts_theater_","suffix":".png"},"primary":"true"}],"verified":"false","restricted":"true","stats":{"checkinsCount":"253","usersCount":"142","tipCount":"3"},"url":"http:\/\/www.theatre503.com","specials":{"count":"0"},"hereNow":{"count":"0"},"referralId":"v-1392478116"},{"id":"4ad06911f964a520fcd720e3","name":"The Latchmere","location":{"address":"503 Battersea Park Road","crossStreet":"Latchmere Road","lat":"51.472138","lng":"-0.165415","distance":"300","postalCode":"SW11 3BW","cc":"GB","city":"London","state":"Greater London","country":"United Kingdom"},"categories":[{"id":"4bf58dd8d48988d11b941735","name":"Pub","pluralName":"Pubs","shortName":"Pub","icon":{"prefix":"https:\/\/ss1.4sqi.net\/img\/categories_v2\/nightlife\/pub_","suffix":".png"},"primary":"true"}],"verified":"false","restricted":"true","stats":{"checkinsCount":"480","usersCount":"258","tipCount":"3"},"specials":{"count":"0"},"hereNow":{"count":"0"},"referralId":"v-1392478116"},{"id":"4d31b12ef8c9224beb62a9d2","name":"Battersea Park Adventure Playground","location":{"address":"Off Prince of Wales \/ Albert Bridge Rd","lat":"51.476052868242704","lng":"-0.1614373299369366","distance":"217","cc":"GB","city":"Wandsworth","state":"Greater London","country":"United Kingdom"},"categories":[{"id":"4bf58dd8d48988d1e7941735","name":"Playground","pluralName":"Playgrounds","shortName":"Playground","icon":{"prefix":"https:\/\/ss1.4sqi.net\/img\/categories_v2\/parks_outdoors\/playground_","suffix":".png"},"primary":"true"}],"verified":"false","restricted":"true","stats":{"checkinsCount":"155","usersCount":"120","tipCount":"1"},"specials":{"count":"0"},"hereNow":{"count":"0"},"referralId":"v-1392478116"},{"id":"4ca6e67cd971b1f765f304e1","name":"Battersea Park All Weather Pitches","location":{"address":"Battersea Park","lat":"51.47625114982365","lng":"-0.15964508056640625","distance":"309","postalCode":"SW11 4NJ","cc":"GB","city":"London","state":"Greater London","country":"United Kingdom"},"categories":[{"id":"4cce455aebf7b749d5e191f5","name":"Soccer Field","pluralName":"Soccer Fields","shortName":"Soccer Field","icon":{"prefix":"https:\/\/ss1.4sqi.net\/img\/categories_v2\/arts_entertainment\/stadium_soccer_","suffix":".png"},"primary":"true"}],"verified":"false","restricted":"true","stats":{"checkinsCount":"192","usersCount":"93","tipCount":"1"},"specials":{"count":"0"},"hereNow":{"count":"0"},"referralId":"v-1392478116"},{"id":"4c8cf23e8018a1cdd4dbf0d2","name":"Cornners","location":{"lat":"51.47356690794322","lng":"-0.16043735765970343","distance":"182","cc":"GB","country":"United Kingdom"},"categories":[{"id":"4bf58dd8d48988d118951735","name":"Grocery Store","pluralName":"Grocery Stores","shortName":"Grocery Store","icon":{"prefix":"https:\/\/ss1.4sqi.net\/img\/categories_v2\/shops\/food_grocery_","suffix":".png"},"primary":"true"}],"verified":"false","restricted":"true","stats":{"checkinsCount":"26","usersCount":"6","tipCount":"1"},"specials":{"count":"0"},"hereNow":{"count":"0"},"referralId":"v-1392478116"},{"id":"4be85066c5220f473c96a9ca","name":"Holy Cow","contact":{"phone":"+442086738000","formattedPhone":"+44 20 8673 8000"},"location":{"address":"166 Battersea Park Rd","lat":"51.4737853007457","lng":"-0.1598811149597168","distance":"210","postalCode":"SW11 4ND","cc":"GB","city":"Wandsworth","state":"Greater London","country":"United Kingdom"},"categories":[{"id":"4bf58dd8d48988d10f941735","name":"Indian Restaurant","pluralName":"Indian Restaurants","shortName":"Indian","icon":{"prefix":"https:\/\/ss1.4sqi.net\/img\/categories_v2\/food\/indian_","suffix":".png"},"primary":"true"}],"verified":"false","restricted":"true","stats":{"checkinsCount":"42","usersCount":"27","tipCount":"2"},"specials":{"count":"0"},"hereNow":{"count":"0"},"referralId":"v-1392478116"},{"id":"4e0e423862843e04afa9db0f","name":"Bangkok Bay Battersea","contact":{"phone":"+442072235924","formattedPhone":"+44 20 7223 5924"},"location":{"address":"246 Battersea Park Road","lat":"51.472174741990735","lng":"-0.16563177108764648","distance":"306","postalCode":"SW11 3BP","cc":"GB","city":"Wandsworth","state":"Greater London","country":"United Kingdom"},"categories":[{"id":"4bf58dd8d48988d149941735","name":"Thai Restaurant","pluralName":"Thai Restaurants","shortName":"Thai","icon":{"prefix":"https:\/\/ss1.4sqi.net\/img\/categories_v2\/food\/thai_","suffix":".png"},"primary":"true"}],"verified":"true","restricted":"true","stats":{"checkinsCount":"112","usersCount":"61","tipCount":"12"},"url":"http:\/\/www.bangkokbay.co.uk","menu":{"type":"Menu","label":"Menu","anchor":"View Menu","url":"https:\/\/foursquare.com\/v\/bangkok-bay-battersea\/4e0e423862843e04afa9db0f\/menu","mobileUrl":"https:\/\/foursquare.com\/v\/4e0e423862843e04afa9db0f\/device_menu"},"specials":{"count":"1","items":[{"id":"4f57d7df6b747b0e9bf151b7","type":"frequency","message":"Special Offer: free portion of Prawn Crackers per table!","description":"Unlocked every check-in","finePrint":"One portion per table only and cannot be used in conjunction with any other offer, such as TasteCard or Gourmet Society etc.","icon":"check-in","title":"Check-in Special","provider":"foursquare","redemption":"standard"}]},"hereNow":{"count":"0"},"venuePage":{"id":"38480909"},"storeId":"","referralId":"v-1392478116"},{"id":"4e2aeea1d4c0e5c89abe849c","name":"Latchmere Bus Stop LS","location":{"address":"Battersea Park Road","crossStreet":"Latchmere Street","lat":"51.47467757056268","lng":"-0.16531770323105754","distance":"179","cc":"GB","city":"Wandsworth","state":"Greater London","country":"United Kingdom"},"categories":[{"id":"4bf58dd8d48988d1fe931735","name":"Bus Station","pluralName":"Bus Stations","shortName":"Bus Station","icon":{"prefix":"https:\/\/ss1.4sqi.net\/img\/categories_v2\/travel\/busstation_","suffix":".png"},"primary":"true"}],"verified":"false","restricted":"true","stats":{"checkinsCount":"282","usersCount":"27","tipCount":"2"},"specials":{"count":"0"},"hereNow":{"count":"0"},"referralId":"v-1392478116"},{"id":"4c4b102042b4d13a9a54257e","name":"The Belmont Works Candle Shop","location":{"lat":"51.473337","lng":"-0.162914","distance":"106","cc":"GB","country":"United Kingdom"},"categories":[{"id":"4bf58dd8d48988d1f8941735","name":"Furniture \/ Home Store","pluralName":"Furniture \/ Home Stores","shortName":"Furniture \/ Home","icon":{"prefix":"https:\/\/ss1.4sqi.net\/img\/categories_v2\/shops\/furniture_","suffix":".png"},"primary":"true"}],"verified":"false","restricted":"true","stats":{"checkinsCount":"4","usersCount":"3","tipCount":"0"},"specials":{"count":"0"},"hereNow":{"count":"0"},"referralId":"v-1392478116"},{"id":"4f22723ce4b06176423413af","name":"2e Accountants","location":{"lat":"51.47479","lng":"-0.164217","distance":"112","cc":"GB","country":"United Kingdom"},"verified":"false","restricted":"true","stats":{"checkinsCount":"1","usersCount":"1","tipCount":"0"},"specials":{"count":"0"},"hereNow":{"count":"0"},"referralId":"v-1392478116"},{"id":"4f2fda51e4b0d337d65e7e2f","name":"Pret A Porter Dry Cleaners","location":{"lat":"51.47334068434392","lng":"-0.1634728593602662","distance":"115","cc":"GB","country":"United Kingdom"},"verified":"false","restricted":"true","stats":{"checkinsCount":"1","usersCount":"1","tipCount":"0"},"specials":{"count":"0"},"hereNow":{"count":"0"},"referralId":"v-1392478116"},{"id":"4cbd4f84f50e224b3eeb03fc","name":"Battersea Preventative Dental Practice","location":{"lat":"51.472684","lng":"-0.165568","distance":"262","postalCode":"Sw11 4pr","cc":"GB","city":"Wandsworth","state":"Greater London","country":"United Kingdom"},"categories":[{"id":"4bf58dd8d48988d178941735","name":"Dentist's Office","pluralName":"Dentist's Offices","shortName":"Dentist's Office","icon":{"prefix":"https:\/\/ss1.4sqi.net\/img\/categories_v2\/building\/medical_dentist_","suffix":".png"},"primary":"true"}],"verified":"false","restricted":"true","stats":{"checkinsCount":"26","usersCount":"12","tipCount":"0"},"specials":{"count":"0"},"hereNow":{"count":"0"},"referralId":"v-1392478116"},{"id":"50c24fc6e4b0e77d29149a16","name":"Life Is Not Enough","location":{"address":"16 Broadway Market","lat":"51.4730981","lng":"-0.1632654","distance":"136","cc":"GB","city":"London","state":"Greater London","country":"United Kingdom"},"categories":[{"id":"4bf58dd8d48988d1e2931735","name":"Art Gallery","pluralName":"Art Galleries","shortName":"Art Gallery","icon":{"prefix":"https:\/\/ss1.4sqi.net\/img\/categories_v2\/arts_entertainment\/artgallery_","suffix":".png"},"primary":"true"}],"verified":"false","restricted":"true","stats":{"checkinsCount":"2","usersCount":"2","tipCount":"0"},"specials":{"count":"0"},"hereNow":{"count":"0"},"referralId":"v-1392478116"},{"id":"4f591a69e4b0b09e323e0f9d","name":"Two and a half men","location":{"lat":"51.47397994995117","lng":"-0.164676696062088","distance":"134","cc":"GB","country":"United Kingdom"},"categories":[{"id":"4bf58dd8d48988d1d4941735","name":"Speakeasy","pluralName":"Speakeasies","shortName":"Speakeasy","icon":{"prefix":"https:\/\/ss1.4sqi.net\/img\/categories_v2\/nightlife\/secretbar_","suffix":".png"},"primary":"true"}],"verified":"false","restricted":"true","stats":{"checkinsCount":"9","usersCount":"6","tipCount":"0"},"specials":{"count":"0"},"hereNow":{"count":"0"},"referralId":"v-1392478116"},{"id":"4b472f60f964a520852c26e3","name":"Newdlez & Co","contact":{"phone":"+442077208400","formattedPhone":"+44 20 7720 8400"},"location":{"address":"230-232 Battersea Park Road","lat":"51.473017","lng":"-0.162204","distance":"147","postalCode":"SW11 4ND","cc":"GB","city":"London","state":"Greater London","country":"United Kingdom"},"verified":"false","restricted":"true","stats":{"checkinsCount":"1","usersCount":"1","tipCount":"1"},"specials":{"count":"0"},"hereNow":{"count":"0"},"referralId":"v-1392478116"},{"id":"50fd297de4b0b777180abf89","name":"London Dental Implant","contact":{"phone":"+448005677439","formattedPhone":"+44 800 567 7439"},"location":{"address":"158-160 Battersea Park Road","lat":"51.47407462259103","lng":"-0.15935063194522028","distance":"240","postalCode":"SW11 4ND","cc":"GB","city":"London","state":"Greater London","country":"United Kingdom"},"categories":[{"id":"4bf58dd8d48988d178941735","name":"Dentist's Office","pluralName":"Dentist's Offices","shortName":"Dentist's Office","icon":{"prefix":"https:\/\/ss1.4sqi.net\/img\/categories_v2\/building\/medical_dentist_","suffix":".png"},"primary":"true"}],"verified":"true","restricted":"true","stats":{"checkinsCount":"16","usersCount":"5","tipCount":"0"},"specials":{"count":"0"},"hereNow":{"count":"0"},"venuePage":{"id":"48300546"},"storeId":"","referralId":"v-1392478116"},{"id":"4c24b49db012b713328a0893","name":"Rainford Hardware","location":{"address":"212 Battersea Park Road","lat":"51.473079","lng":"-0.16145","distance":"164","postalCode":"SW11 4ND","cc":"GB","city":"London","state":"Greater London","country":"United Kingdom"},"categories":[{"id":"4bf58dd8d48988d112951735","name":"Hardware Store","pluralName":"Hardware Stores","shortName":"Hardware","icon":{"prefix":"https:\/\/ss1.4sqi.net\/img\/categories_v2\/shops\/hardware_","suffix":".png"},"primary":"true"}],"verified":"false","restricted":"true","stats":{"checkinsCount":"3","usersCount":"2","tipCount":"1"},"specials":{"count":"0"},"hereNow":{"count":"0"},"referralId":"v-1392478116"},{"id":"5104161ae4b02656bddbca7f","name":"Find of London","location":{"address":"228 Battersea Park Road","lat":"51.473011","lng":"-0.161971","distance":"153","cc":"GB","country":"United Kingdom"},"categories":[{"id":"4bf58dd8d48988d104951735","name":"Boutique","pluralName":"Boutiques","shortName":"Boutique","icon":{"prefix":"https:\/\/ss1.4sqi.net\/img\/categories_v2\/shops\/apparel_boutique_","suffix":".png"},"primary":"true"}],"verified":"false","restricted":"true","stats":{"checkinsCount":"1","usersCount":"1","tipCount":"0"},"specials":{"count":"0"},"hereNow":{"count":"0"},"referralId":"v-1392478116"},{"id":"4c62f45c86b6be9a38598d34","name":"Chada Thai","contact":{"phone":"+442076222209","formattedPhone":"+44 20 7622 2209"},"location":{"address":"208-210 Battersea Park Road","lat":"51.47378188310444","lng":"-0.16123402668175438","distance":"122","postalCode":"SW11 4ND","cc":"GB","city":"London","state":"Greater London","country":"United Kingdom"},"categories":[{"id":"4bf58dd8d48988d149941735","name":"Thai Restaurant","pluralName":"Thai Restaurants","shortName":"Thai","icon":{"prefix":"https:\/\/ss1.4sqi.net\/img\/categories_v2\/food\/thai_","suffix":".png"},"primary":"true"}],"verified":"false","restricted":"true","stats":{"checkinsCount":"25","usersCount":"18","tipCount":"2"},"specials":{"count":"0"},"hereNow":{"count":"0"},"referralId":"v-1392478116"},{"id":"5265696a498e91bed20abf45","name":"Teamwork","location":{"address":"220 Battersea Park Road","lat":"51.473601","lng":"-0.160704","distance":"164","cc":"GB","country":"United Kingdom"},"categories":[{"id":"4bf58dd8d48988d110951735","name":"Salon \/ Barbershop","pluralName":"Salons \/ Barbershops","shortName":"Salon \/ Barbershop","icon":{"prefix":"https:\/\/ss1.4sqi.net\/img\/categories_v2\/shops\/salon_barber_","suffix":".png"},"primary":"true"}],"verified":"false","restricted":"true","stats":{"checkinsCount":"1","usersCount":"1","tipCount":"0"},"specials":{"count":"0"},"hereNow":{"count":"0"},"referralId":"v-1392478116"},{"id":"4c99db3e78fc236aa8223097","name":"Marshall Arts Concert Promotions","location":{"lat":"51.47283400401","lng":"-0.16261487979631997","distance":"162","cc":"GB","country":"United Kingdom"},"verified":"false","restricted":"true","stats":{"checkinsCount":"2","usersCount":"1","tipCount":"0"},"specials":{"count":"0"},"hereNow":{"count":"0"},"referralId":"v-1392478116"}],"confident":"true"}}