{"meta":{"code":"200"},"response":{"venues":[{"id":"4ac518d0f964a52091a620e3","name":"The Queen's Gallery, Buckingham Palace","contact":{"phone":"+442077667301","formattedPhone":"+44 20 7766 7301","twitter":"britishmonarchy"},"location":{"address":"Buckingham Palace Road","lat":"51.49984951087026","lng":"-0.14228189880026723","distance":"72","postalCode":"SW1A 1AA","cc":"GB","city":"London","state":"Greater London","country":"United Kingdom"},"categories":[{"id":"4bf58dd8d48988d1e2931735","name":"Art Gallery","pluralName":"Art Galleries","shortName":"Art Gallery","icon":{"prefix":"https:\/\/ss1.4sqi.net\/img\/categories_v2\/arts_entertainment\/artgallery_","suffix":".png"},"primary":"true"}],"verified":"true","restricted":"true","stats":{"checkinsCount":"1238","usersCount":"1040","tipCount":"3"},"url":"http:\/\/www.royalcollection.org.uk","specials":{"count":"0"},"hereNow":{"count":"1","groups":[{"type":"others","name":"Other people here","count":"1"}]},"referralId":"v-1392478053"},{"id":"4b54a6faf964a520f5c427e3","name":"The Phoenix","contact":{"phone":"+442078288136","formattedPhone":"+44 20 7828 8136","twitter":"thephoenix_w1"},"location":{"address":"14 Palace St","crossStreet":"near Buckingham Gate","lat":"51.49871831435579","lng":"-0.1420283317565918","distance":"83","postalCode":"SW1E 5JA","cc":"GB","city":"London","state":"Greater London","country":"United Kingdom"},"categories":[{"id":"4bf58dd8d48988d116941735","name":"Bar","pluralName":"Bars","shortName":"Bar","icon":{"prefix":"https:\/\/ss1.4sqi.net\/img\/categories_v2\/nightlife\/bar_","suffix":".png"},"primary":"true"}],"verified":"true","restricted":"true","stats":{"checkinsCount":"2196","usersCount":"1261","tipCount":"20"},"specials":{"count":"0"},"hereNow":{"count":"1","groups":[{"type":"others","name":"Other people here","count":"1"}]},"referralId":"v-1392478053"},{"id":"50080338e4b0b3c66239414f","name":"St. James Theatre","location":{"address":"Palace Street","lat":"51.49886456773942","lng":"-0.14197176175888904","distance":"74","cc":"GB","city":"London","state":"Greater London","country":"United Kingdom"},"categories":[{"id":"4bf58dd8d48988d137941735","name":"Theater","pluralName":"Theaters","shortName":"Theater","icon":{"prefix":"https:\/\/ss1.4sqi.net\/img\/categories_v2\/arts_entertainment\/performingarts_theater_","suffix":".png"},"primary":"true"}],"verified":"false","restricted":"true","stats":{"checkinsCount":"523","usersCount":"399","tipCount":"12"},"specials":{"count":"0"},"hereNow":{"count":"1","groups":[{"type":"others","name":"Other people here","count":"1"}]},"referralId":"v-1392478053"},{"id":"504c5761e4b09ab3b3d3a752","name":"Buckingham Palace Shop","location":{"lat":"51.499299806419806","lng":"-0.14313981802637515","distance":"23","cc":"GB","country":"United Kingdom"},"categories":[{"id":"4bf58dd8d48988d1ff941735","name":"Miscellaneous Shop","pluralName":"Miscellaneous Shops","shortName":"Shop","icon":{"prefix":"https:\/\/ss1.4sqi.net\/img\/categories_v2\/shops\/default_","suffix":".png"},"primary":"true"}],"verified":"false","restricted":"true","stats":{"checkinsCount":"93","usersCount":"90","tipCount":"0"},"specials":{"count":"0"},"hereNow":{"count":"0"},"referralId":"v-1392478053"},{"id":"4f01f30f0aaffcf6f6635464","name":"The Royal Mews, Buckingham Palace","contact":{"phone":"+442077667302","formattedPhone":"+44 20 7766 7302","twitter":"britishmonarchy"},"location":{"address":"Buckingham Palace Road","lat":"51.49890911166797","lng":"-0.14340223172251151","distance":"59","postalCode":"SW1W 1QH","cc":"GB","city":"London","state":"Greater London","country":"United Kingdom"},"categories":[{"id":"4deefb944765f83613cdba6e","name":"Historic Site","pluralName":"Historic Sites","shortName":"Historic Site","icon":{"prefix":"https:\/\/ss1.4sqi.net\/img\/categories_v2\/arts_entertainment\/historicsite_","suffix":".png"},"primary":"true"}],"verified":"true","restricted":"true","stats":{"checkinsCount":"1414","usersCount":"1175","tipCount":"7"},"url":"http:\/\/www.royalcollection.org.uk","specials":{"count":"0"},"hereNow":{"count":"0"},"referralId":"v-1392478053"},{"id":"4ac518b6f964a520d7a020e3","name":"The Rubens at The Palace","contact":{"phone":"440207834660","formattedPhone":"440207834660","twitter":"red_carnation","facebook":"129629770776"},"location":{"address":"39 Buckingham Palace Road","lat":"51.49856469605487","lng":"-0.1430797576904297","distance":"82","postalCode":"SW1W 0PS","cc":"GB","city":"London","state":"Greater London","country":"United Kingdom"},"categories":[{"id":"4bf58dd8d48988d1fa931735","name":"Hotel","pluralName":"Hotels","shortName":"Hotel","icon":{"prefix":"https:\/\/ss1.4sqi.net\/img\/categories_v2\/travel\/hotel_","suffix":".png"},"primary":"true"}],"verified":"true","restricted":"true","stats":{"checkinsCount":"1070","usersCount":"571","tipCount":"13"},"url":"http:\/\/www.rubenshotel.com","specials":{"count":"0"},"hereNow":{"count":"0"},"storeId":"","referralId":"v-1392478053"},{"id":"4bb8fad5cf2fc9b6a819a002","name":"Buckingham Palace Gardens","contact":{"phone":"+442077667300","formattedPhone":"+44 20 7766 7300","twitter":"britishmonarchy"},"location":{"address":"Buckingham Palace Road","lat":"51.50059508744448","lng":"-0.14453887939453125","distance":"188","postalCode":"SW1A 1AA","cc":"GB","city":"London","state":"Greater London","country":"United Kingdom"},"categories":[{"id":"4bf58dd8d48988d15a941735","name":"Garden","pluralName":"Gardens","shortName":"Garden","icon":{"prefix":"https:\/\/ss1.4sqi.net\/img\/categories_v2\/parks_outdoors\/garden_","suffix":".png"},"primary":"true"}],"verified":"true","restricted":"true","stats":{"checkinsCount":"4592","usersCount":"4193","tipCount":"18"},"url":"http:\/\/www.royalcollection.org.uk","specials":{"count":"0"},"hereNow":{"count":"0"},"storeId":"","referralId":"v-1392478053"},{"id":"4fb3ad09e4b01462aca4d8d3","name":"Nasi Ganja Ipoh","location":{"address":"Buckingham Palace Rd","lat":"51.499973664029774","lng":"-0.14227757000468763","distance":"84","cc":"GB","city":"London","state":"Greater London","country":"United Kingdom"},"categories":[{"id":"4bf58dd8d48988d142941735","name":"Asian Restaurant","pluralName":"Asian Restaurants","shortName":"Asian","icon":{"prefix":"https:\/\/ss1.4sqi.net\/img\/categories_v2\/food\/asian_","suffix":".png"},"primary":"true"}],"verified":"false","restricted":"true","stats":{"checkinsCount":"7","usersCount":"3","tipCount":"0"},"specials":{"count":"0"},"hereNow":{"count":"1","groups":[{"type":"others","name":"Other people here","count":"1"}]},"referralId":"v-1392478053"},{"id":"4e052166d1640223a48def09","name":"1 Palace Road","location":{"lat":"51.49909912089306","lng":"-0.1421053479495882","distance":"52","cc":"GB","city":"London","state":"Greater London","country":"United Kingdom"},"categories":[{"id":"4d954b06a243a5684965b473","name":"Residential Building (Apartment \/ Condo)","pluralName":"Residential Buildings (Apartments \/ Condos)","shortName":"Residential","icon":{"prefix":"https:\/\/ss1.4sqi.net\/img\/categories_v2\/building\/apartment_","suffix":".png"},"primary":"true"}],"verified":"false","restricted":"true","stats":{"checkinsCount":"10","usersCount":"6","tipCount":"0"},"specials":{"count":"0"},"hereNow":{"count":"0"},"referralId":"v-1392478053"},{"id":"4c55880b06901b8def29a34d","name":"Pronto A Mangia","location":{"address":"9-11 Buckingham Palace Road","lat":"51.498956","lng":"-0.1434193","distance":"56","postalCode":"SW1W 0PP","cc":"GB","city":"London","state":"Greater London","country":"United Kingdom"},"categories":[{"id":"4bf58dd8d48988d110941735","name":"Italian Restaurant","pluralName":"Italian Restaurants","shortName":"Italian","icon":{"prefix":"https:\/\/ss1.4sqi.net\/img\/categories_v2\/food\/italian_","suffix":".png"},"primary":"true"}],"verified":"false","restricted":"true","stats":{"checkinsCount":"151","usersCount":"138","tipCount":"1"},"specials":{"count":"0"},"hereNow":{"count":"0"},"referralId":"v-1392478053"},{"id":"4ac518bef964a520f5a220e3","name":"Bag O'Nails","contact":{"phone":"+442078287003","formattedPhone":"+44 20 7828 7003"},"location":{"address":"6 Buckingham Palace Rd.","lat":"51.49802089387024","lng":"-0.14383523861748054","distance":"158","postalCode":"SW1W 0PP","cc":"GB","city":"London","state":"Greater London","country":"United Kingdom"},"categories":[{"id":"4bf58dd8d48988d11b941735","name":"Pub","pluralName":"Pubs","shortName":"Pub","icon":{"prefix":"https:\/\/ss1.4sqi.net\/img\/categories_v2\/nightlife\/pub_","suffix":".png"},"primary":"true"}],"verified":"false","restricted":"true","stats":{"checkinsCount":"919","usersCount":"791","tipCount":"15"},"specials":{"count":"0"},"hereNow":{"count":"0"},"referralId":"v-1392478053"},{"id":"4ac518c1f964a520d8a320e3","name":"BBar","contact":{"phone":"+442079587000","formattedPhone":"+44 20 7958 7000","twitter":"red_carnation","facebook":"129629770776"},"location":{"address":"43 Buckingham Palace Rd","lat":"51.49810286405834","lng":"-0.14372083764256974","distance":"146","postalCode":"SW1W 0PP","cc":"GB","city":"London","state":"Greater London","country":"United Kingdom"},"categories":[{"id":"4bf58dd8d48988d11e941735","name":"Cocktail Bar","pluralName":"Cocktail Bars","shortName":"Cocktail","icon":{"prefix":"https:\/\/ss1.4sqi.net\/img\/categories_v2\/nightlife\/cocktails_","suffix":".png"},"primary":"true"}],"verified":"true","restricted":"true","stats":{"checkinsCount":"579","usersCount":"466","tipCount":"9"},"url":"http:\/\/www.bbarlondon.com","reservations":{"url":"http:\/\/www.toptable.co.uk\/single.aspx?rid=72829&ref=9601"},"menu":{"type":"Menu","label":"Menu","anchor":"View Menu","url":"https:\/\/foursquare.com\/v\/bbar-london-greater-london\/4ac518c1f964a520d8a320e3\/menu","mobileUrl":"https:\/\/foursquare.com\/v\/4ac518c1f964a520d8a320e3\/device_menu"},"specials":{"count":"0"},"hereNow":{"count":"0"},"storeId":"","referralId":"v-1392478053"},{"id":"4b01241af964a520c64122e3","name":"Department for Communities and Local Government","contact":{"phone":"+443034440000","formattedPhone":"+44 303 444 0000","twitter":"communitiesuk"},"location":{"address":"Eland House, Bressenden Place","lat":"51.49777128674482","lng":"-0.1422311709355822","distance":"173","postalCode":"SW1E 5DU","cc":"GB","city":"Victoria","state":"Greater London","country":"United Kingdom"},"categories":[{"id":"4bf58dd8d48988d126941735","name":"Government Building","pluralName":"Government Buildings","shortName":"Government","icon":{"prefix":"https:\/\/ss1.4sqi.net\/img\/categories_v2\/building\/government_","suffix":".png"},"primary":"true"}],"verified":"true","restricted":"true","stats":{"checkinsCount":"452","usersCount":"154","tipCount":"6"},"url":"http:\/\/www.gov.uk\/dclg","specials":{"count":"0"},"hereNow":{"count":"0"},"venuePage":{"id":"43603781"},"storeId":"","referralId":"v-1392478053"},{"id":"4e672378d4c0d52245f67e80","name":"Mfuse Limited","contact":{"phone":"+442071542070","formattedPhone":"+44 20 7154 2070","twitter":"mfuselimited"},"location":{"address":"7th Floor, Portland House, Bressenden Place","crossStreet":"Portland House","lat":"51.49722591575022","lng":"-0.14327392080407184","distance":"231","postalCode":"SW1E 5BH","cc":"GB","city":"London","state":"Greater London","country":"United Kingdom"},"categories":[{"id":"4bf58dd8d48988d124941735","name":"Office","pluralName":"Offices","shortName":"Office","icon":{"prefix":"https:\/\/ss1.4sqi.net\/img\/categories_v2\/building\/default_","suffix":".png"},"primary":"true"}],"verified":"true","restricted":"true","stats":{"checkinsCount":"685","usersCount":"18","tipCount":"1"},"url":"http:\/\/www.mfuse.com","specials":{"count":"0"},"hereNow":{"count":"0"},"venuePage":{"id":"39493261"},"storeId":"","referralId":"v-1392478053"},{"id":"5235dbb4498ebc8884277a64","name":"St James Studio downstairs St James Theatre","location":{"lat":"51.49864242306792","lng":"-0.14177126786140537","distance":"101","cc":"GB","country":"United Kingdom"},"categories":[{"id":"4bf58dd8d48988d121941735","name":"Lounge","pluralName":"Lounges","shortName":"Lounge","icon":{"prefix":"https:\/\/ss1.4sqi.net\/img\/categories_v2\/nightlife\/lounge_","suffix":".png"},"primary":"true"}],"verified":"false","restricted":"true","stats":{"checkinsCount":"9","usersCount":"4","tipCount":"0"},"specials":{"count":"0"},"hereNow":{"count":"0"},"referralId":"v-1392478053"},{"id":"4b66e233f964a520b12e2be3","name":"Buckingham Coffee Lounge","contact":{"phone":"+442078282665","formattedPhone":"+44 20 7828 2665"},"location":{"address":"19-21 Palace Street","lat":"51.498634390295","lng":"-0.1412664205509657","distance":"129","postalCode":"SW1E 5HS","cc":"GB","city":"London","state":"Greater London","country":"United Kingdom"},"categories":[{"id":"4bf58dd8d48988d16d941735","name":"Caf\u00e9","pluralName":"Caf\u00e9s","shortName":"Caf\u00e9","icon":{"prefix":"https:\/\/ss1.4sqi.net\/img\/categories_v2\/food\/cafe_","suffix":".png"},"primary":"true"}],"verified":"true","restricted":"true","stats":{"checkinsCount":"202","usersCount":"56","tipCount":"3"},"url":"http:\/\/www.buckinghamcoffeelounge.co.uk","specials":{"count":"0"},"hereNow":{"count":"0"},"venuePage":{"id":"71511628"},"referralId":"v-1392478053"},{"id":"52d03a22498e2e8c3aad8d9e","name":"Carrera","location":{"lat":"51.499061584472656","lng":"-0.1431397795677185","distance":"34","cc":"GB","country":"United Kingdom"},"categories":[{"id":"4bf58dd8d48988d1c4941735","name":"Restaurant","pluralName":"Restaurants","shortName":"Restaurant","icon":{"prefix":"https:\/\/ss1.4sqi.net\/img\/categories_v2\/food\/default_","suffix":".png"},"primary":"true"}],"verified":"false","restricted":"true","stats":{"checkinsCount":"1","usersCount":"1","tipCount":"0"},"specials":{"count":"0"},"hereNow":{"count":"0"},"referralId":"v-1392478053"},{"id":"4c5167d8991c20a1102cb687","name":"Le Signore Snack Bar","contact":{"phone":"+442078347119","formattedPhone":"+44 20 7834 7119"},"location":{"address":"7 Palace Street","lat":"51.499086","lng":"-0.142967","distance":"25","postalCode":"SW1","cc":"GB","city":"Victoria","state":"Greater London","country":"United Kingdom"},"categories":[{"id":"4bf58dd8d48988d16d941735","name":"Caf\u00e9","pluralName":"Caf\u00e9s","shortName":"Caf\u00e9","icon":{"prefix":"https:\/\/ss1.4sqi.net\/img\/categories_v2\/food\/cafe_","suffix":".png"},"primary":"true"}],"verified":"false","restricted":"true","stats":{"checkinsCount":"82","usersCount":"39","tipCount":"3"},"specials":{"count":"0"},"hereNow":{"count":"0"},"referralId":"v-1392478053"},{"id":"521b181611d28ea521af074e","name":"italia nel mondo","location":{"address":"Palace Street 6","lat":"51.499149322509766","lng":"-0.14270760118961334","distance":"16","cc":"GB","city":"London","state":"Greater London","country":"United Kingdom"},"categories":[{"id":"4bf58dd8d48988d16d941735","name":"Caf\u00e9","pluralName":"Caf\u00e9s","shortName":"Caf\u00e9","icon":{"prefix":"https:\/\/ss1.4sqi.net\/img\/categories_v2\/food\/cafe_","suffix":".png"},"primary":"true"}],"verified":"false","restricted":"true","stats":{"checkinsCount":"1","usersCount":"1","tipCount":"0"},"specials":{"count":"0"},"hereNow":{"count":"0"},"referralId":"v-1392478053"},{"id":"4ad5cec6f964a520940321e3","name":"Department for International Development","contact":{"twitter":"dfid_uk"},"location":{"address":"22 Whitehall","lat":"51.499128","lng":"-0.142778","distance":"18","postalCode":"SW1E 5HE","cc":"GB","city":"London","state":"Greater London","country":"United Kingdom"},"categories":[{"id":"4bf58dd8d48988d126941735","name":"Government Building","pluralName":"Government Buildings","shortName":"Government","icon":{"prefix":"https:\/\/ss1.4sqi.net\/img\/categories_v2\/building\/government_","suffix":".png"},"primary":"true"}],"verified":"false","restricted":"true","stats":{"checkinsCount":"170","usersCount":"76","tipCount":"1"},"url":"http:\/\/www.dfid.gov.uk","specials":{"count":"0"},"hereNow":{"count":"0"},"referralId":"v-1392478053"},{"id":"4bc33143dce4eee1b17b719d","name":"41 Hotel","contact":{"phone":"+442073000041","formattedPhone":"+44 20 7300 0041","twitter":"red_carnation","facebook":"129629770776"},"location":{"address":"41 Buckingham Palace Rd.","lat":"51.49821180959428","lng":"-0.1433259351234493","distance":"125","postalCode":"SW1W 0PS","cc":"GB","city":"London","state":"Greater London","country":"United Kingdom"},"categories":[{"id":"4bf58dd8d48988d1fa931735","name":"Hotel","pluralName":"Hotels","shortName":"Hotel","icon":{"prefix":"https:\/\/ss1.4sqi.net\/img\/categories_v2\/travel\/hotel_","suffix":".png"},"primary":"true"}],"verified":"true","restricted":"true","stats":{"checkinsCount":"233","usersCount":"113","tipCount":"7"},"url":"http:\/\/www.41hotel.com","menu":{"type":"Menu","label":"Menu","anchor":"View Menu","url":"https:\/\/foursquare.com\/v\/41-hotel\/4bc33143dce4eee1b17b719d\/menu","mobileUrl":"https:\/\/foursquare.com\/v\/4bc33143dce4eee1b17b719d\/device_menu"},"specials":{"count":"0"},"hereNow":{"count":"0"},"storeId":"","referralId":"v-1392478053"},{"id":"4bac9c93f964a5202cfe3ae3","name":"VisitEngland","contact":{"phone":"+442075781000","formattedPhone":"+44 20 7578 1000","twitter":"visitengland"},"location":{"address":"1 Palace Street","crossStreet":"Victoria","lat":"51.499128","lng":"-0.142778","distance":"18","postalCode":"SW1E 5HX","cc":"GB","city":"London","state":"Greater London","country":"United Kingdom"},"categories":[{"id":"4bf58dd8d48988d124941735","name":"Office","pluralName":"Offices","shortName":"Office","icon":{"prefix":"https:\/\/ss1.4sqi.net\/img\/categories_v2\/building\/default_","suffix":".png"},"primary":"true"}],"verified":"false","restricted":"true","stats":{"checkinsCount":"40","usersCount":"15","tipCount":"0"},"specials":{"count":"0"},"hereNow":{"count":"0"},"referralId":"v-1392478053"},{"id":"5111e49ce4b0c0a787a028b2","name":"Hogwarts School Of Witchcraft And Wizardy","location":{"lat":"51.49786663506284","lng":"-0.14375536412363027","distance":"171","cc":"GB","country":"United Kingdom"},"categories":[{"id":"4bf58dd8d48988d1ab941735","name":"Student Center","pluralName":"Student Centers","shortName":"Student Center","icon":{"prefix":"https:\/\/ss1.4sqi.net\/img\/categories_v2\/education\/studentcenter_","suffix":".png"},"primary":"true"}],"verified":"false","restricted":"true","stats":{"checkinsCount":"55","usersCount":"51","tipCount":"1"},"specials":{"count":"0"},"hereNow":{"count":"0"},"referralId":"v-1392478053"},{"id":"4ad337e0f964a5206ee320e3","name":"Above The Stag Theatre","contact":{"phone":"+442089324747","formattedPhone":"+44 20 8932 4747"},"location":{"address":"Arch 17, Miles St","lat":"51.49749905434009","lng":"-0.14240347711770096","distance":"201","postalCode":"SW8 1RZ","cc":"GB","city":"London","state":"Greater London","country":"United Kingdom"},"categories":[{"id":"4bf58dd8d48988d135941735","name":"Indie Theater","pluralName":"Indie Theaters","shortName":"Indie","icon":{"prefix":"https:\/\/ss1.4sqi.net\/img\/categories_v2\/arts_entertainment\/performingarts_indieoffbroadway_","suffix":".png"},"primary":"true"}],"verified":"false","restricted":"true","stats":{"checkinsCount":"154","usersCount":"108","tipCount":"3"},"url":"http:\/\/www.abovethestag.com","specials":{"count":"0"},"hereNow":{"count":"0"},"referralId":"v-1392478053"},{"id":"50916c83e4b0850280adfbb2","name":"St. James Bar & Brasserie","contact":{"phone":"+442075920348","formattedPhone":"+44 20 7592 0348"},"location":{"lat":"51.4989617352362","lng":"-0.14228384700416938","distance":"51","cc":"GB","country":"United Kingdom"},"categories":[{"id":"4bf58dd8d48988d116941735","name":"Bar","pluralName":"Bars","shortName":"Bar","icon":{"prefix":"https:\/\/ss1.4sqi.net\/img\/categories_v2\/nightlife\/bar_","suffix":".png"},"primary":"true"}],"verified":"false","restricted":"true","stats":{"checkinsCount":"42","usersCount":"29","tipCount":"1"},"specials":{"count":"0"},"hereNow":{"count":"0"},"referralId":"v-1392478053"},{"id":"5062f4c1e4b01e27b1839b69","name":"Cool Britannia","location":{"crossStreet":"Victoria St & Buckingham Palace Rd","lat":"51.49849319201772","lng":"-0.1437907630402878","distance":"111","cc":"GB","city":"City of Westminster","state":"Greater London","country":"United Kingdom"},"categories":[{"id":"4bf58dd8d48988d128951735","name":"Gift Shop","pluralName":"Gift Shops","shortName":"Gift Shop","icon":{"prefix":"https:\/\/ss1.4sqi.net\/img\/categories_v2\/shops\/giftshop_","suffix":".png"},"primary":"true"}],"verified":"false","restricted":"true","stats":{"checkinsCount":"47","usersCount":"47","tipCount":"1"},"specials":{"count":"0"},"hereNow":{"count":"0"},"referralId":"v-1392478053"},{"id":"51519531e4b057ba69b27744","name":"Carrara At St James","location":{"address":"12 Palace Street","lat":"51.499171","lng":"-0.142503","distance":"24","postalCode":"SW1E5JA","cc":"GB","city":"London","state":"Greater London","country":"United Kingdom"},"categories":[{"id":"4bf58dd8d48988d110941735","name":"Italian Restaurant","pluralName":"Italian Restaurants","shortName":"Italian","icon":{"prefix":"https:\/\/ss1.4sqi.net\/img\/categories_v2\/food\/italian_","suffix":".png"},"primary":"true"}],"verified":"false","restricted":"true","stats":{"checkinsCount":"2","usersCount":"2","tipCount":"0"},"url":"http:\/\/carraralondon.com\/#home","menu":{"type":"Menu","label":"Menu","anchor":"View Menu","url":"https:\/\/foursquare.com\/v\/carrara-at-st-james\/51519531e4b057ba69b27744\/menu","mobileUrl":"https:\/\/foursquare.com\/v\/51519531e4b057ba69b27744\/device_menu"},"specials":{"count":"0"},"hereNow":{"count":"0"},"referralId":"v-1392478053"},{"id":"4df73e24ae60f0da88389715","name":"Student Designers London HQ","location":{"lat":"51.499109","lng":"-0.143036","distance":"25","cc":"GB","city":"London","state":"Greater London","country":"United Kingdom"},"categories":[{"id":"4bf58dd8d48988d124941735","name":"Office","pluralName":"Offices","shortName":"Office","icon":{"prefix":"https:\/\/ss1.4sqi.net\/img\/categories_v2\/building\/default_","suffix":".png"},"primary":"true"}],"verified":"false","restricted":"true","stats":{"checkinsCount":"1","usersCount":"1","tipCount":"0"},"specials":{"count":"0"},"hereNow":{"count":"0"},"referralId":"v-1392478053"},{"id":"50a387ece4b056487e602975","name":"FSB London Office","location":{"lat":"51.49882888793945","lng":"-0.1408790946006775","distance":"142","cc":"GB","country":"United Kingdom"},"categories":[{"id":"4bf58dd8d48988d127941735","name":"Conference Room","pluralName":"Conference Rooms","shortName":"Conference room","icon":{"prefix":"https:\/\/ss1.4sqi.net\/img\/categories_v2\/building\/office_conferenceroom_","suffix":".png"},"primary":"true"}],"verified":"false","restricted":"true","stats":{"checkinsCount":"11","usersCount":"7","tipCount":"0"},"specials":{"count":"0"},"hereNow":{"count":"0"},"referralId":"v-1392478053"},{"id":"4b0ec6f7f964a520e25a23e3","name":"The Cask & Glass - Shepherd Neame","contact":{"phone":"+442078347630","formattedPhone":"+44 20 7834 7630","facebook":"8029823489"},"location":{"address":"39\/41 Palace St.","lat":"51.49854632861469","lng":"-0.14027684926986694","distance":"193","postalCode":"SW1E 5HN","cc":"GB","city":"Victoria","state":"Greater London","country":"United Kingdom"},"categories":[{"id":"4bf58dd8d48988d11b941735","name":"Pub","pluralName":"Pubs","shortName":"Pub","icon":{"prefix":"https:\/\/ss1.4sqi.net\/img\/categories_v2\/nightlife\/pub_","suffix":".png"},"primary":"true"}],"verified":"true","restricted":"true","stats":{"checkinsCount":"451","usersCount":"279","tipCount":"5"},"url":"http:\/\/www.caskandglass.co.uk","specials":{"count":"0"},"hereNow":{"count":"0"},"storeId":"","referralId":"v-1392478053"}],"confident":"true"}}