{"meta":{"code":"200"},"response":{"venues":[{"id":"4b9d22e3f964a520d49236e3","name":"Peckham Bus Station","contact":{"phone":"+442072221234","formattedPhone":"+44 20 7222 1234","twitter":"tflofficial"},"location":{"address":"Peckham High St.","lat":"51.47353804023315","lng":"-0.06767749786376953","distance":"84","postalCode":"SE15","cc":"GB","city":"London","state":"Greater London","country":"United Kingdom"},"categories":[{"id":"4bf58dd8d48988d12b951735","name":"Bus Line","pluralName":"Bus Lines","shortName":"Bus","icon":{"prefix":"https:\/\/ss1.4sqi.net\/img\/categories_v2\/travel\/busstation_","suffix":".png"},"primary":"true"}],"verified":"false","restricted":"true","stats":{"checkinsCount":"600","usersCount":"174","tipCount":"1"},"specials":{"count":"0"},"hereNow":{"count":"0"},"referralId":"v-1392478126"},{"id":"4b914e3ef964a5209bb133e3","name":"Morrisons","contact":{"phone":"+442077323518","formattedPhone":"+44 20 7732 3518","twitter":"morrisonsoffers","facebook":"132649753459881"},"location":{"address":"Aylesham Centre","crossStreet":"Rye Ln","lat":"51.47293659014834","lng":"-0.06851434707641602","distance":"158","postalCode":"SE15 5EW","cc":"GB","city":"London","state":"Greater London","country":"United Kingdom"},"categories":[{"id":"4bf58dd8d48988d118951735","name":"Grocery Store","pluralName":"Grocery Stores","shortName":"Grocery Store","icon":{"prefix":"https:\/\/ss1.4sqi.net\/img\/categories_v2\/shops\/food_grocery_","suffix":".png"},"primary":"true"}],"verified":"true","restricted":"true","stats":{"checkinsCount":"788","usersCount":"230","tipCount":"8"},"url":"http:\/\/www.morrisons.co.uk","specials":{"count":"0"},"hereNow":{"count":"0"},"storeId":"306","referralId":"v-1392478126"},{"id":"4acfbd31f964a520a8d520e3","name":"Peckham Pulse Healthy Living Centre","contact":{"phone":"+442075254999","formattedPhone":"+44 20 7525 4999"},"location":{"address":"10 Melon Road, Peckham","lat":"51.474008047709475","lng":"-0.07024550356775888","distance":"172","postalCode":"SE15 5QN","cc":"GB","city":"London","state":"Greater London","country":"United Kingdom"},"categories":[{"id":"4bf58dd8d48988d175941735","name":"Gym \/ Fitness Center","pluralName":"Gyms or Fitness Centers","shortName":"Gym \/ Fitness","icon":{"prefix":"https:\/\/ss1.4sqi.net\/img\/categories_v2\/building\/gym_","suffix":".png"},"primary":"true"}],"verified":"false","restricted":"true","stats":{"checkinsCount":"568","usersCount":"137","tipCount":"6"},"specials":{"count":"0"},"hereNow":{"count":"0"},"referralId":"v-1392478126"},{"id":"513a060ef31c8c56a779149f","name":"Mouse Tail Coffee Stories","contact":{"phone":"+447552961118","formattedPhone":"+44 7552 961118","twitter":"mousetailcoffee","facebook":"395858790500901"},"location":{"address":"89a Peckham High St","crossStreet":"by Peckham Library","lat":"51.47372515642006","lng":"-0.0695335865020752","distance":"135","postalCode":"SE15 5RS","cc":"GB","city":"London","state":"Greater London","country":"United Kingdom"},"categories":[{"id":"4bf58dd8d48988d1e0931735","name":"Coffee Shop","pluralName":"Coffee Shops","shortName":"Coffee Shop","icon":{"prefix":"https:\/\/ss1.4sqi.net\/img\/categories_v2\/food\/coffeeshop_","suffix":".png"},"primary":"true"}],"verified":"true","restricted":"true","stats":{"checkinsCount":"105","usersCount":"30","tipCount":"4"},"url":"http:\/\/www.mousetailcoffee.com","menu":{"type":"Menu","label":"Menu","anchor":"View Menu","url":"https:\/\/foursquare.com\/v\/mouse-tail-coffee-stories\/513a060ef31c8c56a779149f\/menu","mobileUrl":"https:\/\/foursquare.com\/v\/513a060ef31c8c56a779149f\/device_menu"},"specials":{"count":"1","items":[{"id":"513cd1a7067da6aa6fbb7e75","type":"frequency","message":"Your favourite coffee on us!","description":"Unlocked every 8 check-ins","finePrint":"No additional rules, no additional conditions. Check in 8 times and get a free coffee\/tea\/hot choc- whatever you fancy.","icon":"frequency","title":"Loyalty Special","provider":"foursquare","redemption":"standard","page":{"id":"50282126","firstName":"Mouse Tail Coffee Stories","gender":"none","photo":{"prefix":"https:\/\/irs1.4sqi.net\/img\/user\/","suffix":"\/ECBPT53CIQ20MFZL.png"},"type":"venuePage","venue":{"id":"513a060ef31c8c56a779149f"},"tips":{"count":"0"},"homeCity":"London, Lonson","bio":"","contact":{"twitter":"mousetailcoffee","facebook":"395858790500901"}}}]},"hereNow":{"count":"0"},"venuePage":{"id":"50282126"},"storeId":"","referralId":"v-1392478126"},{"id":"4b48ebbcf964a520705d26e3","name":"Peckham Library","contact":{"phone":"+442075252000","formattedPhone":"+44 20 7525 2000"},"location":{"address":"122 Peckham Hill St.","crossStreet":"at Peckham Rd.","lat":"51.474086021184505","lng":"-0.06947994232177734","distance":"118","postalCode":"SE15 5JR","cc":"GB","city":"London","state":"Greater London","country":"United Kingdom"},"categories":[{"id":"4bf58dd8d48988d12f941735","name":"Library","pluralName":"Libraries","shortName":"Library","icon":{"prefix":"https:\/\/ss1.4sqi.net\/img\/categories_v2\/building\/library_","suffix":".png"},"primary":"true"}],"verified":"false","restricted":"true","stats":{"checkinsCount":"436","usersCount":"211","tipCount":"8"},"url":"http:\/\/southwark.gov.uk\/library","specials":{"count":"0"},"hereNow":{"count":"0"},"referralId":"v-1392478126"},{"id":"4c87abb8821e9eb09ccd8d89","name":"The Kentish Drovers (Wetherspoon)","contact":{"phone":"+442072774283","formattedPhone":"+44 20 7277 4283"},"location":{"address":"71-79 Peckham High St.","lat":"51.47371596136696","lng":"-0.07003806478111671","distance":"167","postalCode":"SE15 5RS","cc":"GB","city":"London","state":"Greater London","country":"United Kingdom"},"categories":[{"id":"4bf58dd8d48988d11b941735","name":"Pub","pluralName":"Pubs","shortName":"Pub","icon":{"prefix":"https:\/\/ss1.4sqi.net\/img\/categories_v2\/nightlife\/pub_","suffix":".png"},"primary":"true"}],"verified":"true","restricted":"true","stats":{"checkinsCount":"299","usersCount":"129","tipCount":"5"},"url":"http:\/\/www.jdwetherspoon.co.uk","specials":{"count":"0"},"hereNow":{"count":"0"},"referralId":"v-1392478126"},{"id":"4ce1b5f694c3b60c261878ea","name":"Peckham Library Bus Stop","location":{"address":"65 Peckham High St","lat":"51.475003952020565","lng":"-0.0690445650748491","distance":"117","postalCode":"SE15 5","cc":"GB","city":"Camberwell","state":"Greater London","country":"United Kingdom"},"categories":[{"id":"4bf58dd8d48988d12b951735","name":"Bus Line","pluralName":"Bus Lines","shortName":"Bus","icon":{"prefix":"https:\/\/ss1.4sqi.net\/img\/categories_v2\/travel\/busstation_","suffix":".png"},"primary":"true"}],"verified":"false","restricted":"true","stats":{"checkinsCount":"206","usersCount":"41","tipCount":"0"},"specials":{"count":"0"},"hereNow":{"count":"0"},"referralId":"v-1392478126"},{"id":"520f4aa411d2255fa2b07961","name":"Post Office","location":{"address":"121\/125 Peckham High Street","lat":"51.47406005859375","lng":"-0.06780356168746948","distance":"25","postalCode":"SE15 5SF","cc":"GB","city":"London","state":"Greater London","country":"United Kingdom"},"categories":[{"id":"4bf58dd8d48988d172941735","name":"Post Office","pluralName":"Post Offices","shortName":"Post Office","icon":{"prefix":"https:\/\/ss1.4sqi.net\/img\/categories_v2\/building\/postoffice_","suffix":".png"},"primary":"true"}],"verified":"false","restricted":"true","stats":{"checkinsCount":"4","usersCount":"1","tipCount":"1"},"specials":{"count":"0"},"hereNow":{"count":"0"},"referralId":"v-1392478126"},{"id":"4c838235dc018cfa3319d96c","name":"Scope Charity Shop","contact":{"phone":"+442076395646","formattedPhone":"+44 20 7639 5646","twitter":"scope"},"location":{"address":"93 Peckham High St","lat":"51.473860116743516","lng":"-0.06932280758312033","distance":"115","postalCode":"SE15 5RS","cc":"GB","city":"London","state":"Greater London","country":"United Kingdom"},"categories":[{"id":"4bf58dd8d48988d101951735","name":"Thrift \/ Vintage Store","pluralName":"Thrift \/ Vintage Stores","shortName":"Thrift \/ Vintage","icon":{"prefix":"https:\/\/ss1.4sqi.net\/img\/categories_v2\/shops\/default_","suffix":".png"},"primary":"true"}],"verified":"true","restricted":"true","stats":{"checkinsCount":"6","usersCount":"2","tipCount":"0"},"url":"http:\/\/www.scope.org.uk\/shop\/peckham-scope-shop","specials":{"count":"0"},"hereNow":{"count":"0"},"storeId":"","referralId":"v-1392478126"},{"id":"4ebda257b803bca7dd423ea5","name":"Katies","contact":{"phone":"+442072778889","formattedPhone":"+44 20 7277 8889"},"location":{"address":"Peckham Hill Street","lat":"51.474562778976306","lng":"-0.06884929796733487","distance":"78","cc":"GB","city":"London","state":"Greater London","country":"United Kingdom"},"categories":[{"id":"4d4ae6fc7a7b7dea34424761","name":"Fried Chicken Joint","pluralName":"Fried Chicken Joints","shortName":"Fried Chicken","icon":{"prefix":"https:\/\/ss1.4sqi.net\/img\/categories_v2\/food\/friedchicken_","suffix":".png"},"primary":"true"}],"verified":"false","restricted":"true","stats":{"checkinsCount":"77","usersCount":"24","tipCount":"3"},"specials":{"count":"0"},"hereNow":{"count":"0"},"referralId":"v-1392478126"},{"id":"5288bdb5498e568a9fa9f2d9","name":"Rex Launderette","contact":{"phone":"+442076395581","formattedPhone":"+44 20 7639 5581"},"location":{"address":"137 Peckham High St","lat":"51.474029541015625","lng":"-0.06707735359668732","distance":"58","cc":"GB","city":"London","state":"Greater London","country":"United Kingdom"},"categories":[{"id":"4bf58dd8d48988d1fc941735","name":"Laundry Service","pluralName":"Laundry Services","shortName":"Laundry","icon":{"prefix":"https:\/\/ss1.4sqi.net\/img\/categories_v2\/shops\/laundry_","suffix":".png"},"primary":"true"}],"verified":"false","restricted":"true","stats":{"checkinsCount":"2","usersCount":"1","tipCount":"0"},"specials":{"count":"0"},"hereNow":{"count":"0"},"referralId":"v-1392478126"},{"id":"4c1e8ee9d3b5b7132f31bda5","name":"M Manze","location":{"address":"105 High Street","lat":"51.47381203153165","lng":"-0.0692439079284668","distance":"113","postalCode":"SE15 5RS","cc":"GB","city":"London","state":"Greater London","country":"United Kingdom"},"categories":[{"id":"4bf58dd8d48988d1c4941735","name":"Restaurant","pluralName":"Restaurants","shortName":"Restaurant","icon":{"prefix":"https:\/\/ss1.4sqi.net\/img\/categories_v2\/food\/default_","suffix":".png"},"primary":"true"}],"verified":"false","restricted":"true","stats":{"checkinsCount":"30","usersCount":"23","tipCount":"1"},"specials":{"count":"0"},"hereNow":{"count":"0"},"referralId":"v-1392478126"},{"id":"4fd2433ee4b0b895950ff5aa","name":"Rakhs News","location":{"lat":"51.474091801977515","lng":"-0.06809616529995227","distance":"29","cc":"GB","country":"United Kingdom"},"categories":[{"id":"4d954b0ea243a5684a65b473","name":"Convenience Store","pluralName":"Convenience Stores","shortName":"Convenience Stores","icon":{"prefix":"https:\/\/ss1.4sqi.net\/img\/categories_v2\/shops\/conveniencestore_","suffix":".png"},"primary":"true"}],"verified":"false","restricted":"true","stats":{"checkinsCount":"4","usersCount":"1","tipCount":"0"},"specials":{"count":"0"},"hereNow":{"count":"0"},"referralId":"v-1392478126"},{"id":"50e9a7b9e4b0d58a5a48ae3e","name":"Beyonce's Hairdressers","location":{"lat":"51.474015","lng":"-0.067934","distance":"31","postalCode":"SE15 5ED","cc":"GB","city":"London","state":"Greater London","country":"United Kingdom"},"categories":[{"id":"4bf58dd8d48988d110951735","name":"Salon \/ Barbershop","pluralName":"Salons \/ Barbershops","shortName":"Salon \/ Barbershop","icon":{"prefix":"https:\/\/ss1.4sqi.net\/img\/categories_v2\/shops\/salon_barber_","suffix":".png"},"primary":"true"}],"verified":"false","restricted":"true","stats":{"checkinsCount":"2","usersCount":"1","tipCount":"0"},"specials":{"count":"0"},"hereNow":{"count":"0"},"referralId":"v-1392478126"},{"id":"4ce1b6d6db1254817c5843ce","name":"Peckham Post Office Bus Stop","location":{"address":"91-101 Peckham High St","lat":"51.47401000124967","lng":"-0.0666429511546086","distance":"86","postalCode":"SE15 5","cc":"GB","city":"Camberwell","state":"Greater London","country":"United Kingdom"},"categories":[{"id":"4bf58dd8d48988d12b951735","name":"Bus Line","pluralName":"Bus Lines","shortName":"Bus","icon":{"prefix":"https:\/\/ss1.4sqi.net\/img\/categories_v2\/travel\/busstation_","suffix":".png"},"primary":"true"}],"verified":"false","restricted":"true","stats":{"checkinsCount":"23","usersCount":"11","tipCount":"0"},"specials":{"count":"0"},"hereNow":{"count":"0"},"referralId":"v-1392478126"},{"id":"525ff0b9498e4986f6ea7980","name":"Yemmy Textiles & Fashions","contact":{"phone":"+442076356700","formattedPhone":"+44 20 7635 6700"},"location":{"address":"115 Peckham High Street","crossStreet":"Peckham Hill Street","lat":"51.47399865808495","lng":"-0.06840060951135514","distance":"52","cc":"GB","city":"London","state":"Greater London","country":"United Kingdom"},"categories":[{"id":"4bf58dd8d48988d127951735","name":"Arts & Crafts Store","pluralName":"Arts & Crafts Stores","shortName":"Arts & Crafts","icon":{"prefix":"https:\/\/ss1.4sqi.net\/img\/categories_v2\/shops\/artstore_","suffix":".png"},"primary":"true"}],"verified":"false","restricted":"true","stats":{"checkinsCount":"2","usersCount":"1","tipCount":"0"},"specials":{"count":"0"},"hereNow":{"count":"0"},"referralId":"v-1392478126"},{"id":"504751d0e4b09309f716cae2","name":"Peckham Pulse Soft Play","location":{"lat":"51.474287","lng":"-0.069174","distance":"95","cc":"GB","country":"United Kingdom"},"categories":[{"id":"4bf58dd8d48988d1f1931735","name":"General Entertainment","pluralName":"General Entertainment","shortName":"Entertainment","icon":{"prefix":"https:\/\/ss1.4sqi.net\/img\/categories_v2\/arts_entertainment\/default_","suffix":".png"},"primary":"true"}],"verified":"false","restricted":"true","stats":{"checkinsCount":"2","usersCount":"2","tipCount":"1"},"specials":{"count":"0"},"hereNow":{"count":"0"},"referralId":"v-1392478126"},{"id":"528dce2211d2d07b48e5cbee","name":"New Dixie","contact":{"phone":"+442035535797","formattedPhone":"+44 20 3553 5797"},"location":{"address":"10  Peckham High Street","lat":"51.473604867530874","lng":"-0.06950139999389648","distance":"140","postalCode":"SE15 5DT","cc":"GB","city":"London","state":"Greater London","country":"United Kingdom"},"categories":[{"id":"4d4ae6fc7a7b7dea34424761","name":"Fried Chicken Joint","pluralName":"Fried Chicken Joints","shortName":"Fried Chicken","icon":{"prefix":"https:\/\/ss1.4sqi.net\/img\/categories_v2\/food\/friedchicken_","suffix":".png"},"primary":"true"}],"verified":"false","restricted":"true","stats":{"checkinsCount":"3","usersCount":"1","tipCount":"0"},"specials":{"count":"0"},"hereNow":{"count":"0"},"referralId":"v-1392478126"},{"id":"503e479ee4121b0143ab382b","name":"Speedy Cash","contact":{"phone":"+442072779150","formattedPhone":"+44 20 7277 9150","twitter":"speedycashuk"},"location":{"address":"119 Peckham High St.","lat":"51.47406597321693","lng":"-0.06829977035522461","distance":"42","postalCode":"SE15 5SE","cc":"GB","city":"London","state":"Greater London","country":"United Kingdom"},"categories":[{"id":"503287a291d4c4b30a586d65","name":"Financial or Legal Service","pluralName":"Financial or Legal Services","shortName":"Financial \/ Legal","icon":{"prefix":"https:\/\/ss1.4sqi.net\/img\/categories_v2\/shops\/financial_","suffix":".png"},"primary":"true"}],"verified":"true","restricted":"true","stats":{"checkinsCount":"0","usersCount":"0","tipCount":"0"},"specials":{"count":"0"},"hereNow":{"count":"0"},"referralId":"v-1392478126"},{"id":"4e8b7cbc9a52f194ddeb4bd8","name":"Beyonce","location":{"lat":"51.473994209716004","lng":"-0.06734735139599062","distance":"45","cc":"GB","city":"Camberwell","state":"Greater London","country":"United Kingdom"},"categories":[{"id":"4bf58dd8d48988d103951735","name":"Clothing Store","pluralName":"Clothing Stores","shortName":"Apparel","icon":{"prefix":"https:\/\/ss1.4sqi.net\/img\/categories_v2\/shops\/apparel_","suffix":".png"},"primary":"true"}],"verified":"false","restricted":"true","stats":{"checkinsCount":"1","usersCount":"0","tipCount":"0"},"specials":{"count":"0"},"hereNow":{"count":"0"},"referralId":"v-1392478126"},{"id":"4b7692a2f964a52093522ee3","name":"Post Office","location":{"address":"121\/125 Peckham High St","lat":"51.47379346629135","lng":"-0.0676393386128305","distance":"56","postalCode":"SE15 5SF","cc":"GB","city":"London","state":"Greater London","country":"United Kingdom"},"categories":[{"id":"4bf58dd8d48988d172941735","name":"Post Office","pluralName":"Post Offices","shortName":"Post Office","icon":{"prefix":"https:\/\/ss1.4sqi.net\/img\/categories_v2\/building\/postoffice_","suffix":".png"},"primary":"true"}],"verified":"true","restricted":"true","stats":{"checkinsCount":"44","usersCount":"30","tipCount":"0"},"specials":{"count":"0"},"hereNow":{"count":"0"},"referralId":"v-1392478126"},{"id":"52665516498e40504f2837ed","name":"The Aylesham Centre bus stop","location":{"lat":"51.474056243896484","lng":"-0.06838279962539673","distance":"47","cc":"GB","country":"United Kingdom"},"categories":[{"id":"4bf58dd8d48988d1fe931735","name":"Bus Station","pluralName":"Bus Stations","shortName":"Bus Station","icon":{"prefix":"https:\/\/ss1.4sqi.net\/img\/categories_v2\/travel\/busstation_","suffix":".png"},"primary":"true"}],"verified":"false","restricted":"true","stats":{"checkinsCount":"1","usersCount":"1","tipCount":"0"},"specials":{"count":"0"},"hereNow":{"count":"0"},"referralId":"v-1392478126"},{"id":"4fb25703e4b08f07157a9419","name":"Peckham One Stop Shop (Southwark Council)","contact":{"phone":"+442075255000","formattedPhone":"+44 20 7525 5000"},"location":{"address":"122 Peckham Hill St","lat":"51.474469995567645","lng":"-0.06954763227063705","distance":"122","postalCode":"SE15 5JR","cc":"GB","city":"London","state":"Greater London","country":"United Kingdom"},"categories":[{"id":"50328a8e91d4c4b30a586d6c","name":"Non-Profit","pluralName":"Non-Profits","shortName":"Non-Profit","icon":{"prefix":"https:\/\/ss1.4sqi.net\/img\/categories_v2\/building\/default_","suffix":".png"},"primary":"true"}],"verified":"false","restricted":"true","stats":{"checkinsCount":"23","usersCount":"9","tipCount":"0"},"url":"http:\/\/www.southwark.gov.uk\/directory_record\/3706\/peckham_one_stop_shop","specials":{"count":"0"},"hereNow":{"count":"0"},"referralId":"v-1392478126"},{"id":"4c61195b12e5c928eec4204c","name":"Wilsons","location":{"lat":"51.47368003387517","lng":"-0.06905350781701794","distance":"110","cc":"GB","country":"United Kingdom"},"categories":[{"id":"4bf58dd8d48988d115951735","name":"Bike Shop","pluralName":"Bike Shops","shortName":"Bike shop","icon":{"prefix":"https:\/\/ss1.4sqi.net\/img\/categories_v2\/shops\/bikeshop_","suffix":".png"},"primary":"true"}],"verified":"false","restricted":"true","stats":{"checkinsCount":"6","usersCount":"5","tipCount":"0"},"specials":{"count":"0"},"hereNow":{"count":"0"},"referralId":"v-1392478126"},{"id":"4cfe3dc7d8468cfab9d1046c","name":"Peckham Space","contact":{"phone":"+442073589645","formattedPhone":"+44 20 7358 9645"},"location":{"address":"89 Peckham High St","lat":"51.47390116043533","lng":"-0.06937431568675563","distance":"117","postalCode":"SE15","cc":"GB","city":"London","state":"Greater London","country":"United Kingdom"},"categories":[{"id":"4bf58dd8d48988d1e2931735","name":"Art Gallery","pluralName":"Art Galleries","shortName":"Art Gallery","icon":{"prefix":"https:\/\/ss1.4sqi.net\/img\/categories_v2\/arts_entertainment\/artgallery_","suffix":".png"},"primary":"true"}],"verified":"false","restricted":"true","stats":{"checkinsCount":"123","usersCount":"80","tipCount":"1"},"specials":{"count":"0"},"hereNow":{"count":"0"},"referralId":"v-1392478126"},{"id":"52fcd0ee498e9f107191ab7a","name":"The Greyhound","location":{"lat":"51.474061","lng":"-0.068473","distance":"52","cc":"GB","country":"United Kingdom"},"categories":[{"id":"4bf58dd8d48988d11b941735","name":"Pub","pluralName":"Pubs","shortName":"Pub","icon":{"prefix":"https:\/\/ss1.4sqi.net\/img\/categories_v2\/nightlife\/pub_","suffix":".png"},"primary":"true"}],"verified":"false","restricted":"true","stats":{"checkinsCount":"2","usersCount":"2","tipCount":"0"},"specials":{"count":"0"},"hereNow":{"count":"0"},"referralId":"v-1392478126"},{"id":"4f365e62e4b099ca9331ae34","name":"Greggs","location":{"lat":"51.47261796418854","lng":"-0.06996123048839638","distance":"238","cc":"GB","country":"United Kingdom"},"categories":[{"id":"4bf58dd8d48988d1c5941735","name":"Sandwich Place","pluralName":"Sandwich Places","shortName":"Sandwiches","icon":{"prefix":"https:\/\/ss1.4sqi.net\/img\/categories_v2\/food\/sandwiches_","suffix":".png"},"primary":"true"}],"verified":"false","restricted":"true","stats":{"checkinsCount":"28","usersCount":"12","tipCount":"1"},"specials":{"count":"0"},"hereNow":{"count":"0"},"referralId":"v-1392478126"},{"id":"4fd3ea10e4b002c9e83a58ba","name":"N171","location":{"lat":"51.473953","lng":"-0.066797","distance":"79","cc":"GB","country":"United Kingdom"},"categories":[{"id":"4f2a23984b9023bd5841ed2c","name":"Moving Target","pluralName":"Moving Targets","shortName":"Moving Target","icon":{"prefix":"https:\/\/ss1.4sqi.net\/img\/categories_v2\/travel\/movingtarget_","suffix":".png"},"primary":"true"}],"verified":"false","restricted":"true","stats":{"checkinsCount":"9","usersCount":"8","tipCount":"0"},"specials":{"count":"0"},"hereNow":{"count":"0"},"referralId":"v-1392478126"},{"id":"4edb539e93ad464d29a0c2e2","name":"Peckham Farmers Market","location":{"address":"Peckham Space","crossStreet":"Peckham rd","lat":"51.47361091346713","lng":"-0.06962046536977484","distance":"146","postalCode":"SE15","cc":"GB","city":"London","state":"Greater London","country":"United Kingdom"},"categories":[{"id":"4bf58dd8d48988d1fa941735","name":"Farmers Market","pluralName":"Farmers Markets","shortName":"Farmer's Market","icon":{"prefix":"https:\/\/ss1.4sqi.net\/img\/categories_v2\/shops\/food_farmersmarket_","suffix":".png"},"primary":"true"}],"verified":"false","restricted":"true","stats":{"checkinsCount":"19","usersCount":"9","tipCount":"0"},"specials":{"count":"0"},"hereNow":{"count":"0"},"referralId":"v-1392478126"},{"id":"4e90076ef79014e2ce5a93eb","name":"Criterion Restaurant","location":{"lat":"51.473839","lng":"-0.067379","distance":"58","cc":"GB","city":"Camberwell","state":"Greater London","country":"United Kingdom"},"categories":[{"id":"4bf58dd8d48988d16d941735","name":"Caf\u00e9","pluralName":"Caf\u00e9s","shortName":"Caf\u00e9","icon":{"prefix":"https:\/\/ss1.4sqi.net\/img\/categories_v2\/food\/cafe_","suffix":".png"},"primary":"true"}],"verified":"false","restricted":"true","stats":{"checkinsCount":"4","usersCount":"4","tipCount":"0"},"specials":{"count":"0"},"hereNow":{"count":"0"},"referralId":"v-1392478126"}],"confident":"true"}}