{"meta":{"code":"200"},"response":{"venues":[{"id":"4ae19d90f964a5206c8621e3","name":"The Butcher & Grill","location":{"address":"39-41 Parkgate Rd","lat":"51.479275451409045","lng":"-0.16777815120145576","distance":"2","postalCode":"SW11 4NP","cc":"GB","city":"London","state":"Greater London","country":"United Kingdom"},"categories":[{"id":"4bf58dd8d48988d11d951735","name":"Butcher","pluralName":"Butchers","shortName":"Butcher","icon":{"prefix":"https:\/\/ss1.4sqi.net\/img\/categories_v2\/shops\/food_butcher_","suffix":".png"},"primary":"true"}],"verified":"false","restricted":"true","stats":{"checkinsCount":"928","usersCount":"328","tipCount":"11"},"url":"http:\/\/www.thebutcherandgrill.com","reservations":{"url":"http:\/\/www.toptable.co.uk\/single.aspx?rid=7141&ref=9601"},"menu":{"type":"Menu","label":"Menu","anchor":"View Menu","url":"https:\/\/foursquare.com\/v\/the-butcher--grill\/4ae19d90f964a5206c8621e3\/menu","mobileUrl":"https:\/\/foursquare.com\/v\/4ae19d90f964a5206c8621e3\/device_menu"},"specials":{"count":"0"},"hereNow":{"count":"2","groups":[{"type":"others","name":"Other people here","count":"2"}]},"referralId":"v-1392478103"},{"id":"504a1aaa067d881c9acd5ebb","name":"The London Distillery Company","contact":{"twitter":"londonwhisky"},"location":{"address":"The Cold Room, 33 Parkgate Road","crossStreet":"Elcho Street","lat":"51.47923137485561","lng":"-0.1679706573486328","distance":"13","postalCode":"SW11 4NP","cc":"GB","city":"London","state":"Greater London","country":"United Kingdom"},"categories":[{"id":"4e0e22f5a56208c4ea9a85a0","name":"Distillery","pluralName":"Distillery","shortName":"Distillery","icon":{"prefix":"https:\/\/ss1.4sqi.net\/img\/categories_v2\/food\/brewery_","suffix":".png"},"primary":"true"}],"verified":"true","restricted":"true","stats":{"checkinsCount":"50","usersCount":"21","tipCount":"0"},"url":"http:\/\/www.londondistillery.com","specials":{"count":"0"},"hereNow":{"count":"2","groups":[{"type":"others","name":"Other people here","count":"2"}]},"venuePage":{"id":"45220333"},"storeId":"","referralId":"v-1392478103"},{"id":"52aa179d11d2aa69031034a6","name":"Source Battersea","contact":{"phone":"+442073500555","formattedPhone":"+44 20 7350 0555","twitter":"sourcebattersea"},"location":{"address":"33 - 35 Parkgate Road","lat":"51.479475","lng":"-0.167966","distance":"23","postalCode":"SW11 4NP","cc":"GB","city":"London","state":"Greater London","country":"United Kingdom"},"categories":[{"id":"4bf58dd8d48988d1c4941735","name":"Restaurant","pluralName":"Restaurants","shortName":"Restaurant","icon":{"prefix":"https:\/\/ss1.4sqi.net\/img\/categories_v2\/food\/default_","suffix":".png"},"primary":"true"}],"verified":"false","restricted":"true","stats":{"checkinsCount":"1","usersCount":"1","tipCount":"0"},"specials":{"count":"0"},"hereNow":{"count":"2","groups":[{"type":"others","name":"Other people here","count":"2"}]},"referralId":"v-1392478103"},{"id":"4ea99eccdab4888811454825","name":"The Doodle Bar","contact":{"phone":"+442072237115","formattedPhone":"+44 20 7223 7115","twitter":"thedoodlebar"},"location":{"address":"33 Parkgate Rd","lat":"51.47960820070535","lng":"-0.16844109273125424","distance":"56","postalCode":"SW11 4NP","cc":"GB","city":"London","state":"Greater London","country":"United Kingdom"},"categories":[{"id":"4bf58dd8d48988d116941735","name":"Bar","pluralName":"Bars","shortName":"Bar","icon":{"prefix":"https:\/\/ss1.4sqi.net\/img\/categories_v2\/nightlife\/bar_","suffix":".png"},"primary":"true"}],"verified":"false","restricted":"true","stats":{"checkinsCount":"599","usersCount":"384","tipCount":"10"},"url":"http:\/\/www.thedoodlebar.com","menu":{"type":"Menu","label":"Menu","anchor":"View Menu","url":"https:\/\/foursquare.com\/v\/the-doodle-bar\/4ea99eccdab4888811454825\/menu","mobileUrl":"https:\/\/foursquare.com\/v\/4ea99eccdab4888811454825\/device_menu"},"specials":{"count":"0"},"hereNow":{"count":"0"},"referralId":"v-1392478103"},{"id":"4dfded1dae6033b2a4798161","name":"Iglesia Ni Cristo","location":{"lat":"51.47904034271256","lng":"-0.1665273291745769","distance":"92","cc":"GB","city":"Wandsworth","state":"Greater London","country":"United Kingdom"},"categories":[{"id":"4bf58dd8d48988d132941735","name":"Church","pluralName":"Churches","shortName":"Church","icon":{"prefix":"https:\/\/ss1.4sqi.net\/img\/categories_v2\/building\/religious_church_","suffix":".png"},"primary":"true"}],"verified":"false","restricted":"true","stats":{"checkinsCount":"157","usersCount":"18","tipCount":"0"},"specials":{"count":"0"},"hereNow":{"count":"0"},"referralId":"v-1392478103"},{"id":"4e3b0d598877b00cfc2768ae","name":"Bunga Bunga","contact":{"phone":"+442070950360","formattedPhone":"+44 20 7095 0360","twitter":"bungabungalondn"},"location":{"address":"37 Battersea Bridge Rd","lat":"51.47895073416685","lng":"-0.17037391662597656","distance":"182","postalCode":"SW11 3BA","cc":"GB","city":"London","state":"Greater London","country":"United Kingdom"},"categories":[{"id":"4bf58dd8d48988d11e941735","name":"Cocktail Bar","pluralName":"Cocktail Bars","shortName":"Cocktail","icon":{"prefix":"https:\/\/ss1.4sqi.net\/img\/categories_v2\/nightlife\/cocktails_","suffix":".png"},"primary":"true"}],"verified":"false","restricted":"true","stats":{"checkinsCount":"909","usersCount":"638","tipCount":"18"},"url":"http:\/\/www.bungabunga-london.com","menu":{"type":"Menu","label":"Menu","anchor":"View Menu","url":"https:\/\/foursquare.com\/v\/bunga-bunga\/4e3b0d598877b00cfc2768ae\/menu","mobileUrl":"https:\/\/foursquare.com\/v\/4e3b0d598877b00cfc2768ae\/device_menu"},"specials":{"count":"0"},"hereNow":{"count":"1","groups":[{"type":"others","name":"Other people here","count":"1"}]},"referralId":"v-1392478103"},{"id":"4b191af6f964a5200dd823e3","name":"The Prince Albert Battersea","location":{"address":"Albert Bridge rd","lat":"51.47952798753977","lng":"-0.165759","distance":"144","cc":"GB","city":"London","state":"Greater London","country":"United Kingdom"},"categories":[{"id":"4bf58dd8d48988d11b941735","name":"Pub","pluralName":"Pubs","shortName":"Pub","icon":{"prefix":"https:\/\/ss1.4sqi.net\/img\/categories_v2\/nightlife\/pub_","suffix":".png"},"primary":"true"}],"verified":"false","restricted":"true","stats":{"checkinsCount":"1190","usersCount":"615","tipCount":"15"},"menu":{"type":"Menu","label":"Menu","anchor":"View Menu","url":"https:\/\/foursquare.com\/v\/the-prince-albert-battersea\/4b191af6f964a5200dd823e3\/menu","mobileUrl":"https:\/\/foursquare.com\/v\/4b191af6f964a5200dd823e3\/device_menu"},"specials":{"count":"0"},"hereNow":{"count":"0"},"referralId":"v-1392478103"},{"id":"4ad465e6f964a520bee720e3","name":"Draft House Westbridge","contact":{"phone":"+442072286482","formattedPhone":"+44 20 7228 6482","twitter":"drafthouseuk"},"location":{"address":"74 - 76 Battersea Bridge Rd","crossStreet":"Westbridge Rd","lat":"51.47825580693405","lng":"-0.17041683197021484","distance":"214","postalCode":"SW11 3AG","cc":"GB","city":"Battersea","country":"United Kingdom"},"categories":[{"id":"4bf58dd8d48988d11b941735","name":"Pub","pluralName":"Pubs","shortName":"Pub","icon":{"prefix":"https:\/\/ss1.4sqi.net\/img\/categories_v2\/nightlife\/pub_","suffix":".png"},"primary":"true"}],"verified":"false","restricted":"true","stats":{"checkinsCount":"1849","usersCount":"559","tipCount":"18"},"url":"http:\/\/www.drafthouse.co.uk","specials":{"count":"0"},"hereNow":{"count":"1","groups":[{"type":"others","name":"Other people here","count":"1"}]},"referralId":"v-1392478103"},{"id":"4b9e26d4f964a520e3cd36e3","name":"Foster + Partners","location":{"address":"22 Hester Road","lat":"51.48013144443531","lng":"-0.1686123659244164","distance":"109","postalCode":"SW11 4AN","cc":"GB","city":"London","state":"Greater London","country":"United Kingdom"},"categories":[{"id":"4bf58dd8d48988d124941735","name":"Office","pluralName":"Offices","shortName":"Office","icon":{"prefix":"https:\/\/ss1.4sqi.net\/img\/categories_v2\/building\/default_","suffix":".png"},"primary":"true"}],"verified":"false","restricted":"true","stats":{"checkinsCount":"769","usersCount":"162","tipCount":"2"},"specials":{"count":"0"},"hereNow":{"count":"0"},"referralId":"v-1392478103"},{"id":"4f2a6e52e4b0a7b37769e29e","name":"The Learning Boat","location":{"address":"Ransome Dock","lat":"51.47928049173661","lng":"-0.1678413240231153","distance":"2","postalCode":"SW11 4SR","cc":"GB","city":"London","state":"Greater London","country":"United Kingdom"},"categories":[{"id":"4eb1bea83b7b6f98df247e06","name":"Factory","pluralName":"Factories","shortName":"Factory","icon":{"prefix":"https:\/\/ss1.4sqi.net\/img\/categories_v2\/building\/factory_","suffix":".png"},"primary":"true"}],"verified":"false","restricted":"true","stats":{"checkinsCount":"2","usersCount":"2","tipCount":"0"},"specials":{"count":"0"},"hereNow":{"count":"0"},"referralId":"v-1392478103"},{"id":"4b883fe0f964a5205dea31e3","name":"Albion Riverside","location":{"address":"Hester Road","lat":"51.480647903717035","lng":"-0.16950845809193651","distance":"191","postalCode":"SW11 4AL","cc":"GB","city":"Wandsworth","state":"Greater London","country":"United Kingdom"},"categories":[{"id":"4bf58dd8d48988d130941735","name":"Building","pluralName":"Buildings","shortName":"Building","icon":{"prefix":"https:\/\/ss1.4sqi.net\/img\/categories_v2\/building\/default_","suffix":".png"},"primary":"true"}],"verified":"false","restricted":"true","stats":{"checkinsCount":"718","usersCount":"86","tipCount":"2"},"specials":{"count":"0"},"hereNow":{"count":"0"},"referralId":"v-1392478103"},{"id":"4ac518d7f964a52058a820e3","name":"Ransome's Dock","location":{"address":"35 Parkgate Road","lat":"51.479132584252575","lng":"-0.167997883745491","distance":"22","postalCode":"SW11 4NP","cc":"GB","city":"London","state":"Greater London","country":"United Kingdom"},"categories":[{"id":"4bf58dd8d48988d1c4941735","name":"Restaurant","pluralName":"Restaurants","shortName":"Restaurant","icon":{"prefix":"https:\/\/ss1.4sqi.net\/img\/categories_v2\/food\/default_","suffix":".png"},"primary":"true"}],"verified":"false","restricted":"true","stats":{"checkinsCount":"163","usersCount":"51","tipCount":"1"},"specials":{"count":"0"},"hereNow":{"count":"0"},"referralId":"v-1392478103"},{"id":"4c260ac6f7ced13a088a256d","name":"Royal College of Art  Sackler Building","location":{"lat":"51.47884697453708","lng":"-0.16988312448024928","distance":"152","cc":"GB","country":"United Kingdom"},"verified":"false","restricted":"true","stats":{"checkinsCount":"81","usersCount":"36","tipCount":"0"},"specials":{"count":"0"},"hereNow":{"count":"0"},"referralId":"v-1392478103"},{"id":"4e82ee470aaf371d668080e1","name":"Royal College of Art - Dyson Building","location":{"lat":"51.479004189669254","lng":"-0.16977310180664062","distance":"140","cc":"GB","country":"United Kingdom"},"categories":[{"id":"4bf58dd8d48988d199941735","name":"College Arts Building","pluralName":"College Arts Buildings","shortName":"Arts","icon":{"prefix":"https:\/\/ss1.4sqi.net\/img\/categories_v2\/arts_entertainment\/default_","suffix":".png"},"primary":"true"}],"verified":"false","restricted":"true","stats":{"checkinsCount":"379","usersCount":"152","tipCount":"0"},"specials":{"count":"0"},"hereNow":{"count":"0"},"referralId":"v-1392478103"},{"id":"4adc60e0f964a520ef2b21e3","name":"Battersea Grill","contact":{"phone":"+442077389009","formattedPhone":"+44 20 7738 9009"},"location":{"address":"70 Battersea Bridge Rd.","crossStreet":"Parkgate Rd.","lat":"51.47842567744955","lng":"-0.17008078721564504","distance":"184","postalCode":"SW11 3AG","cc":"GB","city":"London","state":"Greater London","country":"United Kingdom"},"categories":[{"id":"4bf58dd8d48988d147941735","name":"Diner","pluralName":"Diners","shortName":"Diner","icon":{"prefix":"https:\/\/ss1.4sqi.net\/img\/categories_v2\/food\/diner_","suffix":".png"},"primary":"true"}],"verified":"false","restricted":"true","stats":{"checkinsCount":"671","usersCount":"198","tipCount":"15"},"url":"http:\/\/www.batterseagrill.co.uk","reservations":{"url":"http:\/\/www.toptable.co.uk\/single.aspx?rid=92649&ref=9601"},"menu":{"type":"Menu","label":"Menu","anchor":"View Menu","url":"https:\/\/foursquare.com\/v\/battersea-grill\/4adc60e0f964a520ef2b21e3\/menu","mobileUrl":"https:\/\/foursquare.com\/v\/4adc60e0f964a520ef2b21e3\/device_menu"},"specials":{"count":"0"},"hereNow":{"count":"0"},"referralId":"v-1392478103"},{"id":"4cac7466d971b1f7d98030e1","name":"BedHead Studio","location":{"address":"Ransom's Dock","lat":"51.479151927529834","lng":"-0.16740053156157167","distance":"31","postalCode":"SW11 4NP","cc":"GB","city":"London","state":"Greater London","country":"United Kingdom"},"categories":[{"id":"4bf58dd8d48988d124941735","name":"Office","pluralName":"Offices","shortName":"Office","icon":{"prefix":"https:\/\/ss1.4sqi.net\/img\/categories_v2\/building\/default_","suffix":".png"},"primary":"true"}],"verified":"false","restricted":"true","stats":{"checkinsCount":"20","usersCount":"10","tipCount":"0"},"specials":{"count":"0"},"hereNow":{"count":"0"},"referralId":"v-1392478103"},{"id":"4ae04c35f964a5208c7e21e3","name":"Bento","contact":{"phone":"+442072232071","formattedPhone":"+44 20 7223 2071"},"location":{"address":"53 Battersea Bridge Rd.","lat":"51.478335991385904","lng":"-0.1700305938720703","distance":"187","postalCode":"SW11 3AX","cc":"GB","city":"London","state":"Greater London","country":"United Kingdom"},"categories":[{"id":"4bf58dd8d48988d111941735","name":"Japanese Restaurant","pluralName":"Japanese Restaurants","shortName":"Japanese","icon":{"prefix":"https:\/\/ss1.4sqi.net\/img\/categories_v2\/food\/japanese_","suffix":".png"},"primary":"true"}],"verified":"false","restricted":"true","stats":{"checkinsCount":"385","usersCount":"75","tipCount":"4"},"specials":{"count":"0"},"hereNow":{"count":"0"},"referralId":"v-1392478103"},{"id":"4c51395e9a2d76b0413b64db","name":"TESTBED1","location":{"address":"33 Parkgate Rd","lat":"51.47936151127882","lng":"-0.16858804944916742","distance":"55","postalCode":"SW11 4NP","cc":"GB","city":"London","state":"Greater London","country":"United Kingdom"},"categories":[{"id":"4bf58dd8d48988d130941735","name":"Building","pluralName":"Buildings","shortName":"Building","icon":{"prefix":"https:\/\/ss1.4sqi.net\/img\/categories_v2\/building\/default_","suffix":".png"},"primary":"true"}],"verified":"false","restricted":"true","stats":{"checkinsCount":"67","usersCount":"58","tipCount":"1"},"specials":{"count":"0"},"hereNow":{"count":"0"},"referralId":"v-1392478103"},{"id":"4acf1c17f964a5206ed220e3","name":"INQ HQ","location":{"address":"6 Hester Rd","lat":"51.48059102036955","lng":"-0.16982403927110246","distance":"201","postalCode":"Sw11 4an","cc":"GB","city":"London","state":"Greater London","country":"United Kingdom"},"categories":[{"id":"4bf58dd8d48988d125941735","name":"Tech Startup","pluralName":"Tech Startups","shortName":"Tech Startup","icon":{"prefix":"https:\/\/ss1.4sqi.net\/img\/categories_v2\/shops\/technology_","suffix":".png"},"primary":"true"}],"verified":"false","restricted":"true","stats":{"checkinsCount":"2345","usersCount":"92","tipCount":"3"},"specials":{"count":"0"},"hereNow":{"count":"0"},"referralId":"v-1392478103"},{"id":"4ee720a4d3e34ebcf2507e3d","name":"XiX Entertainment","contact":{"twitter":"xix_news"},"location":{"address":"35-37 Parkgate Road","lat":"51.47913658546197","lng":"-0.16792677882174506","distance":"19","postalCode":"SW11 4NP","cc":"GB","city":"London","state":"Greater London","country":"United Kingdom"},"categories":[{"id":"4bf58dd8d48988d124941735","name":"Office","pluralName":"Offices","shortName":"Office","icon":{"prefix":"https:\/\/ss1.4sqi.net\/img\/categories_v2\/building\/default_","suffix":".png"},"primary":"true"}],"verified":"false","restricted":"true","stats":{"checkinsCount":"29","usersCount":"10","tipCount":"0"},"specials":{"count":"0"},"hereNow":{"count":"0"},"referralId":"v-1392478103"},{"id":"50b4c4fae4b047f57d7999a3","name":"Original Travel","contact":{"phone":"+442079787333","formattedPhone":"+44 20 7978 7333","twitter":"originaltravel"},"location":{"address":"21 Ransome's Dock","crossStreet":"35-37 Parkgate Road","lat":"51.479082","lng":"-0.168915","distance":"80","postalCode":"SW11 4NP","cc":"GB","city":"London","state":"Greater London","country":"United Kingdom"},"categories":[{"id":"4bf58dd8d48988d1f6931735","name":"General Travel","pluralName":"General Travel","shortName":"Travel","icon":{"prefix":"https:\/\/ss1.4sqi.net\/img\/categories_v2\/travel\/default_","suffix":".png"},"primary":"true"}],"verified":"false","restricted":"true","stats":{"checkinsCount":"13","usersCount":"4","tipCount":"0"},"specials":{"count":"0"},"hereNow":{"count":"0"},"referralId":"v-1392478103"},{"id":"4acf1f77f964a52078d220e3","name":"Hutchison House","location":{"address":"5 Hester Rd.","lat":"51.480591550503206","lng":"-0.1695369432975594","distance":"188","postalCode":"SW11 4AN","cc":"GB","city":"London","state":"Greater London","country":"United Kingdom"},"categories":[{"id":"4bf58dd8d48988d124941735","name":"Office","pluralName":"Offices","shortName":"Office","icon":{"prefix":"https:\/\/ss1.4sqi.net\/img\/categories_v2\/building\/default_","suffix":".png"},"primary":"true"}],"verified":"false","restricted":"true","stats":{"checkinsCount":"798","usersCount":"56","tipCount":"0"},"specials":{"count":"0"},"hereNow":{"count":"0"},"referralId":"v-1392478103"},{"id":"505cd397e4b0fa2eba4531e0","name":"Mantoos","contact":{"phone":"+442077381616","formattedPhone":"+44 20 7738 1616"},"location":{"address":"59 Battersea Bridge Rd","crossStreet":"at Parkgate Rd","lat":"51.47814","lng":"-0.169741","distance":"185","postalCode":"SW11 3AU","cc":"GB","city":"London","state":"Greater London","country":"United Kingdom"},"categories":[{"id":"503288ae91d4c4b30a586d67","name":"Afghan Restaurant","pluralName":"Afghan Restaurants","shortName":"Afghan","icon":{"prefix":"https:\/\/ss1.4sqi.net\/img\/categories_v2\/food\/default_","suffix":".png"},"primary":"true"}],"verified":"false","restricted":"true","stats":{"checkinsCount":"36","usersCount":"30","tipCount":"2"},"url":"http:\/\/www.mantoosrestaurant.com","reservations":{"url":"http:\/\/www.toptable.co.uk\/single.aspx?rid=92658&ref=9601"},"menu":{"type":"Menu","label":"Menu","anchor":"View Menu","url":"https:\/\/foursquare.com\/v\/mantoos\/505cd397e4b0fa2eba4531e0\/menu","mobileUrl":"https:\/\/foursquare.com\/v\/505cd397e4b0fa2eba4531e0\/device_menu"},"specials":{"count":"0"},"hereNow":{"count":"0"},"referralId":"v-1392478103"},{"id":"51f11067498ebeae1e6d478e","name":"YossarianLives!","location":{"lat":"51.47896889237631","lng":"-0.17041174217566857","distance":"184","cc":"GB","country":"United Kingdom"},"categories":[{"id":"4bf58dd8d48988d125941735","name":"Tech Startup","pluralName":"Tech Startups","shortName":"Tech Startup","icon":{"prefix":"https:\/\/ss1.4sqi.net\/img\/categories_v2\/shops\/technology_","suffix":".png"},"primary":"true"}],"verified":"false","restricted":"true","stats":{"checkinsCount":"47","usersCount":"5","tipCount":"0"},"specials":{"count":"0"},"hereNow":{"count":"0"},"referralId":"v-1392478103"},{"id":"4cac63072776b60ceee1500d","name":"bed head studio","location":{"lat":"51.478951627702486","lng":"-0.1679997648681583","distance":"39","postalCode":"SW11 4NP","cc":"GB","city":"London","state":"Greater London","country":"United Kingdom"},"categories":[{"id":"4bf58dd8d48988d124941735","name":"Office","pluralName":"Offices","shortName":"Office","icon":{"prefix":"https:\/\/ss1.4sqi.net\/img\/categories_v2\/building\/default_","suffix":".png"},"primary":"true"}],"verified":"false","restricted":"true","stats":{"checkinsCount":"16","usersCount":"10","tipCount":"0"},"specials":{"count":"0"},"hereNow":{"count":"0"},"referralId":"v-1392478103"},{"id":"4f12efb8e4b0725fed5eb0d4","name":"The Co-operative Food","contact":{"phone":"+442079785091","formattedPhone":"+44 20 7978 5091","twitter":"cooperativefood","facebook":"10150110761225377"},"location":{"address":"27-37 Battersea Bridge Road,","lat":"51.479240113189235","lng":"-0.17045186267051626","distance":"183","postalCode":"SW11 3BA","cc":"GB","city":"London","state":"Greater London","country":"United Kingdom"},"categories":[{"id":"4bf58dd8d48988d118951735","name":"Grocery Store","pluralName":"Grocery Stores","shortName":"Grocery Store","icon":{"prefix":"https:\/\/ss1.4sqi.net\/img\/categories_v2\/shops\/food_grocery_","suffix":".png"},"primary":"true"}],"verified":"true","restricted":"true","stats":{"checkinsCount":"415","usersCount":"68","tipCount":"2"},"url":"http:\/\/co-operativefood.co.uk","specials":{"count":"0"},"hereNow":{"count":"0"},"storeId":"5000128567543","referralId":"v-1392478103"},{"id":"523a5bc234569831a8869739","name":"Testbed 1","location":{"lat":"51.4789083","lng":"-0.1681247","distance":"47","cc":"GB","city":"London","state":"Greater London","country":"United Kingdom"},"verified":"false","restricted":"true","stats":{"checkinsCount":"0","usersCount":"0","tipCount":"0"},"specials":{"count":"0"},"hereNow":{"count":"0"},"referralId":"v-1392478103"},{"id":"51e687c3498e98a4b6ae524e","name":"Street Kitchen","location":{"lat":"51.479691","lng":"-0.168335","distance":"57","cc":"GB","country":"United Kingdom"},"categories":[{"id":"4bf58dd8d48988d1cb941735","name":"Food Truck","pluralName":"Food Trucks","shortName":"Food Truck","icon":{"prefix":"https:\/\/ss1.4sqi.net\/img\/categories_v2\/food\/streetfood_","suffix":".png"},"primary":"true"}],"verified":"false","restricted":"true","stats":{"checkinsCount":"7","usersCount":"5","tipCount":"1"},"specials":{"count":"0"},"hereNow":{"count":"0"},"referralId":"v-1392478103"},{"id":"4dce8589183899ddfad3e0be","name":"Costcutter Express","contact":{"phone":"+442079247108","formattedPhone":"+44 20 7924 7108"},"location":{"address":"Battersea Park Service Station","crossStreet":"15-25 Parkgate Road","lat":"51.478884996343886","lng":"-0.16807173702304962","distance":"48","postalCode":"SW11 4NP","cc":"GB","city":"London","state":"Greater London","country":"United Kingdom"},"categories":[{"id":"4bf58dd8d48988d118951735","name":"Grocery Store","pluralName":"Grocery Stores","shortName":"Grocery Store","icon":{"prefix":"https:\/\/ss1.4sqi.net\/img\/categories_v2\/shops\/food_grocery_","suffix":".png"},"primary":"true"}],"verified":"false","restricted":"true","stats":{"checkinsCount":"6","usersCount":"5","tipCount":"1"},"specials":{"count":"0"},"hereNow":{"count":"0"},"referralId":"v-1392478103"},{"id":"52e7ea8e498e2e9e3848e199","name":"Augustine Kitchen","contact":{"twitter":"augustinesw11"},"location":{"address":"63 Battersea Bridge Rd","lat":"51.478229","lng":"-0.169581","distance":"170","postalCode":"SW11 3AU","cc":"GB","city":"London","state":"Greater London","country":"United Kingdom"},"categories":[{"id":"4bf58dd8d48988d10c941735","name":"French Restaurant","pluralName":"French Restaurants","shortName":"French","icon":{"prefix":"https:\/\/ss1.4sqi.net\/img\/categories_v2\/food\/french_","suffix":".png"},"primary":"true"}],"verified":"false","restricted":"true","stats":{"checkinsCount":"3","usersCount":"3","tipCount":"0"},"reservations":{"url":"http:\/\/www.toptable.co.uk\/single.aspx?rid=100170&ref=9601"},"menu":{"type":"Menu","label":"Menu","anchor":"View Menu","url":"https:\/\/foursquare.com\/v\/augustine-kitchen\/52e7ea8e498e2e9e3848e199\/menu","mobileUrl":"https:\/\/foursquare.com\/v\/52e7ea8e498e2e9e3848e199\/device_menu"},"specials":{"count":"0"},"hereNow":{"count":"0"},"referralId":"v-1392478103"}],"confident":"true"}}