{"meta":{"code":"200"},"response":{"venues":[{"id":"52209af911d21eb5f3dfaaf8","name":"Davictor Salon","location":{"lat":"51.494214","lng":"-0.157813","distance":"8","cc":"GB","country":"United Kingdom"},"categories":[{"id":"4bf58dd8d48988d110951735","name":"Salon \/ Barbershop","pluralName":"Salons \/ Barbershops","shortName":"Salon \/ Barbershop","icon":{"prefix":"https:\/\/ss1.4sqi.net\/img\/categories_v2\/shops\/salon_barber_","suffix":".png"},"primary":"true"}],"verified":"false","restricted":"true","stats":{"checkinsCount":"4","usersCount":"4","tipCount":"0"},"specials":{"count":"0"},"hereNow":{"count":"0"},"referralId":"v-1392478065"},{"id":"506ac702e4b0dcfc950fce65","name":"Caf\u00e9 Colbert","contact":{"phone":"+442077302804","formattedPhone":"+44 20 7730 2804"},"location":{"address":"50-52 Sloane Square","lat":"51.49266685219625","lng":"-0.15696545085858152","distance":"189","postalCode":"SW1W 8AX","cc":"GB","city":"Chelsea","state":"Greater London","country":"United Kingdom"},"categories":[{"id":"4bf58dd8d48988d10c941735","name":"French Restaurant","pluralName":"French Restaurants","shortName":"French","icon":{"prefix":"https:\/\/ss1.4sqi.net\/img\/categories_v2\/food\/french_","suffix":".png"},"primary":"true"}],"verified":"false","restricted":"true","stats":{"checkinsCount":"1148","usersCount":"831","tipCount":"31"},"url":"http:\/\/www.colbertchelsea.com","reservations":{"url":"http:\/\/www.toptable.co.uk\/single.aspx?rid=92592&ref=9601"},"menu":{"type":"Menu","label":"Menu","anchor":"View Menu","url":"https:\/\/foursquare.com\/v\/caf%C3%A9-colbert\/506ac702e4b0dcfc950fce65\/menu","mobileUrl":"https:\/\/foursquare.com\/v\/506ac702e4b0dcfc950fce65\/device_menu"},"specials":{"count":"0"},"hereNow":{"count":"3","groups":[{"type":"others","name":"Other people here","count":"3"}]},"referralId":"v-1392478065"},{"id":"4ad0b37ef964a52035d920e3","name":"The Botanist","contact":{"phone":"+442077300077","formattedPhone":"+44 20 7730 0077","twitter":"the_botanistsw1","facebook":"159501604061517"},"location":{"address":"7 Sloane Sq","lat":"51.492631383601214","lng":"-0.15697722269970396","distance":"193","postalCode":"SW1W 8EE","cc":"GB","city":"Kensington","state":"Greater London","country":"United Kingdom"},"categories":[{"id":"4bf58dd8d48988d1c4941735","name":"Restaurant","pluralName":"Restaurants","shortName":"Restaurant","icon":{"prefix":"https:\/\/ss1.4sqi.net\/img\/categories_v2\/food\/default_","suffix":".png"},"primary":"true"}],"verified":"true","restricted":"true","stats":{"checkinsCount":"2876","usersCount":"1859","tipCount":"42"},"url":"http:\/\/www.thebotanistonsloanesquare.com","reservations":{"url":"http:\/\/www.toptable.co.uk\/single.aspx?rid=25276&ref=9601"},"menu":{"type":"Menu","label":"Menu","anchor":"View Menu","url":"https:\/\/foursquare.com\/v\/the-botanist\/4ad0b37ef964a52035d920e3\/menu","mobileUrl":"https:\/\/foursquare.com\/v\/4ad0b37ef964a52035d920e3\/device_menu"},"specials":{"count":"0"},"hereNow":{"count":"1","groups":[{"type":"others","name":"Other people here","count":"1"}]},"venuePage":{"id":"39619667"},"storeId":"","referralId":"v-1392478065"},{"id":"4eb12e8e8231768562480507","name":"Oakley Capital","location":{"address":"3 Cadogan Gate","lat":"51.494409344709055","lng":"-0.15819742117170085","distance":"30","cc":"GB","city":"London","state":"Greater London","country":"United Kingdom"},"categories":[{"id":"4bf58dd8d48988d124941735","name":"Office","pluralName":"Offices","shortName":"Office","icon":{"prefix":"https:\/\/ss1.4sqi.net\/img\/categories_v2\/building\/default_","suffix":".png"},"primary":"true"}],"verified":"false","restricted":"true","stats":{"checkinsCount":"15","usersCount":"10","tipCount":"0"},"specials":{"count":"0"},"hereNow":{"count":"0"},"referralId":"v-1392478065"},{"id":"4ac518e9f964a520baab20e3","name":"Cadogan Hall","contact":{"phone":"+442077304500","formattedPhone":"+44 20 7730 4500","twitter":"cadoganhall"},"location":{"address":"5 Sloane Terrace","lat":"51.49361729621887","lng":"-0.157258","distance":"83","postalCode":"SW1X 9DQ","cc":"GB","city":"London","state":"Greater London","country":"United Kingdom"},"categories":[{"id":"5032792091d4c4b30a586d5c","name":"Concert Hall","pluralName":"Concert Halls","shortName":"Concert Hall","icon":{"prefix":"https:\/\/ss1.4sqi.net\/img\/categories_v2\/arts_entertainment\/musicvenue_","suffix":".png"},"primary":"true"}],"verified":"false","restricted":"true","stats":{"checkinsCount":"1009","usersCount":"782","tipCount":"10"},"url":"http:\/\/www.cadoganhall.com","specials":{"count":"0"},"hereNow":{"count":"0"},"referralId":"v-1392478065"},{"id":"4ac518f0f964a520bcad20e3","name":"Hackett","location":{"address":"137-138 Sloane Street","lat":"51.49323538109905","lng":"-0.1578936316326914","distance":"117","postalCode":"SW1X 9AY","cc":"GB","city":"London","state":"Greater London","country":"United Kingdom"},"categories":[{"id":"4bf58dd8d48988d106951735","name":"Men's Store","pluralName":"Men's Stores","shortName":"Men's Store","icon":{"prefix":"https:\/\/ss1.4sqi.net\/img\/categories_v2\/shops\/apparel_men_","suffix":".png"},"primary":"true"}],"verified":"false","restricted":"true","stats":{"checkinsCount":"108","usersCount":"74","tipCount":"1"},"specials":{"count":"0"},"hereNow":{"count":"1","groups":[{"type":"others","name":"Other people here","count":"1"}]},"referralId":"v-1392478065"},{"id":"508ace3ce4b032cef198ce86","name":"Tonteria Express","contact":{"phone":"+442078815991","formattedPhone":"+44 20 7881 5991","twitter":"tonteriaexpress"},"location":{"address":"7-12 Sloane Square","lat":"51.4926617667013","lng":"-0.15707999502670164","distance":"187","postalCode":"SW1W 8EG","cc":"GB","city":"London","state":"Greater London","country":"United Kingdom"},"categories":[{"id":"4bf58dd8d48988d11e941735","name":"Cocktail Bar","pluralName":"Cocktail Bars","shortName":"Cocktail","icon":{"prefix":"https:\/\/ss1.4sqi.net\/img\/categories_v2\/nightlife\/cocktails_","suffix":".png"},"primary":"true"}],"verified":"false","restricted":"true","stats":{"checkinsCount":"434","usersCount":"326","tipCount":"9"},"url":"http:\/\/velvet-pr.com\/guestlists\/tonteria-guestlist\/","specials":{"count":"0"},"hereNow":{"count":"0"},"referralId":"v-1392478065"},{"id":"4b1cebdaf964a5207c0a24e3","name":"C\u00f4te Brasserie","location":{"address":"7-12 Sloane Sq","lat":"51.49264091095961","lng":"-0.15720088753153066","distance":"188","postalCode":"SW1W 8EG","cc":"GB","city":"London","state":"Greater London","country":"United Kingdom"},"categories":[{"id":"4bf58dd8d48988d10c941735","name":"French Restaurant","pluralName":"French Restaurants","shortName":"French","icon":{"prefix":"https:\/\/ss1.4sqi.net\/img\/categories_v2\/food\/french_","suffix":".png"},"primary":"true"}],"verified":"true","restricted":"true","stats":{"checkinsCount":"745","usersCount":"613","tipCount":"12"},"menu":{"type":"Menu","label":"Menu","anchor":"View Menu","url":"https:\/\/foursquare.com\/v\/c%C3%B4te-brasserie\/4b1cebdaf964a5207c0a24e3\/menu","mobileUrl":"https:\/\/foursquare.com\/v\/4b1cebdaf964a5207c0a24e3\/device_menu"},"specials":{"count":"0"},"hereNow":{"count":"0"},"storeId":"","referralId":"v-1392478065"},{"id":"4ac518bef964a520fba220e3","name":"The Antelope","contact":{"phone":"+442078248512","formattedPhone":"+44 20 7824 8512"},"location":{"address":"22 Eaton Terrace","lat":"51.49396745556143","lng":"-0.1553305938054493","distance":"175","postalCode":"SW1W 8EZ","cc":"GB","city":"London","state":"Greater London","country":"United Kingdom"},"categories":[{"id":"4bf58dd8d48988d11b941735","name":"Pub","pluralName":"Pubs","shortName":"Pub","icon":{"prefix":"https:\/\/ss1.4sqi.net\/img\/categories_v2\/nightlife\/pub_","suffix":".png"},"primary":"true"}],"verified":"false","restricted":"true","stats":{"checkinsCount":"583","usersCount":"408","tipCount":"9"},"specials":{"count":"0"},"hereNow":{"count":"0"},"referralId":"v-1392478065"},{"id":"4fc75c26e4b024723067b12a","name":"Bus Stop A @ Sloane Street \/ Sloane Square Station","location":{"lat":"51.49436899567938","lng":"-0.15815789512624528","distance":"26","cc":"GB","country":"United Kingdom"},"categories":[{"id":"4bf58dd8d48988d1fe931735","name":"Bus Station","pluralName":"Bus Stations","shortName":"Bus Station","icon":{"prefix":"https:\/\/ss1.4sqi.net\/img\/categories_v2\/travel\/busstation_","suffix":".png"},"primary":"true"}],"verified":"false","restricted":"true","stats":{"checkinsCount":"7","usersCount":"4","tipCount":"0"},"specials":{"count":"0"},"hereNow":{"count":"0"},"referralId":"v-1392478065"},{"id":"4cd3ffbd2561a35dff4b34dd","name":"French Sole","location":{"lat":"51.49428734500835","lng":"-0.1576633499173853","distance":"9","cc":"GB","country":"United Kingdom"},"categories":[{"id":"4bf58dd8d48988d107951735","name":"Shoe Store","pluralName":"Shoe Stores","shortName":"Shoes","icon":{"prefix":"https:\/\/ss1.4sqi.net\/img\/categories_v2\/shops\/apparel_shoestore_","suffix":".png"},"primary":"true"}],"verified":"false","restricted":"true","stats":{"checkinsCount":"18","usersCount":"17","tipCount":"0"},"specials":{"count":"0"},"hereNow":{"count":"0"},"referralId":"v-1392478065"},{"id":"4b50668af964a520492227e3","name":"Lulu Guinness","contact":{"phone":"+442078234828","formattedPhone":"+44 20 7823 4828","twitter":"luluguinness"},"location":{"address":"3 Ellis St","crossStreet":"Sloane St","lat":"51.49427744365272","lng":"-0.1576472327771888","distance":"10","postalCode":"SW1X 9AL","cc":"GB","city":"London","state":"Greater London","country":"United Kingdom"},"categories":[{"id":"4bf58dd8d48988d102951735","name":"Accessories Store","pluralName":"Accessories Stores","shortName":"Accessories","icon":{"prefix":"https:\/\/ss1.4sqi.net\/img\/categories_v2\/shops\/apparel_accessories_","suffix":".png"},"primary":"true"}],"verified":"false","restricted":"true","stats":{"checkinsCount":"19","usersCount":"15","tipCount":"1"},"url":"http:\/\/www.luluguinness.com","specials":{"count":"0"},"hereNow":{"count":"0"},"referralId":"v-1392478065"},{"id":"4ac518f3f964a520bbae20e3","name":"Jo Malone","location":{"address":"150 Sloane Street","lat":"51.4935556","lng":"-0.1579669","distance":"82","postalCode":"SW1X 9BX","cc":"GB","city":"London","state":"Greater London","country":"United Kingdom"},"categories":[{"id":"4bf58dd8d48988d1ff941735","name":"Miscellaneous Shop","pluralName":"Miscellaneous Shops","shortName":"Shop","icon":{"prefix":"https:\/\/ss1.4sqi.net\/img\/categories_v2\/shops\/default_","suffix":".png"},"primary":"true"}],"verified":"false","restricted":"true","stats":{"checkinsCount":"97","usersCount":"78","tipCount":"1"},"specials":{"count":"0"},"hereNow":{"count":"0"},"referralId":"v-1392478065"},{"id":"4c7e2e56b53db1f7e7249f11","name":"Piccolo Bar","location":{"address":"150 Sloane St.","lat":"51.493403887946265","lng":"-0.1579556360695651","distance":"99","postalCode":"SW1X 9BZ","cc":"GB","city":"Chelsea","state":"Greater London","country":"United Kingdom"},"categories":[{"id":"4bf58dd8d48988d16d941735","name":"Caf\u00e9","pluralName":"Caf\u00e9s","shortName":"Caf\u00e9","icon":{"prefix":"https:\/\/ss1.4sqi.net\/img\/categories_v2\/food\/cafe_","suffix":".png"},"primary":"true"}],"verified":"false","restricted":"true","stats":{"checkinsCount":"185","usersCount":"68","tipCount":"7"},"specials":{"count":"0"},"hereNow":{"count":"0"},"referralId":"v-1392478065"},{"id":"4c666f6019f3c9b600da9fff","name":"Wilbraham Place Practice","contact":{"phone":"+442077307928","formattedPhone":"+44 20 7730 7928"},"location":{"address":"9A Wilbraham Pl.","lat":"51.494047","lng":"-0.157092","distance":"56","postalCode":"SW1X 9AE","cc":"GB","city":"London","state":"Greater London","country":"United Kingdom"},"categories":[{"id":"4bf58dd8d48988d104941735","name":"Medical Center","pluralName":"Medical Centers","shortName":"Medical","icon":{"prefix":"https:\/\/ss1.4sqi.net\/img\/categories_v2\/building\/medical_","suffix":".png"},"primary":"true"}],"verified":"false","restricted":"true","stats":{"checkinsCount":"16","usersCount":"6","tipCount":"0"},"url":"http:\/\/www.wppractice.com","specials":{"count":"0"},"hereNow":{"count":"0"},"referralId":"v-1392478065"},{"id":"5062319ee4b0bfc63a8a9dee","name":"\u041f\u0440\u0438\u0437\u0440\u0430\u0447\u043d\u043e\u0435 \u041b\u043e\u0433\u043e\u0432\u043e \u041d\u0438\u043a\u0438\u0442\u043e\u0441\u0438\u043d\u044b","location":{"lat":"51.494253","lng":"-0.15767","distance":"10","cc":"GB","country":"United Kingdom"},"categories":[{"id":"4bf58dd8d48988d1d8941735","name":"Gay Bar","pluralName":"Gay Bars","shortName":"Gay Bar","icon":{"prefix":"https:\/\/ss1.4sqi.net\/img\/categories_v2\/nightlife\/gaybar_","suffix":".png"},"primary":"true"}],"verified":"false","restricted":"true","stats":{"checkinsCount":"2","usersCount":"2","tipCount":"0"},"specials":{"count":"0"},"hereNow":{"count":"0"},"referralId":"v-1392478065"},{"id":"4bb9eeceb35776b0954cca01","name":"Cocomaya","contact":{"phone":"+442072590164","formattedPhone":"+44 20 7259 0164"},"location":{"address":"Unit 10, 186 Pavilion Rd.","lat":"51.49303409238195","lng":"-0.1586151123046875","distance":"150","postalCode":"SW1X 0BJ","cc":"GB","city":"London","state":"Greater London","country":"United Kingdom"},"categories":[{"id":"4bf58dd8d48988d16a941735","name":"Bakery","pluralName":"Bakeries","shortName":"Bakery","icon":{"prefix":"https:\/\/ss1.4sqi.net\/img\/categories_v2\/food\/bakery_","suffix":".png"},"primary":"true"}],"verified":"false","restricted":"true","stats":{"checkinsCount":"297","usersCount":"197","tipCount":"17"},"menu":{"type":"Menu","label":"Menu","anchor":"View Menu","url":"https:\/\/foursquare.com\/v\/cocomaya\/4bb9eeceb35776b0954cca01\/menu","mobileUrl":"https:\/\/foursquare.com\/v\/4bb9eeceb35776b0954cca01\/device_menu"},"specials":{"count":"0"},"hereNow":{"count":"0"},"referralId":"v-1392478065"},{"id":"4d5a82d7f8ff236a94bfd64a","name":"ProFounders","location":{"lat":"51.49429153441349","lng":"-0.15887012883742668","distance":"73","postalCode":"SW3 2","cc":"GB","city":"Kensington","state":"Greater London","country":"United Kingdom"},"categories":[{"id":"4bf58dd8d48988d125941735","name":"Tech Startup","pluralName":"Tech Startups","shortName":"Tech Startup","icon":{"prefix":"https:\/\/ss1.4sqi.net\/img\/categories_v2\/shops\/technology_","suffix":".png"},"primary":"true"}],"verified":"false","restricted":"true","stats":{"checkinsCount":"17","usersCount":"15","tipCount":"0"},"specials":{"count":"0"},"hereNow":{"count":"0"},"referralId":"v-1392478065"},{"id":"4ac518b8f964a52080a120e3","name":"Sloane Square Hotel","contact":{"phone":"+442078969988","formattedPhone":"+44 20 7896 9988"},"location":{"address":"12 Sloane Sq","crossStreet":"Kings Rd","lat":"51.49275379598269","lng":"-0.15736771439753341","distance":"173","postalCode":"SW1W 8EGT","cc":"GB","city":"London","state":"Greater London","country":"United Kingdom"},"categories":[{"id":"4bf58dd8d48988d1fa931735","name":"Hotel","pluralName":"Hotels","shortName":"Hotel","icon":{"prefix":"https:\/\/ss1.4sqi.net\/img\/categories_v2\/travel\/hotel_","suffix":".png"},"primary":"true"}],"verified":"true","restricted":"true","stats":{"checkinsCount":"531","usersCount":"242","tipCount":"2"},"url":"http:\/\/www.sloanesquarehotel.co.uk","specials":{"count":"0"},"hereNow":{"count":"0"},"storeId":"","referralId":"v-1392478065"},{"id":"4ca22a30f832a1cd4cc292e5","name":"Rehab","location":{"address":"9a, Wilbraham Place","lat":"51.494336","lng":"-0.157617","distance":"13","postalCode":"SW1","cc":"GB","city":"Kensington","state":"Greater London","country":"United Kingdom"},"verified":"false","restricted":"true","stats":{"checkinsCount":"5","usersCount":"3","tipCount":"0"},"specials":{"count":"0"},"hereNow":{"count":"0"},"referralId":"v-1392478065"},{"id":"5124e9db72dae978e657895a","name":"Chiropractor London","contact":{"phone":"+442036081348","formattedPhone":"+44 20 3608 1348"},"location":{"address":"7 Wilbraham Place","lat":"51.494156298116394","lng":"-0.15769243240356445","distance":"16","postalCode":"E17 7DW","cc":"GB","city":"London","state":"Greater London","country":"United Kingdom"},"verified":"false","restricted":"true","stats":{"checkinsCount":"0","usersCount":"0","tipCount":"0"},"specials":{"count":"0"},"hereNow":{"count":"0"},"referralId":"v-1392478065"},{"id":"4ac518f4f964a520d7ae20e3","name":"Chlo\u00e9","location":{"address":"152-153 Sloane Street","lat":"51.49379971284749","lng":"-0.1579838599612668","distance":"55","postalCode":"SW1X 9BX","cc":"GB","city":"London","state":"Greater London","country":"United Kingdom"},"categories":[{"id":"4bf58dd8d48988d102951735","name":"Accessories Store","pluralName":"Accessories Stores","shortName":"Accessories","icon":{"prefix":"https:\/\/ss1.4sqi.net\/img\/categories_v2\/shops\/apparel_accessories_","suffix":".png"},"primary":"true"}],"verified":"false","restricted":"true","stats":{"checkinsCount":"81","usersCount":"39","tipCount":"0"},"specials":{"count":"0"},"hereNow":{"count":"0"},"referralId":"v-1392478065"},{"id":"4c0a6f3232daef3b06a44b50","name":"Cadogan Square Gardens","location":{"address":"Cadogan Square","lat":"51.495161265791985","lng":"-0.15887420631130822","distance":"122","cc":"GB","city":"London","state":"Greater London","country":"United Kingdom"},"categories":[{"id":"4bf58dd8d48988d15a941735","name":"Garden","pluralName":"Gardens","shortName":"Garden","icon":{"prefix":"https:\/\/ss1.4sqi.net\/img\/categories_v2\/parks_outdoors\/garden_","suffix":".png"},"primary":"true"}],"verified":"false","restricted":"true","stats":{"checkinsCount":"390","usersCount":"209","tipCount":"1"},"specials":{"count":"0"},"hereNow":{"count":"0"},"referralId":"v-1392478065"},{"id":"50623335e4b0b8dc40d1a850","name":"\u041f\u0440\u0438\u0437\u0440\u0430\u0447\u043d\u043e\u0435 \u041b\u043e\u0433\u043e\u0432\u043e \u041d\u0438\u043a\u0438\u0442\u043e\u0441\u0438\u043d\u044b","location":{"lat":"51.494238","lng":"-0.157528","distance":"19","cc":"GB","country":"United Kingdom"},"categories":[{"id":"4deefb944765f83613cdba6e","name":"Historic Site","pluralName":"Historic Sites","shortName":"Historic Site","icon":{"prefix":"https:\/\/ss1.4sqi.net\/img\/categories_v2\/arts_entertainment\/historicsite_","suffix":".png"},"primary":"true"}],"verified":"false","restricted":"true","stats":{"checkinsCount":"2","usersCount":"2","tipCount":"1"},"specials":{"count":"0"},"hereNow":{"count":"0"},"referralId":"v-1392478065"},{"id":"4ac518b5f964a520a6a020e3","name":"No.11 Cadogan Gardens","contact":{"phone":"+442077307000","formattedPhone":"+44 20 7730 7000","twitter":"no11cg"},"location":{"address":"11 Cadogan Gardens","crossStreet":"Knightsbridge","lat":"51.493533","lng":"-0.159529","distance":"146","postalCode":"SW3 2RJ","cc":"GB","city":"London","state":"Greater London","country":"United Kingdom"},"categories":[{"id":"4bf58dd8d48988d1fa931735","name":"Hotel","pluralName":"Hotels","shortName":"Hotel","icon":{"prefix":"https:\/\/ss1.4sqi.net\/img\/categories_v2\/travel\/hotel_","suffix":".png"},"primary":"true"}],"verified":"true","restricted":"true","stats":{"checkinsCount":"227","usersCount":"153","tipCount":"0"},"url":"http:\/\/www.no11cadogangardens.com","menu":{"type":"Menu","label":"Menu","anchor":"View Menu","url":"https:\/\/foursquare.com\/v\/no11-cadogan-gardens\/4ac518b5f964a520a6a020e3\/menu","mobileUrl":"https:\/\/foursquare.com\/v\/4ac518b5f964a520a6a020e3\/device_menu"},"specials":{"count":"0"},"hereNow":{"count":"0"},"venuePage":{"id":"66918537"},"storeId":"","referralId":"v-1392478065"},{"id":"51b936ba698f0695d298e657","name":"Tartufo","location":{"address":"11 Cadogan Gardens","lat":"51.4929548","lng":"-0.159217","distance":"177","postalCode":"SW3 2RJ","cc":"GB","city":"London","state":"Greater London","country":"United Kingdom"},"categories":[{"id":"4bf58dd8d48988d1c4941735","name":"Restaurant","pluralName":"Restaurants","shortName":"Restaurant","icon":{"prefix":"https:\/\/ss1.4sqi.net\/img\/categories_v2\/food\/default_","suffix":".png"},"primary":"true"}],"verified":"false","restricted":"true","stats":{"checkinsCount":"20","usersCount":"17","tipCount":"0"},"url":"http:\/\/www.tartufolondon.co.uk","reservations":{"url":"http:\/\/www.toptable.co.uk\/single.aspx?rid=94848&ref=9601"},"menu":{"type":"Menu","label":"Menu","anchor":"View Menu","url":"https:\/\/foursquare.com\/v\/tartufo-london-greater-london\/51b936ba698f0695d298e657\/menu","mobileUrl":"https:\/\/foursquare.com\/v\/51b936ba698f0695d298e657\/device_menu"},"specials":{"count":"0"},"hereNow":{"count":"0"},"referralId":"v-1392478065"},{"id":"4bbc9f1af57ba593f8f9acb9","name":"Smythson","contact":{"phone":"+442077305520","formattedPhone":"+44 20 7730 5520","twitter":"smythson"},"location":{"address":"135 Sloane St","lat":"51.4934348833156","lng":"-0.1581430435180664","distance":"97","postalCode":"SW1X 9AX","cc":"GB","city":"London","state":"Greater London","country":"United Kingdom"},"categories":[{"id":"4bf58dd8d48988d1ff941735","name":"Miscellaneous Shop","pluralName":"Miscellaneous Shops","shortName":"Shop","icon":{"prefix":"https:\/\/ss1.4sqi.net\/img\/categories_v2\/shops\/default_","suffix":".png"},"primary":"true"}],"verified":"true","restricted":"true","stats":{"checkinsCount":"30","usersCount":"22","tipCount":"0"},"specials":{"count":"0"},"hereNow":{"count":"0"},"referralId":"v-1392478065"},{"id":"4b8e3181f964a520021b33e3","name":"Thomas Pink","contact":{"phone":"+442072450202","formattedPhone":"+44 20 7245 0202"},"location":{"address":"162B Sloane St","lat":"51.49417946567348","lng":"-0.15821745200124646","distance":"31","postalCode":"SW1X 9BS","cc":"GB","city":"London","state":"Greater London","country":"United Kingdom"},"categories":[{"id":"4bf58dd8d48988d104951735","name":"Boutique","pluralName":"Boutiques","shortName":"Boutique","icon":{"prefix":"https:\/\/ss1.4sqi.net\/img\/categories_v2\/shops\/apparel_boutique_","suffix":".png"},"primary":"true"}],"verified":"false","restricted":"true","stats":{"checkinsCount":"27","usersCount":"23","tipCount":"0"},"specials":{"count":"0"},"hereNow":{"count":"0"},"referralId":"v-1392478065"},{"id":"52f23653498e2ae6e106fc37","name":"Murdock at Hackett","contact":{"phone":"+442033937946","formattedPhone":"+44 20 3393 7946"},"location":{"address":"137 Sloane Street","lat":"51.493257","lng":"-0.157932","distance":"115","postalCode":"SW1X 9AY","cc":"GB","city":"London","state":"Greater London","country":"United Kingdom"},"categories":[{"id":"4bf58dd8d48988d110951735","name":"Salon \/ Barbershop","pluralName":"Salons \/ Barbershops","shortName":"Salon \/ Barbershop","icon":{"prefix":"https:\/\/ss1.4sqi.net\/img\/categories_v2\/shops\/salon_barber_","suffix":".png"},"primary":"true"}],"verified":"false","restricted":"true","stats":{"checkinsCount":"1","usersCount":"1","tipCount":"0"},"specials":{"count":"0"},"hereNow":{"count":"0"},"referralId":"v-1392478065"},{"id":"50ca02c7245f2d4aa8c2c9dd","name":"Trader Vic'S","contact":{"phone":"+442074938000","formattedPhone":"+44 20 7493 8000","twitter":"hiltonhotels"},"location":{"address":"22 Park Lane","crossStreet":"London Hilton on Park Lane","lat":"51.49340441613885","lng":"-0.1582295009854181","distance":"102","postalCode":"W1K 1BE","cc":"GB","city":"London","country":"United Kingdom"},"categories":[{"id":"4bf58dd8d48988d1c4941735","name":"Restaurant","pluralName":"Restaurants","shortName":"Restaurant","icon":{"prefix":"https:\/\/ss1.4sqi.net\/img\/categories_v2\/food\/default_","suffix":".png"},"primary":"true"}],"verified":"true","restricted":"true","stats":{"checkinsCount":"18","usersCount":"18","tipCount":"0"},"specials":{"count":"0"},"hereNow":{"count":"0"},"storeId":"LONHITW","referralId":"v-1392478065"}],"confident":"true"}}