{"meta":{"code":"200"},"response":{"venues":[{"id":"4d826532bb2c54818913e3ab","name":"Tesco Express","contact":{"phone":"+448456746411","formattedPhone":"+44 845 674 6411","twitter":"uktescooffers"},"location":{"address":"Imperial Wharf","lat":"51.47432659610822","lng":"-0.18402099609375","distance":"262","postalCode":"SW6 2TW","cc":"GB","city":"London","state":"Greater London","country":"United Kingdom"},"categories":[{"id":"4bf58dd8d48988d118951735","name":"Grocery Store","pluralName":"Grocery Stores","shortName":"Grocery Store","icon":{"prefix":"https:\/\/ss1.4sqi.net\/img\/categories_v2\/shops\/food_grocery_","suffix":".png"},"primary":"true"}],"verified":"true","restricted":"true","stats":{"checkinsCount":"756","usersCount":"151","tipCount":"7"},"url":"http:\/\/www.tesco.com","specials":{"count":"0"},"hereNow":{"count":"0"},"storeId":"6315","referralId":"v-1392478114"},{"id":"4ba62462f964a5208e3639e3","name":"Wandsworth Bridge Road","location":{"address":"Wandsworth Bridge Rd","lat":"51.472579912182276","lng":"-0.19176169239945182","distance":"333","postalCode":"SW6 2TJ","cc":"GB","city":"Fulham","state":"Greater London","country":"United Kingdom"},"categories":[{"id":"4bf58dd8d48988d1df941735","name":"Bridge","pluralName":"Bridges","shortName":"Bridge","icon":{"prefix":"https:\/\/ss1.4sqi.net\/img\/categories_v2\/parks_outdoors\/bridge_","suffix":".png"},"primary":"true"}],"verified":"false","restricted":"true","stats":{"checkinsCount":"738","usersCount":"224","tipCount":"6"},"specials":{"count":"0"},"hereNow":{"count":"0"},"referralId":"v-1392478114"},{"id":"4ecf7279b634dd2990571a29","name":"Elizabeeth Queen","contact":{"phone":"+442073849138","formattedPhone":"+44 20 7384 9138"},"location":{"address":"58 Bagleys Ln.","lat":"51.47477001766278","lng":"-0.18881925498008773","distance":"88","postalCode":"SW6 2BH","cc":"GB","city":"Fulham","state":"Greater London","country":"United Kingdom"},"categories":[{"id":"4bf58dd8d48988d1ee931735","name":"Hostel","pluralName":"Hostels","shortName":"Hostel","icon":{"prefix":"https:\/\/ss1.4sqi.net\/img\/categories_v2\/travel\/hostel_","suffix":".png"},"primary":"true"}],"verified":"false","restricted":"true","stats":{"checkinsCount":"422","usersCount":"124","tipCount":"8"},"specials":{"count":"0"},"hereNow":{"count":"0"},"referralId":"v-1392478114"},{"id":"5036b36acc6417d4bcd9a1ba","name":"Imperial Wharf London Overground Station","contact":{"phone":"+448432221234","formattedPhone":"+44 843 222 1234","twitter":"tflofficial","facebook":"212038972186253"},"location":{"address":"Townmead Rd.","lat":"51.47502027116863","lng":"-0.1829878974018347","distance":"343","postalCode":"SW6 2ZH","cc":"GB","city":"London","state":"Greater London","country":"United Kingdom"},"categories":[{"id":"4bf58dd8d48988d129951735","name":"Train Station","pluralName":"Train Stations","shortName":"Train Station","icon":{"prefix":"https:\/\/ss1.4sqi.net\/img\/categories_v2\/travel\/trainstation_","suffix":".png"},"primary":"true"}],"verified":"true","restricted":"true","stats":{"checkinsCount":"3097","usersCount":"982","tipCount":"7"},"url":"http:\/\/www.tfl.gov.uk\/livetravelnews","specials":{"count":"0"},"hereNow":{"count":"0"},"storeId":"","referralId":"v-1392478114"},{"id":"4aff2919f964a520263522e3","name":"The Sands End","contact":{"phone":"+442077317823","formattedPhone":"+44 20 7731 7823"},"location":{"address":"135-137 Stephendale Road London","lat":"51.471085410681944","lng":"-0.18720746040344238","distance":"359","postalCode":"SW6 2PR","cc":"GB","city":"London","state":"Greater London","country":"United Kingdom"},"categories":[{"id":"4bf58dd8d48988d155941735","name":"Gastropub","pluralName":"Gastropubs","shortName":"Gastropub","icon":{"prefix":"https:\/\/ss1.4sqi.net\/img\/categories_v2\/food\/gastropub_","suffix":".png"},"primary":"true"}],"verified":"false","restricted":"true","stats":{"checkinsCount":"803","usersCount":"306","tipCount":"18"},"reservations":{"url":"http:\/\/www.toptable.co.uk\/single.aspx?rid=25378&ref=9601"},"menu":{"type":"Menu","label":"Menu","anchor":"View Menu","url":"https:\/\/foursquare.com\/v\/the-sands-end-london-uk\/4aff2919f964a520263522e3\/menu","mobileUrl":"https:\/\/foursquare.com\/v\/4aff2919f964a520263522e3\/device_menu"},"specials":{"count":"0"},"hereNow":{"count":"0"},"referralId":"v-1392478114"},{"id":"4c763e68ff1fb60c3254f8a7","name":"Chelsea Apps Factory","location":{"lat":"51.476112191355085","lng":"-0.18688159504535162","distance":"212","cc":"GB","country":"United Kingdom"},"categories":[{"id":"4bf58dd8d48988d171941735","name":"Event Space","pluralName":"Event Spaces","shortName":"Event Space","icon":{"prefix":"https:\/\/ss1.4sqi.net\/img\/categories_v2\/building\/eventspace_","suffix":".png"},"primary":"true"}],"verified":"false","restricted":"true","stats":{"checkinsCount":"791","usersCount":"47","tipCount":"1"},"specials":{"count":"0"},"hereNow":{"count":"0"},"referralId":"v-1392478114"},{"id":"4eda6a1db8f7fcd0404c5cc2","name":"Imperial Wharf","location":{"lat":"51.47316067903987","lng":"-0.1828105610175721","distance":"368","cc":"GB","country":"United Kingdom"},"categories":[{"id":"4d954b06a243a5684965b473","name":"Residential Building (Apartment \/ Condo)","pluralName":"Residential Buildings (Apartments \/ Condos)","shortName":"Residential","icon":{"prefix":"https:\/\/ss1.4sqi.net\/img\/categories_v2\/building\/apartment_","suffix":".png"},"primary":"true"}],"verified":"false","restricted":"true","stats":{"checkinsCount":"925","usersCount":"293","tipCount":"2"},"specials":{"count":"0"},"hereNow":{"count":"1","groups":[{"type":"others","name":"Other people here","count":"1"}]},"referralId":"v-1392478114"},{"id":"4ccc8eb97c2ff04db81e9a7e","name":"Maltings place","location":{"address":"Fulmead street","lat":"51.474825","lng":"-0.187322","distance":"68","cc":"GB","city":"Fulham","state":"Greater London","country":"United Kingdom"},"verified":"false","restricted":"true","stats":{"checkinsCount":"364","usersCount":"13","tipCount":"2"},"specials":{"count":"0"},"hereNow":{"count":"0"},"referralId":"v-1392478114"},{"id":"50b62298e4b0c6583e319efa","name":"The Old Gas Works","location":{"lat":"51.47610669616113","lng":"-0.18698477567283422","distance":"210","cc":"GB","country":"United Kingdom"},"categories":[{"id":"4bf58dd8d48988d116951735","name":"Antique Shop","pluralName":"Antique Shops","shortName":"Antiques","icon":{"prefix":"https:\/\/ss1.4sqi.net\/img\/categories_v2\/shops\/antique_","suffix":".png"},"primary":"true"}],"verified":"false","restricted":"true","stats":{"checkinsCount":"144","usersCount":"15","tipCount":"0"},"specials":{"count":"0"},"hereNow":{"count":"0"},"referralId":"v-1392478114"},{"id":"4bdc3dfd63c5c9b60be02a68","name":"Chelsea Harbour","location":{"lat":"51.475369072783394","lng":"-0.18114566802978516","distance":"476","cc":"GB","city":"Chelsea","state":"Greater London","country":"United Kingdom"},"categories":[{"id":"4bf58dd8d48988d1e0941735","name":"Harbor \/ Marina","pluralName":"Harbors \/ Marinas","shortName":"Harbor \/ Marina","icon":{"prefix":"https:\/\/ss1.4sqi.net\/img\/categories_v2\/parks_outdoors\/harbor_","suffix":".png"},"primary":"true"}],"verified":"false","restricted":"true","stats":{"checkinsCount":"1371","usersCount":"551","tipCount":"7"},"specials":{"count":"0"},"hereNow":{"count":"0"},"referralId":"v-1392478114"},{"id":"4b75932df964a52058152ee3","name":"Jury's Inn Chelsea Hotel","contact":{"phone":"+442074112200","formattedPhone":"+44 20 7411 2200"},"location":{"address":"Imperial Wharf","lat":"51.47396769592598","lng":"-0.18372611357316404","distance":"284","postalCode":"SW6 2GA","cc":"GB","city":"Chelsea","state":"Greater London","country":"United Kingdom"},"categories":[{"id":"4bf58dd8d48988d1fa931735","name":"Hotel","pluralName":"Hotels","shortName":"Hotel","icon":{"prefix":"https:\/\/ss1.4sqi.net\/img\/categories_v2\/travel\/hotel_","suffix":".png"},"primary":"true"}],"verified":"true","restricted":"true","stats":{"checkinsCount":"611","usersCount":"285","tipCount":"10"},"url":"http:\/\/www.jurysinns.com\u200e","specials":{"count":"0"},"hereNow":{"count":"0"},"storeId":"","referralId":"v-1392478114"},{"id":"4edc7f788231efe391e1e8d3","name":"Peekaboo Invt.","location":{"lat":"51.474645765836904","lng":"-0.18304815723311824","distance":"332","cc":"GB","city":"London","state":"Greater London","country":"United Kingdom"},"categories":[{"id":"4bf58dd8d48988d130941735","name":"Building","pluralName":"Buildings","shortName":"Building","icon":{"prefix":"https:\/\/ss1.4sqi.net\/img\/categories_v2\/building\/default_","suffix":".png"},"primary":"true"}],"verified":"false","restricted":"true","stats":{"checkinsCount":"717","usersCount":"17","tipCount":"0"},"url":"http:\/\/www.peekabooinvest.com","specials":{"count":"0"},"hereNow":{"count":"0"},"referralId":"v-1392478114"},{"id":"4b558436f964a5203ee627e3","name":"Megan's","location":{"lat":"51.478809","lng":"-0.18812477588653564","distance":"503","cc":"GB","country":"United Kingdom"},"categories":[{"id":"4bf58dd8d48988d16d941735","name":"Caf\u00e9","pluralName":"Caf\u00e9s","shortName":"Caf\u00e9","icon":{"prefix":"https:\/\/ss1.4sqi.net\/img\/categories_v2\/food\/cafe_","suffix":".png"},"primary":"true"}],"verified":"false","restricted":"true","stats":{"checkinsCount":"615","usersCount":"349","tipCount":"14"},"menu":{"type":"Menu","label":"Menu","anchor":"View Menu","url":"https:\/\/foursquare.com\/v\/megans\/4b558436f964a5203ee627e3\/menu","mobileUrl":"https:\/\/foursquare.com\/v\/4b558436f964a5203ee627e3\/device_menu"},"specials":{"count":"0"},"hereNow":{"count":"0"},"referralId":"v-1392478114"},{"id":"51b44ccd498e87bc8d40ca24","name":"Harris + Hoole","location":{"address":"215 Townmead Rd","crossStreet":"Imperial Wharf","lat":"51.474604921747435","lng":"-0.18282647422240747","distance":"346","postalCode":"SW6 2TW","cc":"GB","city":"Chelsea","state":"Greater London","country":"United Kingdom"},"categories":[{"id":"4bf58dd8d48988d16d941735","name":"Caf\u00e9","pluralName":"Caf\u00e9s","shortName":"Caf\u00e9","icon":{"prefix":"https:\/\/ss1.4sqi.net\/img\/categories_v2\/food\/cafe_","suffix":".png"},"primary":"true"}],"verified":"false","restricted":"true","stats":{"checkinsCount":"189","usersCount":"85","tipCount":"5"},"url":"http:\/\/www.harrisandhoole.co.uk\/shops\/imperial-wharf","specials":{"count":"0"},"hereNow":{"count":"1","groups":[{"type":"others","name":"Other people here","count":"1"}]},"referralId":"v-1392478114"},{"id":"51920ae7498ef2510ad02e70","name":"Chelsea Creek","location":{"lat":"51.47486022685655","lng":"-0.1841681136177513","distance":"259","cc":"GB","country":"United Kingdom"},"categories":[{"id":"4d954b06a243a5684965b473","name":"Residential Building (Apartment \/ Condo)","pluralName":"Residential Buildings (Apartments \/ Condos)","shortName":"Residential","icon":{"prefix":"https:\/\/ss1.4sqi.net\/img\/categories_v2\/building\/apartment_","suffix":".png"},"primary":"true"}],"verified":"false","restricted":"true","stats":{"checkinsCount":"168","usersCount":"34","tipCount":"0"},"specials":{"count":"0"},"hereNow":{"count":"0"},"referralId":"v-1392478114"},{"id":"4b5ad4a8f964a52086d628e3","name":"Gambado","contact":{"phone":"+442073841635","formattedPhone":"+44 20 7384 1635"},"location":{"address":"7 Station Court","lat":"51.474192943529474","lng":"-0.1833021640777588","distance":"312","postalCode":"SW6 2PY","cc":"GB","city":"Chelsea","state":"Greater London","country":"United Kingdom"},"categories":[{"id":"4bf58dd8d48988d1e7941735","name":"Playground","pluralName":"Playgrounds","shortName":"Playground","icon":{"prefix":"https:\/\/ss1.4sqi.net\/img\/categories_v2\/parks_outdoors\/playground_","suffix":".png"},"primary":"true"}],"verified":"false","restricted":"true","stats":{"checkinsCount":"329","usersCount":"172","tipCount":"7"},"specials":{"count":"0"},"hereNow":{"count":"0"},"referralId":"v-1392478114"},{"id":"4dcaad46e4cde9e42f8bb986","name":"Starbucks","contact":{"phone":"+442077317861","formattedPhone":"+44 20 7731 7861","twitter":"starbucksuk"},"location":{"address":"95-97 Wandsworh Bridge Road","lat":"51.47368215840916","lng":"-0.1918032949696428","distance":"285","postalCode":"SW6 2TD","cc":"GB","city":"Fulham","state":"Greater London","country":"United Kingdom"},"categories":[{"id":"4bf58dd8d48988d16d941735","name":"Caf\u00e9","pluralName":"Caf\u00e9s","shortName":"Caf\u00e9","icon":{"prefix":"https:\/\/ss1.4sqi.net\/img\/categories_v2\/food\/cafe_","suffix":".png"},"primary":"true"}],"verified":"true","restricted":"true","stats":{"checkinsCount":"149","usersCount":"78","tipCount":"0"},"url":"http:\/\/starbucks.co.uk","specials":{"count":"0"},"hereNow":{"count":"0"},"storeId":"15105","referralId":"v-1392478114"},{"id":"4d7ce4a273ca54811072667c","name":"Kawaii Panda Super Base 10","location":{"lat":"51.47463672","lng":"-0.18770209","distance":"39","cc":"GB","city":"Chelsea","country":"United Kingdom"},"categories":[{"id":"4bf58dd8d48988d12d941735","name":"Monument \/ Landmark","pluralName":"Monuments \/ Landmarks","shortName":"Landmark","icon":{"prefix":"https:\/\/ss1.4sqi.net\/img\/categories_v2\/building\/government_monument_","suffix":".png"},"primary":"true"}],"verified":"false","restricted":"true","stats":{"checkinsCount":"44","usersCount":"5","tipCount":"1"},"specials":{"count":"0"},"hereNow":{"count":"0"},"referralId":"v-1392478114"},{"id":"51cd6062498efc5310c5f58b","name":"The Spa at Chelsea Creek","location":{"lat":"51.47482779186513","lng":"-0.18467962515255668","distance":"224","cc":"GB","country":"United Kingdom"},"categories":[{"id":"4bf58dd8d48988d105941735","name":"Gym Pool","pluralName":"Gym Pools","shortName":"Pool","icon":{"prefix":"https:\/\/ss1.4sqi.net\/img\/categories_v2\/shops\/gym_pool_","suffix":".png"},"primary":"true"}],"verified":"false","restricted":"true","stats":{"checkinsCount":"22","usersCount":"5","tipCount":"0"},"specials":{"count":"0"},"hereNow":{"count":"0"},"referralId":"v-1392478114"},{"id":"4ac518b5f964a5208aa020e3","name":"Wyndham Grand London Chelsea Harbour","contact":{"phone":"+448004458667","formattedPhone":"+44 800 445 8667"},"location":{"address":"Chelsea Harbour, Lots Rd.","lat":"51.47573053366325","lng":"-0.181533842531931","distance":"463","postalCode":"SW10 0XG","cc":"GB","city":"London","state":"Greater London","country":"United Kingdom"},"categories":[{"id":"4bf58dd8d48988d1fa931735","name":"Hotel","pluralName":"Hotels","shortName":"Hotel","icon":{"prefix":"https:\/\/ss1.4sqi.net\/img\/categories_v2\/travel\/hotel_","suffix":".png"},"primary":"true"}],"verified":"true","restricted":"true","stats":{"checkinsCount":"1145","usersCount":"497","tipCount":"15"},"url":"http:\/\/www.wyndhamgrandlondon.co.uk","menu":{"type":"Menu","label":"Menu","anchor":"View Menu","url":"https:\/\/foursquare.com\/v\/wyndham-grand-london-chelsea-harbour\/4ac518b5f964a5208aa020e3\/menu","mobileUrl":"https:\/\/foursquare.com\/v\/4ac518b5f964a5208aa020e3\/device_menu"},"specials":{"count":"1","items":[{"id":"4ce4187888e460fc9dd5748d","type":"count","message":"As a foursquare user you are entitled to a free cup of coffee on your 5th check-in!","description":"Unlocked on your 5th check-in","icon":"frequency","title":"Loyalty Special","provider":"foursquare","redemption":"standard"}]},"hereNow":{"count":"0"},"referralId":"v-1392478114"},{"id":"4ac518eef964a52018ad20e3","name":"Design Centre Chelsea Harbour","contact":{"phone":"+442072259101","formattedPhone":"+44 20 7225 9101"},"location":{"address":"Lots Road","lat":"51.47649171332882","lng":"-0.18294811248779297","distance":"416","postalCode":"SW10 0XF","cc":"GB","city":"London","state":"Greater London","country":"United Kingdom"},"categories":[{"id":"4bf58dd8d48988d127951735","name":"Arts & Crafts Store","pluralName":"Arts & Crafts Stores","shortName":"Arts & Crafts","icon":{"prefix":"https:\/\/ss1.4sqi.net\/img\/categories_v2\/shops\/artstore_","suffix":".png"},"primary":"true"}],"verified":"false","restricted":"true","stats":{"checkinsCount":"581","usersCount":"263","tipCount":"1"},"specials":{"count":"0"},"hereNow":{"count":"0"},"referralId":"v-1392478114"},{"id":"4ee22d5377c8f9d389e47faa","name":"William Parnell Park","location":{"lat":"51.47340015290603","lng":"-0.1880375592865224","distance":"100","cc":"GB","city":"London","state":"Greater London","country":"United Kingdom"},"categories":[{"id":"4bf58dd8d48988d1e7941735","name":"Playground","pluralName":"Playgrounds","shortName":"Playground","icon":{"prefix":"https:\/\/ss1.4sqi.net\/img\/categories_v2\/parks_outdoors\/playground_","suffix":".png"},"primary":"true"}],"verified":"false","restricted":"true","stats":{"checkinsCount":"26","usersCount":"17","tipCount":"1"},"specials":{"count":"0"},"hereNow":{"count":"0"},"referralId":"v-1392478114"},{"id":"4cf7f95255e1370481e0d5b6","name":"Boma","contact":{"phone":"+442077365114","formattedPhone":"+44 20 7736 5114"},"location":{"address":"116 Wandsworth Bridge Rd.","lat":"51.472990231284335","lng":"-0.19171212947543162","distance":"307","postalCode":"SW6 2TF","cc":"GB","city":"Fulham","state":"Greater London","country":"United Kingdom"},"categories":[{"id":"4bf58dd8d48988d1c0941735","name":"Mediterranean Restaurant","pluralName":"Mediterranean Restaurants","shortName":"Mediterranean","icon":{"prefix":"https:\/\/ss1.4sqi.net\/img\/categories_v2\/food\/mediterranean_","suffix":".png"},"primary":"true"}],"verified":"false","restricted":"true","stats":{"checkinsCount":"218","usersCount":"61","tipCount":"11"},"menu":{"type":"Menu","label":"Menu","anchor":"View Menu","url":"https:\/\/foursquare.com\/v\/boma-fulham-london\/4cf7f95255e1370481e0d5b6\/menu","mobileUrl":"https:\/\/foursquare.com\/v\/4cf7f95255e1370481e0d5b6\/device_menu"},"specials":{"count":"0"},"hereNow":{"count":"0"},"referralId":"v-1392478114"},{"id":"4bd1d4da9854d13aa64efa4d","name":"The Waterside","contact":{"phone":"+442073710802","formattedPhone":"+44 20 7371 0802","twitter":"thewatersidesw6"},"location":{"address":"The Boulevard","crossStreet":"Imperial Wharf","lat":"51.47313058376312","lng":"-0.18112421035766602","distance":"480","postalCode":"SW6 2SU","cc":"GB","city":"London","state":"Greater London","country":"United Kingdom"},"categories":[{"id":"4bf58dd8d48988d11b941735","name":"Pub","pluralName":"Pubs","shortName":"Pub","icon":{"prefix":"https:\/\/ss1.4sqi.net\/img\/categories_v2\/nightlife\/pub_","suffix":".png"},"primary":"true"}],"verified":"false","restricted":"true","stats":{"checkinsCount":"933","usersCount":"417","tipCount":"17"},"url":"http:\/\/www.watersideimperialwharf.co.uk","menu":{"type":"Menu","label":"Menu","anchor":"View Menu","url":"https:\/\/foursquare.com\/v\/the-waterside\/4bd1d4da9854d13aa64efa4d\/menu","mobileUrl":"https:\/\/foursquare.com\/v\/4bd1d4da9854d13aa64efa4d\/device_menu"},"specials":{"count":"0"},"hereNow":{"count":"0"},"referralId":"v-1392478114"},{"id":"4ef1c9b549010b41f4bfd03b","name":"Roca London Gallery","location":{"address":"Station Court","crossStreet":"at Townmead Rd","lat":"51.474496260347955","lng":"-0.18309639501653446","distance":"327","postalCode":"SW6 2PY","cc":"GB","city":"Fulham","state":"Greater London","country":"United Kingdom"},"categories":[{"id":"4bf58dd8d48988d130941735","name":"Building","pluralName":"Buildings","shortName":"Building","icon":{"prefix":"https:\/\/ss1.4sqi.net\/img\/categories_v2\/building\/default_","suffix":".png"},"primary":"true"}],"verified":"true","restricted":"true","stats":{"checkinsCount":"77","usersCount":"60","tipCount":"1"},"url":"http:\/\/www.rocalondongallery.com","specials":{"count":"0"},"hereNow":{"count":"0"},"venuePage":{"id":"67665276"},"referralId":"v-1392478114"},{"id":"4d287edf342d6dcb4aeaf8ca","name":"Yamal Alsham","contact":{"phone":"+442030101100","formattedPhone":"+44 20 3010 1100","twitter":"yamalalshamuk"},"location":{"address":"5 The Boulevard, Imperial Wharf","crossStreet":"Townmead Rd","lat":"51.47339506537382","lng":"-0.18230729204261092","distance":"393","postalCode":"SW6 2UB","cc":"GB","city":"London","state":"Greater London","country":"United Kingdom"},"categories":[{"id":"4bf58dd8d48988d115941735","name":"Middle Eastern Restaurant","pluralName":"Middle Eastern Restaurants","shortName":"Middle Eastern","icon":{"prefix":"https:\/\/ss1.4sqi.net\/img\/categories_v2\/food\/default_","suffix":".png"},"primary":"true"}],"verified":"false","restricted":"true","stats":{"checkinsCount":"363","usersCount":"169","tipCount":"9"},"url":"http:\/\/www.yamalalsham.co.uk","reservations":{"url":"http:\/\/www.toptable.co.uk\/single.aspx?rid=54883&ref=9601"},"menu":{"type":"Menu","label":"Menu","anchor":"View Menu","url":"https:\/\/foursquare.com\/v\/yamal-alsham\/4d287edf342d6dcb4aeaf8ca\/menu","mobileUrl":"https:\/\/foursquare.com\/v\/4d287edf342d6dcb4aeaf8ca\/device_menu"},"specials":{"count":"0"},"hereNow":{"count":"0"},"referralId":"v-1392478114"},{"id":"4b62b52cf964a520ca4f2ae3","name":"Hand & Flower pub","contact":{"phone":"+442077310999","formattedPhone":"+44 20 7731 0999"},"location":{"address":"617 Kings Road, Chelsea","crossStreet":"Edith Row","lat":"51.477867","lng":"-0.18964","distance":"418","postalCode":"SW6 2ES","cc":"GB","city":"London","state":"Greater London","country":"United Kingdom"},"categories":[{"id":"4bf58dd8d48988d11b941735","name":"Pub","pluralName":"Pubs","shortName":"Pub","icon":{"prefix":"https:\/\/ss1.4sqi.net\/img\/categories_v2\/nightlife\/pub_","suffix":".png"},"primary":"true"}],"verified":"true","restricted":"true","stats":{"checkinsCount":"400","usersCount":"249","tipCount":"8"},"menu":{"type":"Menu","label":"Menu","anchor":"View Menu","url":"https:\/\/foursquare.com\/v\/hand--flower-pub\/4b62b52cf964a520ca4f2ae3\/menu","mobileUrl":"https:\/\/foursquare.com\/v\/4b62b52cf964a520ca4f2ae3\/device_menu"},"specials":{"count":"0"},"hereNow":{"count":"0"},"referralId":"v-1392478114"},{"id":"4c1b4ae08b3aa593f6ea965f","name":"TfL Bus C3","location":{"address":"Moving Target!","lat":"51.474195","lng":"-0.183017","distance":"332","cc":"GB","city":"London","state":"Greater London","country":"United Kingdom"},"categories":[{"id":"4bf58dd8d48988d1fe931735","name":"Bus Station","pluralName":"Bus Stations","shortName":"Bus Station","icon":{"prefix":"https:\/\/ss1.4sqi.net\/img\/categories_v2\/travel\/busstation_","suffix":".png"},"primary":"true"}],"verified":"false","restricted":"true","stats":{"checkinsCount":"153","usersCount":"44","tipCount":"3"},"specials":{"count":"0"},"hereNow":{"count":"0"},"referralId":"v-1392478114"},{"id":"4cdd3887a1bba35d7cd49ee5","name":"AYS London","location":{"lat":"51.474295","lng":"-0.186786","distance":"70","cc":"GB","country":"United Kingdom"},"categories":[{"id":"4bf58dd8d48988d124941735","name":"Office","pluralName":"Offices","shortName":"Office","icon":{"prefix":"https:\/\/ss1.4sqi.net\/img\/categories_v2\/building\/default_","suffix":".png"},"primary":"true"}],"verified":"false","restricted":"true","stats":{"checkinsCount":"3","usersCount":"3","tipCount":"0"},"specials":{"count":"0"},"hereNow":{"count":"0"},"referralId":"v-1392478114"},{"id":"4bbf759ab083a593827aa3e9","name":"The Rose","contact":{"phone":"+442077311832","formattedPhone":"+44 20 7731 1832"},"location":{"address":"1 Harwood Terrace","lat":"51.47701152273894","lng":"-0.18928300836567666","distance":"319","postalCode":"SW6 2AF","cc":"GB","city":"Fulham","state":"Greater London","country":"United Kingdom"},"categories":[{"id":"4bf58dd8d48988d11b941735","name":"Pub","pluralName":"Pubs","shortName":"Pub","icon":{"prefix":"https:\/\/ss1.4sqi.net\/img\/categories_v2\/nightlife\/pub_","suffix":".png"},"primary":"true"}],"verified":"false","restricted":"true","stats":{"checkinsCount":"529","usersCount":"215","tipCount":"5"},"url":"http:\/\/www.therosefulham.co.uk","reservations":{"url":"http:\/\/www.toptable.co.uk\/single.aspx?rid=88315&ref=9601"},"menu":{"type":"Menu","label":"Menu","anchor":"View Menu","url":"https:\/\/foursquare.com\/v\/the-rose\/4bbf759ab083a593827aa3e9\/menu","mobileUrl":"https:\/\/foursquare.com\/v\/4bbf759ab083a593827aa3e9\/device_menu"},"specials":{"count":"0"},"hereNow":{"count":"0"},"referralId":"v-1392478114"}],"confident":"false"}}