{"meta":{"code":"200"},"response":{"venues":[{"id":"4bcbeb063740b713405c6365","name":"Tune Hotels","contact":{"phone":"+60379625888","formattedPhone":"+60 3-7962 5888","twitter":"tunehotels"},"location":{"address":"118 Westminster Bridge Rd.","lat":"51.49917916615191","lng":"-0.11265277862548828","distance":"16","postalCode":"SE1 7XE","cc":"GB","city":"London","state":"Greater London","country":"United Kingdom"},"categories":[{"id":"4bf58dd8d48988d1fa931735","name":"Hotel","pluralName":"Hotels","shortName":"Hotel","icon":{"prefix":"https:\/\/ss1.4sqi.net\/img\/categories_v2\/travel\/hotel_","suffix":".png"},"primary":"true"}],"verified":"true","restricted":"true","stats":{"checkinsCount":"512","usersCount":"249","tipCount":"25"},"specials":{"count":"0"},"hereNow":{"count":"0"},"referralId":"v-1392478056"},{"id":"4c062ebd761ac9b6d5872074","name":"The Horse and Stables","contact":{"phone":"+442079286277","formattedPhone":"+44 20 7928 6277"},"location":{"address":"124 Westminster Bridge Rd","lat":"51.49908631683023","lng":"-0.11256531063368608","distance":"27","postalCode":"SE1 7RW","cc":"GB","city":"London","state":"Greater London","country":"United Kingdom"},"categories":[{"id":"4bf58dd8d48988d116941735","name":"Bar","pluralName":"Bars","shortName":"Bar","icon":{"prefix":"https:\/\/ss1.4sqi.net\/img\/categories_v2\/nightlife\/bar_","suffix":".png"},"primary":"true"}],"verified":"false","restricted":"true","stats":{"checkinsCount":"725","usersCount":"474","tipCount":"10"},"url":"http:\/\/horsebar.co.uk","reservations":{"url":"http:\/\/www.toptable.co.uk\/single.aspx?rid=97998&ref=9601"},"menu":{"type":"Menu","label":"Menu","anchor":"View Menu","url":"https:\/\/foursquare.com\/v\/the-horse-and-stables-waterloo-london\/4c062ebd761ac9b6d5872074\/menu","mobileUrl":"https:\/\/foursquare.com\/v\/4c062ebd761ac9b6d5872074\/device_menu"},"specials":{"count":"0"},"hereNow":{"count":"0"},"referralId":"v-1392478056"},{"id":"4c6bb25e599fbe9a8532933f","name":"Costa Coffee","contact":{"phone":"+442079288905","formattedPhone":"+44 20 7928 8905"},"location":{"address":"118 Westminster Bridge Rd.","lat":"51.498925364289974","lng":"-0.11204123497009277","distance":"66","postalCode":"SE1 7XE","cc":"GB","city":"Lambeth","state":"Greater London","country":"United Kingdom"},"categories":[{"id":"4bf58dd8d48988d1e0931735","name":"Coffee Shop","pluralName":"Coffee Shops","shortName":"Coffee Shop","icon":{"prefix":"https:\/\/ss1.4sqi.net\/img\/categories_v2\/food\/coffeeshop_","suffix":".png"},"primary":"true"}],"verified":"false","restricted":"true","stats":{"checkinsCount":"1339","usersCount":"654","tipCount":"25"},"specials":{"count":"0"},"hereNow":{"count":"0"},"referralId":"v-1392478056"},{"id":"4ace5183f964a520d5cf20e3","name":"Scooter Caff\u00e8","contact":{"phone":"+442076201421","formattedPhone":"+44 20 7620 1421"},"location":{"address":"132 Lower Marsh","lat":"51.50031457822975","lng":"-0.11396169662475586","distance":"139","postalCode":"SE1 7AE","cc":"GB","city":"Lambeth","state":"Greater London","country":"United Kingdom"},"categories":[{"id":"4bf58dd8d48988d1e0931735","name":"Coffee Shop","pluralName":"Coffee Shops","shortName":"Coffee Shop","icon":{"prefix":"https:\/\/ss1.4sqi.net\/img\/categories_v2\/food\/coffeeshop_","suffix":".png"},"primary":"true"}],"verified":"false","restricted":"true","stats":{"checkinsCount":"2207","usersCount":"979","tipCount":"56"},"specials":{"count":"0"},"hereNow":{"count":"1","groups":[{"type":"others","name":"Other people here","count":"1"}]},"referralId":"v-1392478056"},{"id":"4cb0c8b71463a143de1fa0a9","name":"The Perspective Building Condominium","location":{"address":"100 Westminster Bridge","lat":"51.49877501413263","lng":"-0.11078173961580497","distance":"151","cc":"GB","city":"Lambeth","state":"Greater London","country":"United Kingdom"},"categories":[{"id":"4bf58dd8d48988d130941735","name":"Building","pluralName":"Buildings","shortName":"Building","icon":{"prefix":"https:\/\/ss1.4sqi.net\/img\/categories_v2\/building\/default_","suffix":".png"},"primary":"true"}],"verified":"false","restricted":"true","stats":{"checkinsCount":"553","usersCount":"61","tipCount":"2"},"specials":{"count":"0"},"hereNow":{"count":"1","groups":[{"type":"others","name":"Other people here","count":"1"}]},"referralId":"v-1392478056"},{"id":"51e52b0b498e1d7ea31d88c1","name":"Four Corners","location":{"address":"12 Lower Marsh","lat":"51.500474","lng":"-0.113687","distance":"145","postalCode":"SE1 7RJ","cc":"GB","city":"London","state":"Greater London","country":"United Kingdom"},"categories":[{"id":"4bf58dd8d48988d16d941735","name":"Caf\u00e9","pluralName":"Caf\u00e9s","shortName":"Caf\u00e9","icon":{"prefix":"https:\/\/ss1.4sqi.net\/img\/categories_v2\/food\/cafe_","suffix":".png"},"primary":"true"}],"verified":"false","restricted":"true","stats":{"checkinsCount":"197","usersCount":"75","tipCount":"9"},"specials":{"count":"0"},"hereNow":{"count":"1","groups":[{"type":"others","name":"Other people here","count":"1"}]},"referralId":"v-1392478056"},{"id":"4c317dc466e40f47e327c58b","name":"TfL Bus 59","contact":{"phone":"+443432221234","formattedPhone":"+44 343 222 1234","twitter":"tflbusalerts"},"location":{"address":"Moving Target!","lat":"51.500221737060315","lng":"-0.11228928342158528","distance":"109","cc":"GB","city":"London","state":"Greater London","country":"United Kingdom"},"categories":[{"id":"4bf58dd8d48988d12b951735","name":"Bus Line","pluralName":"Bus Lines","shortName":"Bus","icon":{"prefix":"https:\/\/ss1.4sqi.net\/img\/categories_v2\/travel\/busstation_","suffix":".png"},"primary":"true"}],"verified":"false","restricted":"true","stats":{"checkinsCount":"667","usersCount":"204","tipCount":"1"},"url":"http:\/\/tfl.gov.uk","specials":{"count":"0"},"hereNow":{"count":"0"},"referralId":"v-1392478056"},{"id":"4d272af4915fa093badef009","name":"Tune Hotel","location":{"lat":"51.49899957152764","lng":"-0.11224321742655943","distance":"50","postalCode":"SE11 6","cc":"GB","city":"Lambeth","state":"Greater London","country":"United Kingdom"},"categories":[{"id":"4bf58dd8d48988d1fa931735","name":"Hotel","pluralName":"Hotels","shortName":"Hotel","icon":{"prefix":"https:\/\/ss1.4sqi.net\/img\/categories_v2\/travel\/hotel_","suffix":".png"},"primary":"true"}],"verified":"false","restricted":"true","stats":{"checkinsCount":"157","usersCount":"85","tipCount":"8"},"specials":{"count":"0"},"hereNow":{"count":"0"},"referralId":"v-1392478056"},{"id":"4dd17f0052b1f8915bdf882f","name":"Walrus Waterloo Hostel","location":{"lat":"51.49990062670277","lng":"-0.11434160778119098","distance":"126","cc":"GB","city":"Lambeth","state":"Greater London","country":"United Kingdom"},"categories":[{"id":"4bf58dd8d48988d1ee931735","name":"Hostel","pluralName":"Hostels","shortName":"Hostel","icon":{"prefix":"https:\/\/ss1.4sqi.net\/img\/categories_v2\/travel\/hostel_","suffix":".png"},"primary":"true"}],"verified":"false","restricted":"true","stats":{"checkinsCount":"515","usersCount":"260","tipCount":"8"},"specials":{"count":"0"},"hereNow":{"count":"0"},"referralId":"v-1392478056"},{"id":"4c542d6c72cf0f47107918d4","name":"TfL Barclays Cycle Hire - Lambeth North Station","location":{"address":"Baylis Rd.","lat":"51.49910903683137","lng":"-0.11204659938812256","distance":"56","postalCode":"SE1","cc":"GB","city":"London","state":"Greater London","country":"United Kingdom"},"categories":[{"id":"4e4c9077bd41f78e849722f9","name":"Bike Rental \/ Bike Share","pluralName":"Bike Rentals \/ Bike Shares","shortName":"Bike","icon":{"prefix":"https:\/\/ss1.4sqi.net\/img\/categories_v2\/shops\/bikeshop_","suffix":".png"},"primary":"true"}],"verified":"false","restricted":"true","stats":{"checkinsCount":"73","usersCount":"16","tipCount":"1"},"specials":{"count":"0"},"hereNow":{"count":"0"},"referralId":"v-1392478056"},{"id":"4eae9ed082315d0ca614008e","name":"Post Office","location":{"address":"Westminster Bridge Road","lat":"51.49962905120426","lng":"-0.11394461503723999","distance":"87","cc":"GB","city":"London","state":"Greater London","country":"United Kingdom"},"categories":[{"id":"4bf58dd8d48988d121951735","name":"Paper \/ Office Supplies Store","pluralName":"Paper \/ Office Supplies Stores","shortName":"Office Supplies","icon":{"prefix":"https:\/\/ss1.4sqi.net\/img\/categories_v2\/shops\/papergoods_","suffix":".png"},"primary":"true"}],"verified":"false","restricted":"true","stats":{"checkinsCount":"165","usersCount":"45","tipCount":"0"},"specials":{"count":"0"},"hereNow":{"count":"0"},"referralId":"v-1392478056"},{"id":"4adefb6cf964a520f77621e3","name":"Crown and Cushion","location":{"address":"133-135 Westminster Bridge Rd","lat":"51.49978027018725","lng":"-0.11411190032958984","distance":"105","postalCode":"SE1 7HR","cc":"GB","city":"London","state":"Greater London","country":"United Kingdom"},"categories":[{"id":"4bf58dd8d48988d149941735","name":"Thai Restaurant","pluralName":"Thai Restaurants","shortName":"Thai","icon":{"prefix":"https:\/\/ss1.4sqi.net\/img\/categories_v2\/food\/thai_","suffix":".png"},"primary":"true"}],"verified":"false","restricted":"true","stats":{"checkinsCount":"383","usersCount":"203","tipCount":"2"},"specials":{"count":"0"},"hereNow":{"count":"0"},"referralId":"v-1392478056"},{"id":"4f42c522e4b0836e94da14d5","name":"Lambeth North Station Bus Stop C","location":{"lat":"51.49841565277149","lng":"-0.11197844436376043","distance":"112","cc":"GB","country":"United Kingdom"},"categories":[{"id":"4bf58dd8d48988d12b951735","name":"Bus Line","pluralName":"Bus Lines","shortName":"Bus","icon":{"prefix":"https:\/\/ss1.4sqi.net\/img\/categories_v2\/travel\/busstation_","suffix":".png"},"primary":"true"}],"verified":"false","restricted":"true","stats":{"checkinsCount":"190","usersCount":"114","tipCount":"0"},"specials":{"count":"0"},"hereNow":{"count":"0"},"referralId":"v-1392478056"},{"id":"4cf8c719466b6ea87154638b","name":"The Hub Coffee House","contact":{"twitter":"thehubcoffee"},"location":{"address":"1a Kennington Road","crossStreet":"Lambeth North","lat":"51.49836695","lng":"-0.11191944000000001","distance":"119","postalCode":"SE1 7HS","cc":"GB","city":"London","state":"Greater London","country":"United Kingdom"},"categories":[{"id":"4bf58dd8d48988d16d941735","name":"Caf\u00e9","pluralName":"Caf\u00e9s","shortName":"Caf\u00e9","icon":{"prefix":"https:\/\/ss1.4sqi.net\/img\/categories_v2\/food\/cafe_","suffix":".png"},"primary":"true"}],"verified":"true","restricted":"true","stats":{"checkinsCount":"549","usersCount":"127","tipCount":"12"},"specials":{"count":"1","items":[{"id":"4d46b1d2f5cf60fceb2fc966","type":"frequency","message":"If you bring four guests with you (that all buy lunch and check-in with foursquare), your lunch is on us.","description":"Unlocked every check-in","icon":"check-in","title":"Check-in Special","provider":"foursquare","redemption":"standard"}]},"hereNow":{"count":"0"},"referralId":"v-1392478056"},{"id":"4eff5d3a4690f6ece9cc9c85","name":"Hikari","contact":{"phone":"+442074013976","formattedPhone":"+44 20 7401 3976"},"location":{"address":"2 Kennington Rd.","lat":"51.498291021418254","lng":"-0.1120800805236798","distance":"121","postalCode":"SE1 7BL","cc":"GB","city":"Lambeth","state":"Greater London","country":"United Kingdom"},"categories":[{"id":"4bf58dd8d48988d111941735","name":"Japanese Restaurant","pluralName":"Japanese Restaurants","shortName":"Japanese","icon":{"prefix":"https:\/\/ss1.4sqi.net\/img\/categories_v2\/food\/japanese_","suffix":".png"},"primary":"true"}],"verified":"false","restricted":"true","stats":{"checkinsCount":"150","usersCount":"88","tipCount":"4"},"url":"http:\/\/www.hikarilondon.com","specials":{"count":"0"},"hereNow":{"count":"0"},"referralId":"v-1392478056"},{"id":"4aeb43b8f964a52051c021e3","name":"Cotto Restaurant","contact":{"phone":"+442079285535","formattedPhone":"+44 20 7928 5535"},"location":{"address":"89 Westminster Bridge Road","lat":"51.49878890310303","lng":"-0.11229663140702716","distance":"65","postalCode":"SE1 7HR","cc":"GB","city":"London","state":"Greater London","country":"United Kingdom"},"categories":[{"id":"4bf58dd8d48988d110941735","name":"Italian Restaurant","pluralName":"Italian Restaurants","shortName":"Italian","icon":{"prefix":"https:\/\/ss1.4sqi.net\/img\/categories_v2\/food\/italian_","suffix":".png"},"primary":"true"}],"verified":"false","restricted":"true","stats":{"checkinsCount":"112","usersCount":"90","tipCount":"11"},"url":"http:\/\/www.italiancotto.co.uk","reservations":{"url":"http:\/\/www.toptable.co.uk\/single.aspx?rid=87871&ref=9601"},"menu":{"type":"Menu","label":"Menu","anchor":"View Menu","url":"https:\/\/foursquare.com\/v\/cotto-restaurant\/4aeb43b8f964a52051c021e3\/menu","mobileUrl":"https:\/\/foursquare.com\/v\/4aeb43b8f964a52051c021e3\/device_menu"},"specials":{"count":"0"},"hereNow":{"count":"0"},"referralId":"v-1392478056"},{"id":"4c6c26f6a437224b758f29b1","name":"Chicken Palace","location":{"crossStreet":"Westminster bridge road","lat":"51.499142471853126","lng":"-0.11276171896644005","distance":"16","postalCode":"Se1","cc":"GB","city":"Lambeth","state":"Greater London","country":"United Kingdom"},"categories":[{"id":"4d4ae6fc7a7b7dea34424761","name":"Fried Chicken Joint","pluralName":"Fried Chicken Joints","shortName":"Fried Chicken","icon":{"prefix":"https:\/\/ss1.4sqi.net\/img\/categories_v2\/food\/friedchicken_","suffix":".png"},"primary":"true"}],"verified":"false","restricted":"true","stats":{"checkinsCount":"40","usersCount":"31","tipCount":"1"},"menu":{"type":"Menu","label":"Menu","anchor":"View Menu","url":"https:\/\/foursquare.com\/v\/chicken-palace-lambeth-greater-london\/4c6c26f6a437224b758f29b1\/menu","mobileUrl":"https:\/\/foursquare.com\/v\/4c6c26f6a437224b758f29b1\/device_menu"},"specials":{"count":"0"},"hereNow":{"count":"0"},"referralId":"v-1392478056"},{"id":"5158a78ae4b09bde540a5fe0","name":"Bitcoin Magazine Headquarters","location":{"lat":"51.499272","lng":"-0.113155","distance":"24","cc":"GB","country":"United Kingdom"},"verified":"false","restricted":"true","stats":{"checkinsCount":"3","usersCount":"2","tipCount":"0"},"specials":{"count":"0"},"hereNow":{"count":"0"},"referralId":"v-1392478056"},{"id":"4cac73602f08236a40c48b61","name":"Spar","location":{"address":"125-131 Westminster Bridge Rd.","lat":"51.49948353954382","lng":"-0.11367461834032287","distance":"64","postalCode":"SE1 7HJ","cc":"GB","city":"London","state":"Greater London","country":"United Kingdom"},"categories":[{"id":"4bf58dd8d48988d172941735","name":"Post Office","pluralName":"Post Offices","shortName":"Post Office","icon":{"prefix":"https:\/\/ss1.4sqi.net\/img\/categories_v2\/building\/postoffice_","suffix":".png"},"primary":"true"}],"verified":"false","restricted":"true","stats":{"checkinsCount":"150","usersCount":"29","tipCount":"0"},"specials":{"count":"0"},"hereNow":{"count":"0"},"referralId":"v-1392478056"},{"id":"51e306aa498ed5e286fea102","name":"Bus Stop A @ Lower Marsh","location":{"address":"Westminster Bridge Road","crossStreet":"Carlisle Street","lat":"51.499611","lng":"-0.114049","distance":"93","cc":"GB","city":"London","state":"Greater London","country":"United Kingdom"},"categories":[{"id":"4bf58dd8d48988d1fe931735","name":"Bus Station","pluralName":"Bus Stations","shortName":"Bus Station","icon":{"prefix":"https:\/\/ss1.4sqi.net\/img\/categories_v2\/travel\/busstation_","suffix":".png"},"primary":"true"}],"verified":"false","restricted":"true","stats":{"checkinsCount":"3","usersCount":"3","tipCount":"0"},"specials":{"count":"0"},"hereNow":{"count":"0"},"referralId":"v-1392478056"},{"id":"52d5337e11d2554baf9d1836","name":"Hikari Sushi and Noodle Bar","contact":{"phone":"+442074013976","formattedPhone":"+44 20 7401 3976"},"location":{"address":"2 Kennington Road","crossStreet":"Hercules Road","lat":"51.498444472675594","lng":"-0.11237382888793945","distance":"98","postalCode":"SE1 7BL","cc":"GB","city":"London","state":"Greater London","country":"United Kingdom"},"categories":[{"id":"4bf58dd8d48988d1d2941735","name":"Sushi Restaurant","pluralName":"Sushi Restaurants","shortName":"Sushi","icon":{"prefix":"https:\/\/ss1.4sqi.net\/img\/categories_v2\/food\/sushi_","suffix":".png"},"primary":"true"}],"verified":"false","restricted":"true","stats":{"checkinsCount":"1","usersCount":"1","tipCount":"0"},"specials":{"count":"0"},"hereNow":{"count":"0"},"referralId":"v-1392478056"},{"id":"4b2f77e9f964a52093eb24e3","name":"NatWest","location":{"address":"Westminster Bridge Road","lat":"51.49887979030609","lng":"-0.11241635","distance":"52","postalCode":"SE1 7","cc":"GB","city":"Lambeth","state":"Greater London","country":"United Kingdom"},"categories":[{"id":"4bf58dd8d48988d10a951735","name":"Bank","pluralName":"Banks","shortName":"Bank","icon":{"prefix":"https:\/\/ss1.4sqi.net\/img\/categories_v2\/shops\/financial_","suffix":".png"},"primary":"true"}],"verified":"false","restricted":"true","stats":{"checkinsCount":"116","usersCount":"43","tipCount":"3"},"specials":{"count":"0"},"hereNow":{"count":"0"},"referralId":"v-1392478056"},{"id":"4cc84f183477b60ce6117b6a","name":"111 Westminster Bridge Road Overseas Development Institute","location":{"lat":"51.499297","lng":"-0.1131069","distance":"21","cc":"GB","country":"United Kingdom"},"categories":[{"id":"4bf58dd8d48988d124941735","name":"Office","pluralName":"Offices","shortName":"Office","icon":{"prefix":"https:\/\/ss1.4sqi.net\/img\/categories_v2\/building\/default_","suffix":".png"},"primary":"true"}],"verified":"false","restricted":"true","stats":{"checkinsCount":"5","usersCount":"5","tipCount":"0"},"specials":{"count":"0"},"hereNow":{"count":"0"},"referralId":"v-1392478056"},{"id":"4ecf5a2d99114b4886df9236","name":"Overseas Development Institute","location":{"address":"111 Westminster Bridge Road","lat":"51.49923425155163","lng":"-0.11313953969244368","distance":"24","cc":"GB","city":"London","state":"Greater London","country":"United Kingdom"},"categories":[{"id":"4bf58dd8d48988d124941735","name":"Office","pluralName":"Offices","shortName":"Office","icon":{"prefix":"https:\/\/ss1.4sqi.net\/img\/categories_v2\/building\/default_","suffix":".png"},"primary":"true"}],"verified":"false","restricted":"true","stats":{"checkinsCount":"66","usersCount":"22","tipCount":"0"},"specials":{"count":"0"},"hereNow":{"count":"0"},"referralId":"v-1392478056"},{"id":"4b1ac781f964a52099f123e3","name":"Sino Thai","contact":{"phone":"+442074019702","formattedPhone":"+44 20 7401 9702"},"location":{"address":"127-128 Lower Marsh","lat":"51.500445543590565","lng":"-0.11351268535483314","distance":"137","postalCode":"SE1 7AE","cc":"GB","city":"Lambeth","state":"Greater London","country":"United Kingdom"},"categories":[{"id":"4bf58dd8d48988d142941735","name":"Asian Restaurant","pluralName":"Asian Restaurants","shortName":"Asian","icon":{"prefix":"https:\/\/ss1.4sqi.net\/img\/categories_v2\/food\/asian_","suffix":".png"},"primary":"true"}],"verified":"false","restricted":"true","stats":{"checkinsCount":"67","usersCount":"49","tipCount":"1"},"specials":{"count":"0"},"hereNow":{"count":"0"},"referralId":"v-1392478056"},{"id":"4f43e617e4b0dc6d5dede895","name":"Bus Stop G - Kennington Rd","location":{"lat":"51.499053","lng":"-0.113026","distance":"30","cc":"GB","country":"United Kingdom"},"categories":[{"id":"4bf58dd8d48988d1fe931735","name":"Bus Station","pluralName":"Bus Stations","shortName":"Bus Station","icon":{"prefix":"https:\/\/ss1.4sqi.net\/img\/categories_v2\/travel\/busstation_","suffix":".png"},"primary":"true"}],"verified":"false","restricted":"true","stats":{"checkinsCount":"1","usersCount":"1","tipCount":"0"},"specials":{"count":"0"},"hereNow":{"count":"0"},"referralId":"v-1392478056"},{"id":"4d0f5189c3dc3704a5c23174","name":"Bus Stop K (56455)","location":{"address":"Westminster Bridge Rd","crossStreet":"at Lower Marsh","lat":"51.499572565476015","lng":"-0.11390434464973609","distance":"82","postalCode":"SE1","cc":"GB","city":"Lambeth","state":"Greater London","country":"United Kingdom"},"categories":[{"id":"4bf58dd8d48988d12b951735","name":"Bus Line","pluralName":"Bus Lines","shortName":"Bus","icon":{"prefix":"https:\/\/ss1.4sqi.net\/img\/categories_v2\/travel\/busstation_","suffix":".png"},"primary":"true"}],"verified":"false","restricted":"true","stats":{"checkinsCount":"5","usersCount":"4","tipCount":"0"},"specials":{"count":"0"},"hereNow":{"count":"0"},"referralId":"v-1392478056"},{"id":"4d594ea65e7788bf97e8859e","name":"Westminster Bridge House","location":{"address":"121 Westminster Bridge Road","lat":"51.499450519152795","lng":"-0.11452818456365424","distance":"120","cc":"GB","city":"London","state":"Greater London","country":"United Kingdom"},"categories":[{"id":"4bf58dd8d48988d12d941735","name":"Monument \/ Landmark","pluralName":"Monuments \/ Landmarks","shortName":"Landmark","icon":{"prefix":"https:\/\/ss1.4sqi.net\/img\/categories_v2\/building\/government_monument_","suffix":".png"},"primary":"true"}],"verified":"false","restricted":"true","stats":{"checkinsCount":"44","usersCount":"37","tipCount":"1"},"specials":{"count":"0"},"hereNow":{"count":"0"},"referralId":"v-1392478056"},{"id":"4c1f1ef1920076b0f552c4e9","name":"Waterloo Health Centre","location":{"crossStreet":"Lower marsh","lat":"51.500086341726565","lng":"-0.113195196189117","distance":"92","cc":"GB","city":"Lambeth","state":"Greater London","country":"United Kingdom"},"categories":[{"id":"4bf58dd8d48988d104941735","name":"Medical Center","pluralName":"Medical Centers","shortName":"Medical","icon":{"prefix":"https:\/\/ss1.4sqi.net\/img\/categories_v2\/building\/medical_","suffix":".png"},"primary":"true"}],"verified":"false","restricted":"true","stats":{"checkinsCount":"56","usersCount":"27","tipCount":"0"},"specials":{"count":"0"},"hereNow":{"count":"0"},"referralId":"v-1392478056"},{"id":"4baa120ef964a5205b483ae3","name":"Casse-Croute","contact":{"phone":"+442079284700","formattedPhone":"+44 20 7928 4700"},"location":{"address":"19 Lower Marsh","crossStreet":"Westminster Bridge Rd","lat":"51.499075227256604","lng":"-0.1132546791074624","distance":"39","postalCode":"SE1 7RJ","cc":"GB","city":"London","state":"Greater London","country":"United Kingdom"},"categories":[{"id":"4bf58dd8d48988d1c5941735","name":"Sandwich Place","pluralName":"Sandwich Places","shortName":"Sandwiches","icon":{"prefix":"https:\/\/ss1.4sqi.net\/img\/categories_v2\/food\/sandwiches_","suffix":".png"},"primary":"true"}],"verified":"false","restricted":"true","stats":{"checkinsCount":"24","usersCount":"6","tipCount":"1"},"specials":{"count":"0"},"hereNow":{"count":"0"},"referralId":"v-1392478056"}],"confident":"true"}}