{"meta":{"code":"200"},"response":{"venues":[{"id":"4b5c8600f964a520493429e3","name":"Jam Factory","location":{"address":"27 Green Walk","crossStreet":"corner of Alice St","lat":"51.4957326833198","lng":"-0.08462905883789062","distance":"204","postalCode":"SE1 4TQ","cc":"GB","city":"London","state":"Greater London","country":"United Kingdom"},"categories":[{"id":"4d954b06a243a5684965b473","name":"Residential Building (Apartment \/ Condo)","pluralName":"Residential Buildings (Apartments \/ Condos)","shortName":"Residential","icon":{"prefix":"https:\/\/ss1.4sqi.net\/img\/categories_v2\/building\/apartment_","suffix":".png"},"primary":"true"}],"verified":"false","restricted":"true","stats":{"checkinsCount":"3863","usersCount":"91","tipCount":"2"},"specials":{"count":"0"},"hereNow":{"count":"0"},"referralId":"v-1392478072"},{"id":"4c93bcbf94a0236aeb028612","name":"TfL Bus 453","location":{"address":"Moving Target!","lat":"51.493953491560376","lng":"-0.08177541706749727","distance":"80","cc":"GB","city":"London","state":"Greater London","country":"United Kingdom"},"categories":[{"id":"4bf58dd8d48988d12b951735","name":"Bus Line","pluralName":"Bus Lines","shortName":"Bus","icon":{"prefix":"https:\/\/ss1.4sqi.net\/img\/categories_v2\/travel\/busstation_","suffix":".png"},"primary":"true"}],"verified":"false","restricted":"true","stats":{"checkinsCount":"323","usersCount":"130","tipCount":"2"},"specials":{"count":"0"},"hereNow":{"count":"0"},"referralId":"v-1392478072"},{"id":"528a50de11d269f5ff6f051b","name":"Steam & Rye","location":{"crossStreet":"147 Leadenhall Street","lat":"51.494964635096174","lng":"-0.08322338343638833","distance":"80","postalCode":"EC3V. 4QT","cc":"GB","city":"London","state":"Greater London","country":"United Kingdom"},"categories":[{"id":"4bf58dd8d48988d11e941735","name":"Cocktail Bar","pluralName":"Cocktail Bars","shortName":"Cocktail","icon":{"prefix":"https:\/\/ss1.4sqi.net\/img\/categories_v2\/nightlife\/cocktails_","suffix":".png"},"primary":"true"}],"verified":"false","restricted":"true","stats":{"checkinsCount":"3","usersCount":"2","tipCount":"0"},"specials":{"count":"0"},"hereNow":{"count":"0"},"referralId":"v-1392478072"},{"id":"4c1c9ca38b3aa5930124995f","name":"The George","contact":{"phone":"+442072378760","formattedPhone":"+44 20 7237 8760","twitter":"the_george_se1"},"location":{"address":"40 Tower Bridge Rd","lat":"51.49518496243775","lng":"-0.08370637893676758","distance":"117","postalCode":"SE1 4TR","cc":"GB","city":"Bermondsey","state":"Greater London","country":"United Kingdom"},"categories":[{"id":"4bf58dd8d48988d11b941735","name":"Pub","pluralName":"Pubs","shortName":"Pub","icon":{"prefix":"https:\/\/ss1.4sqi.net\/img\/categories_v2\/nightlife\/pub_","suffix":".png"},"primary":"true"}],"verified":"false","restricted":"true","stats":{"checkinsCount":"166","usersCount":"130","tipCount":"3"},"specials":{"count":"0"},"hereNow":{"count":"0"},"referralId":"v-1392478072"},{"id":"4c03c4da187ec928700db67b","name":"The Russian T-34 Tank","location":{"address":"Old Kent Rd","crossStreet":"Mandela Way","lat":"51.49294892385458","lng":"-0.08263617753982544","distance":"149","postalCode":"SE1","cc":"GB","city":"Southwark","state":"Greater London","country":"United Kingdom"},"categories":[{"id":"507c8c4091d498d9fc8c67a9","name":"Public Art","pluralName":"Public Art","shortName":"Public Art","icon":{"prefix":"https:\/\/ss1.4sqi.net\/img\/categories_v2\/arts_entertainment\/default_","suffix":".png"},"primary":"true"}],"verified":"false","restricted":"true","stats":{"checkinsCount":"428","usersCount":"117","tipCount":"6"},"specials":{"count":"0"},"hereNow":{"count":"0"},"referralId":"v-1392478072"},{"id":"4c7653b43adda1434da609af","name":"Miloco The Bridge Studios","location":{"address":"36 Leroy Street","lat":"51.494353","lng":"-0.083208","distance":"28","cc":"GB","city":"Camberwell","state":"Greater London","country":"United Kingdom"},"categories":[{"id":"4bf58dd8d48988d130941735","name":"Building","pluralName":"Buildings","shortName":"Building","icon":{"prefix":"https:\/\/ss1.4sqi.net\/img\/categories_v2\/building\/default_","suffix":".png"},"primary":"true"}],"verified":"false","restricted":"true","stats":{"checkinsCount":"17","usersCount":"12","tipCount":"0"},"specials":{"count":"0"},"hereNow":{"count":"0"},"referralId":"v-1392478072"},{"id":"517b864b498eb2ed7f8c3dba","name":"Little Kickers","location":{"lat":"51.495539905537434","lng":"-0.08207355047141751","distance":"148","cc":"GB","country":"United Kingdom"},"categories":[{"id":"4cce455aebf7b749d5e191f5","name":"Soccer Field","pluralName":"Soccer Fields","shortName":"Soccer Field","icon":{"prefix":"https:\/\/ss1.4sqi.net\/img\/categories_v2\/arts_entertainment\/stadium_soccer_","suffix":".png"},"primary":"true"}],"verified":"false","restricted":"true","stats":{"checkinsCount":"11","usersCount":"4","tipCount":"0"},"specials":{"count":"0"},"hereNow":{"count":"0"},"referralId":"v-1392478072"},{"id":"4e883fb049019c0e2f8fae60","name":"haddon hall","location":{"address":"22 Tower Bridge Road","lat":"51.4946","lng":"-0.0826","distance":"37","cc":"GB","country":"United Kingdom"},"verified":"false","restricted":"true","stats":{"checkinsCount":"1","usersCount":"1","tipCount":"0"},"specials":{"count":"0"},"hereNow":{"count":"0"},"referralId":"v-1392478072"},{"id":"4ac518dff964a520f3a920e3","name":"Tower Tandoori","location":{"address":"74-76 Tower Bridge Rd","crossStreet":"Camberwell","lat":"51.49623731890455","lng":"-0.08263822495422656","distance":"217","postalCode":"SE1 4TP","cc":"GB","city":"London","state":"Greater London","country":"United Kingdom"},"categories":[{"id":"4bf58dd8d48988d10f941735","name":"Indian Restaurant","pluralName":"Indian Restaurants","shortName":"Indian","icon":{"prefix":"https:\/\/ss1.4sqi.net\/img\/categories_v2\/food\/indian_","suffix":".png"},"primary":"true"}],"verified":"false","restricted":"true","stats":{"checkinsCount":"190","usersCount":"101","tipCount":"8"},"url":"http:\/\/www.towertandoori.co.uk","reservations":{"url":"http:\/\/www.toptable.co.uk\/single.aspx?rid=89656&ref=9601"},"menu":{"type":"Menu","label":"Menu","anchor":"View Menu","url":"https:\/\/foursquare.com\/v\/tower-tandoori\/4ac518dff964a520f3a920e3\/menu","mobileUrl":"https:\/\/foursquare.com\/v\/4ac518dff964a520f3a920e3\/device_menu"},"specials":{"count":"0"},"hereNow":{"count":"0"},"referralId":"v-1392478072"},{"id":"4b1a3037f964a52008e823e3","name":"M Manze's","contact":{"phone":"+442074072985","formattedPhone":"+44 20 7407 2985"},"location":{"address":"87 Tower Bridge Rd","lat":"51.496333832809626","lng":"-0.08267641067504883","distance":"227","postalCode":"SE1 4TW","cc":"GB","city":"London","state":"Greater London","country":"United Kingdom"},"categories":[{"id":"4bf58dd8d48988d1c4941735","name":"Restaurant","pluralName":"Restaurants","shortName":"Restaurant","icon":{"prefix":"https:\/\/ss1.4sqi.net\/img\/categories_v2\/food\/default_","suffix":".png"},"primary":"true"}],"verified":"false","restricted":"true","stats":{"checkinsCount":"229","usersCount":"136","tipCount":"5"},"specials":{"count":"0"},"hereNow":{"count":"0"},"referralId":"v-1392478072"},{"id":"4ecd558561af476c050f423e","name":"Bus Stop BP","location":{"lat":"51.49323","lng":"-0.084507","distance":"166","cc":"GB","city":"Camberwell","state":"Greater London","country":"United Kingdom"},"categories":[{"id":"4bf58dd8d48988d1fe931735","name":"Bus Station","pluralName":"Bus Stations","shortName":"Bus Station","icon":{"prefix":"https:\/\/ss1.4sqi.net\/img\/categories_v2\/travel\/busstation_","suffix":".png"},"primary":"true"}],"verified":"false","restricted":"true","stats":{"checkinsCount":"24","usersCount":"13","tipCount":"0"},"specials":{"count":"0"},"hereNow":{"count":"0"},"referralId":"v-1392478072"},{"id":"4e8ef76ebe7bad367c8b3c76","name":"Crystal China","contact":{"phone":"+442072318866","formattedPhone":"+44 20 7231 8866"},"location":{"lat":"51.496344","lng":"-0.082502","distance":"229","postalCode":"SE1 4TP","cc":"GB","city":"Bermonsdey","state":"Greater London","country":"United Kingdom"},"categories":[{"id":"4bf58dd8d48988d145941735","name":"Chinese Restaurant","pluralName":"Chinese Restaurants","shortName":"Chinese","icon":{"prefix":"https:\/\/ss1.4sqi.net\/img\/categories_v2\/food\/chinese_","suffix":".png"},"primary":"true"}],"verified":"false","restricted":"true","stats":{"checkinsCount":"80","usersCount":"50","tipCount":"1"},"specials":{"count":"0"},"hereNow":{"count":"0"},"referralId":"v-1392478072"},{"id":"4d28fc2877a2a1cd40b667b7","name":"Tesco Express","contact":{"phone":"+448456746447","formattedPhone":"+44 845 674 6447","twitter":"uktescooffers"},"location":{"address":"67-69 Tower Bridge Road","lat":"51.4958128370432","lng":"-0.08325576782226562","distance":"172","postalCode":"SE1 4TL","cc":"GB","city":"Bermondsey","state":"Greater London","country":"United Kingdom"},"categories":[{"id":"4bf58dd8d48988d118951735","name":"Grocery Store","pluralName":"Grocery Stores","shortName":"Grocery Store","icon":{"prefix":"https:\/\/ss1.4sqi.net\/img\/categories_v2\/shops\/food_grocery_","suffix":".png"},"primary":"true"}],"verified":"true","restricted":"true","stats":{"checkinsCount":"106","usersCount":"47","tipCount":"1"},"url":"http:\/\/www.tesco.com","specials":{"count":"0"},"hereNow":{"count":"0"},"storeId":"6172","referralId":"v-1392478072"},{"id":"4c40b7085faf76b0f2404820","name":"Creative IT","contact":{"phone":"+442072376805","formattedPhone":"+44 20 7237 6805","twitter":"creativeit"},"location":{"address":"80 Willow Walk, Unit 6a","crossStreet":"Pages Walk","lat":"51.493924","lng":"-0.081057","distance":"127","cc":"GB","city":"London","country":"United Kingdom"},"categories":[{"id":"4bf58dd8d48988d122951735","name":"Electronics Store","pluralName":"Electronics Stores","shortName":"Electronics","icon":{"prefix":"https:\/\/ss1.4sqi.net\/img\/categories_v2\/shops\/technology_","suffix":".png"},"primary":"true"}],"verified":"false","restricted":"true","stats":{"checkinsCount":"6","usersCount":"6","tipCount":"1"},"specials":{"count":"0"},"hereNow":{"count":"0"},"referralId":"v-1392478072"},{"id":"519a64f1498ecd79e61ffd12","name":"Bus Stop J Elephant & Castle New Kent Road","location":{"lat":"51.49497261028779","lng":"-0.08579956455530491","distance":"221","cc":"GB","country":"United Kingdom"},"categories":[{"id":"4bf58dd8d48988d12b951735","name":"Bus Line","pluralName":"Bus Lines","shortName":"Bus","icon":{"prefix":"https:\/\/ss1.4sqi.net\/img\/categories_v2\/travel\/busstation_","suffix":".png"},"primary":"true"}],"verified":"false","restricted":"true","stats":{"checkinsCount":"13","usersCount":"7","tipCount":"0"},"specials":{"count":"0"},"hereNow":{"count":"0"},"referralId":"v-1392478072"},{"id":"4b6e9db2f964a52014c42ce3","name":"Lidl","location":{"address":"Old Kent Road","crossStreet":"Massinger St","lat":"51.492018739579336","lng":"-0.08351325988769531","distance":"257","cc":"GB","city":"Camberwell","state":"Greater London","country":"United Kingdom"},"categories":[{"id":"4bf58dd8d48988d118951735","name":"Grocery Store","pluralName":"Grocery Stores","shortName":"Grocery Store","icon":{"prefix":"https:\/\/ss1.4sqi.net\/img\/categories_v2\/shops\/food_grocery_","suffix":".png"},"primary":"true"}],"verified":"false","restricted":"true","stats":{"checkinsCount":"238","usersCount":"99","tipCount":"1"},"specials":{"count":"0"},"hereNow":{"count":"0"},"referralId":"v-1392478072"},{"id":"4c66c1549cedd13a1b8c76a1","name":"The Victoria","contact":{"phone":"+442072373248","formattedPhone":"+44 20 7237 3248"},"location":{"address":"68 - 70 Page's Walk","crossStreet":"Willow Walk","lat":"51.494423","lng":"-0.08048652","distance":"161","postalCode":"SE1 4HL","cc":"GB","city":"London","state":"Greater London","country":"United Kingdom"},"categories":[{"id":"4bf58dd8d48988d11b941735","name":"Pub","pluralName":"Pubs","shortName":"Pub","icon":{"prefix":"https:\/\/ss1.4sqi.net\/img\/categories_v2\/nightlife\/pub_","suffix":".png"},"primary":"true"}],"verified":"false","restricted":"true","stats":{"checkinsCount":"167","usersCount":"44","tipCount":"0"},"menu":{"type":"Menu","label":"Menu","anchor":"View Menu","url":"https:\/\/foursquare.com\/v\/the-victoria\/4c66c1549cedd13a1b8c76a1\/menu","mobileUrl":"https:\/\/foursquare.com\/v\/4c66c1549cedd13a1b8c76a1\/device_menu"},"specials":{"count":"0"},"hereNow":{"count":"0"},"referralId":"v-1392478072"},{"id":"4fb47ec5e4b0edf5d4b6bed1","name":"Charlotte Court","location":{"lat":"51.49302315806153","lng":"-0.08461885743417395","distance":"188","cc":"GB","country":"United Kingdom"},"categories":[{"id":"4d954b06a243a5684965b473","name":"Residential Building (Apartment \/ Condo)","pluralName":"Residential Buildings (Apartments \/ Condos)","shortName":"Residential","icon":{"prefix":"https:\/\/ss1.4sqi.net\/img\/categories_v2\/building\/apartment_","suffix":".png"},"primary":"true"}],"verified":"false","restricted":"true","stats":{"checkinsCount":"8","usersCount":"8","tipCount":"0"},"specials":{"count":"0"},"hereNow":{"count":"0"},"referralId":"v-1392478072"},{"id":"52e38fd1498e0f1142c4c1bd","name":"Bermondsey Farmers Market","location":{"address":"Bermondsey Square","lat":"51.496092412804714","lng":"-0.08430074615083254","distance":"226","cc":"GB","country":"United Kingdom"},"categories":[{"id":"5267e4d8e4b0ec79466e48c5","name":"Street Fair","pluralName":"Street Fairs","shortName":"Fair","icon":{"prefix":"https:\/\/ss1.4sqi.net\/img\/categories_v2\/event\/default_","suffix":".png"},"primary":"true"}],"verified":"false","restricted":"true","stats":{"checkinsCount":"1","usersCount":"1","tipCount":"0"},"specials":{"count":"0"},"hereNow":{"count":"0"},"referralId":"v-1392478072"},{"id":"4f4a8fc5e4b0605e44baca76","name":"\u5473\u7de3","location":{"lat":"51.496032281064274","lng":"-0.08225367138260013","distance":"197","cc":"GB","country":"United Kingdom"},"verified":"false","restricted":"true","stats":{"checkinsCount":"2","usersCount":"2","tipCount":"0"},"specials":{"count":"0"},"hereNow":{"count":"0"},"referralId":"v-1392478072"},{"id":"4c42a28caf052d7fb4597f79","name":"Grange Road","location":{"address":"Grange Road","crossStreet":"Caladonian Market","lat":"51.4959469","lng":"-0.082336","distance":"187","cc":"GB","city":"London","state":"Greater London","country":"United Kingdom"},"categories":[{"id":"4bf58dd8d48988d1fe931735","name":"Bus Station","pluralName":"Bus Stations","shortName":"Bus Station","icon":{"prefix":"https:\/\/ss1.4sqi.net\/img\/categories_v2\/travel\/busstation_","suffix":".png"},"primary":"true"}],"verified":"false","restricted":"true","stats":{"checkinsCount":"15","usersCount":"12","tipCount":"0"},"specials":{"count":"0"},"hereNow":{"count":"0"},"referralId":"v-1392478072"},{"id":"4d99ed6eaf3d236a4ad95dc7","name":"Kardo's Hairdressers","contact":{"phone":"+442074073221","formattedPhone":"+44 20 7407 3221"},"location":{"address":"99 Tower Bridge Rd.","lat":"51.496456","lng":"-0.082397","distance":"242","postalCode":"SE1 4TW","cc":"GB","city":"Bermondsey","state":"Greater London","country":"United Kingdom"},"categories":[{"id":"4bf58dd8d48988d110951735","name":"Salon \/ Barbershop","pluralName":"Salons \/ Barbershops","shortName":"Salon \/ Barbershop","icon":{"prefix":"https:\/\/ss1.4sqi.net\/img\/categories_v2\/shops\/salon_barber_","suffix":".png"},"primary":"true"}],"verified":"false","restricted":"true","stats":{"checkinsCount":"23","usersCount":"10","tipCount":"1"},"specials":{"count":"0"},"hereNow":{"count":"0"},"referralId":"v-1392478072"},{"id":"4ee5fe406da14e7d9b23b81b","name":"O-Tower Caribbean Cuisine","location":{"address":"60 Tower Bridge Rd, London Borough of Southwark, London SE1 4TR","lat":"51.49573516845703","lng":"-0.08302710205316544","distance":"161","postalCode":"SE1","cc":"GB","city":"London","state":"Greater London","country":"United Kingdom"},"categories":[{"id":"4bf58dd8d48988d144941735","name":"Caribbean Restaurant","pluralName":"Caribbean Restaurants","shortName":"Caribbean","icon":{"prefix":"https:\/\/ss1.4sqi.net\/img\/categories_v2\/food\/caribbean_","suffix":".png"},"primary":"true"}],"verified":"false","restricted":"true","stats":{"checkinsCount":"26","usersCount":"25","tipCount":"0"},"specials":{"count":"0"},"hereNow":{"count":"0"},"referralId":"v-1392478072"},{"id":"4bcf158fcc8cd13a094ec5cf","name":"Access Self Storage","contact":{"phone":"+442079983891","formattedPhone":"+44 20 7998 3891"},"location":{"address":"61 Willow Walk","lat":"51.49391990476978","lng":"-0.07946570390825525","distance":"234","postalCode":"SE1 5SF","cc":"GB","city":"Southwark","state":"Greater London","country":"United Kingdom"},"categories":[{"id":"4f04b1572fb6e1c99f3db0bf","name":"Storage Facility","pluralName":"Storage Facilities","shortName":"Storage","icon":{"prefix":"https:\/\/ss1.4sqi.net\/img\/categories_v2\/shops\/storage_","suffix":".png"},"primary":"true"}],"verified":"false","restricted":"true","stats":{"checkinsCount":"38","usersCount":"17","tipCount":"1"},"specials":{"count":"0"},"hereNow":{"count":"0"},"referralId":"v-1392478072"},{"id":"4ba587e0f964a520c40f39e3","name":"Harriets!","location":{"lat":"51.494708","lng":"-0.081583","distance":"96","cc":"GB","country":"United Kingdom"},"verified":"false","restricted":"true","stats":{"checkinsCount":"1","usersCount":"1","tipCount":"0"},"specials":{"count":"0"},"hereNow":{"count":"0"},"referralId":"v-1392478072"},{"id":"4ec0def777c885a64ee5fdff","name":"Image Magic","location":{"lat":"51.4959288788806","lng":"-0.08334273474332975","distance":"186","cc":"GB","city":"Camberwell","state":"Greater London","country":"United Kingdom"},"categories":[{"id":"4bf58dd8d48988d1fc941735","name":"Laundry Service","pluralName":"Laundry Services","shortName":"Laundry","icon":{"prefix":"https:\/\/ss1.4sqi.net\/img\/categories_v2\/shops\/laundry_","suffix":".png"},"primary":"true"}],"verified":"false","restricted":"true","stats":{"checkinsCount":"12","usersCount":"7","tipCount":"0"},"specials":{"count":"0"},"hereNow":{"count":"0"},"referralId":"v-1392478072"},{"id":"4befd7fbf831c928c05401f2","name":"Block B, Jam Factory","location":{"address":"27 Green Walk","lat":"51.4960149535199","lng":"-0.0848507180766245","distance":"238","postalCode":"SE1 4TX","cc":"GB","country":"United Kingdom"},"categories":[{"id":"4d954b06a243a5684965b473","name":"Residential Building (Apartment \/ Condo)","pluralName":"Residential Buildings (Apartments \/ Condos)","shortName":"Residential","icon":{"prefix":"https:\/\/ss1.4sqi.net\/img\/categories_v2\/building\/apartment_","suffix":".png"},"primary":"true"}],"verified":"false","restricted":"true","stats":{"checkinsCount":"130","usersCount":"6","tipCount":"0"},"specials":{"count":"0"},"hereNow":{"count":"0"},"referralId":"v-1392478072"},{"id":"4c7439c4604a3704a6667f49","name":"The Schoolhouse","location":{"address":"Pages Walk","lat":"51.493292","lng":"-0.082519","distance":"112","postalCode":"Se1","cc":"GB","city":"London","state":"Greater London","country":"United Kingdom"},"categories":[{"id":"4bf58dd8d48988d130941735","name":"Building","pluralName":"Buildings","shortName":"Building","icon":{"prefix":"https:\/\/ss1.4sqi.net\/img\/categories_v2\/building\/default_","suffix":".png"},"primary":"true"}],"verified":"false","restricted":"true","stats":{"checkinsCount":"22","usersCount":"11","tipCount":"0"},"specials":{"count":"0"},"hereNow":{"count":"0"},"referralId":"v-1392478072"},{"id":"514623f6e4b0c11f813430b2","name":"Comunidade Crist\u00e3 em Londres Bermondsey","location":{"address":"22 Tower Bridge Road","lat":"51.495069","lng":"-0.08371","distance":"107","postalCode":"SE1 4TR","cc":"GB","city":"London","state":"Greater London","country":"United Kingdom"},"categories":[{"id":"4bf58dd8d48988d132941735","name":"Church","pluralName":"Churches","shortName":"Church","icon":{"prefix":"https:\/\/ss1.4sqi.net\/img\/categories_v2\/building\/religious_church_","suffix":".png"},"primary":"true"}],"verified":"false","restricted":"true","stats":{"checkinsCount":"1","usersCount":"1","tipCount":"0"},"specials":{"count":"0"},"hereNow":{"count":"0"},"referralId":"v-1392478072"},{"id":"4c12f88a82a3c9b6faccfaf8","name":"TfL Bus N1","location":{"address":"Moving Target!","lat":"51.494137594995394","lng":"-0.08569765130232554","distance":"201","cc":"GB","city":"London","state":"Greater London","country":"United Kingdom"},"categories":[{"id":"4bf58dd8d48988d12b951735","name":"Bus Line","pluralName":"Bus Lines","shortName":"Bus","icon":{"prefix":"https:\/\/ss1.4sqi.net\/img\/categories_v2\/travel\/busstation_","suffix":".png"},"primary":"true"}],"verified":"false","restricted":"true","stats":{"checkinsCount":"26","usersCount":"14","tipCount":"1"},"specials":{"count":"0"},"hereNow":{"count":"0"},"referralId":"v-1392478072"}],"confident":"false"}}