{"meta":{"code":"200"},"response":{"venues":[{"id":"4b5a1e01f964a52053ae28e3","name":"The Pelican Bar","contact":{"phone":"+442073361023","formattedPhone":"+44 20 7336 1023"},"location":{"address":"22 Waterford Rd","lat":"51.478935","lng":"-0.192714","distance":"39","postalCode":"SW6 2DR","cc":"GB","city":"London","state":"Greater London","country":"United Kingdom"},"categories":[{"id":"4bf58dd8d48988d11b941735","name":"Pub","pluralName":"Pubs","shortName":"Pub","icon":{"prefix":"https:\/\/ss1.4sqi.net\/img\/categories_v2\/nightlife\/pub_","suffix":".png"},"primary":"true"}],"verified":"false","restricted":"true","stats":{"checkinsCount":"341","usersCount":"155","tipCount":"4"},"specials":{"count":"0"},"hereNow":{"count":"0"},"referralId":"v-1392478100"},{"id":"4c54356f06901b8db008694b","name":"David Lloyd","contact":{"phone":"+442073862202","formattedPhone":"+44 20 7386 2202"},"location":{"address":"Unit 24, Fulham Broadway Retail Centre","crossStreet":"Fulham Road","lat":"51.480281062923666","lng":"-0.19441513630199164","distance":"157","postalCode":"SW6 1BW","cc":"GB","city":"Fulham","state":"Greater London","country":"United Kingdom"},"categories":[{"id":"4bf58dd8d48988d176941735","name":"Gym","pluralName":"Gyms","shortName":"Gym","icon":{"prefix":"https:\/\/ss1.4sqi.net\/img\/categories_v2\/building\/gym_","suffix":".png"},"primary":"true"}],"verified":"false","restricted":"true","stats":{"checkinsCount":"2025","usersCount":"215","tipCount":"5"},"specials":{"count":"0"},"hereNow":{"count":"1","groups":[{"type":"others","name":"Other people here","count":"1"}]},"referralId":"v-1392478100"},{"id":"4c3f4ef43735be9aa63115a4","name":"Starbucks","contact":{"twitter":"starbucksuk"},"location":{"address":"Unit 4, Fulham Broadway Station","lat":"51.48013483472816","lng":"-0.19446614901570033","distance":"148","postalCode":"SW6 1BY","cc":"GB","city":"London","state":"Greater London","country":"United Kingdom"},"categories":[{"id":"4bf58dd8d48988d1e0931735","name":"Coffee Shop","pluralName":"Coffee Shops","shortName":"Coffee Shop","icon":{"prefix":"https:\/\/ss1.4sqi.net\/img\/categories_v2\/food\/coffeeshop_","suffix":".png"},"primary":"true"}],"verified":"true","restricted":"true","stats":{"checkinsCount":"2007","usersCount":"920","tipCount":"16"},"url":"http:\/\/starbucks.co.uk","specials":{"count":"0"},"hereNow":{"count":"1","groups":[{"type":"others","name":"Other people here","count":"1"}]},"storeId":"12362","referralId":"v-1392478100"},{"id":"4b5b426bf964a5202cef28e3","name":"Vue Cinema","contact":{"phone":"+448712240240","formattedPhone":"+44 871 224 0240","twitter":"vuecinemas","facebook":"147114011989238"},"location":{"address":"Fulham Broadway Retail Centre","crossStreet":"Fulham Rd","lat":"51.480206921910444","lng":"-0.19496440887451172","distance":"181","postalCode":"SW6 1BW","cc":"GB","city":"London","state":"Greater London","country":"United Kingdom"},"categories":[{"id":"4bf58dd8d48988d17f941735","name":"Movie Theater","pluralName":"Movie Theaters","shortName":"Movie Theater","icon":{"prefix":"https:\/\/ss1.4sqi.net\/img\/categories_v2\/arts_entertainment\/movietheater_","suffix":".png"},"primary":"true"}],"verified":"true","restricted":"true","stats":{"checkinsCount":"2370","usersCount":"1198","tipCount":"13"},"url":"http:\/\/www.myvue.com","specials":{"count":"0"},"events":{"count":"15","summary":"15 movies"},"hereNow":{"count":"1","groups":[{"type":"others","name":"Other people here","count":"1"}]},"storeId":"30","referralId":"v-1392478100"},{"id":"4be282a3660ec92892a4c93b","name":"Fulham Town Hall","location":{"address":"Fulham Rd.","lat":"51.47936160521128","lng":"-0.19419039006867933","distance":"96","cc":"GB","city":"Fulham","state":"Greater London","country":"United Kingdom"},"categories":[{"id":"4bf58dd8d48988d129941735","name":"City Hall","pluralName":"City Halls","shortName":"City Hall","icon":{"prefix":"https:\/\/ss1.4sqi.net\/img\/categories_v2\/building\/cityhall_","suffix":".png"},"primary":"true"}],"verified":"false","restricted":"true","stats":{"checkinsCount":"268","usersCount":"124","tipCount":"1"},"specials":{"count":"0"},"hereNow":{"count":"1","groups":[{"type":"others","name":"Other people here","count":"1"}]},"referralId":"v-1392478100"},{"id":"4ad5b9ddf964a5204d0321e3","name":"Oyster Rooms (Wetherspoon)","contact":{"phone":"+442074710310","formattedPhone":"+44 20 7471 0310"},"location":{"address":"470 Fulham Rd.","lat":"51.48011690589717","lng":"-0.19471868508041193","distance":"161","postalCode":"SW6 1AA","cc":"GB","city":"Fulham","state":"Greater London","country":"United Kingdom"},"categories":[{"id":"4bf58dd8d48988d11b941735","name":"Pub","pluralName":"Pubs","shortName":"Pub","icon":{"prefix":"https:\/\/ss1.4sqi.net\/img\/categories_v2\/nightlife\/pub_","suffix":".png"},"primary":"true"}],"verified":"true","restricted":"true","stats":{"checkinsCount":"611","usersCount":"288","tipCount":"2"},"url":"http:\/\/www.jdwetherspoon.co.uk","specials":{"count":"0"},"hereNow":{"count":"0"},"referralId":"v-1392478100"},{"id":"4b4f7ed3f964a520e20827e3","name":"Sainsbury's","contact":{"phone":"+442073854712","formattedPhone":"+44 20 7385 4712"},"location":{"address":"Fulham Broadway Retail Centre","crossStreet":"Fulham Broadway","lat":"51.48028710293213","lng":"-0.1947498321533203","distance":"174","postalCode":"SW6 1BW","cc":"GB","city":"London","state":"Greater London","country":"United Kingdom"},"categories":[{"id":"4bf58dd8d48988d118951735","name":"Grocery Store","pluralName":"Grocery Stores","shortName":"Grocery Store","icon":{"prefix":"https:\/\/ss1.4sqi.net\/img\/categories_v2\/shops\/food_grocery_","suffix":".png"},"primary":"true"}],"verified":"false","restricted":"true","stats":{"checkinsCount":"948","usersCount":"312","tipCount":"4"},"specials":{"count":"0"},"hereNow":{"count":"0"},"referralId":"v-1392478100"},{"id":"4e176f8152b123a586cce9cf","name":"Kona Kai","contact":{"phone":"+442073859991","formattedPhone":"+44 20 7385 9991","twitter":"konakaibar"},"location":{"address":"515 Fulham Rd","lat":"51.480246","lng":"-0.19215","distance":"115","postalCode":"SW6 1HD","cc":"GB","city":"London","state":"Greater London","country":"United Kingdom"},"categories":[{"id":"4bf58dd8d48988d11e941735","name":"Cocktail Bar","pluralName":"Cocktail Bars","shortName":"Cocktail","icon":{"prefix":"https:\/\/ss1.4sqi.net\/img\/categories_v2\/nightlife\/cocktails_","suffix":".png"},"primary":"true"}],"verified":"false","restricted":"true","stats":{"checkinsCount":"233","usersCount":"201","tipCount":"6"},"url":"http:\/\/www.konakai.co.uk","specials":{"count":"0"},"hereNow":{"count":"0"},"referralId":"v-1392478100"},{"id":"4b2692adf964a520bc7d24e3","name":"Nando's","contact":{"phone":"+442073868035","formattedPhone":"+44 20 7386 8035","twitter":"nandosuk"},"location":{"address":"Unit 20 Fulham Broadway Retail Centre Fulham Road","crossStreet":"Fulham Rd.","lat":"51.48015346781766","lng":"-0.1945781707763672","distance":"156","postalCode":"SW6 1BY","cc":"GB","city":"London","state":"Greater London","country":"United Kingdom"},"categories":[{"id":"4def73e84765ae376e57713a","name":"Portuguese Restaurant","pluralName":"Portuguese Restaurants","shortName":"Portuguese","icon":{"prefix":"https:\/\/ss1.4sqi.net\/img\/categories_v2\/food\/default_","suffix":".png"},"primary":"true"}],"verified":"true","restricted":"true","stats":{"checkinsCount":"663","usersCount":"391","tipCount":"11"},"url":"http:\/\/www.nandos.co.uk","specials":{"count":"0"},"hereNow":{"count":"0"},"storeId":"N065","referralId":"v-1392478100"},{"id":"4fc39d06e4b00f359820ec24","name":"Fulham Broadway Shopping Centre","contact":{"phone":"+442073856965","formattedPhone":"+44 20 7385 6965","twitter":"fulham_brc"},"location":{"address":"Fulham Rd","lat":"51.480316881507925","lng":"-0.19447257154943903","distance":"162","postalCode":"SW6 1BW","cc":"GB","city":"Fulham","state":"Greater London","country":"United Kingdom"},"categories":[{"id":"4bf58dd8d48988d1fd941735","name":"Mall","pluralName":"Malls","shortName":"Mall","icon":{"prefix":"https:\/\/ss1.4sqi.net\/img\/categories_v2\/shops\/mall_","suffix":".png"},"primary":"true"}],"verified":"false","restricted":"true","stats":{"checkinsCount":"411","usersCount":"246","tipCount":"0"},"url":"http:\/\/www.fulhambroadway.co.uk","specials":{"count":"0"},"hereNow":{"count":"0"},"referralId":"v-1392478100"},{"id":"5048bba8e4b0c2267574858f","name":"Metro Fulham Broadway","location":{"lat":"51.47900181110669","lng":"-0.19235643520493648","distance":"44","cc":"GB","country":"United Kingdom"},"categories":[{"id":"4bf58dd8d48988d10a951735","name":"Bank","pluralName":"Banks","shortName":"Bank","icon":{"prefix":"https:\/\/ss1.4sqi.net\/img\/categories_v2\/shops\/financial_","suffix":".png"},"primary":"true"}],"verified":"false","restricted":"true","stats":{"checkinsCount":"32","usersCount":"11","tipCount":"1"},"specials":{"count":"0"},"hereNow":{"count":"0"},"referralId":"v-1392478100"},{"id":"4ce15306d58c60fc944aa66f","name":"The Lennox Gallery","location":{"address":"77 Moore Park Road","lat":"51.479304","lng":"-0.192744","distance":"4","postalCode":"SW6 2HH","cc":"GB","city":"London","state":"Greater London","country":"United Kingdom"},"categories":[{"id":"4bf58dd8d48988d1e2931735","name":"Art Gallery","pluralName":"Art Galleries","shortName":"Art Gallery","icon":{"prefix":"https:\/\/ss1.4sqi.net\/img\/categories_v2\/arts_entertainment\/artgallery_","suffix":".png"},"primary":"true"}],"verified":"false","restricted":"true","stats":{"checkinsCount":"1","usersCount":"1","tipCount":"0"},"specials":{"count":"0"},"hereNow":{"count":"0"},"referralId":"v-1392478100"},{"id":"4dda5869d1647fcf3e8ede25","name":"Lloyds Bar","location":{"lat":"51.480152","lng":"-0.194449","distance":"149","cc":"GB","city":"Hammersmith","state":"Greater London","country":"United Kingdom"},"categories":[{"id":"4bf58dd8d48988d11b941735","name":"Pub","pluralName":"Pubs","shortName":"Pub","icon":{"prefix":"https:\/\/ss1.4sqi.net\/img\/categories_v2\/nightlife\/pub_","suffix":".png"},"primary":"true"}],"verified":"false","restricted":"true","stats":{"checkinsCount":"316","usersCount":"174","tipCount":"3"},"specials":{"count":"0"},"hereNow":{"count":"0"},"referralId":"v-1392478100"},{"id":"4f70b1d0e4b07d379ede4833","name":"Wagamama","contact":{"phone":"+442073868017","formattedPhone":"+44 20 7386 8017"},"location":{"address":"Fulham Broadway Shopping Centre","lat":"51.480291200466745","lng":"-0.19442109419676334","distance":"158","postalCode":"SW6 1BW","cc":"GB","city":"Fulham","state":"Greater London","country":"United Kingdom"},"categories":[{"id":"4bf58dd8d48988d142941735","name":"Asian Restaurant","pluralName":"Asian Restaurants","shortName":"Asian","icon":{"prefix":"https:\/\/ss1.4sqi.net\/img\/categories_v2\/food\/asian_","suffix":".png"},"primary":"true"}],"verified":"false","restricted":"true","stats":{"checkinsCount":"394","usersCount":"272","tipCount":"6"},"specials":{"count":"0"},"hereNow":{"count":"0"},"referralId":"v-1392478100"},{"id":"4df09119ae6066d602d661dd","name":"Gambardos","location":{"address":"Imperial Wharf","lat":"51.479347","lng":"-0.192991","distance":"14","cc":"GB","city":"London","state":"Greater London","country":"United Kingdom"},"verified":"false","restricted":"true","stats":{"checkinsCount":"15","usersCount":"5","tipCount":"1"},"specials":{"count":"0"},"hereNow":{"count":"0"},"referralId":"v-1392478100"},{"id":"4bb38d8042959c74411a222c","name":"Kishmish","location":{"address":"448 Fulham Rd. Fulham","lat":"51.48018479347229","lng":"-0.193232","distance":"104","postalCode":"SW6 1DL","cc":"GB","city":"London","state":"Greater London","country":"United Kingdom"},"categories":[{"id":"4bf58dd8d48988d10f941735","name":"Indian Restaurant","pluralName":"Indian Restaurants","shortName":"Indian","icon":{"prefix":"https:\/\/ss1.4sqi.net\/img\/categories_v2\/food\/indian_","suffix":".png"},"primary":"true"}],"verified":"false","restricted":"true","stats":{"checkinsCount":"172","usersCount":"99","tipCount":"1"},"url":"http:\/\/www.kishmish.biz","reservations":{"url":"http:\/\/www.toptable.co.uk\/single.aspx?rid=21090&ref=9601"},"menu":{"type":"Menu","label":"Menu","anchor":"View Menu","url":"https:\/\/foursquare.com\/v\/kishmish\/4bb38d8042959c74411a222c\/menu","mobileUrl":"https:\/\/foursquare.com\/v\/4bb38d8042959c74411a222c\/device_menu"},"specials":{"count":"0"},"hereNow":{"count":"0"},"referralId":"v-1392478100"},{"id":"4b51d802f964a520ac5727e3","name":"YO! Sushi","contact":{"phone":"+442073856077","formattedPhone":"+44 20 7385 6077","twitter":"yosushi"},"location":{"address":"Restaurant 1, Fulham Broadway, Fulham Rd","crossStreet":"Fulham Rd.","lat":"51.48013","lng":"-0.194437","distance":"146","postalCode":"SW6 1BW","cc":"GB","city":"Hammersmith & Fulham Broadway","state":"Greater London","country":"United Kingdom"},"categories":[{"id":"4bf58dd8d48988d1d2941735","name":"Sushi Restaurant","pluralName":"Sushi Restaurants","shortName":"Sushi","icon":{"prefix":"https:\/\/ss1.4sqi.net\/img\/categories_v2\/food\/sushi_","suffix":".png"},"primary":"true"}],"verified":"true","restricted":"true","stats":{"checkinsCount":"372","usersCount":"249","tipCount":"7"},"url":"http:\/\/www.yosushi.com","specials":{"count":"0"},"hereNow":{"count":"0"},"storeId":"FULH","referralId":"v-1392478100"},{"id":"4afc907ff964a520ea2322e3","name":"PizzaExpress","contact":{"phone":"+442073811700","formattedPhone":"+44 20 7381 1700","twitter":"pizzaexpress"},"location":{"address":"4 Fulham Broadway Retail Centre","lat":"51.48019356","lng":"-0.194342136","distance":"146","postalCode":"SW6 1BW","cc":"GB","city":"London","state":"Greater London","country":"United Kingdom"},"categories":[{"id":"4bf58dd8d48988d1ca941735","name":"Pizza Place","pluralName":"Pizza Places","shortName":"Pizza","icon":{"prefix":"https:\/\/ss1.4sqi.net\/img\/categories_v2\/food\/pizza_","suffix":".png"},"primary":"true"}],"verified":"true","restricted":"true","stats":{"checkinsCount":"353","usersCount":"267","tipCount":"0"},"url":"http:\/\/www.pizzaexpress.com","specials":{"count":"0"},"hereNow":{"count":"0"},"storeId":"","referralId":"v-1392478100"},{"id":"4b98f156f964a520a25735e3","name":"Pret A Manger","contact":{"phone":"+442079325373","formattedPhone":"+44 20 7932 5373","twitter":"pret","facebook":"162638680417951"},"location":{"address":"Unit 5, Fulham Broadway Retail Centre","lat":"51.4805491052444","lng":"-0.194418056748893","distance":"179","postalCode":"SW6 1BW","cc":"GB","city":"Fulham","state":"Greater London","country":"United Kingdom"},"categories":[{"id":"4bf58dd8d48988d1c5941735","name":"Sandwich Place","pluralName":"Sandwich Places","shortName":"Sandwiches","icon":{"prefix":"https:\/\/ss1.4sqi.net\/img\/categories_v2\/food\/sandwiches_","suffix":".png"},"primary":"true"}],"verified":"true","restricted":"true","stats":{"checkinsCount":"495","usersCount":"258","tipCount":"8"},"url":"http:\/\/www.pret.com","specials":{"count":"0"},"hereNow":{"count":"0"},"storeId":"173","referralId":"v-1392478100"},{"id":"4d0a30c8e023224b3dac5ed2","name":"Krispy Kreme","contact":{"phone":"+442073855042","formattedPhone":"+44 20 7385 5042","twitter":"krispykremeuk"},"location":{"address":"Fulham Broadway Retail Centre","crossStreet":"Fulham Road","lat":"51.48047419143458","lng":"-0.19440650939941406","distance":"172","postalCode":"SW6 5DL","cc":"GB","city":"London","state":"Greater London","country":"United Kingdom"},"categories":[{"id":"4bf58dd8d48988d148941735","name":"Donut Shop","pluralName":"Donut Shops","shortName":"Donuts","icon":{"prefix":"https:\/\/ss1.4sqi.net\/img\/categories_v2\/food\/donuts_","suffix":".png"},"primary":"true"}],"verified":"true","restricted":"true","stats":{"checkinsCount":"153","usersCount":"75","tipCount":"1"},"url":"http:\/\/www.krispykreme.co.uk","specials":{"count":"0"},"hereNow":{"count":"0"},"storeId":"","referralId":"v-1392478100"},{"id":"4d9c6ea5c99fb60ccbaeb08b","name":"Cigars","location":{"lat":"51.478996558540594","lng":"-0.1925104359931573","distance":"38","cc":"GB","country":"United Kingdom"},"verified":"false","restricted":"true","stats":{"checkinsCount":"16","usersCount":"5","tipCount":"0"},"specials":{"count":"0"},"hereNow":{"count":"0"},"referralId":"v-1392478100"},{"id":"4b6fb70af964a520bcfa2ce3","name":"The London Oratory School","contact":{"phone":"+442073850102","formattedPhone":"+44 20 7385 0102"},"location":{"address":"Seagrave Road","lat":"51.48028234231406","lng":"-0.19089920637189853","distance":"172","postalCode":"SW6 1RX","cc":"GB","city":"Fulham","state":"Greater London","country":"United Kingdom"},"categories":[{"id":"4bf58dd8d48988d13d941735","name":"High School","pluralName":"High Schools","shortName":"High School","icon":{"prefix":"https:\/\/ss1.4sqi.net\/img\/categories_v2\/building\/school_","suffix":".png"},"primary":"true"}],"verified":"false","restricted":"true","stats":{"checkinsCount":"364","usersCount":"35","tipCount":"0"},"specials":{"count":"0"},"hereNow":{"count":"0"},"referralId":"v-1392478100"},{"id":"52e7e993498e06af9a1a953e","name":"Wilkinson","location":{"address":"12 Fulham Broadway","lat":"51.480247497558594","lng":"-0.19367720186710358","distance":"122","cc":"GB","city":"London","state":"Greater London","country":"United Kingdom"},"categories":[{"id":"4bf58dd8d48988d1ff941735","name":"Miscellaneous Shop","pluralName":"Miscellaneous Shops","shortName":"Shop","icon":{"prefix":"https:\/\/ss1.4sqi.net\/img\/categories_v2\/shops\/default_","suffix":".png"},"primary":"true"}],"verified":"false","restricted":"true","stats":{"checkinsCount":"4","usersCount":"4","tipCount":"0"},"url":"http:\/\/www.wilko.com","specials":{"count":"0"},"hereNow":{"count":"0"},"referralId":"v-1392478100"},{"id":"52d442fe498ef128324c73be","name":"fomosa","location":{"lat":"51.48010760249927","lng":"-0.19381713700798262","distance":"115","cc":"GB","country":"United Kingdom"},"categories":[{"id":"4bf58dd8d48988d145941735","name":"Chinese Restaurant","pluralName":"Chinese Restaurants","shortName":"Chinese","icon":{"prefix":"https:\/\/ss1.4sqi.net\/img\/categories_v2\/food\/chinese_","suffix":".png"},"primary":"true"}],"verified":"false","restricted":"true","stats":{"checkinsCount":"2","usersCount":"2","tipCount":"0"},"specials":{"count":"0"},"hereNow":{"count":"0"},"referralId":"v-1392478100"},{"id":"4f3f8a5ce4b020913c3f6731","name":"Konakai","location":{"address":"Fulham Broadway","lat":"51.48019227381059","lng":"-0.192822647751851","distance":"100","cc":"GB","country":"United Kingdom"},"categories":[{"id":"4bf58dd8d48988d11b941735","name":"Pub","pluralName":"Pubs","shortName":"Pub","icon":{"prefix":"https:\/\/ss1.4sqi.net\/img\/categories_v2\/nightlife\/pub_","suffix":".png"},"primary":"true"}],"verified":"false","restricted":"true","stats":{"checkinsCount":"22","usersCount":"21","tipCount":"0"},"specials":{"count":"0"},"hereNow":{"count":"0"},"referralId":"v-1392478100"},{"id":"4ea2d32c8b81a02f89bd1476","name":"Bus Stop","location":{"address":"Harwood Rd.","lat":"51.4789657291044","lng":"-0.19451230002434144","distance":"123","cc":"GB","city":"Fulham","state":"Greater London","country":"United Kingdom"},"categories":[{"id":"4bf58dd8d48988d1fe931735","name":"Bus Station","pluralName":"Bus Stations","shortName":"Bus Station","icon":{"prefix":"https:\/\/ss1.4sqi.net\/img\/categories_v2\/travel\/busstation_","suffix":".png"},"primary":"true"}],"verified":"false","restricted":"true","stats":{"checkinsCount":"30","usersCount":"14","tipCount":"0"},"specials":{"count":"0"},"hereNow":{"count":"0"},"referralId":"v-1392478100"},{"id":"4e0b86ed62e1a5e78074d292","name":"Moore Park Estate","location":{"lat":"51.47939174018819","lng":"-0.19116640090942383","distance":"114","cc":"GB","city":"London","state":"Greater London","country":"United Kingdom"},"categories":[{"id":"4f2a25ac4b909258e854f55f","name":"Neighborhood","pluralName":"Neighborhoods","shortName":"Neighborhood","icon":{"prefix":"https:\/\/ss1.4sqi.net\/img\/categories_v2\/parks_outdoors\/neighborhood_","suffix":".png"},"primary":"true"}],"verified":"false","restricted":"true","stats":{"checkinsCount":"467","usersCount":"32","tipCount":"0"},"specials":{"count":"0"},"hereNow":{"count":"0"},"referralId":"v-1392478100"},{"id":"4bf13e6f17880f47dd102a37","name":"One Stop Fresh","location":{"address":"85 Moore Park Road","lat":"51.479502","lng":"-0.193156","distance":"34","cc":"GB","city":"London","state":"Greater London","country":"United Kingdom"},"categories":[{"id":"4bf58dd8d48988d146941735","name":"Deli \/ Bodega","pluralName":"Delis \/ Bodegas","shortName":"Deli \/ Bodega","icon":{"prefix":"https:\/\/ss1.4sqi.net\/img\/categories_v2\/food\/deli_","suffix":".png"},"primary":"true"}],"verified":"false","restricted":"true","stats":{"checkinsCount":"3","usersCount":"3","tipCount":"1"},"specials":{"count":"0"},"hereNow":{"count":"0"},"referralId":"v-1392478100"},{"id":"4d42db25946af04d91120877","name":"Princess Nails","location":{"address":"131 Moore Park Rd.","lat":"51.479179708304756","lng":"-0.19345878974838965","distance":"47","cc":"GB","city":"London","state":"Greater London","country":"United Kingdom"},"categories":[{"id":"4bf58dd8d48988d10c951735","name":"Cosmetics Shop","pluralName":"Cosmetics Shops","shortName":"Cosmetics","icon":{"prefix":"https:\/\/ss1.4sqi.net\/img\/categories_v2\/shops\/beauty_cosmetic_","suffix":".png"},"primary":"true"}],"verified":"false","restricted":"true","stats":{"checkinsCount":"23","usersCount":"5","tipCount":"1"},"specials":{"count":"0"},"hereNow":{"count":"0"},"referralId":"v-1392478100"},{"id":"4c056fed761ac9b64e851f74","name":"Boots - Fulham Broadway","location":{"address":"Fulham Road","lat":"51.48016818237156","lng":"-0.1942825713458104","distance":"141","cc":"GB","city":"Kensington","state":"Greater London","country":"United Kingdom"},"categories":[{"id":"4bf58dd8d48988d10f951735","name":"Drugstore \/ Pharmacy","pluralName":"Drugstores \/ Pharmacies","shortName":"Pharmacy","icon":{"prefix":"https:\/\/ss1.4sqi.net\/img\/categories_v2\/shops\/pharmacy_","suffix":".png"},"primary":"true"}],"verified":"false","restricted":"true","stats":{"checkinsCount":"226","usersCount":"80","tipCount":"1"},"specials":{"count":"0"},"hereNow":{"count":"0"},"referralId":"v-1392478100"}],"confident":"true"}}