{"meta":{"code":"200"},"response":{"venues":[{"id":"4c17ab2b59cc2d7f7bfc5287","name":"Lambeth Bridge","location":{"address":"Lambeth Bridge","crossStreet":"btwn Millbank & Lambeth Rd.","lat":"51.49450364191161","lng":"-0.12308120727539062","distance":"30","postalCode":"SE1 7LS","cc":"GB","city":"City of Westminster","state":"Greater London","country":"United Kingdom"},"categories":[{"id":"4bf58dd8d48988d1df941735","name":"Bridge","pluralName":"Bridges","shortName":"Bridge","icon":{"prefix":"https:\/\/ss1.4sqi.net\/img\/categories_v2\/parks_outdoors\/bridge_","suffix":".png"},"primary":"true"}],"verified":"false","restricted":"true","stats":{"checkinsCount":"2122","usersCount":"1150","tipCount":"11"},"specials":{"count":"0"},"hereNow":{"count":"1","groups":[{"type":"others","name":"Other people here","count":"1"}]},"referralId":"v-1392478068"},{"id":"4bf2489a99d02d7f9f0dca48","name":"International Maritime Organization","location":{"address":"4 Albert Embankment","lat":"51.49333000448494","lng":"-0.12072890118118823","distance":"179","postalCode":"SE1 7SR","cc":"GB","city":"Lambeth","state":"Greater London","country":"United Kingdom"},"categories":[{"id":"4bf58dd8d48988d127941735","name":"Conference Room","pluralName":"Conference Rooms","shortName":"Conference room","icon":{"prefix":"https:\/\/ss1.4sqi.net\/img\/categories_v2\/building\/office_conferenceroom_","suffix":".png"},"primary":"true"}],"verified":"false","restricted":"true","stats":{"checkinsCount":"548","usersCount":"154","tipCount":"0"},"specials":{"count":"0"},"hereNow":{"count":"0"},"referralId":"v-1392478068"},{"id":"4c2dead7987f20a1482b4aaa","name":"BBC Millbank","location":{"address":"4 Millbank","crossStreet":"Millbank","lat":"51.49458379779617","lng":"-0.1254415512084961","distance":"185","postalCode":"SW1P 3","cc":"GB","city":"London","state":"Greater London","country":"United Kingdom"},"categories":[{"id":"4bf58dd8d48988d124941735","name":"Office","pluralName":"Offices","shortName":"Office","icon":{"prefix":"https:\/\/ss1.4sqi.net\/img\/categories_v2\/building\/default_","suffix":".png"},"primary":"true"}],"verified":"false","restricted":"true","stats":{"checkinsCount":"658","usersCount":"120","tipCount":"0"},"specials":{"count":"0"},"hereNow":{"count":"0"},"referralId":"v-1392478068"},{"id":"4b16c598f964a52037bd23e3","name":"PizzaExpress","contact":{"phone":"+442079766214","formattedPhone":"+44 20 7976 6214","twitter":"pizzaexpress"},"location":{"address":"25 Millbank","lat":"51.49304745","lng":"-0.125184059","distance":"215","postalCode":"SW1P 4QP","cc":"GB","city":"London","state":"Greater London","country":"United Kingdom"},"categories":[{"id":"4bf58dd8d48988d1ca941735","name":"Pizza Place","pluralName":"Pizza Places","shortName":"Pizza","icon":{"prefix":"https:\/\/ss1.4sqi.net\/img\/categories_v2\/food\/pizza_","suffix":".png"},"primary":"true"}],"verified":"true","restricted":"true","stats":{"checkinsCount":"601","usersCount":"396","tipCount":"9"},"url":"http:\/\/www.pizzaexpress.com","menu":{"type":"Menu","label":"Menu","anchor":"View Menu","url":"https:\/\/foursquare.com\/v\/pizzaexpress\/4b16c598f964a52037bd23e3\/menu","mobileUrl":"https:\/\/foursquare.com\/v\/4b16c598f964a52037bd23e3\/device_menu"},"specials":{"count":"0"},"hereNow":{"count":"0"},"storeId":"","referralId":"v-1392478068"},{"id":"4d89bf1c7d4c548171805971","name":"Riverside Cafe","location":{"address":"Lambeth Pier","crossStreet":"Lambeth Bridge","lat":"51.494987502841084","lng":"-0.12121787046351894","distance":"134","cc":"GB","city":"Lambeth","state":"Greater London","country":"United Kingdom"},"categories":[{"id":"4bf58dd8d48988d16d941735","name":"Caf\u00e9","pluralName":"Caf\u00e9s","shortName":"Caf\u00e9","icon":{"prefix":"https:\/\/ss1.4sqi.net\/img\/categories_v2\/food\/cafe_","suffix":".png"},"primary":"true"}],"verified":"false","restricted":"true","stats":{"checkinsCount":"119","usersCount":"91","tipCount":"4"},"specials":{"count":"0"},"hereNow":{"count":"0"},"referralId":"v-1392478068"},{"id":"4bd72d675cf276b0adb39a00","name":"Westminster House","location":{"address":"7 Millbank","lat":"51.4963204740182","lng":"-0.12595653533935547","distance":"314","postalCode":"SW1P 3JA","cc":"GB","city":"City of Westminster","state":"Greater London","country":"United Kingdom"},"categories":[{"id":"4bf58dd8d48988d126941735","name":"Government Building","pluralName":"Government Buildings","shortName":"Government","icon":{"prefix":"https:\/\/ss1.4sqi.net\/img\/categories_v2\/building\/government_","suffix":".png"},"primary":"true"}],"verified":"false","restricted":"true","stats":{"checkinsCount":"2377","usersCount":"296","tipCount":"1"},"specials":{"count":"0"},"hereNow":{"count":"0"},"referralId":"v-1392478068"},{"id":"4ac518d3f964a5206fa720e3","name":"Garden Museum","location":{"address":"5 Lambeth Palace Road","lat":"51.49477258699718","lng":"-0.12008701690777904","distance":"195","postalCode":"SE1 7LB","cc":"GB","city":"London","state":"Greater London","country":"United Kingdom"},"categories":[{"id":"4bf58dd8d48988d181941735","name":"Museum","pluralName":"Museums","shortName":"Museum","icon":{"prefix":"https:\/\/ss1.4sqi.net\/img\/categories_v2\/arts_entertainment\/museum_","suffix":".png"},"primary":"true"}],"verified":"false","restricted":"true","stats":{"checkinsCount":"425","usersCount":"289","tipCount":"8"},"specials":{"count":"0"},"hereNow":{"count":"0"},"referralId":"v-1392478068"},{"id":"4bc865d02f94d13af079137f","name":"Parenthood","location":{"lat":"51.494564","lng":"-0.12272","distance":"31","cc":"GB","country":"United Kingdom"},"verified":"false","restricted":"true","stats":{"checkinsCount":"1","usersCount":"1","tipCount":"0"},"specials":{"count":"0"},"hereNow":{"count":"0"},"referralId":"v-1392478068"},{"id":"513a2c04e4b0fbf39bef17df","name":"Parliament View","location":{"lat":"51.49463091629362","lng":"-0.12019660060603396","distance":"184","cc":"GB","country":"United Kingdom"},"categories":[{"id":"4d954b06a243a5684965b473","name":"Residential Building (Apartment \/ Condo)","pluralName":"Residential Buildings (Apartments \/ Condos)","shortName":"Residential","icon":{"prefix":"https:\/\/ss1.4sqi.net\/img\/categories_v2\/building\/apartment_","suffix":".png"},"primary":"true"}],"verified":"false","restricted":"true","stats":{"checkinsCount":"50","usersCount":"34","tipCount":"0"},"specials":{"count":"0"},"hereNow":{"count":"0"},"referralId":"v-1392478068"},{"id":"4d9d8fe7c593a1cda1466219","name":"Westminster Live","location":{"address":"Albert Embankment 3","lat":"51.49368914264107","lng":"-0.12112815071710464","distance":"133","cc":"GB","city":"Lambeth","state":"Greater London","country":"United Kingdom"},"categories":[{"id":"4bf58dd8d48988d130941735","name":"Building","pluralName":"Buildings","shortName":"Building","icon":{"prefix":"https:\/\/ss1.4sqi.net\/img\/categories_v2\/building\/default_","suffix":".png"},"primary":"true"}],"verified":"false","restricted":"true","stats":{"checkinsCount":"20","usersCount":"15","tipCount":"0"},"specials":{"count":"0"},"hereNow":{"count":"0"},"referralId":"v-1392478068"},{"id":"4e21e24d1495f18f03534238","name":"The Salient","location":{"lat":"51.494632","lng":"-0.122922","distance":"39","cc":"GB","city":"London","state":"Greater London","country":"United Kingdom"},"categories":[{"id":"4bf58dd8d48988d12d951735","name":"Boat or Ferry","pluralName":"Boats or Ferries","shortName":"Boat \/ Ferry","icon":{"prefix":"https:\/\/ss1.4sqi.net\/img\/categories_v2\/travel\/boat_","suffix":".png"},"primary":"true"}],"verified":"false","restricted":"true","stats":{"checkinsCount":"2","usersCount":"2","tipCount":"0"},"specials":{"count":"0"},"hereNow":{"count":"0"},"referralId":"v-1392478068"},{"id":"523b24b111d24b54f6026959","name":"Bus Stop NB","location":{"address":"Millbank","lat":"51.49430847167969","lng":"-0.12339469790458679","distance":"41","cc":"GB","city":"London","state":"Greater London","country":"United Kingdom"},"categories":[{"id":"4bf58dd8d48988d1fe931735","name":"Bus Station","pluralName":"Bus Stations","shortName":"Bus Station","icon":{"prefix":"https:\/\/ss1.4sqi.net\/img\/categories_v2\/travel\/busstation_","suffix":".png"},"primary":"true"}],"verified":"false","restricted":"true","stats":{"checkinsCount":"1","usersCount":"1","tipCount":"1"},"specials":{"count":"0"},"hereNow":{"count":"0"},"referralId":"v-1392478068"},{"id":"4e7c4d38183853fb9f712dcb","name":"2love Tea And Coffee","location":{"lat":"51.49606568327967","lng":"-0.12084979835228382","distance":"239","postalCode":"SE1","cc":"GB","city":"Lambeth","state":"Greater London","country":"United Kingdom"},"categories":[{"id":"4bf58dd8d48988d16d941735","name":"Caf\u00e9","pluralName":"Caf\u00e9s","shortName":"Caf\u00e9","icon":{"prefix":"https:\/\/ss1.4sqi.net\/img\/categories_v2\/food\/cafe_","suffix":".png"},"primary":"true"}],"verified":"false","restricted":"true","stats":{"checkinsCount":"216","usersCount":"98","tipCount":"13"},"specials":{"count":"0"},"hereNow":{"count":"0"},"referralId":"v-1392478068"},{"id":"4f9c4963e4b0ad3855c312ac","name":"\u041a\u043e\u0440\u043e\u043b\u0435\u0432\u0441\u043a\u0438\u0439 \u041a\u043e\u0440\u0430\u0431\u043b\u0438\u043a","location":{"lat":"51.49465","lng":"-0.123044","distance":"43","cc":"GB","country":"United Kingdom"},"categories":[{"id":"4eb1d4dd4b900d56c88a45fd","name":"River","pluralName":"Rivers","shortName":"River","icon":{"prefix":"https:\/\/ss1.4sqi.net\/img\/categories_v2\/parks_outdoors\/river_","suffix":".png"},"primary":"true"}],"verified":"false","restricted":"true","stats":{"checkinsCount":"1","usersCount":"1","tipCount":"0"},"specials":{"count":"0"},"hereNow":{"count":"0"},"referralId":"v-1392478068"},{"id":"4adc89aaf964a520002d21e3","name":"St Mary's Gardens","location":{"address":"Lambeth Palace Rd","lat":"51.49451163049231","lng":"-0.12034962458736626","distance":"171","cc":"GB","city":"London","state":"Greater London","country":"United Kingdom"},"categories":[{"id":"4bf58dd8d48988d15a941735","name":"Garden","pluralName":"Gardens","shortName":"Garden","icon":{"prefix":"https:\/\/ss1.4sqi.net\/img\/categories_v2\/parks_outdoors\/garden_","suffix":".png"},"primary":"true"}],"verified":"false","restricted":"true","stats":{"checkinsCount":"40","usersCount":"25","tipCount":"0"},"specials":{"count":"0"},"hereNow":{"count":"0"},"referralId":"v-1392478068"},{"id":"4bf683bf004ed13a7c8a42a0","name":"Security Service MI5","location":{"address":"Thames House, Millbank","crossStreet":"Page St","lat":"51.493351505324675","lng":"-0.12506540312713896","distance":"188","cc":"GB","city":"London","state":"Greater London","country":"United Kingdom"},"categories":[{"id":"4bf58dd8d48988d126941735","name":"Government Building","pluralName":"Government Buildings","shortName":"Government","icon":{"prefix":"https:\/\/ss1.4sqi.net\/img\/categories_v2\/building\/government_","suffix":".png"},"primary":"true"}],"verified":"false","restricted":"true","stats":{"checkinsCount":"389","usersCount":"188","tipCount":"4"},"specials":{"count":"0"},"hereNow":{"count":"0"},"referralId":"v-1392478068"},{"id":"4c4ed82151c2c9283cb9ff9e","name":"Royal Pharmaceutical Society","contact":{"twitter":"rpharms"},"location":{"address":"Lambeth High Street","lat":"51.49453188158112","lng":"-0.11946649224491242","distance":"232","cc":"GB","city":"Lambeth","state":"Greater London","country":"United Kingdom"},"categories":[{"id":"4bf58dd8d48988d124941735","name":"Office","pluralName":"Offices","shortName":"Office","icon":{"prefix":"https:\/\/ss1.4sqi.net\/img\/categories_v2\/building\/default_","suffix":".png"},"primary":"true"}],"verified":"false","restricted":"true","stats":{"checkinsCount":"251","usersCount":"51","tipCount":"0"},"url":"http:\/\/www.rpharms.com","specials":{"count":"0"},"hereNow":{"count":"0"},"referralId":"v-1392478068"},{"id":"4ea8370377c8129d55ccda70","name":"Parliamentary Office of the Prime minister","contact":{"phone":"10","formattedPhone":"10"},"location":{"address":"In the Palace of Westminster","lat":"51.49492176507187","lng":"-0.12513899082480615","distance":"176","cc":"GB","city":"City of Westminster","state":"Greater London","country":"United Kingdom"},"categories":[{"id":"4bf58dd8d48988d12d941735","name":"Monument \/ Landmark","pluralName":"Monuments \/ Landmarks","shortName":"Landmark","icon":{"prefix":"https:\/\/ss1.4sqi.net\/img\/categories_v2\/building\/government_monument_","suffix":".png"},"primary":"true"}],"verified":"false","restricted":"true","stats":{"checkinsCount":"65","usersCount":"34","tipCount":"0"},"specials":{"count":"0"},"hereNow":{"count":"0"},"referralId":"v-1392478068"},{"id":"4cf4f8037bf3b60c49d7727f","name":"4 Millbank","location":{"address":"4 MillBank","lat":"51.496480779256814","lng":"-0.12569904327392578","distance":"315","postalCode":"SW1P 3JA","cc":"GB","city":"London","state":"Greater London","country":"United Kingdom"},"categories":[{"id":"4bf58dd8d48988d124941735","name":"Office","pluralName":"Offices","shortName":"Office","icon":{"prefix":"https:\/\/ss1.4sqi.net\/img\/categories_v2\/building\/default_","suffix":".png"},"primary":"true"}],"verified":"false","restricted":"true","stats":{"checkinsCount":"491","usersCount":"98","tipCount":"0"},"specials":{"count":"0"},"hereNow":{"count":"0"},"referralId":"v-1392478068"},{"id":"4dd2bd5dae60da0ebece0e53","name":"Burberry Showroom","location":{"address":"Horseferry House","lat":"51.4944072360252","lng":"-0.12657402681824745","distance":"261","cc":"GB","city":"London","state":"Greater London","country":"United Kingdom"},"categories":[{"id":"4bf58dd8d48988d171941735","name":"Event Space","pluralName":"Event Spaces","shortName":"Event Space","icon":{"prefix":"https:\/\/ss1.4sqi.net\/img\/categories_v2\/building\/eventspace_","suffix":".png"},"primary":"true"}],"verified":"false","restricted":"true","stats":{"checkinsCount":"167","usersCount":"55","tipCount":"0"},"specials":{"count":"0"},"hereNow":{"count":"0"},"referralId":"v-1392478068"},{"id":"504deaa4e4b011fb61b78eaa","name":"Trustwave","location":{"address":"Level 3, Tower, 3 Albert Embankment","lat":"51.49410058444519","lng":"-0.12038400637515775","distance":"168","cc":"GB","city":"London","state":"Greater London","country":"United Kingdom"},"categories":[{"id":"4bf58dd8d48988d124941735","name":"Office","pluralName":"Offices","shortName":"Office","icon":{"prefix":"https:\/\/ss1.4sqi.net\/img\/categories_v2\/building\/default_","suffix":".png"},"primary":"true"}],"verified":"false","restricted":"true","stats":{"checkinsCount":"53","usersCount":"5","tipCount":"1"},"specials":{"count":"0"},"hereNow":{"count":"0"},"referralId":"v-1392478068"},{"id":"4d9b78092e6d8cfa97102717","name":"The Windmill","location":{"address":"44 Lambeth High St.","lat":"51.49306406690306","lng":"-0.12019392709829152","distance":"226","postalCode":"SE1 7JS","cc":"GB","city":"Lambeth","state":"Greater London","country":"United Kingdom"},"categories":[{"id":"4bf58dd8d48988d11b941735","name":"Pub","pluralName":"Pubs","shortName":"Pub","icon":{"prefix":"https:\/\/ss1.4sqi.net\/img\/categories_v2\/nightlife\/pub_","suffix":".png"},"primary":"true"}],"verified":"false","restricted":"true","stats":{"checkinsCount":"79","usersCount":"64","tipCount":"2"},"specials":{"count":"0"},"hereNow":{"count":"0"},"referralId":"v-1392478068"},{"id":"4c0669d1191f20a14c75e414","name":"Lambeth Pier","location":{"lat":"51.495069","lng":"-0.120881","distance":"159","cc":"GB","country":"United Kingdom"},"categories":[{"id":"4bf58dd8d48988d1cb941735","name":"Food Truck","pluralName":"Food Trucks","shortName":"Food Truck","icon":{"prefix":"https:\/\/ss1.4sqi.net\/img\/categories_v2\/food\/streetfood_","suffix":".png"},"primary":"true"}],"verified":"false","restricted":"true","stats":{"checkinsCount":"170","usersCount":"120","tipCount":"0"},"specials":{"count":"0"},"hereNow":{"count":"0"},"referralId":"v-1392478068"},{"id":"4dd2ab00fa767fb7079834f3","name":"Burberry Caf\u00e9taria","location":{"address":"Horseferry House","lat":"51.494393","lng":"-0.126554","distance":"260","cc":"GB","city":"London","state":"Greater London","country":"United Kingdom"},"categories":[{"id":"4bf58dd8d48988d128941735","name":"Cafeteria","pluralName":"Cafeterias","shortName":"Cafeteria","icon":{"prefix":"https:\/\/ss1.4sqi.net\/img\/categories_v2\/food\/cafeteria_","suffix":".png"},"primary":"true"}],"verified":"false","restricted":"true","stats":{"checkinsCount":"197","usersCount":"51","tipCount":"0"},"specials":{"count":"0"},"hereNow":{"count":"0"},"referralId":"v-1392478068"},{"id":"4ea920d629c2fa4821a3ed83","name":"Energy Networks Association","location":{"address":"6th Floor, Dean Bradley House, 52 Horseferry Road","lat":"51.4946755","lng":"-0.1256348","distance":"200","postalCode":"SW1P 2AF","cc":"GB","city":"London","state":"Greater London","country":"United Kingdom"},"categories":[{"id":"4bf58dd8d48988d124941735","name":"Office","pluralName":"Offices","shortName":"Office","icon":{"prefix":"https:\/\/ss1.4sqi.net\/img\/categories_v2\/building\/default_","suffix":".png"},"primary":"true"}],"verified":"false","restricted":"true","stats":{"checkinsCount":"4","usersCount":"1","tipCount":"0"},"specials":{"count":"0"},"hereNow":{"count":"0"},"referralId":"v-1392478068"},{"id":"4c1e10f163750f47a723b967","name":"Thames House","location":{"lat":"51.494243947356516","lng":"-0.12511379435449832","distance":"160","cc":"GB","country":"United Kingdom"},"categories":[{"id":"4bf58dd8d48988d126941735","name":"Government Building","pluralName":"Government Buildings","shortName":"Government","icon":{"prefix":"https:\/\/ss1.4sqi.net\/img\/categories_v2\/building\/government_","suffix":".png"},"primary":"true"}],"verified":"false","restricted":"true","stats":{"checkinsCount":"211","usersCount":"70","tipCount":"1"},"specials":{"count":"0"},"hereNow":{"count":"0"},"referralId":"v-1392478068"},{"id":"4f970a0a7beba4b6dc205c3f","name":"Nando's","contact":{"twitter":"nandosuk"},"location":{"address":"Lr 06\/07 Zone M4 Westfield Stratford City","lat":"51.49218338480836","lng":"-0.1417154998962762","distance":"1331","postalCode":"E20 1ET","cc":"GB","city":"London","state":"Greater London","country":"United Kingdom"},"categories":[{"id":"4def73e84765ae376e57713a","name":"Portuguese Restaurant","pluralName":"Portuguese Restaurants","shortName":"Portuguese","icon":{"prefix":"https:\/\/ss1.4sqi.net\/img\/categories_v2\/food\/default_","suffix":".png"},"primary":"true"}],"verified":"true","restricted":"true","stats":{"checkinsCount":"8","usersCount":"8","tipCount":"0"},"url":"http:\/\/www.nandos.co.uk","specials":{"count":"0"},"hereNow":{"count":"0"},"storeId":"N248","referralId":"v-1392478068"},{"id":"4d92e49c14228cfa5a4e567b","name":"IMO Main Hall","location":{"address":"4 Albert Embankment","lat":"51.49347789273408","lng":"-0.12022553108122251","distance":"200","cc":"GB","city":"London","state":"Greater London","country":"United Kingdom"},"categories":[{"id":"4bf58dd8d48988d1ff931735","name":"Convention Center","pluralName":"Convention Centers","shortName":"Convention Center","icon":{"prefix":"https:\/\/ss1.4sqi.net\/img\/categories_v2\/building\/conventioncenter_","suffix":".png"},"primary":"true"}],"verified":"false","restricted":"true","stats":{"checkinsCount":"33","usersCount":"13","tipCount":"0"},"specials":{"count":"0"},"hereNow":{"count":"0"},"referralId":"v-1392478068"},{"id":"4ea6bb1e9a524accd1ad4ac9","name":"3D Studio Max A213","location":{"address":"Chelsea College of Art & Design","crossStreet":"16 John Islip Street","lat":"51.49386596978651","lng":"-0.1240477372162993","distance":"98","cc":"GB","city":"London","state":"Greater London","country":"United Kingdom"},"categories":[{"id":"4bf58dd8d48988d19f941735","name":"College Technology Building","pluralName":"College Technology Buildings","shortName":"Technology","icon":{"prefix":"https:\/\/ss1.4sqi.net\/img\/categories_v2\/education\/collegeacademicbuildings_technology_","suffix":".png"},"primary":"true"}],"verified":"false","restricted":"true","stats":{"checkinsCount":"2","usersCount":"2","tipCount":"0"},"specials":{"count":"0"},"hereNow":{"count":"0"},"referralId":"v-1392478068"},{"id":"4c59831367ac0f47b157044c","name":"Afternoon Tea","location":{"lat":"51.494841","lng":"-0.121668","distance":"99","postalCode":"SE1 7","cc":"GB","city":"Lambeth","state":"Greater London","country":"United Kingdom"},"categories":[{"id":"4bf58dd8d48988d16d941735","name":"Caf\u00e9","pluralName":"Caf\u00e9s","shortName":"Caf\u00e9","icon":{"prefix":"https:\/\/ss1.4sqi.net\/img\/categories_v2\/food\/cafe_","suffix":".png"},"primary":"true"}],"verified":"false","restricted":"true","stats":{"checkinsCount":"11","usersCount":"9","tipCount":"1"},"specials":{"count":"0"},"hereNow":{"count":"0"},"referralId":"v-1392478068"}],"confident":"true"}}