{"meta":{"code":"200"},"response":{"venues":[{"id":"4dcaad46e4cde9e42f8bb986","name":"Starbucks","contact":{"phone":"+442077317861","formattedPhone":"+44 20 7731 7861","twitter":"starbucksuk"},"location":{"address":"95-97 Wandsworh Bridge Road","lat":"51.47368215840916","lng":"-0.1918032949696428","distance":"96","postalCode":"SW6 2TD","cc":"GB","city":"Fulham","state":"Greater London","country":"United Kingdom"},"categories":[{"id":"4bf58dd8d48988d16d941735","name":"Caf\u00e9","pluralName":"Caf\u00e9s","shortName":"Caf\u00e9","icon":{"prefix":"https:\/\/ss1.4sqi.net\/img\/categories_v2\/food\/cafe_","suffix":".png"},"primary":"true"}],"verified":"true","restricted":"true","stats":{"checkinsCount":"149","usersCount":"78","tipCount":"0"},"url":"http:\/\/starbucks.co.uk","specials":{"count":"0"},"hereNow":{"count":"0"},"storeId":"15105","referralId":"v-1392478114"},{"id":"4ba62462f964a5208e3639e3","name":"Wandsworth Bridge Road","location":{"address":"Wandsworth Bridge Rd","lat":"51.472579912182276","lng":"-0.19176169239945182","distance":"203","postalCode":"SW6 2TJ","cc":"GB","city":"Fulham","state":"Greater London","country":"United Kingdom"},"categories":[{"id":"4bf58dd8d48988d1df941735","name":"Bridge","pluralName":"Bridges","shortName":"Bridge","icon":{"prefix":"https:\/\/ss1.4sqi.net\/img\/categories_v2\/parks_outdoors\/bridge_","suffix":".png"},"primary":"true"}],"verified":"false","restricted":"true","stats":{"checkinsCount":"738","usersCount":"224","tipCount":"6"},"specials":{"count":"0"},"hereNow":{"count":"0"},"referralId":"v-1392478114"},{"id":"4bf7d2d14a67c928883024cf","name":"Eel Brook Common","location":{"address":"Musgrave Crescent","crossStreet":"New Kings Road","lat":"51.476678817400156","lng":"-0.19492149353027344","distance":"303","postalCode":"SW6","cc":"GB","city":"Fulham","state":"Greater London","country":"United Kingdom"},"categories":[{"id":"4bf58dd8d48988d163941735","name":"Park","pluralName":"Parks","shortName":"Park","icon":{"prefix":"https:\/\/ss1.4sqi.net\/img\/categories_v2\/parks_outdoors\/park_","suffix":".png"},"primary":"true"}],"verified":"false","restricted":"true","stats":{"checkinsCount":"956","usersCount":"283","tipCount":"2"},"specials":{"count":"0"},"hereNow":{"count":"0"},"referralId":"v-1392478114"},{"id":"4fcce644e4b082348acfc454","name":"Stokenchurch Street","location":{"lat":"51.47483879595974","lng":"-0.1937972205165623","distance":"92","cc":"GB","country":"United Kingdom"},"categories":[{"id":"4d954b06a243a5684965b473","name":"Residential Building (Apartment \/ Condo)","pluralName":"Residential Buildings (Apartments \/ Condos)","shortName":"Residential","icon":{"prefix":"https:\/\/ss1.4sqi.net\/img\/categories_v2\/building\/apartment_","suffix":".png"},"primary":"true"}],"verified":"false","restricted":"true","stats":{"checkinsCount":"16","usersCount":"8","tipCount":"0"},"specials":{"count":"0"},"hereNow":{"count":"0"},"referralId":"v-1392478114"},{"id":"52fd0f3b11d2671daab20dbb","name":"Svetlana Fulham","location":{"lat":"51.473783","lng":"-0.192117","distance":"73","cc":"GB","country":"United Kingdom"},"categories":[{"id":"4bf58dd8d48988d1ed941735","name":"Spa","pluralName":"Spas","shortName":"Spa","icon":{"prefix":"https:\/\/ss1.4sqi.net\/img\/categories_v2\/shops\/spa_","suffix":".png"},"primary":"true"}],"verified":"false","restricted":"true","stats":{"checkinsCount":"1","usersCount":"1","tipCount":"0"},"specials":{"count":"0"},"hereNow":{"count":"0"},"referralId":"v-1392478114"},{"id":"4ac518eef964a5200bad20e3","name":"Randalls","location":{"address":"113 Wandsworth Bridge Road","lat":"51.474476438098165","lng":"-0.19197267469281815","distance":"61","postalCode":"SW6 2TE","cc":"GB","city":"London","state":"Greater London","country":"United Kingdom"},"categories":[{"id":"4bf58dd8d48988d11d951735","name":"Butcher","pluralName":"Butchers","shortName":"Butcher","icon":{"prefix":"https:\/\/ss1.4sqi.net\/img\/categories_v2\/shops\/food_butcher_","suffix":".png"},"primary":"true"}],"verified":"false","restricted":"true","stats":{"checkinsCount":"17","usersCount":"12","tipCount":"1"},"specials":{"count":"0"},"hereNow":{"count":"0"},"referralId":"v-1392478114"},{"id":"4cf7f95255e1370481e0d5b6","name":"Boma","contact":{"phone":"+442077365114","formattedPhone":"+44 20 7736 5114"},"location":{"address":"116 Wandsworth Bridge Rd.","lat":"51.472990231284335","lng":"-0.19171212947543162","distance":"163","postalCode":"SW6 2TF","cc":"GB","city":"Fulham","state":"Greater London","country":"United Kingdom"},"categories":[{"id":"4bf58dd8d48988d1c0941735","name":"Mediterranean Restaurant","pluralName":"Mediterranean Restaurants","shortName":"Mediterranean","icon":{"prefix":"https:\/\/ss1.4sqi.net\/img\/categories_v2\/food\/mediterranean_","suffix":".png"},"primary":"true"}],"verified":"false","restricted":"true","stats":{"checkinsCount":"218","usersCount":"61","tipCount":"11"},"menu":{"type":"Menu","label":"Menu","anchor":"View Menu","url":"https:\/\/foursquare.com\/v\/boma-fulham-london\/4cf7f95255e1370481e0d5b6\/menu","mobileUrl":"https:\/\/foursquare.com\/v\/4cf7f95255e1370481e0d5b6\/device_menu"},"specials":{"count":"0"},"hereNow":{"count":"0"},"referralId":"v-1392478114"},{"id":"4c6d43d8fe77bfb76c2ea323","name":"Imperial Cafe","location":{"address":"76 Golders Green Road","lat":"51.474006","lng":"-0.19233","distance":"45","postalCode":"NW11 8LN","cc":"GB","city":"Golders Green","state":"Greater London","country":"United Kingdom"},"categories":[{"id":"4bf58dd8d48988d147941735","name":"Diner","pluralName":"Diners","shortName":"Diner","icon":{"prefix":"https:\/\/ss1.4sqi.net\/img\/categories_v2\/food\/diner_","suffix":".png"},"primary":"true"}],"verified":"false","restricted":"true","stats":{"checkinsCount":"4","usersCount":"4","tipCount":"0"},"specials":{"count":"0"},"hereNow":{"count":"0"},"referralId":"v-1392478114"},{"id":"52faaaf6498ebb5e4b824afd","name":"The Ee brook bar","contact":{"phone":"+442077362837","formattedPhone":"+44 20 7736 2837"},"location":{"address":"65 New Kings Road","lat":"51.475798856520804","lng":"-0.19334504797006036","distance":"172","postalCode":"SW6 4SG","cc":"GB","city":"London","state":"Greater London","country":"United Kingdom"},"categories":[{"id":"52e81612bcbc57f1066b79f1","name":"Bistro","pluralName":"Bistros","shortName":"Bistro","icon":{"prefix":"https:\/\/ss1.4sqi.net\/img\/categories_v2\/food\/default_","suffix":".png"},"primary":"true"}],"verified":"false","restricted":"true","stats":{"checkinsCount":"1","usersCount":"1","tipCount":"2"},"specials":{"count":"0"},"hereNow":{"count":"0"},"referralId":"v-1392478114"},{"id":"4c83a3dd51ada1cda0442710","name":"Shwarma","location":{"address":"New Kings Road","crossStreet":"Fulham","lat":"51.474693","lng":"-0.192459","distance":"50","cc":"GB","city":"London","state":"Greater London","country":"United Kingdom"},"verified":"false","restricted":"true","stats":{"checkinsCount":"3","usersCount":"2","tipCount":"0"},"specials":{"count":"0"},"hereNow":{"count":"0"},"referralId":"v-1392478114"},{"id":"4c5eaf7a7735c9b63c6c9272","name":"So Thai Spa","contact":{"phone":"+442077316543","formattedPhone":"+44 20 7731 6543"},"location":{"address":"118 Wandsworth Bridge Rd","lat":"51.47294402438411","lng":"-0.19173477931086813","distance":"167","postalCode":"SW6 2TF","cc":"GB","city":"Hammersmith","state":"Greater London","country":"United Kingdom"},"categories":[{"id":"4bf58dd8d48988d10c951735","name":"Cosmetics Shop","pluralName":"Cosmetics Shops","shortName":"Cosmetics","icon":{"prefix":"https:\/\/ss1.4sqi.net\/img\/categories_v2\/shops\/beauty_cosmetic_","suffix":".png"},"primary":"true"}],"verified":"false","restricted":"true","stats":{"checkinsCount":"20","usersCount":"16","tipCount":"3"},"specials":{"count":"0"},"hereNow":{"count":"0"},"referralId":"v-1392478114"},{"id":"4c83948a47cc224b5133909f","name":"Bon Bon","location":{"lat":"51.47233494","lng":"-0.19155399","distance":"234","cc":"GB","country":"United Kingdom"},"categories":[{"id":"4bf58dd8d48988d16d941735","name":"Caf\u00e9","pluralName":"Caf\u00e9s","shortName":"Caf\u00e9","icon":{"prefix":"https:\/\/ss1.4sqi.net\/img\/categories_v2\/food\/cafe_","suffix":".png"},"primary":"true"}],"verified":"false","restricted":"true","stats":{"checkinsCount":"134","usersCount":"48","tipCount":"9"},"specials":{"count":"0"},"hereNow":{"count":"0"},"referralId":"v-1392478114"},{"id":"4c1398d1a9c220a1c9f5559d","name":"Hip Hair Fulham Road","location":{"lat":"51.474998","lng":"-0.192136","distance":"91","cc":"GB","country":"United Kingdom"},"categories":[{"id":"4bf58dd8d48988d1de931735","name":"Tattoo Parlor","pluralName":"Tattoo Parlors","shortName":"Tattoo","icon":{"prefix":"https:\/\/ss1.4sqi.net\/img\/categories_v2\/shops\/tattoos_","suffix":".png"},"primary":"true"}],"verified":"false","restricted":"true","stats":{"checkinsCount":"8","usersCount":"7","tipCount":"1"},"specials":{"count":"0"},"hereNow":{"count":"0"},"referralId":"v-1392478114"},{"id":"4ac518bdf964a520b1a220e3","name":"The Eel Brook","contact":{"phone":"+442077362867","formattedPhone":"+44 20 7736 2867"},"location":{"address":"65 New Kings Rd","lat":"51.47597279074555","lng":"-0.1932493432329166","distance":"189","postalCode":"SW6 4SG","cc":"GB","city":"London","state":"Greater London","country":"United Kingdom"},"categories":[{"id":"4bf58dd8d48988d11b941735","name":"Pub","pluralName":"Pubs","shortName":"Pub","icon":{"prefix":"https:\/\/ss1.4sqi.net\/img\/categories_v2\/nightlife\/pub_","suffix":".png"},"primary":"true"}],"verified":"false","restricted":"true","stats":{"checkinsCount":"141","usersCount":"99","tipCount":"4"},"url":"http:\/\/gkpubs.co.uk\/pubs-in-fulham\/southern-cross-pub\/","specials":{"count":"0"},"hereNow":{"count":"0"},"referralId":"v-1392478114"},{"id":"4dfb3222fa7641d78dd7162d","name":"Hoffice","location":{"address":"Wandsworth Bridge Rd","lat":"51.47418987029894","lng":"-0.19211019261074996","distance":"49","cc":"GB","city":"London","state":"Greater London","country":"United Kingdom"},"verified":"false","restricted":"true","stats":{"checkinsCount":"96","usersCount":"3","tipCount":"0"},"specials":{"count":"0"},"hereNow":{"count":"0"},"referralId":"v-1392478114"},{"id":"4ac518bcf964a5208ba220e3","name":"Joe's Brasserie","contact":{"phone":"+442077317835","formattedPhone":"+44 20 7731 7835"},"location":{"address":"130 Wandsworth Bridge Rd.","lat":"51.472479","lng":"-0.191611","distance":"217","postalCode":"SW6 2UL","cc":"GB","city":"Hammersmith","state":"Greater London","country":"United Kingdom"},"categories":[{"id":"4bf58dd8d48988d16d941735","name":"Caf\u00e9","pluralName":"Caf\u00e9s","shortName":"Caf\u00e9","icon":{"prefix":"https:\/\/ss1.4sqi.net\/img\/categories_v2\/food\/cafe_","suffix":".png"},"primary":"true"}],"verified":"false","restricted":"true","stats":{"checkinsCount":"442","usersCount":"133","tipCount":"9"},"specials":{"count":"0"},"hereNow":{"count":"0"},"referralId":"v-1392478114"},{"id":"4b4b49ecf964a520959626e3","name":"Caff\u00e8 Nero","contact":{"phone":"+442030101021","formattedPhone":"+44 20 3010 1021"},"location":{"address":"142 Wandsworth Bridge Rd","lat":"51.47202627718026","lng":"-0.19148708359247094","distance":"267","postalCode":"SW6 2UL","cc":"GB","city":"Fulham","state":"Greater London","country":"United Kingdom"},"categories":[{"id":"4bf58dd8d48988d1e0931735","name":"Coffee Shop","pluralName":"Coffee Shops","shortName":"Coffee Shop","icon":{"prefix":"https:\/\/ss1.4sqi.net\/img\/categories_v2\/food\/coffeeshop_","suffix":".png"},"primary":"true"}],"verified":"false","restricted":"true","stats":{"checkinsCount":"264","usersCount":"88","tipCount":"3"},"url":"http:\/\/www.caffenero.com","specials":{"count":"0"},"hereNow":{"count":"0"},"referralId":"v-1392478114"},{"id":"4af1f4bef964a520bee421e3","name":"The kitchen","location":{"address":"New kings road","lat":"51.474865","lng":"-0.19244","distance":"68","postalCode":"Sw6","cc":"GB","city":"London","state":"Greater London","country":"United Kingdom"},"categories":[{"id":"4bf58dd8d48988d147941735","name":"Diner","pluralName":"Diners","shortName":"Diner","icon":{"prefix":"https:\/\/ss1.4sqi.net\/img\/categories_v2\/food\/diner_","suffix":".png"},"primary":"true"}],"verified":"false","restricted":"true","stats":{"checkinsCount":"10","usersCount":"7","tipCount":"1"},"specials":{"count":"0"},"hereNow":{"count":"0"},"referralId":"v-1392478114"},{"id":"4d0092c6202e224b2347b42a","name":"Go Gay Dry Cleaning","location":{"lat":"51.474800356550084","lng":"-0.1919383628129596","distance":"82","cc":"GB","country":"United Kingdom"},"categories":[{"id":"4bf58dd8d48988d1fc941735","name":"Laundry Service","pluralName":"Laundry Services","shortName":"Laundry","icon":{"prefix":"https:\/\/ss1.4sqi.net\/img\/categories_v2\/shops\/laundry_","suffix":".png"},"primary":"true"}],"verified":"false","restricted":"true","stats":{"checkinsCount":"76","usersCount":"24","tipCount":"0"},"specials":{"count":"0"},"hereNow":{"count":"0"},"referralId":"v-1392478114"},{"id":"4ecf7279b634dd2990571a29","name":"Elizabeeth Queen","contact":{"phone":"+442073849138","formattedPhone":"+44 20 7384 9138"},"location":{"address":"58 Bagleys Ln.","lat":"51.47477001766278","lng":"-0.18881925498008773","distance":"281","postalCode":"SW6 2BH","cc":"GB","city":"Fulham","state":"Greater London","country":"United Kingdom"},"categories":[{"id":"4bf58dd8d48988d1ee931735","name":"Hostel","pluralName":"Hostels","shortName":"Hostel","icon":{"prefix":"https:\/\/ss1.4sqi.net\/img\/categories_v2\/travel\/hostel_","suffix":".png"},"primary":"true"}],"verified":"false","restricted":"true","stats":{"checkinsCount":"422","usersCount":"124","tipCount":"8"},"specials":{"count":"0"},"hereNow":{"count":"0"},"referralId":"v-1392478114"},{"id":"513b632ce4b092333c6dcc78","name":"Feel Good Again Massage","location":{"address":"88 Wandsworth Bridge Road","lat":"51.473695","lng":"-0.192105","distance":"81","cc":"GB","city":"London","state":"Greater London","country":"United Kingdom"},"categories":[{"id":"4bf58dd8d48988d1ed941735","name":"Spa","pluralName":"Spas","shortName":"Spa","icon":{"prefix":"https:\/\/ss1.4sqi.net\/img\/categories_v2\/shops\/spa_","suffix":".png"},"primary":"true"}],"verified":"false","restricted":"true","stats":{"checkinsCount":"1","usersCount":"1","tipCount":"0"},"specials":{"count":"0"},"hereNow":{"count":"0"},"referralId":"v-1392478114"},{"id":"4f08a8afe4b0e624d75c2718","name":"Thaiphoon","location":{"address":"Wandsworth Bridge Rd","lat":"51.47205683196976","lng":"-0.1915564390890106","distance":"263","cc":"GB","city":"London","state":"Greater London","country":"United Kingdom"},"categories":[{"id":"4bf58dd8d48988d149941735","name":"Thai Restaurant","pluralName":"Thai Restaurants","shortName":"Thai","icon":{"prefix":"https:\/\/ss1.4sqi.net\/img\/categories_v2\/food\/thai_","suffix":".png"},"primary":"true"}],"verified":"false","restricted":"true","stats":{"checkinsCount":"96","usersCount":"45","tipCount":"3"},"menu":{"type":"Menu","label":"Menu","anchor":"View Menu","url":"https:\/\/foursquare.com\/v\/thaiphoon\/4f08a8afe4b0e624d75c2718\/menu","mobileUrl":"https:\/\/foursquare.com\/v\/4f08a8afe4b0e624d75c2718\/device_menu"},"specials":{"count":"0"},"hereNow":{"count":"0"},"referralId":"v-1392478114"},{"id":"513b8ee7e4b07fb42a2b5c83","name":"The Kooples","location":{"address":"11 Church Street","lat":"51.475009985476596","lng":"-0.19262753320432338","distance":"81","postalCode":"KT1 1RW","cc":"GB","city":"Kingston Upon Thames","state":"Surrey","country":"United Kingdom"},"categories":[{"id":"4bf58dd8d48988d104951735","name":"Boutique","pluralName":"Boutiques","shortName":"Boutique","icon":{"prefix":"https:\/\/ss1.4sqi.net\/img\/categories_v2\/shops\/apparel_boutique_","suffix":".png"},"primary":"true"}],"verified":"false","restricted":"true","stats":{"checkinsCount":"4","usersCount":"3","tipCount":"0"},"specials":{"count":"0"},"hereNow":{"count":"0"},"referralId":"v-1392478114"},{"id":"4c404669e26920a124975ce7","name":"Anita Lawrence","location":{"address":"New Kings Road","lat":"51.474958","lng":"-0.192248","distance":"83","postalCode":"SW7","cc":"GB","city":"London","state":"Greater London","country":"United Kingdom"},"categories":[{"id":"4bf58dd8d48988d110951735","name":"Salon \/ Barbershop","pluralName":"Salons \/ Barbershops","shortName":"Salon \/ Barbershop","icon":{"prefix":"https:\/\/ss1.4sqi.net\/img\/categories_v2\/shops\/salon_barber_","suffix":".png"},"primary":"true"}],"verified":"false","restricted":"true","stats":{"checkinsCount":"12","usersCount":"6","tipCount":"0"},"specials":{"count":"0"},"hereNow":{"count":"0"},"referralId":"v-1392478114"},{"id":"4f646d94e4b045fbd3aeab66","name":"Haus Properties","location":{"lat":"51.473864","lng":"-0.191768","distance":"85","cc":"GB","country":"United Kingdom"},"categories":[{"id":"4bf58dd8d48988d1ff941735","name":"Miscellaneous Shop","pluralName":"Miscellaneous Shops","shortName":"Shop","icon":{"prefix":"https:\/\/ss1.4sqi.net\/img\/categories_v2\/shops\/default_","suffix":".png"},"primary":"true"}],"verified":"false","restricted":"true","stats":{"checkinsCount":"3","usersCount":"3","tipCount":"0"},"specials":{"count":"0"},"hereNow":{"count":"0"},"referralId":"v-1392478114"},{"id":"4c587fa16201e21ef4b69670","name":"Greedy Buddha","contact":{"phone":"+442077513311","formattedPhone":"+44 20 7751 3311"},"location":{"address":"144 Wandsworth Brdg. Rd.","lat":"51.47197489440587","lng":"-0.19152678138897472","distance":"272","postalCode":"SW6 2UH","cc":"GB","city":"London","state":"Greater London","country":"United Kingdom"},"categories":[{"id":"4bf58dd8d48988d10f941735","name":"Indian Restaurant","pluralName":"Indian Restaurants","shortName":"Indian","icon":{"prefix":"https:\/\/ss1.4sqi.net\/img\/categories_v2\/food\/indian_","suffix":".png"},"primary":"true"}],"verified":"false","restricted":"true","stats":{"checkinsCount":"177","usersCount":"93","tipCount":"8"},"reservations":{"url":"http:\/\/www.toptable.co.uk\/single.aspx?rid=80380&ref=9601"},"specials":{"count":"0"},"hereNow":{"count":"0"},"referralId":"v-1392478114"},{"id":"509d2130e4b0191a2fd1e775","name":"Carpet Library","location":{"address":"148 Wandsworth Bridge Rd","lat":"51.47368256152273","lng":"-0.19184894806008423","distance":"94","postalCode":"Sw6 2uh","cc":"GB","country":"United Kingdom"},"categories":[{"id":"4bf58dd8d48988d1f8941735","name":"Furniture \/ Home Store","pluralName":"Furniture \/ Home Stores","shortName":"Furniture \/ Home","icon":{"prefix":"https:\/\/ss1.4sqi.net\/img\/categories_v2\/shops\/furniture_","suffix":".png"},"primary":"true"}],"verified":"false","restricted":"true","stats":{"checkinsCount":"3","usersCount":"1","tipCount":"0"},"specials":{"count":"0"},"hereNow":{"count":"0"},"referralId":"v-1392478114"},{"id":"4c6fccaf9c6d6dcb7979d07a","name":"Bodyheat","location":{"lat":"51.475056","lng":"-0.192134","distance":"97","cc":"GB","country":"United Kingdom"},"categories":[{"id":"4bf58dd8d48988d10c951735","name":"Cosmetics Shop","pluralName":"Cosmetics Shops","shortName":"Cosmetics","icon":{"prefix":"https:\/\/ss1.4sqi.net\/img\/categories_v2\/shops\/beauty_cosmetic_","suffix":".png"},"primary":"true"}],"verified":"false","restricted":"true","stats":{"checkinsCount":"12","usersCount":"8","tipCount":"0"},"specials":{"count":"0"},"hereNow":{"count":"0"},"referralId":"v-1392478114"},{"id":"4ac518def964a520bca920e3","name":"Mission Restaurant","location":{"address":"116 Wandsworth Bridge Road","lat":"51.47504650704403","lng":"-0.1920018794254881","distance":"100","postalCode":"SW6 2TF","cc":"GB","city":"London","state":"Greater London","country":"United Kingdom"},"categories":[{"id":"4bf58dd8d48988d1c4941735","name":"Restaurant","pluralName":"Restaurants","shortName":"Restaurant","icon":{"prefix":"https:\/\/ss1.4sqi.net\/img\/categories_v2\/food\/default_","suffix":".png"},"primary":"true"}],"verified":"false","restricted":"true","stats":{"checkinsCount":"7","usersCount":"7","tipCount":"0"},"specials":{"count":"0"},"hereNow":{"count":"0"},"referralId":"v-1392478114"},{"id":"4e733b591495dffb8ece187a","name":"Maximiliano Centini","location":{"lat":"51.475983721851854","lng":"-0.1932492722126951","distance":"191","cc":"GB","city":"Hammersmith","state":"Greater London","country":"United Kingdom"},"categories":[{"id":"4bf58dd8d48988d110951735","name":"Salon \/ Barbershop","pluralName":"Salons \/ Barbershops","shortName":"Salon \/ Barbershop","icon":{"prefix":"https:\/\/ss1.4sqi.net\/img\/categories_v2\/shops\/salon_barber_","suffix":".png"},"primary":"true"}],"verified":"false","restricted":"true","stats":{"checkinsCount":"49","usersCount":"17","tipCount":"1"},"specials":{"count":"0"},"hereNow":{"count":"0"},"referralId":"v-1392478114"}],"confident":"false"}}