{"meta":{"code":"200"},"response":{"venues":[{"id":"4ac518cef964a5202aa620e3","name":"Chelsea Physic Garden","contact":{"phone":"+442073525646","formattedPhone":"+44 20 7352 5646"},"location":{"address":"66 Royal Hospital Road","crossStreet":"Chelsea","lat":"51.48441623498601","lng":"-0.16219854354858398","distance":"44","postalCode":"SW3 4HS","cc":"GB","city":"London","state":"Greater London","country":"United Kingdom"},"categories":[{"id":"4bf58dd8d48988d15a941735","name":"Garden","pluralName":"Gardens","shortName":"Garden","icon":{"prefix":"https:\/\/ss1.4sqi.net\/img\/categories_v2\/parks_outdoors\/garden_","suffix":".png"},"primary":"true"}],"verified":"false","restricted":"true","stats":{"checkinsCount":"488","usersCount":"354","tipCount":"10"},"specials":{"count":"0"},"hereNow":{"count":"0"},"referralId":"v-1392478092"},{"id":"4ac518d6f964a5201da820e3","name":"Restaurant Gordon Ramsay","contact":{"phone":"+442073524441","formattedPhone":"+44 20 7352 4441","twitter":"restaurant_gr"},"location":{"address":"68 Royal Hospital Rd.","lat":"51.48539167113535","lng":"-0.16200542449951172","distance":"134","postalCode":"SW3 4HP","cc":"GB","city":"Chelsea","state":"Greater London","country":"United Kingdom"},"categories":[{"id":"4bf58dd8d48988d10c941735","name":"French Restaurant","pluralName":"French Restaurants","shortName":"French","icon":{"prefix":"https:\/\/ss1.4sqi.net\/img\/categories_v2\/food\/french_","suffix":".png"},"primary":"true"}],"verified":"true","restricted":"true","stats":{"checkinsCount":"738","usersCount":"574","tipCount":"27"},"url":"http:\/\/www.gordonramsay.com\/royalhospitalroad","reservations":{"url":"http:\/\/www.toptable.co.uk\/single.aspx?rid=80215&ref=9601"},"menu":{"type":"Menu","label":"Menu","anchor":"View Menu","url":"https:\/\/foursquare.com\/v\/restaurant-gordon-ramsay\/4ac518d6f964a5201da820e3\/menu","mobileUrl":"https:\/\/foursquare.com\/v\/4ac518d6f964a5201da820e3\/device_menu"},"specials":{"count":"0"},"hereNow":{"count":"0"},"storeId":"","referralId":"v-1392478092"},{"id":"4bfff884369476b0f89d8e1f","name":"Albert Bridge","location":{"address":"Albert Bridge","crossStreet":"River Thames","lat":"51.48226485684464","lng":"-0.16670465469360352","distance":"352","cc":"GB","city":"Chelsea","state":"Greater London","country":"United Kingdom"},"categories":[{"id":"4bf58dd8d48988d1df941735","name":"Bridge","pluralName":"Bridges","shortName":"Bridge","icon":{"prefix":"https:\/\/ss1.4sqi.net\/img\/categories_v2\/parks_outdoors\/bridge_","suffix":".png"},"primary":"true"}],"verified":"false","restricted":"true","stats":{"checkinsCount":"2775","usersCount":"933","tipCount":"5"},"specials":{"count":"0"},"hereNow":{"count":"0"},"referralId":"v-1392478092"},{"id":"4ac518cff964a5206da620e3","name":"The Peace Pagoda","location":{"address":"Battersea Park","lat":"51.48203100527882","lng":"-0.15903353691101074","distance":"362","postalCode":"SW11 4NJ","cc":"GB","city":"London","state":"Greater London","country":"United Kingdom"},"categories":[{"id":"4bf58dd8d48988d12d941735","name":"Monument \/ Landmark","pluralName":"Monuments \/ Landmarks","shortName":"Landmark","icon":{"prefix":"https:\/\/ss1.4sqi.net\/img\/categories_v2\/building\/government_monument_","suffix":".png"},"primary":"true"}],"verified":"false","restricted":"true","stats":{"checkinsCount":"668","usersCount":"398","tipCount":"5"},"specials":{"count":"0"},"hereNow":{"count":"0"},"referralId":"v-1392478092"},{"id":"4ac518d3f964a5206aa720e3","name":"National Army Museum","contact":{"phone":"+442077300717","formattedPhone":"+44 20 7730 0717"},"location":{"address":"Royal Hospital Road","lat":"51.4864338949215","lng":"-0.16080379486083984","distance":"276","postalCode":"SW3 4HT","cc":"GB","city":"London","state":"Greater London","country":"United Kingdom"},"categories":[{"id":"4bf58dd8d48988d181941735","name":"Museum","pluralName":"Museums","shortName":"Museum","icon":{"prefix":"https:\/\/ss1.4sqi.net\/img\/categories_v2\/arts_entertainment\/museum_","suffix":".png"},"primary":"true"}],"verified":"false","restricted":"true","stats":{"checkinsCount":"591","usersCount":"417","tipCount":"12"},"url":"http:\/\/www.nam.ac.uk","specials":{"count":"0"},"hereNow":{"count":"0"},"referralId":"v-1392478092"},{"id":"4b55f12cf964a520d1f727e3","name":"Coopers Arms","contact":{"phone":"+442073763120","formattedPhone":"+44 20 7376 3120"},"location":{"address":"87 Flood St.","crossStreet":"at Redesdale St.","lat":"51.48627230950473","lng":"-0.16527495360820604","distance":"279","postalCode":"SW3 5TB","cc":"GB","city":"Chelsea","state":"Greater London","country":"United Kingdom"},"categories":[{"id":"4bf58dd8d48988d11b941735","name":"Pub","pluralName":"Pubs","shortName":"Pub","icon":{"prefix":"https:\/\/ss1.4sqi.net\/img\/categories_v2\/nightlife\/pub_","suffix":".png"},"primary":"true"}],"verified":"false","restricted":"true","stats":{"checkinsCount":"648","usersCount":"309","tipCount":"9"},"url":"http:\/\/www.coopersarms.co.uk","menu":{"type":"Menu","label":"Menu","anchor":"View Menu","url":"https:\/\/foursquare.com\/v\/coopers-arms\/4b55f12cf964a520d1f727e3\/menu","mobileUrl":"https:\/\/foursquare.com\/v\/4b55f12cf964a520d1f727e3\/device_menu"},"specials":{"count":"0"},"hereNow":{"count":"1","groups":[{"type":"others","name":"Other people here","count":"1"}]},"referralId":"v-1392478092"},{"id":"4ed2487ee5e84d55c92aa0b1","name":"Tangerine Dream Caf\u00e9","contact":{"phone":"+442073496464","formattedPhone":"+44 20 7349 6464"},"location":{"address":"Chelsea Physic Garden, 66 Royal Hospital Rd","lat":"51.48428261197074","lng":"-0.16292810440063477","distance":"8","postalCode":"SW3 4HS","cc":"GB","city":"Chelsea","state":"Greater London","country":"United Kingdom"},"categories":[{"id":"4bf58dd8d48988d16d941735","name":"Caf\u00e9","pluralName":"Caf\u00e9s","shortName":"Caf\u00e9","icon":{"prefix":"https:\/\/ss1.4sqi.net\/img\/categories_v2\/food\/cafe_","suffix":".png"},"primary":"true"}],"verified":"false","restricted":"true","stats":{"checkinsCount":"7","usersCount":"4","tipCount":"0"},"menu":{"type":"Menu","label":"Menu","anchor":"View Menu","url":"https:\/\/foursquare.com\/v\/tangerine-dream-caf%C3%A9\/4ed2487ee5e84d55c92aa0b1\/menu","mobileUrl":"https:\/\/foursquare.com\/v\/4ed2487ee5e84d55c92aa0b1\/device_menu"},"specials":{"count":"0"},"hereNow":{"count":"0"},"referralId":"v-1392478092"},{"id":"4c2250389a67a5930c4adc87","name":"The Phene","contact":{"phone":"+442073529898","formattedPhone":"+44 20 7352 9898"},"location":{"address":"9 Phene Street, Chelsea","lat":"51.485089","lng":"-0.167833","distance":"359","postalCode":"SW3 5NY","cc":"GB","city":"London","state":"Greater London","country":"United Kingdom"},"categories":[{"id":"4bf58dd8d48988d116941735","name":"Bar","pluralName":"Bars","shortName":"Bar","icon":{"prefix":"https:\/\/ss1.4sqi.net\/img\/categories_v2\/nightlife\/bar_","suffix":".png"},"primary":"true"}],"verified":"false","restricted":"true","stats":{"checkinsCount":"973","usersCount":"645","tipCount":"29"},"menu":{"type":"Menu","label":"Menu","anchor":"View Menu","url":"https:\/\/foursquare.com\/v\/the-phene\/4c2250389a67a5930c4adc87\/menu","mobileUrl":"https:\/\/foursquare.com\/v\/4c2250389a67a5930c4adc87\/device_menu"},"specials":{"count":"0"},"hereNow":{"count":"0"},"referralId":"v-1392478092"},{"id":"4ba14cd3f964a52074aa37e3","name":"Foxtrot Oscar","contact":{"phone":"+442073524448","formattedPhone":"+44 20 7352 4448","twitter":"gr_foxtrotoscar"},"location":{"address":"79 Royal Hospital Rd.","lat":"51.485805891133566","lng":"-0.16149044036865234","distance":"191","postalCode":"SW3 4HN","cc":"GB","city":"Kensington","state":"Greater London","country":"United Kingdom"},"categories":[{"id":"4bf58dd8d48988d10c941735","name":"French Restaurant","pluralName":"French Restaurants","shortName":"French","icon":{"prefix":"https:\/\/ss1.4sqi.net\/img\/categories_v2\/food\/french_","suffix":".png"},"primary":"true"}],"verified":"true","restricted":"true","stats":{"checkinsCount":"399","usersCount":"303","tipCount":"15"},"url":"http:\/\/www.gordonramsay.com\/foxtrotoscar","reservations":{"url":"http:\/\/www.toptable.co.uk\/single.aspx?rid=80197&ref=9601"},"menu":{"type":"Menu","label":"Menu","anchor":"View Menu","url":"https:\/\/foursquare.com\/v\/foxtrot-oscar\/4ba14cd3f964a52074aa37e3\/menu","mobileUrl":"https:\/\/foursquare.com\/v\/4ba14cd3f964a52074aa37e3\/device_menu"},"specials":{"count":"0"},"hereNow":{"count":"0"},"storeId":"","referralId":"v-1392478092"},{"id":"4dd56b1d6365d68ffa75f789","name":"The Surprise","location":{"address":"6 Christchurch St. SW3","lat":"51.48629832499999","lng":"-0.1629815","distance":"224","cc":"GB","city":"London","state":"Greater London","country":"United Kingdom"},"categories":[{"id":"4bf58dd8d48988d11b941735","name":"Pub","pluralName":"Pubs","shortName":"Pub","icon":{"prefix":"https:\/\/ss1.4sqi.net\/img\/categories_v2\/nightlife\/pub_","suffix":".png"},"primary":"true"}],"verified":"true","restricted":"true","stats":{"checkinsCount":"290","usersCount":"197","tipCount":"6"},"specials":{"count":"0"},"hereNow":{"count":"0"},"referralId":"v-1392478092"},{"id":"4b3b5363f964a5207e7225e3","name":"The Phoenix","location":{"address":"Smith Street","lat":"51.48855835425089","lng":"-0.16263842582702637","distance":"475","cc":"GB","city":"London","state":"Greater London","country":"United Kingdom"},"categories":[{"id":"4bf58dd8d48988d11b941735","name":"Pub","pluralName":"Pubs","shortName":"Pub","icon":{"prefix":"https:\/\/ss1.4sqi.net\/img\/categories_v2\/nightlife\/pub_","suffix":".png"},"primary":"true"}],"verified":"true","restricted":"true","stats":{"checkinsCount":"884","usersCount":"427","tipCount":"7"},"specials":{"count":"0"},"hereNow":{"count":"1","groups":[{"type":"others","name":"Other people here","count":"1"}]},"referralId":"v-1392478092"},{"id":"523c6f310493cf4164880cbd","name":"Transgays","contact":{"phone":"+442081445544","formattedPhone":"+44 20 8144 5544","twitter":"smithjames"},"location":{"lat":"51.48390846544493","lng":"-0.16258478164672852","distance":"44","postalCode":"sw33dl","cc":"GB","city":"60 sloanve avenue","state":"Greater London","country":"United Kingdom"},"categories":[{"id":"4bf58dd8d48988d1d8941735","name":"Gay Bar","pluralName":"Gay Bars","shortName":"Gay Bar","icon":{"prefix":"https:\/\/ss1.4sqi.net\/img\/categories_v2\/nightlife\/gaybar_","suffix":".png"},"primary":"true"}],"verified":"false","restricted":"true","stats":{"checkinsCount":"0","usersCount":"0","tipCount":"1"},"specials":{"count":"0"},"hereNow":{"count":"0"},"referralId":"v-1392478092"},{"id":"52b445d9498e3e00b35b77c7","name":"HB Interior","location":{"address":"30 Redburn Street","lat":"51.48638101813417","lng":"-0.1645252442588081","distance":"261","postalCode":"Sw3 4bx","cc":"GB","city":"London","state":"Greater London","country":"United Kingdom"},"categories":[{"id":"4bf58dd8d48988d124941735","name":"Office","pluralName":"Offices","shortName":"Office","icon":{"prefix":"https:\/\/ss1.4sqi.net\/img\/categories_v2\/building\/default_","suffix":".png"},"primary":"true"}],"verified":"false","restricted":"true","stats":{"checkinsCount":"5","usersCount":"2","tipCount":"0"},"specials":{"count":"0"},"hereNow":{"count":"0"},"referralId":"v-1392478092"},{"id":"502ab437e4b050159f36697b","name":"Ziani","location":{"lat":"51.487458398798445","lng":"-0.16462919976149862","distance":"374","cc":"GB","country":"United Kingdom"},"categories":[{"id":"4bf58dd8d48988d110941735","name":"Italian Restaurant","pluralName":"Italian Restaurants","shortName":"Italian","icon":{"prefix":"https:\/\/ss1.4sqi.net\/img\/categories_v2\/food\/italian_","suffix":".png"},"primary":"true"}],"verified":"false","restricted":"true","stats":{"checkinsCount":"64","usersCount":"51","tipCount":"1"},"menu":{"type":"Menu","label":"Menu","anchor":"View Menu","url":"https:\/\/foursquare.com\/v\/ziani\/502ab437e4b050159f36697b\/menu","mobileUrl":"https:\/\/foursquare.com\/v\/502ab437e4b050159f36697b\/device_menu"},"specials":{"count":"0"},"hereNow":{"count":"0"},"referralId":"v-1392478092"},{"id":"4f460fb3e4b0068c2899dd36","name":"Christ Church","location":{"crossStreet":"Christ Church Street","lat":"51.485668423642274","lng":"-0.1639353620293297","distance":"172","cc":"GB","city":"Chelsea","country":"United Kingdom"},"categories":[{"id":"4bf58dd8d48988d132941735","name":"Church","pluralName":"Churches","shortName":"Church","icon":{"prefix":"https:\/\/ss1.4sqi.net\/img\/categories_v2\/building\/religious_church_","suffix":".png"},"primary":"true"}],"verified":"false","restricted":"true","stats":{"checkinsCount":"14","usersCount":"12","tipCount":"0"},"specials":{"count":"0"},"hereNow":{"count":"0"},"referralId":"v-1392478092"},{"id":"4ac518d1f964a520cda620e3","name":"Royal Hospital Chelsea","location":{"address":"Royal Hospital Rd.","lat":"51.48712869754462","lng":"-0.1588726043701172","distance":"417","postalCode":"SW3 4SR","cc":"GB","city":"London","state":"Greater London","country":"United Kingdom"},"categories":[{"id":"4bf58dd8d48988d12d941735","name":"Monument \/ Landmark","pluralName":"Monuments \/ Landmarks","shortName":"Landmark","icon":{"prefix":"https:\/\/ss1.4sqi.net\/img\/categories_v2\/building\/government_monument_","suffix":".png"},"primary":"true"}],"verified":"false","restricted":"true","stats":{"checkinsCount":"480","usersCount":"363","tipCount":"6"},"specials":{"count":"0"},"hereNow":{"count":"0"},"referralId":"v-1392478092"},{"id":"52a9d9c411d23c836ac9442a","name":"The London Sketch Club","location":{"address":"7 Dilke Street","lat":"51.484456321814235","lng":"-0.16026735305786133","distance":"176","postalCode":"SW3 4JE","cc":"GB","city":"London","state":"Greater London","country":"United Kingdom"},"categories":[{"id":"5267e4d9e4b0ec79466e48c8","name":"Other Event","pluralName":"Other Events","shortName":"Other Event","icon":{"prefix":"https:\/\/ss1.4sqi.net\/img\/categories_v2\/event\/default_","suffix":".png"},"primary":"true"}],"verified":"false","restricted":"true","stats":{"checkinsCount":"1","usersCount":"1","tipCount":"0"},"specials":{"count":"0"},"hereNow":{"count":"0"},"referralId":"v-1392478092"},{"id":"4e47b58f1850c7ee212dee51","name":"Hult International Business School","location":{"address":"22 Chelsea Manor Street","lat":"51.48688819014245","lng":"-0.16709089279174805","distance":"414","postalCode":"SW3 5RL","cc":"GB","city":"London","state":"Greater London","country":"United Kingdom"},"categories":[{"id":"4bf58dd8d48988d124941735","name":"Office","pluralName":"Offices","shortName":"Office","icon":{"prefix":"https:\/\/ss1.4sqi.net\/img\/categories_v2\/building\/default_","suffix":".png"},"primary":"true"}],"verified":"false","restricted":"true","stats":{"checkinsCount":"137","usersCount":"14","tipCount":"0"},"specials":{"count":"0"},"hereNow":{"count":"0"},"referralId":"v-1392478092"},{"id":"4c2ce4028ef52d7f7ba233ba","name":"Rossetti Studios","location":{"address":"70 Flood Street","lat":"51.484816","lng":"-0.164398","distance":"125","cc":"GB","city":"Kensington","state":"Greater London","country":"United Kingdom"},"categories":[{"id":"4bf58dd8d48988d1e2931735","name":"Art Gallery","pluralName":"Art Galleries","shortName":"Art Gallery","icon":{"prefix":"https:\/\/ss1.4sqi.net\/img\/categories_v2\/arts_entertainment\/artgallery_","suffix":".png"},"primary":"true"}],"verified":"false","restricted":"true","stats":{"checkinsCount":"11","usersCount":"7","tipCount":"0"},"specials":{"count":"0"},"hereNow":{"count":"0"},"referralId":"v-1392478092"},{"id":"4eca7d7999115348dc6e397d","name":"The Steakhouse At Harrods","location":{"lat":"51.48798779042853","lng":"-0.16418404435658454","distance":"422","cc":"GB","city":"London","state":"Greater London","country":"United Kingdom"},"categories":[{"id":"4bf58dd8d48988d1cc941735","name":"Steakhouse","pluralName":"Steakhouses","shortName":"Steakhouse","icon":{"prefix":"https:\/\/ss1.4sqi.net\/img\/categories_v2\/food\/steakhouse_","suffix":".png"},"primary":"true"}],"verified":"false","restricted":"true","stats":{"checkinsCount":"180","usersCount":"81","tipCount":"1"},"specials":{"count":"0"},"hereNow":{"count":"0"},"referralId":"v-1392478092"},{"id":"4cfe8969feec6dcb6a8d5836","name":"Mercedes-benz Chelsea","location":{"lat":"51.483511","lng":"-0.167412","distance":"331","cc":"GB","country":"United Kingdom"},"categories":[{"id":"4bf58dd8d48988d124951735","name":"Automotive Shop","pluralName":"Automotive Shops","shortName":"Automotive","icon":{"prefix":"https:\/\/ss1.4sqi.net\/img\/categories_v2\/shops\/automotive_","suffix":".png"},"primary":"true"}],"verified":"false","restricted":"true","stats":{"checkinsCount":"144","usersCount":"60","tipCount":"1"},"specials":{"count":"0"},"hereNow":{"count":"0"},"referralId":"v-1392478092"},{"id":"51960b68498efc8c329a2311","name":"Battersea Park Old English Garden","location":{"address":"Battersea Parks","lat":"51.48130485569877","lng":"-0.16447440647566405","distance":"351","cc":"GB","city":"London","state":"Greater London","country":"United Kingdom"},"categories":[{"id":"4bf58dd8d48988d15a941735","name":"Garden","pluralName":"Gardens","shortName":"Garden","icon":{"prefix":"https:\/\/ss1.4sqi.net\/img\/categories_v2\/parks_outdoors\/garden_","suffix":".png"},"primary":"true"}],"verified":"false","restricted":"true","stats":{"checkinsCount":"18","usersCount":"18","tipCount":"1"},"specials":{"count":"0"},"hereNow":{"count":"0"},"referralId":"v-1392478092"},{"id":"4e7492ad52b1c8e51909ebc4","name":"22 Paradise Walk","location":{"address":"22 Paradise Walk","lat":"51.484951","lng":"-0.160568","distance":"171","cc":"GB","city":"Kensington","state":"Greater London","country":"United Kingdom"},"categories":[{"id":"4bf58dd8d48988d1fa931735","name":"Hotel","pluralName":"Hotels","shortName":"Hotel","icon":{"prefix":"https:\/\/ss1.4sqi.net\/img\/categories_v2\/travel\/hotel_","suffix":".png"},"primary":"true"}],"verified":"false","restricted":"true","stats":{"checkinsCount":"14","usersCount":"5","tipCount":"0"},"specials":{"count":"0"},"hereNow":{"count":"0"},"referralId":"v-1392478092"},{"id":"50fe6430e4b08ca151c1c216","name":"Rossetti Garden Mansions","location":{"lat":"51.48501516586099","lng":"-0.16524630910193913","distance":"187","cc":"GB","country":"United Kingdom"},"categories":[{"id":"4d954b06a243a5684965b473","name":"Residential Building (Apartment \/ Condo)","pluralName":"Residential Buildings (Apartments \/ Condos)","shortName":"Residential","icon":{"prefix":"https:\/\/ss1.4sqi.net\/img\/categories_v2\/building\/apartment_","suffix":".png"},"primary":"true"}],"verified":"false","restricted":"true","stats":{"checkinsCount":"5","usersCount":"4","tipCount":"0"},"specials":{"count":"0"},"hereNow":{"count":"0"},"referralId":"v-1392478092"},{"id":"4b783904f964a52095bd2ee3","name":"Cadogan Pier","location":{"address":"North Side of Thames","crossStreet":"Beside Albert Bridge","lat":"51.482976413357996","lng":"-0.16660747752937918","distance":"301","postalCode":"SW3 5RJ","cc":"GB","city":"Chelsea","state":"Greater London","country":"United Kingdom"},"categories":[{"id":"4bf58dd8d48988d12d951735","name":"Boat or Ferry","pluralName":"Boats or Ferries","shortName":"Boat \/ Ferry","icon":{"prefix":"https:\/\/ss1.4sqi.net\/img\/categories_v2\/travel\/boat_","suffix":".png"},"primary":"true"}],"verified":"false","restricted":"true","stats":{"checkinsCount":"327","usersCount":"100","tipCount":"1"},"url":"http:\/\/www.tfl.gov.uk\/river","specials":{"count":"0"},"hereNow":{"count":"0"},"referralId":"v-1392478092"},{"id":"510e98b9e4b0eaed21735248","name":"Pam's Nails","contact":{"phone":"+442073522810","formattedPhone":"+44 20 7352 2810"},"location":{"address":"55 Chelsea Manor St","lat":"51.486223","lng":"-0.166637","distance":"342","postalCode":"SW3 5RZ","cc":"GB","city":"London","state":"Greater London","country":"United Kingdom"},"categories":[{"id":"4f04aa0c2fb6e1c99f3db0b8","name":"Nail Salon","pluralName":"Nail Salons","shortName":"Nail Salon","icon":{"prefix":"https:\/\/ss1.4sqi.net\/img\/categories_v2\/shops\/nailsalon_","suffix":".png"},"primary":"true"}],"verified":"false","restricted":"true","stats":{"checkinsCount":"16","usersCount":"2","tipCount":"1"},"specials":{"count":"0"},"hereNow":{"count":"0"},"referralId":"v-1392478092"},{"id":"4df0722ad22d433687178f6d","name":"Chesil Court","location":{"address":"Chelsea manor street","lat":"51.485142","lng":"-0.165272","distance":"195","cc":"GB","city":"Kensington","state":"Greater London","country":"United Kingdom"},"categories":[{"id":"4d954b06a243a5684965b473","name":"Residential Building (Apartment \/ Condo)","pluralName":"Residential Buildings (Apartments \/ Condos)","shortName":"Residential","icon":{"prefix":"https:\/\/ss1.4sqi.net\/img\/categories_v2\/building\/apartment_","suffix":".png"},"primary":"true"}],"verified":"false","restricted":"true","stats":{"checkinsCount":"3","usersCount":"2","tipCount":"1"},"specials":{"count":"0"},"hereNow":{"count":"0"},"referralId":"v-1392478092"},{"id":"4c2ce2a4b34ad13a0007ecce","name":"Rosetti Galleries","location":{"lat":"51.485318058206396","lng":"-0.16512753774153763","distance":"197","cc":"GB","country":"United Kingdom"},"categories":[{"id":"4bf58dd8d48988d1e2931735","name":"Art Gallery","pluralName":"Art Galleries","shortName":"Art Gallery","icon":{"prefix":"https:\/\/ss1.4sqi.net\/img\/categories_v2\/arts_entertainment\/artgallery_","suffix":".png"},"primary":"true"}],"verified":"false","restricted":"true","stats":{"checkinsCount":"6","usersCount":"4","tipCount":"0"},"specials":{"count":"0"},"hereNow":{"count":"0"},"referralId":"v-1392478092"},{"id":"4d8c9142d4ec8cfa5a974289","name":"Surprise, Christchurch Terrace","location":{"lat":"51.486306","lng":"-0.162894","distance":"224","cc":"GB","country":"United Kingdom"},"categories":[{"id":"4bf58dd8d48988d11b941735","name":"Pub","pluralName":"Pubs","shortName":"Pub","icon":{"prefix":"https:\/\/ss1.4sqi.net\/img\/categories_v2\/nightlife\/pub_","suffix":".png"},"primary":"true"}],"verified":"false","restricted":"true","stats":{"checkinsCount":"12","usersCount":"11","tipCount":"0"},"specials":{"count":"0"},"hereNow":{"count":"0"},"referralId":"v-1392478092"},{"id":"4eac2c052c5b5d71e78700e3","name":"34 Tite Street","location":{"address":"Tite St","lat":"51.485244688941194","lng":"-0.16021370887756348","distance":"208","cc":"GB","city":"London","state":"Greater London","country":"United Kingdom"},"categories":[{"id":"4deefb944765f83613cdba6e","name":"Historic Site","pluralName":"Historic Sites","shortName":"Historic Site","icon":{"prefix":"https:\/\/ss1.4sqi.net\/img\/categories_v2\/arts_entertainment\/historicsite_","suffix":".png"},"primary":"true"}],"verified":"false","restricted":"true","stats":{"checkinsCount":"8","usersCount":"5","tipCount":"1"},"specials":{"count":"0"},"hereNow":{"count":"0"},"referralId":"v-1392478092"}],"confident":"true"}}