{"meta":{"code":"200"},"response":{"venues":[{"id":"4b7564eff964a520180a2ee3","name":"Borough Road Building","contact":{"phone":"+442078157815","formattedPhone":"+44 20 7815 7815","twitter":"lsbu"},"location":{"address":"London South Bank University, 103 Borough Rd.","lat":"51.49871012741929","lng":"-0.10183456621831952","distance":"93","postalCode":"SE1 0AA","cc":"GB","city":"Borough","state":"Greater London","country":"United Kingdom"},"categories":[{"id":"4bf58dd8d48988d198941735","name":"College Academic Building","pluralName":"College Academic Buildings","shortName":"Academic Building","icon":{"prefix":"https:\/\/ss1.4sqi.net\/img\/categories_v2\/education\/academicbuilding_","suffix":".png"},"primary":"true"}],"verified":"false","restricted":"true","stats":{"checkinsCount":"567","usersCount":"87","tipCount":"1"},"specials":{"count":"0"},"hereNow":{"count":"0"},"referralId":"v-1392478057"},{"id":"4adef21ff964a520e67621e3","name":"Learning Resource Centre","contact":{"phone":"+442078157815","formattedPhone":"+44 20 7815 7815","twitter":"lsbu"},"location":{"address":"105 Borough Rd.","lat":"51.49868491911701","lng":"-0.10269641876220703","distance":"67","postalCode":"SE1 0AA","cc":"GB","city":"Borough","state":"Greater London","country":"United Kingdom"},"categories":[{"id":"4bf58dd8d48988d1a7941735","name":"College Library","pluralName":"College Libraries","shortName":"Library","icon":{"prefix":"https:\/\/ss1.4sqi.net\/img\/categories_v2\/building\/library_","suffix":".png"},"primary":"true"}],"verified":"false","restricted":"true","stats":{"checkinsCount":"420","usersCount":"50","tipCount":"4"},"url":"http:\/\/www.lsbu.ac.uk\/lrc","specials":{"count":"0"},"hereNow":{"count":"0"},"referralId":"v-1392478057"},{"id":"528d7b57498e9af4cf9f9387","name":"Common Room Mclarens","location":{"lat":"51.498939","lng":"-0.104738","distance":"139","cc":"GB","country":"United Kingdom"},"categories":[{"id":"4d954b06a243a5684965b473","name":"Residential Building (Apartment \/ Condo)","pluralName":"Residential Buildings (Apartments \/ Condos)","shortName":"Residential","icon":{"prefix":"https:\/\/ss1.4sqi.net\/img\/categories_v2\/building\/apartment_","suffix":".png"},"primary":"true"}],"verified":"false","restricted":"true","stats":{"checkinsCount":"42","usersCount":"4","tipCount":"0"},"specials":{"count":"0"},"hereNow":{"count":"0"},"referralId":"v-1392478057"},{"id":"4dc1970cd16455f8322cbb21","name":"London Road Depot","location":{"lat":"51.49771408453484","lng":"-0.10362742263252925","distance":"184","cc":"GB","city":"Camberwell","state":"Greater London","country":"United Kingdom"},"categories":[{"id":"4eb1bea83b7b6f98df247e06","name":"Factory","pluralName":"Factories","shortName":"Factory","icon":{"prefix":"https:\/\/ss1.4sqi.net\/img\/categories_v2\/building\/factory_","suffix":".png"},"primary":"true"}],"verified":"false","restricted":"true","stats":{"checkinsCount":"149","usersCount":"11","tipCount":"0"},"specials":{"count":"0"},"hereNow":{"count":"1","groups":[{"type":"others","name":"Other people here","count":"1"}]},"referralId":"v-1392478057"},{"id":"4c8fd5e8b6d1a143ddadbe0f","name":"McLaren House","contact":{"phone":"+442078157360","formattedPhone":"+44 20 7815 7360","twitter":"lsbu"},"location":{"address":"1 St George's Circus","lat":"51.49886134156335","lng":"-0.10542719337074258","distance":"187","postalCode":"SE1 0AP","cc":"GB","city":"London","state":"Greater London","country":"United Kingdom"},"categories":[{"id":"4bf58dd8d48988d1a3941735","name":"College Residence Hall","pluralName":"College Residence Halls","shortName":"Residence Hall","icon":{"prefix":"https:\/\/ss1.4sqi.net\/img\/categories_v2\/education\/residencehall_","suffix":".png"},"primary":"true"}],"verified":"false","restricted":"true","stats":{"checkinsCount":"1490","usersCount":"163","tipCount":"0"},"specials":{"count":"0"},"hereNow":{"count":"0"},"referralId":"v-1392478057"},{"id":"4b6c8b0ff964a520eb412ce3","name":"The Bridge Hotel Southwark","contact":{"phone":"+442075931300","formattedPhone":"+44 20 7593 1300"},"location":{"address":"30 Borough road","lat":"51.49899883339533","lng":"-0.10179519653320312","distance":"76","postalCode":"SE1 0AJ","cc":"GB","city":"London","state":"Greater London","country":"United Kingdom"},"categories":[{"id":"4bf58dd8d48988d1f8931735","name":"Bed & Breakfast","pluralName":"Bed & Breakfasts","shortName":"B & B","icon":{"prefix":"https:\/\/ss1.4sqi.net\/img\/categories_v2\/travel\/bedandbreakfast_","suffix":".png"},"primary":"true"}],"verified":"true","restricted":"true","stats":{"checkinsCount":"134","usersCount":"75","tipCount":"1"},"url":"http:\/\/www.thebridgehotel.net","specials":{"count":"0"},"hereNow":{"count":"0"},"venuePage":{"id":"32868570"},"storeId":"","referralId":"v-1392478057"},{"id":"52f09ecd11d25da04add4cc9","name":"Crossfit Blackfriars","location":{"address":"Belvedere Buildings","lat":"51.49888610839844","lng":"-0.10183820128440857","distance":"80","postalCode":"SE1 0DQ","cc":"GB","city":"London","state":"Greater London","country":"United Kingdom"},"categories":[{"id":"4bf58dd8d48988d176941735","name":"Gym","pluralName":"Gyms","shortName":"Gym","icon":{"prefix":"https:\/\/ss1.4sqi.net\/img\/categories_v2\/building\/gym_","suffix":".png"},"primary":"true"}],"verified":"false","restricted":"true","stats":{"checkinsCount":"2","usersCount":"1","tipCount":"0"},"specials":{"count":"0"},"hereNow":{"count":"0"},"referralId":"v-1392478057"},{"id":"4b94e9f2f964a520918734e3","name":"London Road Building","contact":{"phone":"+442078157815","formattedPhone":"+44 20 7815 7815","twitter":"lsbu"},"location":{"address":"London Rd.","lat":"51.49744396945383","lng":"-0.10199679284956416","distance":"212","postalCode":"SE1 6LN","cc":"GB","city":"London","state":"Greater London","country":"United Kingdom"},"categories":[{"id":"4bf58dd8d48988d198941735","name":"College Academic Building","pluralName":"College Academic Buildings","shortName":"Academic Building","icon":{"prefix":"https:\/\/ss1.4sqi.net\/img\/categories_v2\/education\/academicbuilding_","suffix":".png"},"primary":"true"}],"verified":"false","restricted":"true","stats":{"checkinsCount":"445","usersCount":"60","tipCount":"0"},"specials":{"count":"0"},"hereNow":{"count":"0"},"referralId":"v-1392478057"},{"id":"4dad317dec8e445e17700a8b","name":"Keyworth Street Chapel Garden","contact":{"phone":"+442078157815","formattedPhone":"+44 20 7815 7815","twitter":"lsbu"},"location":{"address":"London South Bank University","crossStreet":"Borough Rd. x Keyworth St.","lat":"51.498591412318305","lng":"-0.10300219058990479","distance":"78","postalCode":"SE1 0BP","cc":"GB","city":"Borough","state":"Greater London","country":"United Kingdom"},"categories":[{"id":"4bf58dd8d48988d163941735","name":"Park","pluralName":"Parks","shortName":"Park","icon":{"prefix":"https:\/\/ss1.4sqi.net\/img\/categories_v2\/parks_outdoors\/park_","suffix":".png"},"primary":"true"}],"verified":"false","restricted":"true","stats":{"checkinsCount":"109","usersCount":"4","tipCount":"0"},"specials":{"count":"0"},"hereNow":{"count":"0"},"referralId":"v-1392478057"},{"id":"4adf2b28f964a520fa7721e3","name":"LSBU Students' Union","contact":{"phone":"+442078156060","formattedPhone":"+44 20 7815 6060","twitter":"lsbu_su"},"location":{"address":"Student Centre, Borough Rd.","lat":"51.49868491911701","lng":"-0.10106563568115234","distance":"137","postalCode":"SE1","cc":"GB","city":"Borough","state":"Greater London","country":"United Kingdom"},"categories":[{"id":"4bf58dd8d48988d1ab941735","name":"Student Center","pluralName":"Student Centers","shortName":"Student Center","icon":{"prefix":"https:\/\/ss1.4sqi.net\/img\/categories_v2\/education\/studentcenter_","suffix":".png"},"primary":"true"}],"verified":"false","restricted":"true","stats":{"checkinsCount":"150","usersCount":"59","tipCount":"0"},"url":"http:\/\/www.londonsouthbanksu.com","specials":{"count":"0"},"hereNow":{"count":"0"},"referralId":"v-1392478057"},{"id":"4fec53e2e4b0c8b85fa4661b","name":"Borough Road Gallery","contact":{"phone":"+442078155737","formattedPhone":"+44 20 7815 5737","twitter":"brdgallery"},"location":{"address":"London South Bank University, 103 Borough Rd.","lat":"51.49860477044416","lng":"-0.10195612907409668","distance":"96","postalCode":"SE1 0AA","cc":"GB","city":"Borough","state":"Greater London","country":"United Kingdom"},"categories":[{"id":"4bf58dd8d48988d1e2931735","name":"Art Gallery","pluralName":"Art Galleries","shortName":"Art Gallery","icon":{"prefix":"https:\/\/ss1.4sqi.net\/img\/categories_v2\/arts_entertainment\/artgallery_","suffix":".png"},"primary":"true"}],"verified":"false","restricted":"true","stats":{"checkinsCount":"41","usersCount":"14","tipCount":"1"},"specials":{"count":"0"},"hereNow":{"count":"0"},"referralId":"v-1392478057"},{"id":"4bfbc296d0382d7f4b05ca0a","name":"K2","contact":{"phone":"+442078157815","formattedPhone":"+44 20 7815 7815","twitter":"lsbu"},"location":{"address":"London South Bank University","crossStreet":"Keyworth St.","lat":"51.49792075401389","lng":"-0.10198500199894309","distance":"162","postalCode":"SE1 0AA","cc":"GB","city":"London","state":"Greater London","country":"United Kingdom"},"categories":[{"id":"4bf58dd8d48988d19b941735","name":"College Science Building","pluralName":"College Science Buildings","shortName":"Science","icon":{"prefix":"https:\/\/ss1.4sqi.net\/img\/categories_v2\/education\/collegeacademicbuildings_science_","suffix":".png"},"primary":"true"}],"verified":"false","restricted":"true","stats":{"checkinsCount":"317","usersCount":"46","tipCount":"0"},"specials":{"count":"0"},"hereNow":{"count":"0"},"referralId":"v-1392478057"},{"id":"4e3169bbb0fb3ee6467264db","name":"Bridge Caf\u00e9","contact":{"phone":"+442075931300","formattedPhone":"+44 20 7593 1300"},"location":{"address":"29 Borough Rd","crossStreet":"at Lancaster St","lat":"51.49881895329375","lng":"-0.10191076781439777","distance":"80","postalCode":"SE1 0AJ","cc":"GB","city":"Borough","state":"Greater London","country":"United Kingdom"},"categories":[{"id":"4bf58dd8d48988d143941735","name":"Breakfast Spot","pluralName":"Breakfast Spots","shortName":"Breakfast","icon":{"prefix":"https:\/\/ss1.4sqi.net\/img\/categories_v2\/food\/breakfast_","suffix":".png"},"primary":"true"}],"verified":"false","restricted":"true","stats":{"checkinsCount":"17","usersCount":"13","tipCount":"1"},"specials":{"count":"0"},"hereNow":{"count":"0"},"referralId":"v-1392478057"},{"id":"4f5cebb3e4b06784f8f06cb4","name":"Diversity Garden","location":{"address":"King James Street","lat":"51.49942","lng":"-0.10297","distance":"18","cc":"GB","city":"London","state":"Greater London","country":"United Kingdom"},"categories":[{"id":"4bf58dd8d48988d15a941735","name":"Garden","pluralName":"Gardens","shortName":"Garden","icon":{"prefix":"https:\/\/ss1.4sqi.net\/img\/categories_v2\/parks_outdoors\/garden_","suffix":".png"},"primary":"true"}],"verified":"false","restricted":"true","stats":{"checkinsCount":"2","usersCount":"2","tipCount":"0"},"specials":{"count":"0"},"hereNow":{"count":"0"},"referralId":"v-1392478057"},{"id":"525cebc7498eea1c81f7ea67","name":"barista & baker","location":{"lat":"51.498226165771484","lng":"-0.10401204228401184","distance":"144","cc":"GB","country":"United Kingdom"},"categories":[{"id":"4bf58dd8d48988d16d941735","name":"Caf\u00e9","pluralName":"Caf\u00e9s","shortName":"Caf\u00e9","icon":{"prefix":"https:\/\/ss1.4sqi.net\/img\/categories_v2\/food\/cafe_","suffix":".png"},"primary":"true"}],"verified":"false","restricted":"true","stats":{"checkinsCount":"17","usersCount":"11","tipCount":"0"},"specials":{"count":"0"},"hereNow":{"count":"0"},"referralId":"v-1392478057"},{"id":"5050e802e4b04e8a4c6ada6b","name":"Design Devision","location":{"lat":"51.50005396976776","lng":"-0.10440791899255786","distance":"140","cc":"GB","country":"United Kingdom"},"categories":[{"id":"4bf58dd8d48988d1f4941735","name":"Design Studio","pluralName":"Design Studios","shortName":"Design","icon":{"prefix":"https:\/\/ss1.4sqi.net\/img\/categories_v2\/shops\/design_","suffix":".png"},"primary":"true"}],"verified":"false","restricted":"true","stats":{"checkinsCount":"383","usersCount":"14","tipCount":"2"},"specials":{"count":"0"},"hereNow":{"count":"0"},"referralId":"v-1392478057"},{"id":"4cb3211aeb65b1f7b35981cd","name":"Erlang House","location":{"address":"128 Blackfriars Road","crossStreet":"London Road","lat":"51.499458591153655","lng":"-0.1040696807783269","distance":"89","postalCode":"SE1 8EQ","cc":"GB","city":"Southwark","state":"Greater London","country":"United Kingdom"},"categories":[{"id":"4bf58dd8d48988d1e2931735","name":"Art Gallery","pluralName":"Art Galleries","shortName":"Art Gallery","icon":{"prefix":"https:\/\/ss1.4sqi.net\/img\/categories_v2\/arts_entertainment\/artgallery_","suffix":".png"},"primary":"true"}],"verified":"false","restricted":"true","stats":{"checkinsCount":"57","usersCount":"15","tipCount":"0"},"specials":{"count":"0"},"hereNow":{"count":"0"},"referralId":"v-1392478057"},{"id":"4b5a0c7ef964a520fca928e3","name":"La Dolce Vita","contact":{"phone":"+442079287138","formattedPhone":"+44 20 7928 7138"},"location":{"address":"4-5 London Rd.","lat":"51.498298168027695","lng":"-0.10427864286114417","distance":"150","postalCode":"SE1 6JZ","cc":"GB","city":"London","state":"Greater London","country":"United Kingdom"},"categories":[{"id":"4bf58dd8d48988d110941735","name":"Italian Restaurant","pluralName":"Italian Restaurants","shortName":"Italian","icon":{"prefix":"https:\/\/ss1.4sqi.net\/img\/categories_v2\/food\/italian_","suffix":".png"},"primary":"true"}],"verified":"false","restricted":"true","stats":{"checkinsCount":"88","usersCount":"45","tipCount":"2"},"specials":{"count":"0"},"hereNow":{"count":"0"},"referralId":"v-1392478057"},{"id":"5211341011d2c9d7566cad8a","name":"IMAGES&Co","contact":{"phone":"+442070971333","formattedPhone":"+44 20 7097 1333","twitter":"imagesco","facebook":"501379516619317"},"location":{"address":"The Clarence Centre for Enterprise and Innovation","crossStreet":"6 St George's Circus","lat":"51.49853797977577","lng":"-0.10430574417114258","distance":"133","postalCode":"SE16FE","cc":"GB","city":"London","state":"Greater London","country":"United Kingdom"},"categories":[{"id":"4bf58dd8d48988d124941735","name":"Office","pluralName":"Offices","shortName":"Office","icon":{"prefix":"https:\/\/ss1.4sqi.net\/img\/categories_v2\/building\/default_","suffix":".png"},"primary":"true"}],"verified":"true","restricted":"true","stats":{"checkinsCount":"23","usersCount":"2","tipCount":"1"},"url":"http:\/\/www.images.co.uk","specials":{"count":"0"},"hereNow":{"count":"0"},"venuePage":{"id":"64933396"},"storeId":"","referralId":"v-1392478057"},{"id":"52136de111d25dfa3dc947ce","name":"London School of Commerce","location":{"address":"Pocock house","crossStreet":"Borough","lat":"51.498381","lng":"-0.099932","distance":"223","cc":"GB","country":"United Kingdom"},"categories":[{"id":"4bf58dd8d48988d1a8941735","name":"General College & University","pluralName":"General Colleges & Universities","shortName":"Education","icon":{"prefix":"https:\/\/ss1.4sqi.net\/img\/categories_v2\/education\/other_","suffix":".png"},"primary":"true"}],"verified":"false","restricted":"true","stats":{"checkinsCount":"36","usersCount":"17","tipCount":"0"},"specials":{"count":"0"},"hereNow":{"count":"0"},"referralId":"v-1392478057"},{"id":"4e899fc8823198c1a525fbc4","name":"Tesco Express","contact":{"twitter":"uktesco"},"location":{"address":"44 Borough Rd","lat":"51.498785","lng":"-0.100616","distance":"161","postalCode":"SE1 0AJ","cc":"GB","city":"Borough","state":"Greater London","country":"United Kingdom"},"categories":[{"id":"4bf58dd8d48988d118951735","name":"Grocery Store","pluralName":"Grocery Stores","shortName":"Grocery Store","icon":{"prefix":"https:\/\/ss1.4sqi.net\/img\/categories_v2\/shops\/food_grocery_","suffix":".png"},"primary":"true"}],"verified":"false","restricted":"true","stats":{"checkinsCount":"273","usersCount":"103","tipCount":"1"},"url":"http:\/\/www.tesco.com","specials":{"count":"0"},"hereNow":{"count":"0"},"referralId":"v-1392478057"},{"id":"4c10cf7ff1b6a59349667c27","name":"Chillies Tandoori","contact":{"phone":"+442076201444","formattedPhone":"+44 20 7620 1444"},"location":{"address":"7B-7C St Georges Circus","crossStreet":"London Rd. x Lambeth Rd.","lat":"51.4983509653836","lng":"-0.10475635528564453","distance":"170","postalCode":"SE1 6HS","cc":"GB","city":"Borough","state":"Greater London","country":"United Kingdom"},"categories":[{"id":"4bf58dd8d48988d10f941735","name":"Indian Restaurant","pluralName":"Indian Restaurants","shortName":"Indian","icon":{"prefix":"https:\/\/ss1.4sqi.net\/img\/categories_v2\/food\/indian_","suffix":".png"},"primary":"true"}],"verified":"false","restricted":"true","stats":{"checkinsCount":"113","usersCount":"35","tipCount":"2"},"menu":{"type":"Menu","label":"Menu","anchor":"View Menu","url":"https:\/\/foursquare.com\/v\/chillies-tandoori\/4c10cf7ff1b6a59349667c27\/menu","mobileUrl":"https:\/\/foursquare.com\/v\/4c10cf7ff1b6a59349667c27\/device_menu"},"specials":{"count":"0"},"hereNow":{"count":"0"},"referralId":"v-1392478057"},{"id":"4e6cf612b61c739ba8c77a10","name":"LHA Friendship House","location":{"address":"3 Belvedere Place","lat":"51.499459682355","lng":"-0.10106563568115234","distance":"121","postalCode":"SE1 0AD","cc":"GB","city":"Southwark","state":"Greater London","country":"United Kingdom"},"categories":[{"id":"4bf58dd8d48988d1ee931735","name":"Hostel","pluralName":"Hostels","shortName":"Hostel","icon":{"prefix":"https:\/\/ss1.4sqi.net\/img\/categories_v2\/travel\/hostel_","suffix":".png"},"primary":"true"}],"verified":"false","restricted":"true","stats":{"checkinsCount":"191","usersCount":"27","tipCount":"1"},"specials":{"count":"0"},"hereNow":{"count":"0"},"referralId":"v-1392478057"},{"id":"4d5e85ac338bb60c6d8610bd","name":"Pocock House","contact":{"phone":"+442078157815","formattedPhone":"+44 20 7815 7815","twitter":"lsbu"},"location":{"address":"London South Bank University","crossStreet":"Borough Rd","lat":"51.498376","lng":"-0.099844","distance":"228","postalCode":"SE1 OAA","cc":"GB","city":"London","state":"Greater London","country":"United Kingdom"},"categories":[{"id":"4bf58dd8d48988d197941735","name":"College Administrative Building","pluralName":"College Administrative Buildings","shortName":"Administrative Building","icon":{"prefix":"https:\/\/ss1.4sqi.net\/img\/categories_v2\/education\/administrativebuilding_","suffix":".png"},"primary":"true"}],"verified":"false","restricted":"true","stats":{"checkinsCount":"91","usersCount":"35","tipCount":"1"},"specials":{"count":"0"},"hereNow":{"count":"0"},"referralId":"v-1392478057"},{"id":"52f3d545498e11d35b34347b","name":"Clarence Centre for Enterprise and Innovation","contact":{"twitter":"lsbu"},"location":{"address":"1 St George's Circus","lat":"51.49847786809055","lng":"-0.10419845581054688","distance":"132","postalCode":"SE1 0AP","cc":"GB","city":"Borough","state":"Greater London","country":"United Kingdom"},"categories":[{"id":"4bf58dd8d48988d174941735","name":"Coworking Space","pluralName":"Coworking Spaces","shortName":"Coworking Space","icon":{"prefix":"https:\/\/ss1.4sqi.net\/img\/categories_v2\/building\/office_coworkingspace_","suffix":".png"},"primary":"true"}],"verified":"false","restricted":"true","stats":{"checkinsCount":"1","usersCount":"1","tipCount":"0"},"specials":{"count":"0"},"hereNow":{"count":"0"},"referralId":"v-1392478057"},{"id":"4bc3294d4cdfc9b662ea9621","name":"Albert Arms","contact":{"phone":"+442070210792","formattedPhone":"+44 20 7021 0792"},"location":{"address":"1 Gladstone St.","lat":"51.497493","lng":"-0.103656","distance":"208","postalCode":"SE1 6EY","cc":"GB","city":"Elephant & Castle","state":"Greater London","country":"United Kingdom"},"categories":[{"id":"4bf58dd8d48988d11b941735","name":"Pub","pluralName":"Pubs","shortName":"Pub","icon":{"prefix":"https:\/\/ss1.4sqi.net\/img\/categories_v2\/nightlife\/pub_","suffix":".png"},"primary":"true"}],"verified":"false","restricted":"true","stats":{"checkinsCount":"95","usersCount":"67","tipCount":"1"},"url":"http:\/\/www.brakspear.co.uk","menu":{"type":"Menu","label":"Menu","anchor":"View Menu","url":"https:\/\/foursquare.com\/v\/albert-arms\/4bc3294d4cdfc9b662ea9621\/menu","mobileUrl":"https:\/\/foursquare.com\/v\/4bc3294d4cdfc9b662ea9621\/device_menu"},"specials":{"count":"0"},"hereNow":{"count":"0"},"referralId":"v-1392478057"},{"id":"4f37bd084fc64328d5fe5ba9","name":"Colorama Cinema","location":{"address":"52-56 Lancaster St","lat":"51.49961997655303","lng":"-0.10247111320495605","distance":"43","postalCode":"SE1","cc":"GB","city":"London","state":"Greater London","country":"United Kingdom"},"categories":[{"id":"4bf58dd8d48988d17e941735","name":"Indie Movie Theater","pluralName":"Indie Movie Theaters","shortName":"Indie Theater","icon":{"prefix":"https:\/\/ss1.4sqi.net\/img\/categories_v2\/arts_entertainment\/movietheater_indietheater_","suffix":".png"},"primary":"true"}],"verified":"false","restricted":"true","stats":{"checkinsCount":"0","usersCount":"0","tipCount":"0"},"specials":{"count":"0"},"hereNow":{"count":"0"},"referralId":"v-1392478057"},{"id":"51d6b566498ef7bd0b74b98e","name":"Grads Cafe","location":{"address":"London South Bank University","lat":"51.498414171755414","lng":"-0.10110044086429698","distance":"152","postalCode":"SE1 0AA","cc":"GB","city":"Borough","state":"Greater London","country":"United Kingdom"},"categories":[{"id":"4bf58dd8d48988d1a1941735","name":"College Cafeteria","pluralName":"College Cafeterias","shortName":"Cafeteria","icon":{"prefix":"https:\/\/ss1.4sqi.net\/img\/categories_v2\/education\/cafeteria_","suffix":".png"},"primary":"true"}],"verified":"false","restricted":"true","stats":{"checkinsCount":"14","usersCount":"4","tipCount":"0"},"specials":{"count":"0"},"hereNow":{"count":"0"},"referralId":"v-1392478057"},{"id":"4bf2ebfe706e20a19fa4a798","name":"Subway","contact":{"phone":"+442074018822","formattedPhone":"+44 20 7401 8822","twitter":"subwayukireland"},"location":{"address":"7A St George's Circus","crossStreet":"At London Rd.","lat":"51.498857382842644","lng":"-0.10486468358070487","distance":"150","postalCode":"SE1 6HS","cc":"GB","city":"Southwark","state":"Greater London","country":"United Kingdom"},"categories":[{"id":"4bf58dd8d48988d1c5941735","name":"Sandwich Place","pluralName":"Sandwich Places","shortName":"Sandwiches","icon":{"prefix":"https:\/\/ss1.4sqi.net\/img\/categories_v2\/food\/sandwiches_","suffix":".png"},"primary":"true"}],"verified":"true","restricted":"true","stats":{"checkinsCount":"112","usersCount":"70","tipCount":"3"},"url":"http:\/\/www.subway.co.uk","specials":{"count":"0"},"hereNow":{"count":"0"},"storeId":"42224-1","referralId":"v-1392478057"},{"id":"4c47407276d72d7f1c903c4d","name":"Castle Fish Bar","contact":{"phone":"+442079282802","formattedPhone":"+44 20 7928 2802"},"location":{"address":"11 London Rd.","lat":"51.49779088090746","lng":"-0.10369660187452619","distance":"177","postalCode":"SE1 6JZ","cc":"GB","city":"Borough","state":"Greater London","country":"United Kingdom"},"categories":[{"id":"4edd64a0c7ddd24ca188df1a","name":"Fish & Chips Shop","pluralName":"Fish & Chips Shops","shortName":"Fish & Chips","icon":{"prefix":"https:\/\/ss1.4sqi.net\/img\/categories_v2\/food\/fishandchips_","suffix":".png"},"primary":"true"}],"verified":"false","restricted":"true","stats":{"checkinsCount":"58","usersCount":"23","tipCount":"1"},"specials":{"count":"0"},"hereNow":{"count":"0"},"referralId":"v-1392478057"}],"confident":"false"}}