{"meta":{"code":"200"},"response":{"venues":[{"id":"4d4c5112190ba093db871fa5","name":"TfL Bus 12","contact":{"twitter":"tflbusalerts"},"location":{"address":"Moving Target!","lat":"51.4824519372339","lng":"-0.09346961975097656","distance":"355","cc":"GB","city":"London","state":"Greater London","country":"United Kingdom"},"categories":[{"id":"4bf58dd8d48988d12b951735","name":"Bus Line","pluralName":"Bus Lines","shortName":"Bus","icon":{"prefix":"https:\/\/ss1.4sqi.net\/img\/categories_v2\/travel\/busstation_","suffix":".png"},"primary":"true"}],"verified":"false","restricted":"true","stats":{"checkinsCount":"692","usersCount":"192","tipCount":"6"},"url":"http:\/\/tfl.gov.uk","specials":{"count":"0"},"hereNow":{"count":"0"},"referralId":"v-1392478110"},{"id":"4b8d2e2cf964a520dceb32e3","name":"St Giles Church","location":{"address":"Camberwell Rd","crossStreet":"Dagmar Rd","lat":"51.479665103340295","lng":"-0.09182088717340842","distance":"79","cc":"GB","city":"Camberwell","state":"Greater London","country":"United Kingdom"},"categories":[{"id":"4bf58dd8d48988d132941735","name":"Church","pluralName":"Churches","shortName":"Church","icon":{"prefix":"https:\/\/ss1.4sqi.net\/img\/categories_v2\/building\/religious_church_","suffix":".png"},"primary":"true"}],"verified":"false","restricted":"true","stats":{"checkinsCount":"58","usersCount":"36","tipCount":"1"},"specials":{"count":"0"},"hereNow":{"count":"0"},"referralId":"v-1392478110"},{"id":"4c0e3f8d2466a59375b17821","name":"Cambridge House","location":{"address":"1 Addington Square","crossStreet":"Camberwell Rd","lat":"51.480804577089","lng":"-0.09408770659358263","distance":"190","postalCode":"SE5 0HF","cc":"GB","city":"London","state":"Greater London","country":"United Kingdom"},"categories":[{"id":"4bf58dd8d48988d171941735","name":"Event Space","pluralName":"Event Spaces","shortName":"Event Space","icon":{"prefix":"https:\/\/ss1.4sqi.net\/img\/categories_v2\/building\/eventspace_","suffix":".png"},"primary":"true"}],"verified":"true","restricted":"true","stats":{"checkinsCount":"78","usersCount":"15","tipCount":"1"},"specials":{"count":"0"},"hereNow":{"count":"0"},"venuePage":{"id":"61585271"},"referralId":"v-1392478110"},{"id":"4c6f328bf52cb7139bf4a7af","name":"Kyrgyz Kazakh House","contact":{"phone":"+442072772228","formattedPhone":"+44 20 7277 2228","twitter":"kyrgyzkazakh"},"location":{"address":"158 Camberwell Rd.","lat":"51.479405103940444","lng":"-0.0945425033569336","distance":"121","postalCode":"SE5 0UR","cc":"GB","city":"Camberwell","state":"Greater London","country":"United Kingdom"},"categories":[{"id":"4f04af1f2fb6e1c99f3db0bb","name":"Turkish Restaurant","pluralName":"Turkish Restaurants","shortName":"Turkish","icon":{"prefix":"https:\/\/ss1.4sqi.net\/img\/categories_v2\/food\/turkish_","suffix":".png"},"primary":"true"}],"verified":"false","restricted":"true","stats":{"checkinsCount":"64","usersCount":"51","tipCount":"3"},"url":"http:\/\/www.pasharestaurants.co.uk","menu":{"type":"Menu","label":"Menu","anchor":"View Menu","url":"https:\/\/foursquare.com\/v\/kyrgyz-kazakh-house\/4c6f328bf52cb7139bf4a7af\/menu","mobileUrl":"https:\/\/foursquare.com\/v\/4c6f328bf52cb7139bf4a7af\/device_menu"},"specials":{"count":"0"},"hereNow":{"count":"0"},"referralId":"v-1392478110"},{"id":"4bd77db1304fce72c5a133ab","name":"Pasha Hotel","contact":{"phone":"+442072772228","formattedPhone":"+44 20 7277 2228"},"location":{"address":"158 Camberwell Rd.","lat":"51.47953147577056","lng":"-0.09438468680675882","distance":"112","postalCode":"SE5 0EE","cc":"GB","city":"Camberwell","state":"Greater London","country":"United Kingdom"},"categories":[{"id":"4bf58dd8d48988d1fa931735","name":"Hotel","pluralName":"Hotels","shortName":"Hotel","icon":{"prefix":"https:\/\/ss1.4sqi.net\/img\/categories_v2\/travel\/hotel_","suffix":".png"},"primary":"true"}],"verified":"false","restricted":"true","stats":{"checkinsCount":"100","usersCount":"71","tipCount":"3"},"url":"http:\/\/www.hotelpasha.com","specials":{"count":"0"},"hereNow":{"count":"0"},"referralId":"v-1392478110"},{"id":"514ca09be4b006ca33ebf4dd","name":"Beautiquette Boutique","contact":{"phone":"+442077039199","formattedPhone":"+44 20 7703 9199"},"location":{"address":"9 New Church Road","crossStreet":"Camberwell","lat":"51.4791116996651","lng":"-0.09351617810049635","distance":"53","postalCode":"Se5 7jh","cc":"GB","city":"London","state":"Greater London","country":"United Kingdom"},"categories":[{"id":"4bf58dd8d48988d110951735","name":"Salon \/ Barbershop","pluralName":"Salons \/ Barbershops","shortName":"Salon \/ Barbershop","icon":{"prefix":"https:\/\/ss1.4sqi.net\/img\/categories_v2\/shops\/salon_barber_","suffix":".png"},"primary":"true"}],"verified":"false","restricted":"true","stats":{"checkinsCount":"1","usersCount":"1","tipCount":"1"},"specials":{"count":"0"},"hereNow":{"count":"0"},"referralId":"v-1392478110"},{"id":"5135f7c290e73cd35d909b4c","name":"SM Continental Food Store","contact":{"phone":"+442077039197","formattedPhone":"+44 20 7703 9197"},"location":{"address":"15 New Church Road","lat":"51.479505331957604","lng":"-0.09352326393127441","distance":"55","postalCode":"SE5 7JH","cc":"GB","city":"Camberwell","state":"Greater London","country":"United Kingdom"},"categories":[{"id":"4bf58dd8d48988d118951735","name":"Grocery Store","pluralName":"Grocery Stores","shortName":"Grocery Store","icon":{"prefix":"https:\/\/ss1.4sqi.net\/img\/categories_v2\/shops\/food_grocery_","suffix":".png"},"primary":"true"}],"verified":"false","restricted":"true","stats":{"checkinsCount":"3","usersCount":"1","tipCount":"0"},"specials":{"count":"0"},"hereNow":{"count":"0"},"referralId":"v-1392478110"},{"id":"4d73e1b73815f04d8947a167","name":"Iceland","contact":{"phone":"+442077083428","formattedPhone":"+44 20 7708 3428","twitter":"icelandfoods"},"location":{"address":"120\/132 Camberwell Rd.","crossStreet":"near Addington Sq.","lat":"51.48034217024988","lng":"-0.09436832436894832","distance":"159","postalCode":"SE5 0EE","cc":"GB","city":"Camberwell","state":"Greater London","country":"United Kingdom"},"categories":[{"id":"4bf58dd8d48988d118951735","name":"Grocery Store","pluralName":"Grocery Stores","shortName":"Grocery Store","icon":{"prefix":"https:\/\/ss1.4sqi.net\/img\/categories_v2\/shops\/food_grocery_","suffix":".png"},"primary":"true"}],"verified":"false","restricted":"true","stats":{"checkinsCount":"220","usersCount":"39","tipCount":"0"},"url":"http:\/\/www.iceland.co.uk","specials":{"count":"0"},"hereNow":{"count":"0"},"referralId":"v-1392478110"},{"id":"5135fa1390e73cd35d94cdf7","name":"New Pak Hong","contact":{"phone":"+442072771997","formattedPhone":"+44 20 7277 1997"},"location":{"address":"177 Camberwell Road","lat":"51.47960555975449","lng":"-0.09409189224243164","distance":"96","postalCode":"SE5 0HB","cc":"GB","city":"Camberwell","state":"Greater London","country":"United Kingdom"},"categories":[{"id":"4edd64a0c7ddd24ca188df1a","name":"Fish & Chips Shop","pluralName":"Fish & Chips Shops","shortName":"Fish & Chips","icon":{"prefix":"https:\/\/ss1.4sqi.net\/img\/categories_v2\/food\/fishandchips_","suffix":".png"},"primary":"true"}],"verified":"false","restricted":"true","stats":{"checkinsCount":"17","usersCount":"4","tipCount":"0"},"specials":{"count":"0"},"hereNow":{"count":"0"},"referralId":"v-1392478110"},{"id":"500abac5e4b0510620e25b28","name":"Corrib Bar","location":{"lat":"51.47948455810547","lng":"-0.09413480758666992","distance":"94","cc":"GB","country":"United Kingdom"},"categories":[{"id":"4bf58dd8d48988d11b941735","name":"Pub","pluralName":"Pubs","shortName":"Pub","icon":{"prefix":"https:\/\/ss1.4sqi.net\/img\/categories_v2\/nightlife\/pub_","suffix":".png"},"primary":"true"}],"verified":"false","restricted":"true","stats":{"checkinsCount":"6","usersCount":"6","tipCount":"0"},"specials":{"count":"0"},"hereNow":{"count":"0"},"referralId":"v-1392478110"},{"id":"4e999b86e5fa393c4e5b0c15","name":"Harvey and thompson","location":{"lat":"51.479055033835394","lng":"-0.09415696172321117","distance":"97","cc":"GB","country":"United Kingdom"},"categories":[{"id":"4bf58dd8d48988d111951735","name":"Jewelry Store","pluralName":"Jewelry Stores","shortName":"Jewelry","icon":{"prefix":"https:\/\/ss1.4sqi.net\/img\/categories_v2\/shops\/jewelry_","suffix":".png"},"primary":"true"}],"verified":"false","restricted":"true","stats":{"checkinsCount":"6","usersCount":"3","tipCount":"0"},"specials":{"count":"0"},"hereNow":{"count":"0"},"referralId":"v-1392478110"},{"id":"4ea05458dab4b59126b1029e","name":"Medlar Street Bus Stop","location":{"lat":"51.47799286502145","lng":"-0.09402250256869306","distance":"167","cc":"GB","city":"Camberwell","state":"Greater London","country":"United Kingdom"},"categories":[{"id":"4bf58dd8d48988d1fe931735","name":"Bus Station","pluralName":"Bus Stations","shortName":"Bus Station","icon":{"prefix":"https:\/\/ss1.4sqi.net\/img\/categories_v2\/travel\/busstation_","suffix":".png"},"primary":"true"}],"verified":"false","restricted":"true","stats":{"checkinsCount":"68","usersCount":"28","tipCount":"0"},"specials":{"count":"0"},"hereNow":{"count":"0"},"referralId":"v-1392478110"},{"id":"52198f2e11d27fbce5e3fcee","name":"Big Mamma's Jerk Centre","location":{"lat":"51.479336","lng":"-0.094325","distance":"105","cc":"GB","country":"United Kingdom"},"categories":[{"id":"4bf58dd8d48988d144941735","name":"Caribbean Restaurant","pluralName":"Caribbean Restaurants","shortName":"Caribbean","icon":{"prefix":"https:\/\/ss1.4sqi.net\/img\/categories_v2\/food\/caribbean_","suffix":".png"},"primary":"true"}],"verified":"false","restricted":"true","stats":{"checkinsCount":"3","usersCount":"3","tipCount":"0"},"specials":{"count":"0"},"hereNow":{"count":"0"},"referralId":"v-1392478110"},{"id":"4c6e7a4a4d24b60cdbb2d8d8","name":"Castlemead","location":{"address":"232 Camberwell Road","lat":"51.47908540195881","lng":"-0.09432478784995227","distance":"107","cc":"GB","city":"Camberwell","state":"Greater London","country":"United Kingdom"},"categories":[{"id":"4bf58dd8d48988d12a941735","name":"Capitol Building","pluralName":"Capitol Buildings","shortName":"Capitol Building","icon":{"prefix":"https:\/\/ss1.4sqi.net\/img\/categories_v2\/building\/government_capitolbuilding_","suffix":".png"},"primary":"true"}],"verified":"false","restricted":"true","stats":{"checkinsCount":"202","usersCount":"20","tipCount":"0"},"specials":{"count":"0"},"hereNow":{"count":"0"},"referralId":"v-1392478110"},{"id":"51e33fc0454a382857bcdd69","name":"Pasha Turkish Bath & Ottoman Hammam","location":{"address":"158 Camberwell Rd","lat":"51.47981937831838","lng":"-0.0941777229309082","distance":"112","cc":"GB","city":"London","state":"Greater London","country":"United Kingdom"},"categories":[{"id":"4bf58dd8d48988d1ed941735","name":"Spa","pluralName":"Spas","shortName":"Spa","icon":{"prefix":"https:\/\/ss1.4sqi.net\/img\/categories_v2\/shops\/spa_","suffix":".png"},"primary":"true"}],"verified":"false","restricted":"true","stats":{"checkinsCount":"2","usersCount":"2","tipCount":"1"},"specials":{"count":"0"},"hereNow":{"count":"0"},"referralId":"v-1392478110"},{"id":"4ef462c18231b0d622b5a8f7","name":"Blush","location":{"address":"Camberwell Rd, London Borough of Southwark, London SE5","lat":"51.48008605283891","lng":"-0.09447231049095475","distance":"145","postalCode":"SE5","cc":"GB","city":"London","state":"Greater London","country":"United Kingdom"},"categories":[{"id":"4bf58dd8d48988d110951735","name":"Salon \/ Barbershop","pluralName":"Salons \/ Barbershops","shortName":"Salon \/ Barbershop","icon":{"prefix":"https:\/\/ss1.4sqi.net\/img\/categories_v2\/shops\/salon_barber_","suffix":".png"},"primary":"true"}],"verified":"false","restricted":"true","stats":{"checkinsCount":"14","usersCount":"3","tipCount":"0"},"specials":{"count":"0"},"hereNow":{"count":"0"},"referralId":"v-1392478110"},{"id":"52f42beb498e801d9f258d60","name":"NBH","location":{"lat":"51.48162","lng":"-0.094822","distance":"294","cc":"GB","country":"United Kingdom"},"categories":[{"id":"4bf58dd8d48988d1fb931735","name":"Motel","pluralName":"Motels","shortName":"Motel","icon":{"prefix":"https:\/\/ss1.4sqi.net\/img\/categories_v2\/travel\/hotel_","suffix":".png"},"primary":"true"}],"verified":"false","restricted":"true","stats":{"checkinsCount":"1","usersCount":"1","tipCount":"0"},"specials":{"count":"0"},"hereNow":{"count":"0"},"referralId":"v-1392478110"},{"id":"4f6ae8fce4b021e5247c0522","name":"Wyndham Road Bus Stop","location":{"lat":"51.47902356952393","lng":"-0.09436901806063167","distance":"112","cc":"GB","country":"United Kingdom"},"categories":[{"id":"4bf58dd8d48988d1fe931735","name":"Bus Station","pluralName":"Bus Stations","shortName":"Bus Station","icon":{"prefix":"https:\/\/ss1.4sqi.net\/img\/categories_v2\/travel\/busstation_","suffix":".png"},"primary":"true"}],"verified":"false","restricted":"true","stats":{"checkinsCount":"40","usersCount":"8","tipCount":"0"},"specials":{"count":"0"},"hereNow":{"count":"0"},"referralId":"v-1392478110"},{"id":"4ce3b29331292c0f57b4beb6","name":"Camberwell Islamic Centre","location":{"address":"188 Camberwell Road","lat":"51.47873022955709","lng":"-0.09444594383239746","distance":"129","postalCode":"SE5 0ED","cc":"GB","city":"Camberwell","state":"Greater London","country":"United Kingdom"},"categories":[{"id":"4bf58dd8d48988d138941735","name":"Mosque","pluralName":"Mosques","shortName":"Mosque","icon":{"prefix":"https:\/\/ss1.4sqi.net\/img\/categories_v2\/building\/religious_mosque_","suffix":".png"},"primary":"true"}],"verified":"false","restricted":"true","stats":{"checkinsCount":"4","usersCount":"4","tipCount":"0"},"specials":{"count":"0"},"hereNow":{"count":"0"},"referralId":"v-1392478110"},{"id":"4f64b6ede4b03c270a07cbcc","name":"Edwardes Bike","location":{"address":"221-225 Camberwell Road","lat":"51.477397787233066","lng":"-0.09384996441095098","distance":"222","postalCode":"SE5 0HG","cc":"GB","city":"London","state":"Greater London","country":"United Kingdom"},"categories":[{"id":"4bf58dd8d48988d115951735","name":"Bike Shop","pluralName":"Bike Shops","shortName":"Bike shop","icon":{"prefix":"https:\/\/ss1.4sqi.net\/img\/categories_v2\/shops\/bikeshop_","suffix":".png"},"primary":"true"}],"verified":"false","restricted":"true","stats":{"checkinsCount":"35","usersCount":"21","tipCount":"0"},"specials":{"count":"0"},"hereNow":{"count":"0"},"referralId":"v-1392478110"},{"id":"4eae87657ee59f1609625cbb","name":"Tennessee Fried Chicken","location":{"address":"Wyndham Rd","lat":"51.47846503830571","lng":"-0.09389465158356493","distance":"118","postalCode":"SE5 0","cc":"GB","city":"Camberwell","state":"Greater London","country":"United Kingdom"},"categories":[{"id":"4d4ae6fc7a7b7dea34424761","name":"Fried Chicken Joint","pluralName":"Fried Chicken Joints","shortName":"Fried Chicken","icon":{"prefix":"https:\/\/ss1.4sqi.net\/img\/categories_v2\/food\/friedchicken_","suffix":".png"},"primary":"true"}],"verified":"false","restricted":"true","stats":{"checkinsCount":"16","usersCount":"10","tipCount":"0"},"specials":{"count":"0"},"hereNow":{"count":"0"},"referralId":"v-1392478110"},{"id":"4c1fce8db306c9281bff68b7","name":"Canaan","location":{"address":"163 Camberwell Rod","lat":"51.479870378425545","lng":"-0.09430967319663085","distance":"122","postalCode":"SE5","cc":"GB","city":"Camberwell","state":"Greater London","country":"United Kingdom"},"verified":"false","restricted":"true","stats":{"checkinsCount":"9","usersCount":"8","tipCount":"0"},"specials":{"count":"0"},"hereNow":{"count":"0"},"referralId":"v-1392478110"},{"id":"521f4eab11d2075e0a119b5b","name":"The Fawcett Society","location":{"address":"Cambridge House","lat":"51.480934","lng":"-0.093988","distance":"200","cc":"GB","country":"United Kingdom"},"categories":[{"id":"50328a8e91d4c4b30a586d6c","name":"Non-Profit","pluralName":"Non-Profits","shortName":"Non-Profit","icon":{"prefix":"https:\/\/ss1.4sqi.net\/img\/categories_v2\/building\/default_","suffix":".png"},"primary":"true"}],"verified":"false","restricted":"true","stats":{"checkinsCount":"4","usersCount":"2","tipCount":"0"},"specials":{"count":"0"},"hereNow":{"count":"0"},"referralId":"v-1392478110"},{"id":"4db91f794df0ded98bcb5f33","name":"Jap & German Motorcycles","location":{"address":"182 Druid Street","lat":"51.47992408949239","lng":"-0.09126073629013802","distance":"128","postalCode":"SE1 2","cc":"GB","city":"Bermondsey","state":"Greater London","country":"United Kingdom"},"categories":[{"id":"4bf58dd8d48988d130941735","name":"Building","pluralName":"Buildings","shortName":"Building","icon":{"prefix":"https:\/\/ss1.4sqi.net\/img\/categories_v2\/building\/default_","suffix":".png"},"primary":"true"}],"verified":"false","restricted":"true","stats":{"checkinsCount":"4","usersCount":"3","tipCount":"0"},"specials":{"count":"0"},"hereNow":{"count":"0"},"referralId":"v-1392478110"},{"id":"5082d329e4b07dd17bfde433","name":"Dog Kennel Hill","location":{"address":"Dog Kennel Hill","crossStreet":"Dog Kennel Hill","lat":"51.47824925965941","lng":"-0.09381722300221847","distance":"135","cc":"GB","city":"London","state":"Greater London","country":"United Kingdom"},"categories":[{"id":"4f2a210c4b9023bd5841ed28","name":"Housing Development","pluralName":"Housing Developments","shortName":"Housing Development","icon":{"prefix":"https:\/\/ss1.4sqi.net\/img\/categories_v2\/building\/housingdevelopment_","suffix":".png"},"primary":"true"}],"verified":"false","restricted":"true","stats":{"checkinsCount":"2","usersCount":"2","tipCount":"0"},"specials":{"count":"0"},"hereNow":{"count":"0"},"referralId":"v-1392478110"},{"id":"4c75096c08dcef3b33151bcf","name":"Blue Inc Clothing","contact":{"phone":"+442077082340","formattedPhone":"+44 20 7708 2340","twitter":"blueinc"},"location":{"address":"Elephant & Castle, 293 Walworth Road","lat":"51.47838771343231","lng":"-0.09420990943908691","distance":"139","cc":"GB","city":"London","country":"United Kingdom"},"verified":"true","restricted":"true","stats":{"checkinsCount":"2","usersCount":"2","tipCount":"0"},"specials":{"count":"0"},"hereNow":{"count":"0"},"referralId":"v-1392478110"},{"id":"4d99728497d06ea897794a0b","name":"Bowyer Place Bus Stop","location":{"address":"173-175 Camberwell Rd","lat":"51.47974210671748","lng":"-0.09427486792877135","distance":"113","postalCode":"SE5 0","cc":"GB","city":"Camberwell","state":"Greater London","country":"United Kingdom"},"categories":[{"id":"4bf58dd8d48988d12b951735","name":"Bus Line","pluralName":"Bus Lines","shortName":"Bus","icon":{"prefix":"https:\/\/ss1.4sqi.net\/img\/categories_v2\/travel\/busstation_","suffix":".png"},"primary":"true"}],"verified":"false","restricted":"true","stats":{"checkinsCount":"607","usersCount":"47","tipCount":"0"},"specials":{"count":"0"},"hereNow":{"count":"0"},"referralId":"v-1392478110"},{"id":"51aa077c498ed02962f0a978","name":"Burgess Park Tennis Courts","location":{"lat":"51.481519116823826","lng":"-0.09201106044557503","distance":"254","cc":"GB","country":"United Kingdom"},"categories":[{"id":"4f4528bc4b90abdf24c9de85","name":"Athletics & Sports","pluralName":"Athletics & Sports","shortName":"Athletics & Sports","icon":{"prefix":"https:\/\/ss1.4sqi.net\/img\/categories_v2\/shops\/sports_outdoors_","suffix":".png"},"primary":"true"}],"verified":"false","restricted":"true","stats":{"checkinsCount":"7","usersCount":"5","tipCount":"0"},"specials":{"count":"0"},"hereNow":{"count":"0"},"referralId":"v-1392478110"},{"id":"4d510a4c529dcbff1b5ddcc4","name":"Scoopt","contact":{"phone":"+447785113763","formattedPhone":"+44 7785 113763","twitter":"scooptapp"},"location":{"address":"1 Kitson Road","lat":"51.480664","lng":"-0.09307","distance":"154","postalCode":"SE5 7LF","cc":"GB","city":"London","state":"Greater London","country":"United Kingdom"},"verified":"true","restricted":"true","stats":{"checkinsCount":"20","usersCount":"4","tipCount":"2"},"url":"http:\/\/scoopt.com","specials":{"count":"0"},"hereNow":{"count":"0"},"venuePage":{"id":"34740428"},"storeId":"","referralId":"v-1392478110"},{"id":"4fc617bbe4b0b0e32c9d2e62","name":"Tony's Cafe","location":{"lat":"51.47861","lng":"-0.094746","distance":"154","cc":"GB","country":"United Kingdom"},"categories":[{"id":"4bf58dd8d48988d16d941735","name":"Caf\u00e9","pluralName":"Caf\u00e9s","shortName":"Caf\u00e9","icon":{"prefix":"https:\/\/ss1.4sqi.net\/img\/categories_v2\/food\/cafe_","suffix":".png"},"primary":"true"}],"verified":"false","restricted":"true","stats":{"checkinsCount":"2","usersCount":"2","tipCount":"1"},"specials":{"count":"0"},"hereNow":{"count":"0"},"referralId":"v-1392478110"}],"confident":"true"}}