{"meta":{"code":"200"},"response":{"venues":[{"id":"4c8739c59c808cfa11c6121e","name":"Elephant & Castle Railway Station (EPH)","contact":{"phone":"+448457484950","formattedPhone":"+44 845 748 4950","twitter":"nationalrailenq","facebook":"94740547473"},"location":{"address":"Elephant Rd","lat":"51.493969265745775","lng":"-0.0987321138381958","distance":"73","postalCode":"SE17 1LB","cc":"GB","city":"Southwark","state":"Greater London","country":"United Kingdom"},"categories":[{"id":"4bf58dd8d48988d129951735","name":"Train Station","pluralName":"Train Stations","shortName":"Train Station","icon":{"prefix":"https:\/\/ss1.4sqi.net\/img\/categories_v2\/travel\/trainstation_","suffix":".png"},"primary":"true"}],"verified":"true","restricted":"true","stats":{"checkinsCount":"4783","usersCount":"1499","tipCount":"15"},"url":"http:\/\/www.nationalrail.co.uk\/stations\/eph\/details.html","specials":{"count":"0"},"hereNow":{"count":"0"},"storeId":"EPH","referralId":"v-1392478071"},{"id":"4b705da1f964a5208b152de3","name":"Elephant & Castle Shopping Centre","contact":{"phone":"+442077035678","formattedPhone":"+44 20 7703 5678"},"location":{"address":"Elephant & Castle","crossStreet":"at New Kent Rd.","lat":"51.49445020457691","lng":"-0.09982109069824219","distance":"141","postalCode":"SE1 6TE","cc":"GB","city":"Elephant & Castle","state":"Greater London","country":"United Kingdom"},"categories":[{"id":"4bf58dd8d48988d1fd941735","name":"Mall","pluralName":"Malls","shortName":"Mall","icon":{"prefix":"https:\/\/ss1.4sqi.net\/img\/categories_v2\/shops\/mall_","suffix":".png"},"primary":"true"}],"verified":"false","restricted":"true","stats":{"checkinsCount":"3006","usersCount":"1276","tipCount":"19"},"specials":{"count":"0"},"hereNow":{"count":"0"},"referralId":"v-1392478071"},{"id":"4ac518cbf964a520c4a520e3","name":"Coronet Theatre","contact":{"phone":"+442077011500","formattedPhone":"+44 20 7701 1500"},"location":{"address":"28 New Kent Rd.","lat":"51.49488011711522","lng":"-0.09897031404302152","distance":"104","postalCode":"SE1 6TJ","cc":"GB","city":"London","state":"Greater London","country":"United Kingdom"},"categories":[{"id":"4bf58dd8d48988d11f941735","name":"Nightclub","pluralName":"Nightclubs","shortName":"Nightclub","icon":{"prefix":"https:\/\/ss1.4sqi.net\/img\/categories_v2\/nightlife\/nightclub_","suffix":".png"},"primary":"true"}],"verified":"false","restricted":"true","stats":{"checkinsCount":"1166","usersCount":"908","tipCount":"8"},"url":"http:\/\/coronettheatre.co.uk\u200e","specials":{"count":"0"},"hereNow":{"count":"1","groups":[{"type":"others","name":"Other people here","count":"1"}]},"referralId":"v-1392478071"},{"id":"4b7061e2f964a520d4162de3","name":"La Bodeguita Restaurant","contact":{"phone":"+442077019166","formattedPhone":"+44 20 7701 9166"},"location":{"address":"Elephant and Castle Shopping Centre","lat":"51.493835670725524","lng":"-0.09973526000976562","distance":"143","postalCode":"SE1 6TE","cc":"GB","city":"Elephant & Castle","state":"Greater London","country":"United Kingdom"},"categories":[{"id":"4bf58dd8d48988d1cd941735","name":"South American Restaurant","pluralName":"South American Restaurants","shortName":"South American","icon":{"prefix":"https:\/\/ss1.4sqi.net\/img\/categories_v2\/food\/default_","suffix":".png"},"primary":"true"}],"verified":"false","restricted":"true","stats":{"checkinsCount":"305","usersCount":"211","tipCount":"11"},"menu":{"type":"Menu","label":"Menu","anchor":"View Menu","url":"https:\/\/foursquare.com\/v\/la-bodeguita-restaurant\/4b7061e2f964a520d4162de3\/menu","mobileUrl":"https:\/\/foursquare.com\/v\/4b7061e2f964a520d4162de3\/device_menu"},"specials":{"count":"0"},"hereNow":{"count":"3","groups":[{"type":"others","name":"Other people here","count":"3"}]},"referralId":"v-1392478071"},{"id":"4ac518ebf964a52037ac20e3","name":"Corsica Studios","contact":{"phone":"+442077034760","formattedPhone":"+44 20 7703 4760"},"location":{"address":"4\/5 Elephant Rd.","lat":"51.49351504107947","lng":"-0.09896278381347656","distance":"117","postalCode":"SE17 1LB","cc":"GB","city":"London","state":"Greater London","country":"United Kingdom"},"categories":[{"id":"4bf58dd8d48988d11f941735","name":"Nightclub","pluralName":"Nightclubs","shortName":"Nightclub","icon":{"prefix":"https:\/\/ss1.4sqi.net\/img\/categories_v2\/nightlife\/nightclub_","suffix":".png"},"primary":"true"}],"verified":"true","restricted":"true","stats":{"checkinsCount":"956","usersCount":"650","tipCount":"16"},"url":"http:\/\/www.corsicastudios.com","menu":{"type":"Menu","label":"Menu","anchor":"View Menu","url":"https:\/\/foursquare.com\/v\/corsica-studios\/4ac518ebf964a52037ac20e3\/menu","mobileUrl":"https:\/\/foursquare.com\/v\/4ac518ebf964a52037ac20e3\/device_menu"},"specials":{"count":"0"},"hereNow":{"count":"0"},"venuePage":{"id":"69805020"},"referralId":"v-1392478071"},{"id":"4b745da9f964a520f2d72de3","name":"Mamu\u015bka!","contact":{"phone":"+442036021898","formattedPhone":"+44 20 3602 1898","twitter":"mamuska_net","facebook":"121312154590773"},"location":{"address":"Elephant and Castle Shopping Centre","lat":"51.49406278202701","lng":"-0.09997129440307617","distance":"152","postalCode":"SE1 6TE","cc":"GB","city":"London","state":"Greater London","country":"United Kingdom"},"categories":[{"id":"4bf58dd8d48988d109941735","name":"Eastern European Restaurant","pluralName":"Eastern European Restaurants","shortName":"Eastern European","icon":{"prefix":"https:\/\/ss1.4sqi.net\/img\/categories_v2\/food\/default_","suffix":".png"},"primary":"true"}],"verified":"true","restricted":"true","stats":{"checkinsCount":"802","usersCount":"396","tipCount":"25"},"url":"http:\/\/www.mamuska.net","menu":{"type":"Menu","label":"Menu","anchor":"View Menu","url":"https:\/\/foursquare.com\/v\/mamu%C5%9Bka\/4b745da9f964a520f2d72de3\/menu","mobileUrl":"https:\/\/foursquare.com\/v\/4b745da9f964a520f2d72de3\/device_menu"},"specials":{"count":"0"},"hereNow":{"count":"1","groups":[{"type":"others","name":"Other people here","count":"1"}]},"venuePage":{"id":"49535880"},"storeId":"1","referralId":"v-1392478071"},{"id":"4b7010b4f964a520a7052de3","name":"Tesco Metro","contact":{"phone":"+448456779251","formattedPhone":"+44 845 677 9251","twitter":"uktescooffers"},"location":{"address":"Elephant & Castle Shopping Centre","lat":"51.49449028258378","lng":"-0.09958505630493164","distance":"125","postalCode":"SE1 6TB","cc":"GB","city":"London","state":"Greater London","country":"United Kingdom"},"categories":[{"id":"4bf58dd8d48988d118951735","name":"Grocery Store","pluralName":"Grocery Stores","shortName":"Grocery Store","icon":{"prefix":"https:\/\/ss1.4sqi.net\/img\/categories_v2\/shops\/food_grocery_","suffix":".png"},"primary":"true"}],"verified":"true","restricted":"true","stats":{"checkinsCount":"958","usersCount":"256","tipCount":"7"},"url":"http:\/\/www.tesco.com","specials":{"count":"0"},"hereNow":{"count":"0"},"storeId":"2463","referralId":"v-1392478071"},{"id":"4bdaa3c02a3a0f476b95abb6","name":"The Rockingham Arms (Wetherspoon)","contact":{"phone":"+442079400890","formattedPhone":"+44 20 7940 0890"},"location":{"address":"Metro Central Heights","crossStreet":"119 Newington Causeway","lat":"51.49572600383648","lng":"-0.09952068328857422","distance":"199","postalCode":"SE1 6BN","cc":"GB","city":"Elephant & Castle","state":"Greater London","country":"United Kingdom"},"categories":[{"id":"4bf58dd8d48988d11b941735","name":"Pub","pluralName":"Pubs","shortName":"Pub","icon":{"prefix":"https:\/\/ss1.4sqi.net\/img\/categories_v2\/nightlife\/pub_","suffix":".png"},"primary":"true"}],"verified":"true","restricted":"true","stats":{"checkinsCount":"1810","usersCount":"608","tipCount":"9"},"url":"http:\/\/www.jdwetherspoon.co.uk","specials":{"count":"0"},"hereNow":{"count":"0"},"referralId":"v-1392478071"},{"id":"4e9c430f4901d3b0b7a0db40","name":"Quickstop Coffee","location":{"lat":"51.494198","lng":"-0.09869","distance":"62","cc":"GB","city":"Camberwell","state":"Greater London","country":"United Kingdom"},"categories":[{"id":"4bf58dd8d48988d16d941735","name":"Caf\u00e9","pluralName":"Caf\u00e9s","shortName":"Caf\u00e9","icon":{"prefix":"https:\/\/ss1.4sqi.net\/img\/categories_v2\/food\/cafe_","suffix":".png"},"primary":"true"}],"verified":"false","restricted":"true","stats":{"checkinsCount":"5","usersCount":"3","tipCount":"0"},"specials":{"count":"0"},"hereNow":{"count":"0"},"referralId":"v-1392478071"},{"id":"4f54927fe4b063296f4f6899","name":"Bus Stop K - Elephant & Castle New Kent Road","location":{"lat":"51.49489","lng":"-0.098612","distance":"87","cc":"GB","country":"United Kingdom"},"categories":[{"id":"4bf58dd8d48988d12b951735","name":"Bus Line","pluralName":"Bus Lines","shortName":"Bus","icon":{"prefix":"https:\/\/ss1.4sqi.net\/img\/categories_v2\/travel\/busstation_","suffix":".png"},"primary":"true"}],"verified":"false","restricted":"true","stats":{"checkinsCount":"108","usersCount":"26","tipCount":"0"},"specials":{"count":"0"},"hereNow":{"count":"0"},"referralId":"v-1392478071"},{"id":"4da1fd80d686b60c099eb028","name":"Strata SE1","contact":{"phone":"+442077080544","formattedPhone":"+44 20 7708 0544"},"location":{"address":"8 Walworth Rd","lat":"51.49317574534644","lng":"-0.09967651257080931","distance":"179","postalCode":"SE1 6EJ","cc":"GB","city":"Elephant & Castle","state":"Greater London","country":"United Kingdom"},"categories":[{"id":"4d954b06a243a5684965b473","name":"Residential Building (Apartment \/ Condo)","pluralName":"Residential Buildings (Apartments \/ Condos)","shortName":"Residential","icon":{"prefix":"https:\/\/ss1.4sqi.net\/img\/categories_v2\/building\/apartment_","suffix":".png"},"primary":"true"}],"verified":"false","restricted":"true","stats":{"checkinsCount":"2165","usersCount":"276","tipCount":"3"},"url":"http:\/\/www.stratalondon.com","specials":{"count":"0"},"hereNow":{"count":"0"},"referralId":"v-1392478071"},{"id":"526b9a0511d288389a49ecbc","name":"Bus Stop J - Elephant & Castle\/New Kent Road","location":{"lat":"51.495003792446965","lng":"-0.09812272726942486","distance":"82","cc":"GB","country":"United Kingdom"},"categories":[{"id":"4bf58dd8d48988d1fe931735","name":"Bus Station","pluralName":"Bus Stations","shortName":"Bus Station","icon":{"prefix":"https:\/\/ss1.4sqi.net\/img\/categories_v2\/travel\/busstation_","suffix":".png"},"primary":"true"}],"verified":"false","restricted":"true","stats":{"checkinsCount":"19","usersCount":"3","tipCount":"0"},"specials":{"count":"0"},"hereNow":{"count":"0"},"referralId":"v-1392478071"},{"id":"4e4a789652b11cf651b2312e","name":"London School Of Commerce ( HH Branch)","location":{"address":"Elephant & Castle","lat":"51.49475148673702","lng":"-0.0998547289821328","distance":"151","postalCode":"SE1","cc":"GB","city":"London","state":"Greater London","country":"United Kingdom"},"categories":[{"id":"4bf58dd8d48988d1a8941735","name":"General College & University","pluralName":"General Colleges & Universities","shortName":"Education","icon":{"prefix":"https:\/\/ss1.4sqi.net\/img\/categories_v2\/education\/other_","suffix":".png"},"primary":"true"}],"verified":"false","restricted":"true","stats":{"checkinsCount":"252","usersCount":"57","tipCount":"0"},"specials":{"count":"0"},"hereNow":{"count":"0"},"referralId":"v-1392478071"},{"id":"4ce7bb9ef1c6236a544e5bf0","name":"New Kent Road","contact":{"phone":"+442074079174","formattedPhone":"+44 20 7407 9174","twitter":"lsbu"},"location":{"address":"83 New Kent Rd.","lat":"51.49440507904834","lng":"-0.09601773551491233","distance":"124","postalCode":"SE1 6RD","cc":"GB","city":"London","state":"Greater London","country":"United Kingdom"},"categories":[{"id":"4bf58dd8d48988d1a3941735","name":"College Residence Hall","pluralName":"College Residence Halls","shortName":"Residence Hall","icon":{"prefix":"https:\/\/ss1.4sqi.net\/img\/categories_v2\/education\/residencehall_","suffix":".png"},"primary":"true"}],"verified":"false","restricted":"true","stats":{"checkinsCount":"412","usersCount":"102","tipCount":"1"},"specials":{"count":"0"},"hereNow":{"count":"0"},"referralId":"v-1392478071"},{"id":"4bd4ba357b1876b03caf8986","name":"TfL Bus 35","contact":{"phone":"+443432221234","formattedPhone":"+44 343 222 1234","twitter":"tflbusalerts"},"location":{"address":"Moving Target!","lat":"51.49453036055544","lng":"-0.100250244140625","distance":"171","cc":"GB","city":"London","state":"Greater London","country":"United Kingdom"},"categories":[{"id":"4bf58dd8d48988d12b951735","name":"Bus Line","pluralName":"Bus Lines","shortName":"Bus","icon":{"prefix":"https:\/\/ss1.4sqi.net\/img\/categories_v2\/travel\/busstation_","suffix":".png"},"primary":"true"}],"verified":"false","restricted":"true","stats":{"checkinsCount":"750","usersCount":"180","tipCount":"3"},"url":"http:\/\/tfl.gov.uk","specials":{"count":"0"},"hereNow":{"count":"0"},"referralId":"v-1392478071"},{"id":"5214fc8611d23ad2c6e4bcb3","name":"Little Orient","location":{"address":"Elephant and Castle Shopping Centre","lat":"51.494126059701756","lng":"-0.09866466502508069","distance":"62","postalCode":"SE1","cc":"GB","city":"London","state":"Greater London","country":"United Kingdom"},"categories":[{"id":"4bf58dd8d48988d118951735","name":"Grocery Store","pluralName":"Grocery Stores","shortName":"Grocery Store","icon":{"prefix":"https:\/\/ss1.4sqi.net\/img\/categories_v2\/shops\/food_grocery_","suffix":".png"},"primary":"true"}],"verified":"false","restricted":"true","stats":{"checkinsCount":"10","usersCount":"8","tipCount":"1"},"specials":{"count":"0"},"hereNow":{"count":"0"},"referralId":"v-1392478071"},{"id":"4d12a54d032359416d9b557d","name":"Bear bowling @ Elephant and Castle","location":{"address":"Elephant & Castle","lat":"51.49418301696384","lng":"-0.09969234466552734","distance":"131","postalCode":"SE1 6TE","cc":"GB","city":"London","state":"Greater London","country":"United Kingdom"},"categories":[{"id":"4bf58dd8d48988d1e4931735","name":"Bowling Alley","pluralName":"Bowling Alleys","shortName":"Bowling Alley","icon":{"prefix":"https:\/\/ss1.4sqi.net\/img\/categories_v2\/arts_entertainment\/bowling_","suffix":".png"},"primary":"true"}],"verified":"false","restricted":"true","stats":{"checkinsCount":"219","usersCount":"158","tipCount":"2"},"specials":{"count":"0"},"hereNow":{"count":"0"},"referralId":"v-1392478071"},{"id":"4d21e4215c4ca1cd9c44ad3d","name":"Superbowl","contact":{"phone":"+442072526677","formattedPhone":"+44 20 7252 6677"},"location":{"address":"Elephant & Castle Shopping Centre","crossStreet":"Elephant and Castle","lat":"51.49388242902714","lng":"-0.09959042072296143","distance":"131","postalCode":"SE1 6TE","cc":"GB","city":"London","state":"Greater London","country":"United Kingdom"},"categories":[{"id":"4bf58dd8d48988d1e4931735","name":"Bowling Alley","pluralName":"Bowling Alleys","shortName":"Bowling Alley","icon":{"prefix":"https:\/\/ss1.4sqi.net\/img\/categories_v2\/arts_entertainment\/bowling_","suffix":".png"},"primary":"true"}],"verified":"false","restricted":"true","stats":{"checkinsCount":"288","usersCount":"206","tipCount":"4"},"specials":{"count":"0"},"hereNow":{"count":"0"},"referralId":"v-1392478071"},{"id":"4bd5db276f649521a5d36fec","name":"Tai Tip Mein","location":{"lat":"51.493857","lng":"-0.100376","distance":"184","cc":"GB","country":"United Kingdom"},"categories":[{"id":"4bf58dd8d48988d145941735","name":"Chinese Restaurant","pluralName":"Chinese Restaurants","shortName":"Chinese","icon":{"prefix":"https:\/\/ss1.4sqi.net\/img\/categories_v2\/food\/chinese_","suffix":".png"},"primary":"true"}],"verified":"false","restricted":"true","stats":{"checkinsCount":"329","usersCount":"115","tipCount":"8"},"specials":{"count":"0"},"hereNow":{"count":"0"},"referralId":"v-1392478071"},{"id":"4bdc7b182a3a0f47c009b3b6","name":"Charlie Chaplin","contact":{"phone":"+442077036117","formattedPhone":"+44 20 7703 6117"},"location":{"address":"26 New Kent Rd.","lat":"51.49510587241893","lng":"-0.09914413687313814","distance":"130","postalCode":"SE1 6TJ","cc":"GB","city":"Elephant & Castle","state":"Greater London","country":"United Kingdom"},"categories":[{"id":"4bf58dd8d48988d11b941735","name":"Pub","pluralName":"Pubs","shortName":"Pub","icon":{"prefix":"https:\/\/ss1.4sqi.net\/img\/categories_v2\/nightlife\/pub_","suffix":".png"},"primary":"true"}],"verified":"false","restricted":"true","stats":{"checkinsCount":"142","usersCount":"86","tipCount":"4"},"specials":{"count":"0"},"hereNow":{"count":"0"},"referralId":"v-1392478071"},{"id":"4b9e493df964a52061d736e3","name":"Sundial","location":{"address":"Elephant & Castle shopping centre","lat":"51.494087","lng":"-0.099698","distance":"133","postalCode":"SE1 6TB","cc":"GB","city":"Camberwell","state":"Greater London","country":"United Kingdom"},"categories":[{"id":"4bf58dd8d48988d16e941735","name":"Fast Food Restaurant","pluralName":"Fast Food Restaurants","shortName":"Fast Food","icon":{"prefix":"https:\/\/ss1.4sqi.net\/img\/categories_v2\/food\/fastfood_","suffix":".png"},"primary":"true"}],"verified":"false","restricted":"true","stats":{"checkinsCount":"29","usersCount":"18","tipCount":"1"},"specials":{"count":"0"},"hereNow":{"count":"0"},"referralId":"v-1392478071"},{"id":"52c98452498ea9b73741760c","name":"Jenny's Restaurant","location":{"lat":"51.49431228637695","lng":"-0.09892791509628296","distance":"78","cc":"GB","country":"United Kingdom"},"categories":[{"id":"4bf58dd8d48988d147941735","name":"Diner","pluralName":"Diners","shortName":"Diner","icon":{"prefix":"https:\/\/ss1.4sqi.net\/img\/categories_v2\/food\/diner_","suffix":".png"},"primary":"true"}],"verified":"false","restricted":"true","stats":{"checkinsCount":"2","usersCount":"2","tipCount":"0"},"specials":{"count":"0"},"hereNow":{"count":"0"},"referralId":"v-1392478071"},{"id":"4bbc88a2ed7776b0aab73f51","name":"Hannibal House","location":{"address":"Elephant & Castle","lat":"51.49411032736606","lng":"-0.10016746611133576","distance":"165","postalCode":"SE1 6TE","cc":"GB","city":"Elephant & Castle","state":"Greater London","country":"United Kingdom"},"categories":[{"id":"4bf58dd8d48988d130941735","name":"Building","pluralName":"Buildings","shortName":"Building","icon":{"prefix":"https:\/\/ss1.4sqi.net\/img\/categories_v2\/building\/default_","suffix":".png"},"primary":"true"}],"verified":"false","restricted":"true","stats":{"checkinsCount":"324","usersCount":"83","tipCount":"2"},"specials":{"count":"0"},"hereNow":{"count":"0"},"referralId":"v-1392478071"},{"id":"4c0922e77e3fc928f065f182","name":"The Elephant & Castle Pub","contact":{"phone":"+442074031920","formattedPhone":"+44 20 7403 1920"},"location":{"address":"119 Newington Causeway","lat":"51.495599093467625","lng":"-0.09949922561645508","distance":"187","postalCode":"SE1 6BA","cc":"GB","city":"London","state":"Greater London","country":"United Kingdom"},"categories":[{"id":"4bf58dd8d48988d11b941735","name":"Pub","pluralName":"Pubs","shortName":"Pub","icon":{"prefix":"https:\/\/ss1.4sqi.net\/img\/categories_v2\/nightlife\/pub_","suffix":".png"},"primary":"true"}],"verified":"false","restricted":"true","stats":{"checkinsCount":"387","usersCount":"227","tipCount":"3"},"specials":{"count":"0"},"hereNow":{"count":"0"},"referralId":"v-1392478071"},{"id":"515782cbe4b04d6d8f70498e","name":"We Party","location":{"lat":"51.49440339803592","lng":"-0.09839036156231902","distance":"42","cc":"GB","country":"United Kingdom"},"categories":[{"id":"4bf58dd8d48988d11f941735","name":"Nightclub","pluralName":"Nightclubs","shortName":"Nightclub","icon":{"prefix":"https:\/\/ss1.4sqi.net\/img\/categories_v2\/nightlife\/nightclub_","suffix":".png"},"primary":"true"}],"verified":"false","restricted":"true","stats":{"checkinsCount":"10","usersCount":"9","tipCount":"0"},"specials":{"count":"0"},"hereNow":{"count":"0"},"referralId":"v-1392478071"},{"id":"4ca72bb7f47ea143be906721","name":"99p Stores","contact":{"phone":"+442077019375","formattedPhone":"+44 20 7701 9375"},"location":{"address":"Unit 323, Elephant & Castle Shopping Centre","crossStreet":"Elephant & Castle","lat":"51.49500342691592","lng":"-0.09970592230331624","distance":"154","postalCode":"SE1 6TB","cc":"GB","city":"London","state":"Greater London","country":"United Kingdom"},"categories":[{"id":"4d954b0ea243a5684a65b473","name":"Convenience Store","pluralName":"Convenience Stores","shortName":"Convenience Stores","icon":{"prefix":"https:\/\/ss1.4sqi.net\/img\/categories_v2\/shops\/conveniencestore_","suffix":".png"},"primary":"true"}],"verified":"false","restricted":"true","stats":{"checkinsCount":"103","usersCount":"37","tipCount":"1"},"specials":{"count":"0"},"hereNow":{"count":"0"},"referralId":"v-1392478071"},{"id":"50705fc9e4b0c34b4fef5a41","name":"Bus Stop R @ Elephant & Castle Station","location":{"lat":"51.493938","lng":"-0.100371","distance":"182","cc":"GB","country":"United Kingdom"},"categories":[{"id":"4bf58dd8d48988d1fe931735","name":"Bus Station","pluralName":"Bus Stations","shortName":"Bus Station","icon":{"prefix":"https:\/\/ss1.4sqi.net\/img\/categories_v2\/travel\/busstation_","suffix":".png"},"primary":"true"}],"verified":"false","restricted":"true","stats":{"checkinsCount":"24","usersCount":"14","tipCount":"0"},"specials":{"count":"0"},"hereNow":{"count":"0"},"referralId":"v-1392478071"},{"id":"52762731498e60799fc25617","name":"Platform 4","location":{"address":"Elephant & Castle Station","lat":"51.49415690710741","lng":"-0.09859595358610117","distance":"56","cc":"GB","city":"London","state":"Greater London","country":"United Kingdom"},"categories":[{"id":"4f4531504b9074f6e4fb0102","name":"Platform","pluralName":"Platforms","shortName":"Platform","icon":{"prefix":"https:\/\/ss1.4sqi.net\/img\/categories_v2\/travel\/trainstation_","suffix":".png"},"primary":"true"}],"verified":"false","restricted":"true","stats":{"checkinsCount":"3","usersCount":"3","tipCount":"0"},"specials":{"count":"0"},"hereNow":{"count":"0"},"referralId":"v-1392478071"},{"id":"4b8fc239f964a520b56033e3","name":"Cafe Nova","location":{"address":"Elephant & Castle shopping centre","lat":"51.49416965754207","lng":"-0.09961724281311035","distance":"126","cc":"GB","city":"Southwark","state":"Greater London","country":"United Kingdom"},"categories":[{"id":"4bf58dd8d48988d16d941735","name":"Caf\u00e9","pluralName":"Caf\u00e9s","shortName":"Caf\u00e9","icon":{"prefix":"https:\/\/ss1.4sqi.net\/img\/categories_v2\/food\/cafe_","suffix":".png"},"primary":"true"}],"verified":"false","restricted":"true","stats":{"checkinsCount":"55","usersCount":"18","tipCount":"0"},"specials":{"count":"0"},"hereNow":{"count":"0"},"referralId":"v-1392478071"},{"id":"4d569786cff7721e5186b7f5","name":"Heygate Estate","location":{"address":"Heygate Estate","crossStreet":"at Rodney Pl","lat":"51.49324784798508","lng":"-0.0960874557495117","distance":"166","cc":"GB","city":"Walworth","state":"Greater London","country":"United Kingdom"},"categories":[{"id":"4deefb944765f83613cdba6e","name":"Historic Site","pluralName":"Historic Sites","shortName":"Historic Site","icon":{"prefix":"https:\/\/ss1.4sqi.net\/img\/categories_v2\/arts_entertainment\/historicsite_","suffix":".png"},"primary":"true"}],"verified":"false","restricted":"true","stats":{"checkinsCount":"239","usersCount":"72","tipCount":"2"},"specials":{"count":"0"},"hereNow":{"count":"0"},"referralId":"v-1392478071"}],"confident":"true"}}