{"meta":{"code":"200"},"response":{"venues":[{"id":"4ac518bcf964a520a0a220e3","name":"The Troubadour Cafe","contact":{"phone":"+442073701434","formattedPhone":"+44 20 7370 1434"},"location":{"address":"263-265 Old Brompton Rd","lat":"51.48894608977946","lng":"-0.19176484517693196","distance":"81","postalCode":"SW5 9JA","cc":"GB","city":"Earl's Court","state":"Greater London","country":"United Kingdom"},"categories":[{"id":"4bf58dd8d48988d16d941735","name":"Caf\u00e9","pluralName":"Caf\u00e9s","shortName":"Caf\u00e9","icon":{"prefix":"https:\/\/ss1.4sqi.net\/img\/categories_v2\/food\/cafe_","suffix":".png"},"primary":"true"}],"verified":"false","restricted":"true","stats":{"checkinsCount":"2462","usersCount":"1618","tipCount":"65"},"url":"http:\/\/www.troubadour.co.uk","menu":{"type":"Menu","label":"Menu","anchor":"View Menu","url":"https:\/\/foursquare.com\/v\/the-troubadour-cafe-earls-court-greater-london\/4ac518bcf964a520a0a220e3\/menu","mobileUrl":"https:\/\/foursquare.com\/v\/4ac518bcf964a520a0a220e3\/device_menu"},"specials":{"count":"0"},"hereNow":{"count":"1","groups":[{"type":"others","name":"Other people here","count":"1"}]},"referralId":"v-1392478074"},{"id":"4c415a42af052d7f66517d79","name":"Starbucks","contact":{"phone":"+442073706482","formattedPhone":"+44 20 7370 6482","twitter":"starbucksuk"},"location":{"address":"259 Old Brompton Road,","lat":"51.48895083393861","lng":"-0.19148558378219604","distance":"98","postalCode":"SW5 9HP","cc":"GB","city":"London","state":"Greater London","country":"United Kingdom"},"categories":[{"id":"4bf58dd8d48988d1e0931735","name":"Coffee Shop","pluralName":"Coffee Shops","shortName":"Coffee Shop","icon":{"prefix":"https:\/\/ss1.4sqi.net\/img\/categories_v2\/food\/coffeeshop_","suffix":".png"},"primary":"true"}],"verified":"true","restricted":"true","stats":{"checkinsCount":"1695","usersCount":"559","tipCount":"12"},"url":"http:\/\/starbucks.co.uk","specials":{"count":"0"},"hereNow":{"count":"0"},"storeId":"12063","referralId":"v-1392478074"},{"id":"4b6dc985f964a520d28f2ce3","name":"The Pembroke","contact":{"phone":"+442073738337","formattedPhone":"+44 20 7373 8337"},"location":{"address":"261 Old Brompton Rd","lat":"51.488971924999994","lng":"-0.191582","distance":"91","postalCode":"SW5 9JA","cc":"GB","city":"London","state":"Greater London","country":"United Kingdom"},"categories":[{"id":"4bf58dd8d48988d11b941735","name":"Pub","pluralName":"Pubs","shortName":"Pub","icon":{"prefix":"https:\/\/ss1.4sqi.net\/img\/categories_v2\/nightlife\/pub_","suffix":".png"},"primary":"true"}],"verified":"true","restricted":"true","stats":{"checkinsCount":"1434","usersCount":"965","tipCount":"20"},"url":"http:\/\/www.thepembrokesw5.co.uk","reservations":{"url":"http:\/\/www.toptable.co.uk\/single.aspx?rid=71986&ref=9601"},"menu":{"type":"Menu","label":"Menu","anchor":"View Menu","url":"https:\/\/foursquare.com\/v\/the-pembroke\/4b6dc985f964a520d28f2ce3\/menu","mobileUrl":"https:\/\/foursquare.com\/v\/4b6dc985f964a520d28f2ce3\/device_menu"},"specials":{"count":"0"},"hereNow":{"count":"0"},"referralId":"v-1392478074"},{"id":"4cd9638f5e1b721e61eb3ed9","name":"Chelsea House","location":{"lat":"51.490131801138794","lng":"-0.1916503324871934","distance":"123","cc":"GB","country":"United Kingdom"},"categories":[{"id":"4bf58dd8d48988d1fa931735","name":"Hotel","pluralName":"Hotels","shortName":"Hotel","icon":{"prefix":"https:\/\/ss1.4sqi.net\/img\/categories_v2\/travel\/hotel_","suffix":".png"},"primary":"true"}],"verified":"false","restricted":"true","stats":{"checkinsCount":"41","usersCount":"18","tipCount":"0"},"specials":{"count":"0"},"hereNow":{"count":"0"},"referralId":"v-1392478074"},{"id":"502627a4e4b0a87841de8f3b","name":"Rocco -  Ristorante - Salumeria - Cibi Cotti - Bar","contact":{"phone":"+442072592599","formattedPhone":"+44 20 7259 2599"},"location":{"address":"254-260 Old Brompton Rd","crossStreet":"Coleherne Rd","lat":"51.489108","lng":"-0.19148","distance":"93","postalCode":"SW5 9HR","cc":"GB","city":"Chelsea - London","state":"Greater London","country":"United Kingdom"},"categories":[{"id":"4bf58dd8d48988d110941735","name":"Italian Restaurant","pluralName":"Italian Restaurants","shortName":"Italian","icon":{"prefix":"https:\/\/ss1.4sqi.net\/img\/categories_v2\/food\/italian_","suffix":".png"},"primary":"true"}],"verified":"false","restricted":"true","stats":{"checkinsCount":"177","usersCount":"114","tipCount":"10"},"specials":{"count":"0"},"hereNow":{"count":"0"},"referralId":"v-1392478074"},{"id":"4ac518bcf964a5209ba220e3","name":"Balans","contact":{"phone":"+442072448838","formattedPhone":"+44 20 7244 8838","twitter":"balanslondon"},"location":{"address":"239 Old Brompton Rd.","lat":"51.489426815409615","lng":"-0.1904153823852539","distance":"166","postalCode":"SW5 9HP","cc":"GB","city":"Earls Court","state":"Greater London","country":"United Kingdom"},"categories":[{"id":"4bf58dd8d48988d16d941735","name":"Caf\u00e9","pluralName":"Caf\u00e9s","shortName":"Caf\u00e9","icon":{"prefix":"https:\/\/ss1.4sqi.net\/img\/categories_v2\/food\/cafe_","suffix":".png"},"primary":"true"}],"verified":"false","restricted":"true","stats":{"checkinsCount":"837","usersCount":"457","tipCount":"18"},"url":"http:\/\/www.balans.co.uk","specials":{"count":"0"},"hereNow":{"count":"0"},"referralId":"v-1392478074"},{"id":"4fd789d1e4b0884f34d5383b","name":"Evans & Peel","location":{"address":"310C Earl's Court Rd","lat":"51.490133170774996","lng":"-0.19088650645178","distance":"162","postalCode":"SW5 9AQ","cc":"GB","city":"Earl's Court","state":"Greater London","country":"United Kingdom"},"categories":[{"id":"4bf58dd8d48988d116941735","name":"Bar","pluralName":"Bars","shortName":"Bar","icon":{"prefix":"https:\/\/ss1.4sqi.net\/img\/categories_v2\/nightlife\/bar_","suffix":".png"},"primary":"true"}],"verified":"false","restricted":"true","stats":{"checkinsCount":"433","usersCount":"383","tipCount":"24"},"specials":{"count":"0"},"hereNow":{"count":"0"},"referralId":"v-1392478074"},{"id":"500eaf06e4b0f585cc2d3bb8","name":"Wetherby Gardens","location":{"lat":"51.48989105812401","lng":"-0.19143754690056716","distance":"115","cc":"GB","country":"United Kingdom"},"categories":[{"id":"4bf58dd8d48988d15a941735","name":"Garden","pluralName":"Gardens","shortName":"Garden","icon":{"prefix":"https:\/\/ss1.4sqi.net\/img\/categories_v2\/parks_outdoors\/garden_","suffix":".png"},"primary":"true"}],"verified":"false","restricted":"true","stats":{"checkinsCount":"77","usersCount":"18","tipCount":"1"},"specials":{"count":"0"},"hereNow":{"count":"0"},"referralId":"v-1392478074"},{"id":"4bbb89833de8c9b67de199ad","name":"O'Neil's","contact":{"phone":"+442072445921","formattedPhone":"+44 20 7244 5921"},"location":{"address":"326 Earls Court Rd","lat":"51.48962132006492","lng":"-0.19026933605849386","distance":"179","postalCode":"SW5 9BQ","cc":"GB","city":"Kensington","state":"Greater London","country":"United Kingdom"},"categories":[{"id":"4bf58dd8d48988d11b941735","name":"Pub","pluralName":"Pubs","shortName":"Pub","icon":{"prefix":"https:\/\/ss1.4sqi.net\/img\/categories_v2\/nightlife\/pub_","suffix":".png"},"primary":"true"}],"verified":"false","restricted":"true","stats":{"checkinsCount":"694","usersCount":"485","tipCount":"5"},"specials":{"count":"0"},"hereNow":{"count":"0"},"referralId":"v-1392478074"},{"id":"4bfec9d9369476b017dd8c1f","name":"La Pappardella","location":{"address":"253 Old Brompton Rd.","lat":"51.4892296154183","lng":"-0.19094475380018125","distance":"128","cc":"GB","city":"London","state":"Greater London","country":"United Kingdom"},"categories":[{"id":"4bf58dd8d48988d110941735","name":"Italian Restaurant","pluralName":"Italian Restaurants","shortName":"Italian","icon":{"prefix":"https:\/\/ss1.4sqi.net\/img\/categories_v2\/food\/italian_","suffix":".png"},"primary":"true"}],"verified":"false","restricted":"true","stats":{"checkinsCount":"451","usersCount":"225","tipCount":"10"},"specials":{"count":"0"},"hereNow":{"count":"0"},"referralId":"v-1392478074"},{"id":"4cc66e5cbe40a35dc5408a4c","name":"City Continental Kensington Hotel","contact":{"phone":"+442073736514","formattedPhone":"+44 20 7373 6514"},"location":{"address":"11-13 Penywern Road","lat":"51.490993","lng":"-0.193183","distance":"191","postalCode":"SW5 9TT","cc":"GB","city":"Earl's Court","state":"Greater London","country":"United Kingdom"},"categories":[{"id":"4bf58dd8d48988d1fa931735","name":"Hotel","pluralName":"Hotels","shortName":"Hotel","icon":{"prefix":"https:\/\/ss1.4sqi.net\/img\/categories_v2\/travel\/hotel_","suffix":".png"},"primary":"true"}],"verified":"false","restricted":"true","stats":{"checkinsCount":"239","usersCount":"116","tipCount":"7"},"url":"http:\/\/www.citycontinental-kensington.co.uk","specials":{"count":"0"},"hereNow":{"count":"0"},"referralId":"v-1392478074"},{"id":"4bc78b1a93bdeee1827f37ae","name":"Olympia Hotel","location":{"address":"49 Earls Court Square","lat":"51.48969140664774","lng":"-0.194326230764214","distance":"114","cc":"GB","city":"London","state":"Greater London","country":"United Kingdom"},"categories":[{"id":"4bf58dd8d48988d1fa931735","name":"Hotel","pluralName":"Hotels","shortName":"Hotel","icon":{"prefix":"https:\/\/ss1.4sqi.net\/img\/categories_v2\/travel\/hotel_","suffix":".png"},"primary":"true"}],"verified":"false","restricted":"true","stats":{"checkinsCount":"139","usersCount":"62","tipCount":"1"},"specials":{"count":"0"},"hereNow":{"count":"0"},"referralId":"v-1392478074"},{"id":"513b9213e4b02ba20c72f6d9","name":"The Troubadour Gallery (Upstairs)","contact":{"phone":"+442073701434","formattedPhone":"+44 20 7370 1434"},"location":{"address":"263-7 Old Brompton Rd","lat":"51.4887960454746","lng":"-0.192693952833074","distance":"55","postalCode":"SW5 9JA","cc":"GB","city":"London","state":"Greater London","country":"United Kingdom"},"categories":[{"id":"4bf58dd8d48988d1e2931735","name":"Art Gallery","pluralName":"Art Galleries","shortName":"Art Gallery","icon":{"prefix":"https:\/\/ss1.4sqi.net\/img\/categories_v2\/arts_entertainment\/artgallery_","suffix":".png"},"primary":"true"}],"verified":"false","restricted":"true","stats":{"checkinsCount":"5","usersCount":"4","tipCount":"0"},"specials":{"count":"0"},"hereNow":{"count":"0"},"referralId":"v-1392478074"},{"id":"4c27a314f1272d7f738988c5","name":"Dall' Artista Pizzeria-Ristorante","contact":{"phone":"+442073731659","formattedPhone":"+44 20 7373 1659"},"location":{"address":"243 Old Brompton Rd.","crossStreet":"Earls Court Road","lat":"51.48937952040085","lng":"-0.19056092867559596","distance":"155","postalCode":"SW5","cc":"GB","city":"London","state":"Greater London","country":"United Kingdom"},"categories":[{"id":"4bf58dd8d48988d1ca941735","name":"Pizza Place","pluralName":"Pizza Places","shortName":"Pizza","icon":{"prefix":"https:\/\/ss1.4sqi.net\/img\/categories_v2\/food\/pizza_","suffix":".png"},"primary":"true"}],"verified":"true","restricted":"true","stats":{"checkinsCount":"111","usersCount":"70","tipCount":"5"},"url":"http:\/\/www.dallartista.co.uk","menu":{"type":"Menu","label":"Menu","anchor":"View Menu","url":"https:\/\/foursquare.com\/v\/dall-artista-pizzeriaristorante\/4c27a314f1272d7f738988c5\/menu","mobileUrl":"https:\/\/foursquare.com\/v\/4c27a314f1272d7f738988c5\/device_menu"},"specials":{"count":"0"},"hereNow":{"count":"0"},"storeId":"","referralId":"v-1392478074"},{"id":"4de232d1e4cd056f743db204","name":"Kempsford Gardens","location":{"lat":"51.48864388200536","lng":"-0.19467633151169858","distance":"148","postalCode":"SW5 9","cc":"GB","city":"Kensington","state":"Greater London","country":"United Kingdom"},"categories":[{"id":"4bf58dd8d48988d130941735","name":"Building","pluralName":"Buildings","shortName":"Building","icon":{"prefix":"https:\/\/ss1.4sqi.net\/img\/categories_v2\/building\/default_","suffix":".png"},"primary":"true"}],"verified":"false","restricted":"true","stats":{"checkinsCount":"120","usersCount":"23","tipCount":"0"},"specials":{"count":"0"},"hereNow":{"count":"0"},"referralId":"v-1392478074"},{"id":"4bdb004c3904a593ce36489e","name":"Best Western The Boltons Hotel","location":{"address":"Penywern Rd","lat":"51.49072935522141","lng":"-0.19338492185820744","distance":"165","postalCode":"SW5 9TT","cc":"GB","city":"Earls Court","state":"Greater London","country":"United Kingdom"},"categories":[{"id":"4bf58dd8d48988d1fa931735","name":"Hotel","pluralName":"Hotels","shortName":"Hotel","icon":{"prefix":"https:\/\/ss1.4sqi.net\/img\/categories_v2\/travel\/hotel_","suffix":".png"},"primary":"true"}],"verified":"false","restricted":"true","stats":{"checkinsCount":"385","usersCount":"152","tipCount":"3"},"specials":{"count":"0"},"hereNow":{"count":"0"},"referralId":"v-1392478074"},{"id":"4fc3f353e4b08acecc5ff1d0","name":"Great Britain","location":{"lat":"51.491127998247414","lng":"-0.1936269472196968","distance":"212","cc":"GB","country":"United Kingdom"},"categories":[{"id":"4bf58dd8d48988d162941735","name":"Other Great Outdoors","pluralName":"Other Great Outdoors","shortName":"Other Outdoors","icon":{"prefix":"https:\/\/ss1.4sqi.net\/img\/categories_v2\/parks_outdoors\/outdoors_","suffix":".png"},"primary":"true"}],"verified":"false","restricted":"true","stats":{"checkinsCount":"75","usersCount":"45","tipCount":"0"},"specials":{"count":"0"},"hereNow":{"count":"0"},"referralId":"v-1392478074"},{"id":"4ac518b6f964a520d2a020e3","name":"Lord Jim Hotel","location":{"address":"23-25 Penywern Rd","lat":"51.490816","lng":"-0.193718","distance":"181","postalCode":"SW5 9TT","cc":"GB","city":"London","state":"Greater London","country":"United Kingdom"},"categories":[{"id":"4bf58dd8d48988d1fa931735","name":"Hotel","pluralName":"Hotels","shortName":"Hotel","icon":{"prefix":"https:\/\/ss1.4sqi.net\/img\/categories_v2\/travel\/hotel_","suffix":".png"},"primary":"true"}],"verified":"false","restricted":"true","stats":{"checkinsCount":"285","usersCount":"134","tipCount":"9"},"specials":{"count":"0"},"hereNow":{"count":"0"},"referralId":"v-1392478074"},{"id":"4bc9e3cd68f976b01f0d5e83","name":"Cafe du coin","location":{"lat":"51.49001043029653","lng":"-0.19057140250241772","distance":"174","cc":"GB","country":"United Kingdom"},"categories":[{"id":"4bf58dd8d48988d16d941735","name":"Caf\u00e9","pluralName":"Caf\u00e9s","shortName":"Caf\u00e9","icon":{"prefix":"https:\/\/ss1.4sqi.net\/img\/categories_v2\/food\/cafe_","suffix":".png"},"primary":"true"}],"verified":"false","restricted":"true","stats":{"checkinsCount":"199","usersCount":"121","tipCount":"3"},"specials":{"count":"0"},"hereNow":{"count":"0"},"referralId":"v-1392478074"},{"id":"4b65d678f964a5201d032be3","name":"Kings Kebab House","location":{"lat":"51.490129","lng":"-0.190691","distance":"173","cc":"GB","country":"United Kingdom"},"categories":[{"id":"4bf58dd8d48988d115941735","name":"Middle Eastern Restaurant","pluralName":"Middle Eastern Restaurants","shortName":"Middle Eastern","icon":{"prefix":"https:\/\/ss1.4sqi.net\/img\/categories_v2\/food\/default_","suffix":".png"},"primary":"true"}],"verified":"false","restricted":"true","stats":{"checkinsCount":"294","usersCount":"93","tipCount":"6"},"specials":{"count":"0"},"hereNow":{"count":"0"},"referralId":"v-1392478074"},{"id":"4b2017c0f964a520172d24e3","name":"Strada","contact":{"phone":"+442078351180","formattedPhone":"+44 20 7835 1180","twitter":"stradatweet"},"location":{"address":"237 Earls Court Rd.","lat":"51.4898617","lng":"-0.1901091","distance":"197","postalCode":"SW5 9AH","cc":"GB","city":"London","state":"Greater London","country":"United Kingdom"},"categories":[{"id":"4bf58dd8d48988d110941735","name":"Italian Restaurant","pluralName":"Italian Restaurants","shortName":"Italian","icon":{"prefix":"https:\/\/ss1.4sqi.net\/img\/categories_v2\/food\/italian_","suffix":".png"},"primary":"true"}],"verified":"true","restricted":"true","stats":{"checkinsCount":"328","usersCount":"245","tipCount":"8"},"url":"http:\/\/www.strada.co.uk","specials":{"count":"0"},"hereNow":{"count":"0"},"storeId":"","referralId":"v-1392478074"},{"id":"5065bdb0e4b08f044ce62e18","name":"The Bar","location":{"address":"Earls Court Exhibition Centre","lat":"51.48953234792679","lng":"-0.19427327182110843","distance":"105","cc":"GB","country":"United Kingdom"},"categories":[{"id":"4bf58dd8d48988d116941735","name":"Bar","pluralName":"Bars","shortName":"Bar","icon":{"prefix":"https:\/\/ss1.4sqi.net\/img\/categories_v2\/nightlife\/bar_","suffix":".png"},"primary":"true"}],"verified":"false","restricted":"true","stats":{"checkinsCount":"8","usersCount":"8","tipCount":"0"},"specials":{"count":"0"},"hereNow":{"count":"0"},"referralId":"v-1392478074"},{"id":"51d712f5498ec3d1479438e8","name":"lfcc","location":{"lat":"51.489200592041016","lng":"-0.19333679974079132","distance":"38","cc":"GB","country":"United Kingdom"},"categories":[{"id":"4bf58dd8d48988d1f1931735","name":"General Entertainment","pluralName":"General Entertainment","shortName":"Entertainment","icon":{"prefix":"https:\/\/ss1.4sqi.net\/img\/categories_v2\/arts_entertainment\/default_","suffix":".png"},"primary":"true"}],"verified":"false","restricted":"true","stats":{"checkinsCount":"3","usersCount":"2","tipCount":"0"},"specials":{"count":"0"},"hereNow":{"count":"0"},"referralId":"v-1392478074"},{"id":"4ac518d9f964a520b2a820e3","name":"Bar Japan","contact":{"phone":"+442073702323","formattedPhone":"+44 20 7370 2323"},"location":{"address":"251 Old Brompton Rd","lat":"51.489244","lng":"-0.190946","distance":"128","postalCode":"SW5 9HP","cc":"GB","city":"London","state":"Greater London","country":"United Kingdom"},"categories":[{"id":"4bf58dd8d48988d111941735","name":"Japanese Restaurant","pluralName":"Japanese Restaurants","shortName":"Japanese","icon":{"prefix":"https:\/\/ss1.4sqi.net\/img\/categories_v2\/food\/japanese_","suffix":".png"},"primary":"true"}],"verified":"false","restricted":"true","stats":{"checkinsCount":"28","usersCount":"20","tipCount":"4"},"specials":{"count":"0"},"hereNow":{"count":"0"},"referralId":"v-1392478074"},{"id":"4bfcf6618992a593d55dabb0","name":"Aspreys Nails Hollywood Road","location":{"address":"Hollywood road","lat":"51.48917981872596","lng":"-0.19334581639217133","distance":"39","postalCode":"Sw10","cc":"GB","city":"Kensington","state":"Greater London","country":"United Kingdom"},"verified":"false","restricted":"true","stats":{"checkinsCount":"5","usersCount":"1","tipCount":"0"},"specials":{"count":"0"},"hereNow":{"count":"0"},"referralId":"v-1392478074"},{"id":"51bf1c6c498ee13d139133b2","name":"St Cuthbert with St Matthias","location":{"address":"Warwick Rd","lat":"51.489222","lng":"-0.193549","distance":"52","postalCode":"Sw5 9ue","cc":"GB","city":"London","state":"Greater London","country":"United Kingdom"},"categories":[{"id":"4f4533804b9074f6e4fb0105","name":"Elementary School","pluralName":"Elementary Schools","shortName":"Elementary School","icon":{"prefix":"https:\/\/ss1.4sqi.net\/img\/categories_v2\/building\/school_","suffix":".png"},"primary":"true"}],"verified":"false","restricted":"true","stats":{"checkinsCount":"18","usersCount":"6","tipCount":"0"},"specials":{"count":"0"},"hereNow":{"count":"0"},"referralId":"v-1392478074"},{"id":"4bf128fea09076b053cf29d4","name":"Sabai Leela Health Spa","contact":{"phone":"+442073737763","formattedPhone":"+44 20 7373 7763"},"location":{"address":"282 Old Brompton Road","crossStreet":"at Warwick Rd","lat":"51.48876733749999","lng":"-0.19212204329888985","distance":"74","postalCode":"SW5 9HR","cc":"GB","city":"London,","country":"United Kingdom"},"categories":[{"id":"4bf58dd8d48988d175941735","name":"Gym \/ Fitness Center","pluralName":"Gyms or Fitness Centers","shortName":"Gym \/ Fitness","icon":{"prefix":"https:\/\/ss1.4sqi.net\/img\/categories_v2\/building\/gym_","suffix":".png"},"primary":"true"}],"verified":"true","restricted":"true","stats":{"checkinsCount":"46","usersCount":"31","tipCount":"5"},"specials":{"count":"0"},"hereNow":{"count":"0"},"venuePage":{"id":"48254676"},"referralId":"v-1392478074"},{"id":"4da04dddc41ca14388d244a3","name":"Wembar Hotel","location":{"lat":"51.489125","lng":"-0.193504","distance":"51","cc":"GB","city":"Kensington","state":"Greater London","country":"United Kingdom"},"categories":[{"id":"4bf58dd8d48988d1fa931735","name":"Hotel","pluralName":"Hotels","shortName":"Hotel","icon":{"prefix":"https:\/\/ss1.4sqi.net\/img\/categories_v2\/travel\/hotel_","suffix":".png"},"primary":"true"}],"verified":"false","restricted":"true","stats":{"checkinsCount":"2","usersCount":"2","tipCount":"0"},"specials":{"count":"0"},"hereNow":{"count":"0"},"referralId":"v-1392478074"},{"id":"4deb9b9088774880e33a103a","name":"Reston Waste Management","contact":{"phone":"+448003760394","formattedPhone":"+44 800 376 0394","twitter":"restonwaste"},"location":{"address":"205","lat":"51.489013","lng":"-0.192245","distance":"49","postalCode":"205","cc":"GB","city":"London","state":"Greater London","country":"United Kingdom"},"categories":[{"id":"4bf58dd8d48988d130941735","name":"Building","pluralName":"Buildings","shortName":"Building","icon":{"prefix":"https:\/\/ss1.4sqi.net\/img\/categories_v2\/building\/default_","suffix":".png"},"primary":"true"}],"verified":"true","restricted":"true","stats":{"checkinsCount":"0","usersCount":"0","tipCount":"0"},"url":"http:\/\/www.restonwaste.co.uk","specials":{"count":"0"},"hereNow":{"count":"0"},"venuePage":{"id":"44918096"},"storeId":"","referralId":"v-1392478074"},{"id":"4bc8f14d762beee11cba3d38","name":"Mowbray Court Hotel London","location":{"address":"28-32 Penywern Road Earls Court","lat":"51.491008","lng":"-0.193881","distance":"205","cc":"GB","city":"London","state":"Greater London","country":"United Kingdom"},"categories":[{"id":"4bf58dd8d48988d1fa931735","name":"Hotel","pluralName":"Hotels","shortName":"Hotel","icon":{"prefix":"https:\/\/ss1.4sqi.net\/img\/categories_v2\/travel\/hotel_","suffix":".png"},"primary":"true"}],"verified":"false","restricted":"true","stats":{"checkinsCount":"131","usersCount":"54","tipCount":"0"},"specials":{"count":"0"},"hereNow":{"count":"0"},"referralId":"v-1392478074"}],"confident":"false"}}