{"meta":{"code":"200"},"response":{"venues":[{"id":"4ac518d9f964a520bda820e3","name":"Boisdale of Belgravia","contact":{"phone":"+442077306922","formattedPhone":"+44 20 7730 6922","facebook":"203878729633687"},"location":{"address":"15 Eccleston Street","crossStreet":"btwn. Ebury St. & Eccleston Pl.","lat":"51.49432621428572","lng":"-0.148077","distance":"19","postalCode":"SW1W 9LX","cc":"GB","city":"Belgravia","state":"Greater London","country":"United Kingdom"},"categories":[{"id":"4bf58dd8d48988d1c4941735","name":"Restaurant","pluralName":"Restaurants","shortName":"Restaurant","icon":{"prefix":"https:\/\/ss1.4sqi.net\/img\/categories_v2\/food\/default_","suffix":".png"},"primary":"true"}],"verified":"true","restricted":"true","stats":{"checkinsCount":"901","usersCount":"666","tipCount":"24"},"url":"http:\/\/www.boisdale.co.uk\/belgravia\/","specials":{"count":"1","items":[{"id":"52d6487a498e929f4fa6e569","type":"frequency","message":"2 for 1 on music tickets at Boisdale of Canary Wharf, Monday - Thursday, with every 5 checkins.","photo":{"id":"52d6487a11d2bf3a3b36ffa9","createdAt":"1389774970","prefix":"https:\/\/irs0.4sqi.net\/img\/general\/","suffix":"\/71380015_o7PWVni5MoHU7lCyTEW8erKFwTeq439nwMLp8SC-H3s.jpg","width":"2808","height":"1872"},"description":"Unlocked every 5 check-ins","finePrint":"To claim your tickets please email offer screenshot to social@boisdale.co.uk. 1\/follower\/5 x check ins. Subject to availability, not valid in conjunction with other offer, no alternative available.","icon":"frequency","title":"Loyalty Special","provider":"foursquare","redemption":"standard","page":{"id":"71380015","firstName":"Boisdale","gender":"none","photo":{"prefix":"https:\/\/irs0.4sqi.net\/img\/user\/","suffix":"\/71380015-DRV2MZB51AG31I0A.jpg"},"type":"chain","tips":{"count":"0"},"homeCity":"London, ENG","bio":"","contact":{"facebook":"203878729633687"}}}]},"hereNow":{"count":"0"},"referralId":"v-1392478066"},{"id":"4ad60c82f964a520c70421e3","name":"Light Centre","contact":{"phone":"0207881072","formattedPhone":"0207881072"},"location":{"address":"9 Eccleston Street, Belgravia","lat":"51.49429608851048","lng":"-0.14747407980248572","distance":"22","postalCode":"SW1W 9LX","cc":"GB","city":"London","state":"Greater London","country":"United Kingdom"},"categories":[{"id":"4bf58dd8d48988d102941735","name":"Yoga Studio","pluralName":"Yoga Studios","shortName":"Yoga Studio","icon":{"prefix":"https:\/\/ss1.4sqi.net\/img\/categories_v2\/shops\/gym_yogastudio_","suffix":".png"},"primary":"true"}],"verified":"false","restricted":"true","stats":{"checkinsCount":"402","usersCount":"66","tipCount":"3"},"specials":{"count":"0"},"hereNow":{"count":"0"},"referralId":"v-1392478066"},{"id":"4b5b3862f964a52028ec28e3","name":"Starbucks","contact":{"phone":"+442072590347","formattedPhone":"+44 20 7259 0347","twitter":"starbucksuk"},"location":{"address":"Chantrey House, 98 Buckingham Palace Rd","crossStreet":"At Eccelson St","lat":"51.49420138616236","lng":"-0.14680266380310059","distance":"70","postalCode":"SW1W 0SS","cc":"GB","city":"London","state":"Greater London","country":"United Kingdom"},"categories":[{"id":"4bf58dd8d48988d1e0931735","name":"Coffee Shop","pluralName":"Coffee Shops","shortName":"Coffee Shop","icon":{"prefix":"https:\/\/ss1.4sqi.net\/img\/categories_v2\/food\/coffeeshop_","suffix":".png"},"primary":"true"}],"verified":"true","restricted":"true","stats":{"checkinsCount":"3701","usersCount":"2066","tipCount":"16"},"url":"http:\/\/starbucks.co.uk","specials":{"count":"0"},"hereNow":{"count":"0"},"storeId":"12373","referralId":"v-1392478066"},{"id":"4d4942ee7d36f04df78b0fe5","name":"Crussh","location":{"address":"9 Eccleston St.","lat":"51.49455707918363","lng":"-0.1480579376220703","distance":"34","postalCode":"Sw1w 9lx","cc":"GB","city":"London","state":"Greater London","country":"United Kingdom"},"categories":[{"id":"4bf58dd8d48988d1c4941735","name":"Restaurant","pluralName":"Restaurants","shortName":"Restaurant","icon":{"prefix":"https:\/\/ss1.4sqi.net\/img\/categories_v2\/food\/default_","suffix":".png"},"primary":"true"}],"verified":"false","restricted":"true","stats":{"checkinsCount":"725","usersCount":"135","tipCount":"7"},"specials":{"count":"0"},"hereNow":{"count":"0"},"referralId":"v-1392478066"},{"id":"4d96c78397d06ea823d70b0b","name":"Victoria Coach Station. Eurolines Checkin","location":{"lat":"51.49382919945758","lng":"-0.14658281893469483","distance":"98","postalCode":"SW1W 9","cc":"GB","city":"London","state":"Greater London","country":"United Kingdom"},"categories":[{"id":"4bf58dd8d48988d1fe931735","name":"Bus Station","pluralName":"Bus Stations","shortName":"Bus Station","icon":{"prefix":"https:\/\/ss1.4sqi.net\/img\/categories_v2\/travel\/busstation_","suffix":".png"},"primary":"true"}],"verified":"false","restricted":"true","stats":{"checkinsCount":"1927","usersCount":"1627","tipCount":"8"},"specials":{"count":"0"},"hereNow":{"count":"0"},"referralId":"v-1392478066"},{"id":"4b434f83f964a52040de25e3","name":"La Bottega","contact":{"phone":"+442077302730","formattedPhone":"+44 20 7730 2730","twitter":"labottegalondon"},"location":{"address":"25 Eccleston St","lat":"51.494653563468226","lng":"-0.14843543529718484","distance":"59","postalCode":"SW1W 9NP","cc":"GB","city":"London","state":"Greater London","country":"United Kingdom"},"categories":[{"id":"4bf58dd8d48988d110941735","name":"Italian Restaurant","pluralName":"Italian Restaurants","shortName":"Italian","icon":{"prefix":"https:\/\/ss1.4sqi.net\/img\/categories_v2\/food\/italian_","suffix":".png"},"primary":"true"}],"verified":"true","restricted":"true","stats":{"checkinsCount":"1342","usersCount":"543","tipCount":"17"},"url":"http:\/\/www.labottega.co.uk","specials":{"count":"0"},"hereNow":{"count":"0"},"venuePage":{"id":"39894663"},"referralId":"v-1392478066"},{"id":"4ade37b4f964a520037421e3","name":"Olivo","contact":{"phone":"+442077302505","formattedPhone":"+44 20 7730 2505"},"location":{"address":"21 Eccleston St","lat":"51.494543","lng":"-0.148209","distance":"39","postalCode":"SW1W 9LX","cc":"GB","city":"London","state":"Greater London","country":"United Kingdom"},"categories":[{"id":"4bf58dd8d48988d110941735","name":"Italian Restaurant","pluralName":"Italian Restaurants","shortName":"Italian","icon":{"prefix":"https:\/\/ss1.4sqi.net\/img\/categories_v2\/food\/italian_","suffix":".png"},"primary":"true"}],"verified":"false","restricted":"true","stats":{"checkinsCount":"204","usersCount":"141","tipCount":"10"},"menu":{"type":"Menu","label":"Menu","anchor":"View Menu","url":"https:\/\/foursquare.com\/v\/olivo\/4ade37b4f964a520037421e3\/menu","mobileUrl":"https:\/\/foursquare.com\/v\/4ade37b4f964a520037421e3\/device_menu"},"specials":{"count":"0"},"hereNow":{"count":"0"},"referralId":"v-1392478066"},{"id":"4bab9998f964a520c7b73ae3","name":"Post Office","contact":{"phone":"+448457223344","formattedPhone":"+44 845 722 3344","twitter":"postoffice"},"location":{"address":"6 Eccleston St.","crossStreet":"Near Buckingham Palace Rd.","lat":"51.494343","lng":"-0.14731987142857145","distance":"34","postalCode":"SW1W 9LS","cc":"GB","city":"Belgravia","state":"Greater London","country":"United Kingdom"},"categories":[{"id":"4bf58dd8d48988d172941735","name":"Post Office","pluralName":"Post Offices","shortName":"Post Office","icon":{"prefix":"https:\/\/ss1.4sqi.net\/img\/categories_v2\/building\/postoffice_","suffix":".png"},"primary":"true"}],"verified":"false","restricted":"true","stats":{"checkinsCount":"352","usersCount":"130","tipCount":"8"},"specials":{"count":"0"},"hereNow":{"count":"0"},"referralId":"v-1392478066"},{"id":"4f661bc2e4b0777dfde47c99","name":"TfL Barclays Cycle Hire","location":{"address":"Eccleston Pl","crossStreet":"at Eccleston St","lat":"51.4941014318645","lng":"-0.14731639443858363","distance":"39","cc":"GB","city":"City of Westminster","state":"Greater London","country":"United Kingdom"},"categories":[{"id":"4e4c9077bd41f78e849722f9","name":"Bike Rental \/ Bike Share","pluralName":"Bike Rentals \/ Bike Shares","shortName":"Bike","icon":{"prefix":"https:\/\/ss1.4sqi.net\/img\/categories_v2\/shops\/bikeshop_","suffix":".png"},"primary":"true"}],"verified":"false","restricted":"true","stats":{"checkinsCount":"77","usersCount":"26","tipCount":"0"},"specials":{"count":"0"},"hereNow":{"count":"0"},"referralId":"v-1392478066"},{"id":"4e1999b9a8097d08b241e8a5","name":"Big Bus Tours - London","location":{"address":"Buckingham Palace Road","lat":"51.494036063109085","lng":"-0.14714598655700684","distance":"53","cc":"GB","city":"Victoria","state":"Greater London","country":"United Kingdom"},"categories":[{"id":"4bf58dd8d48988d12b951735","name":"Bus Line","pluralName":"Bus Lines","shortName":"Bus","icon":{"prefix":"https:\/\/ss1.4sqi.net\/img\/categories_v2\/travel\/busstation_","suffix":".png"},"primary":"true"}],"verified":"true","restricted":"true","stats":{"checkinsCount":"214","usersCount":"209","tipCount":"0"},"url":"http:\/\/www.bigbustours.com","specials":{"count":"0"},"hereNow":{"count":"0"},"venuePage":{"id":"55035824"},"storeId":"","referralId":"v-1392478066"},{"id":"4e174e82183880768f3517ea","name":"Olivio","location":{"lat":"51.49518659541257","lng":"-0.14723439389214021","distance":"107","postalCode":"N16 0EF","cc":"GB","city":"London","state":"Greater London","country":"United Kingdom"},"categories":[{"id":"4bf58dd8d48988d1db931735","name":"Tapas Restaurant","pluralName":"Tapas Restaurants","shortName":"Tapas","icon":{"prefix":"https:\/\/ss1.4sqi.net\/img\/categories_v2\/food\/tapas_","suffix":".png"},"primary":"true"}],"verified":"false","restricted":"true","stats":{"checkinsCount":"8","usersCount":"8","tipCount":"0"},"specials":{"count":"0"},"hereNow":{"count":"0"},"referralId":"v-1392478066"},{"id":"4dab3ff95da3ba8a479d5211","name":"Ken Lo's Memories Of China","location":{"address":"67 Ebury St.","lat":"51.494873","lng":"-0.148278","distance":"72","postalCode":"SW1W 8","cc":"GB","city":"London","state":"Greater London","country":"United Kingdom"},"categories":[{"id":"4bf58dd8d48988d145941735","name":"Chinese Restaurant","pluralName":"Chinese Restaurants","shortName":"Chinese","icon":{"prefix":"https:\/\/ss1.4sqi.net\/img\/categories_v2\/food\/chinese_","suffix":".png"},"primary":"true"}],"verified":"false","restricted":"true","stats":{"checkinsCount":"239","usersCount":"157","tipCount":"2"},"url":"http:\/\/www.memories-of-china.co.uk","reservations":{"url":"http:\/\/www.toptable.co.uk\/single.aspx?rid=4873&ref=9601"},"menu":{"type":"Menu","label":"Menu","anchor":"View Menu","url":"https:\/\/foursquare.com\/v\/ken-los-memories-of-china\/4dab3ff95da3ba8a479d5211\/menu","mobileUrl":"https:\/\/foursquare.com\/v\/4dab3ff95da3ba8a479d5211\/device_menu"},"specials":{"count":"0"},"hereNow":{"count":"0"},"referralId":"v-1392478066"},{"id":"4ae18453f964a520358621e3","name":"Pret A Manger","contact":{"phone":"+442079325367","formattedPhone":"+44 20 7932 5367","twitter":"pret","facebook":"162638680417951"},"location":{"address":"92 Buckingham Palace Rd","lat":"51.49426698588219","lng":"-0.1463824044704131","distance":"98","postalCode":"SW1W 0SS","cc":"GB","city":"Victoria","state":"Greater London","country":"United Kingdom"},"categories":[{"id":"4bf58dd8d48988d1c5941735","name":"Sandwich Place","pluralName":"Sandwich Places","shortName":"Sandwiches","icon":{"prefix":"https:\/\/ss1.4sqi.net\/img\/categories_v2\/food\/sandwiches_","suffix":".png"},"primary":"true"}],"verified":"true","restricted":"true","stats":{"checkinsCount":"1458","usersCount":"522","tipCount":"13"},"url":"http:\/\/www.pret.com","specials":{"count":"0"},"hereNow":{"count":"0"},"storeId":"167","referralId":"v-1392478066"},{"id":"522c5a7011d239b3667b36ee","name":"Portland Brown Apartments","location":{"address":"14 Eccleston Pl","crossStreet":"Eccleston St","lat":"51.494260167223175","lng":"-0.14728270783387276","distance":"36","postalCode":"SW1W 9NE","cc":"GB","city":"London","state":"Greater London","country":"United Kingdom"},"categories":[{"id":"4d954b06a243a5684965b473","name":"Residential Building (Apartment \/ Condo)","pluralName":"Residential Buildings (Apartments \/ Condos)","shortName":"Residential","icon":{"prefix":"https:\/\/ss1.4sqi.net\/img\/categories_v2\/building\/apartment_","suffix":".png"},"primary":"true"}],"verified":"false","restricted":"true","stats":{"checkinsCount":"58","usersCount":"5","tipCount":"0"},"specials":{"count":"0"},"hereNow":{"count":"0"},"referralId":"v-1392478066"},{"id":"4d9ac297674ca143ceb6c243","name":"LON-BEL-123 Gym","location":{"address":"123 Buckingham Palace Rd","crossStreet":"Eccleston Street","lat":"51.4938142921873","lng":"-0.14659087802824058","distance":"99","postalCode":"SW1W 9","cc":"GB","city":"London","state":"Greater London","country":"United Kingdom"},"categories":[{"id":"4bf58dd8d48988d176941735","name":"Gym","pluralName":"Gyms","shortName":"Gym","icon":{"prefix":"https:\/\/ss1.4sqi.net\/img\/categories_v2\/building\/gym_","suffix":".png"},"primary":"true"}],"verified":"false","restricted":"true","stats":{"checkinsCount":"235","usersCount":"17","tipCount":"0"},"specials":{"count":"0"},"hereNow":{"count":"0"},"referralId":"v-1392478066"},{"id":"4b06832df964a5208cec22e3","name":"The Green Cafe","location":{"address":"16  Eccleston St","lat":"51.494642","lng":"-0.14822855","distance":"49","postalCode":"SW1W 9LT","cc":"GB","city":"London","state":"Greater London","country":"United Kingdom"},"categories":[{"id":"4bf58dd8d48988d143941735","name":"Breakfast Spot","pluralName":"Breakfast Spots","shortName":"Breakfast","icon":{"prefix":"https:\/\/ss1.4sqi.net\/img\/categories_v2\/food\/breakfast_","suffix":".png"},"primary":"true"}],"verified":"false","restricted":"true","stats":{"checkinsCount":"28","usersCount":"23","tipCount":"3"},"specials":{"count":"0"},"hereNow":{"count":"0"},"referralId":"v-1392478066"},{"id":"5017e46af136ee2746cb8b0f","name":"SubTV Interactive Television Station","location":{"address":"140 Buckingham Palace Road","lat":"51.49348832184051","lng":"-0.14747858047485352","distance":"91","postalCode":"SW1W 9SA","cc":"GB","city":"London","state":"Greater London","country":"United Kingdom"},"categories":[{"id":"4bf58dd8d48988d1f1931735","name":"General Entertainment","pluralName":"General Entertainment","shortName":"Entertainment","icon":{"prefix":"https:\/\/ss1.4sqi.net\/img\/categories_v2\/arts_entertainment\/default_","suffix":".png"},"primary":"true"}],"verified":"false","restricted":"true","stats":{"checkinsCount":"115","usersCount":"3","tipCount":"0"},"specials":{"count":"0"},"hereNow":{"count":"0"},"referralId":"v-1392478066"},{"id":"4ac518d8f964a5207ea820e3","name":"Jenny Lo's Tea House","location":{"address":"14 Eccleston Street","lat":"51.494532","lng":"-0.148033","distance":"31","postalCode":"SW1W 9LT","cc":"GB","city":"London","state":"Greater London","country":"United Kingdom"},"categories":[{"id":"4bf58dd8d48988d145941735","name":"Chinese Restaurant","pluralName":"Chinese Restaurants","shortName":"Chinese","icon":{"prefix":"https:\/\/ss1.4sqi.net\/img\/categories_v2\/food\/chinese_","suffix":".png"},"primary":"true"}],"verified":"false","restricted":"true","stats":{"checkinsCount":"163","usersCount":"102","tipCount":"5"},"specials":{"count":"0"},"hereNow":{"count":"0"},"referralId":"v-1392478066"},{"id":"4e3123f21495f249f7688765","name":"Colonnade Walk","location":{"address":"Buckingham Palace Rd","lat":"51.49343321336068","lng":"-0.14681071043014526","distance":"117","cc":"GB","city":"London","state":"Greater London","country":"United Kingdom"},"categories":[{"id":"4bf58dd8d48988d164941735","name":"Plaza","pluralName":"Plazas","shortName":"Plaza","icon":{"prefix":"https:\/\/ss1.4sqi.net\/img\/categories_v2\/parks_outdoors\/plaza_","suffix":".png"},"primary":"true"}],"verified":"false","restricted":"true","stats":{"checkinsCount":"264","usersCount":"166","tipCount":"1"},"specials":{"count":"0"},"hereNow":{"count":"0"},"referralId":"v-1392478066"},{"id":"4ac518b8f964a52075a120e3","name":"B+B Belgravia","location":{"address":"64-66 Ebury Street","lat":"51.49444278189464","lng":"-0.14913927348329856","distance":"94","postalCode":"SW1W 9QD","cc":"GB","city":"London","state":"Greater London","country":"United Kingdom"},"categories":[{"id":"4bf58dd8d48988d1fa931735","name":"Hotel","pluralName":"Hotels","shortName":"Hotel","icon":{"prefix":"https:\/\/ss1.4sqi.net\/img\/categories_v2\/travel\/hotel_","suffix":".png"},"primary":"true"}],"verified":"false","restricted":"true","stats":{"checkinsCount":"224","usersCount":"92","tipCount":"3"},"url":"http:\/\/www.boisdale.co.uk\/belgravia","reservations":{"url":"http:\/\/www.toptable.co.uk\/single.aspx?rid=74878&ref=9601"},"menu":{"type":"Menu","label":"Menu","anchor":"View Menu","url":"https:\/\/foursquare.com\/v\/bb-belgravia\/4ac518b8f964a52075a120e3\/menu","mobileUrl":"https:\/\/foursquare.com\/v\/4ac518b8f964a52075a120e3\/device_menu"},"specials":{"count":"0"},"hereNow":{"count":"0"},"referralId":"v-1392478066"},{"id":"50edc50ae4b02cc95e3c40c8","name":"Bus Stop SC - New Scotland Yard","location":{"address":"Victoria Street","lat":"51.4936533499201","lng":"-0.14814078709957876","distance":"74","cc":"GB","city":"London","state":"Greater London","country":"United Kingdom"},"categories":[{"id":"4bf58dd8d48988d1fe931735","name":"Bus Station","pluralName":"Bus Stations","shortName":"Bus Station","icon":{"prefix":"https:\/\/ss1.4sqi.net\/img\/categories_v2\/travel\/busstation_","suffix":".png"},"primary":"true"}],"verified":"false","restricted":"true","stats":{"checkinsCount":"5","usersCount":"3","tipCount":"1"},"specials":{"count":"0"},"hereNow":{"count":"0"},"referralId":"v-1392478066"},{"id":"4d88b466d85f3704b3f1d6db","name":"The Belgravia Surgery","location":{"address":"29 Eccleston Street","crossStreet":"Ebury Street","lat":"51.49491546608724","lng":"-0.14828491766133028","distance":"77","postalCode":"SW1","cc":"GB","city":"London","state":"Greater London","country":"United Kingdom"},"categories":[{"id":"4bf58dd8d48988d104941735","name":"Medical Center","pluralName":"Medical Centers","shortName":"Medical","icon":{"prefix":"https:\/\/ss1.4sqi.net\/img\/categories_v2\/building\/medical_","suffix":".png"},"primary":"true"}],"verified":"false","restricted":"true","stats":{"checkinsCount":"54","usersCount":"17","tipCount":"0"},"specials":{"count":"0"},"hereNow":{"count":"0"},"referralId":"v-1392478066"},{"id":"5150277de4b0d91ea54889b8","name":"Natural Fitness Studio","location":{"lat":"51.494361","lng":"-0.147936","distance":"12","cc":"GB","country":"United Kingdom"},"categories":[{"id":"4bf58dd8d48988d175941735","name":"Gym \/ Fitness Center","pluralName":"Gyms or Fitness Centers","shortName":"Gym \/ Fitness","icon":{"prefix":"https:\/\/ss1.4sqi.net\/img\/categories_v2\/building\/gym_","suffix":".png"},"primary":"true"}],"verified":"false","restricted":"true","stats":{"checkinsCount":"2","usersCount":"1","tipCount":"0"},"specials":{"count":"0"},"hereNow":{"count":"0"},"referralId":"v-1392478066"},{"id":"4cd053ba06b54688eb60da94","name":"James Hull Associates","contact":{"phone":"+442077304948","formattedPhone":"+44 20 7730 4948"},"location":{"address":"2 Eccleston Street","lat":"51.49421410478711","lng":"-0.1468748149363671","distance":"64","postalCode":"SW1W 9LN","cc":"GB","city":"London","state":"Greater London","country":"United Kingdom"},"categories":[{"id":"4bf58dd8d48988d178941735","name":"Dentist's Office","pluralName":"Dentist's Offices","shortName":"Dentist's Office","icon":{"prefix":"https:\/\/ss1.4sqi.net\/img\/categories_v2\/building\/medical_dentist_","suffix":".png"},"primary":"true"}],"verified":"false","restricted":"true","stats":{"checkinsCount":"69","usersCount":"30","tipCount":"6"},"specials":{"count":"0"},"hereNow":{"count":"0"},"referralId":"v-1392478066"},{"id":"4f30118cbb3d9b264fdca9a1","name":"Eleven","contact":{"phone":"+442078235540","formattedPhone":"+44 20 7823 5540"},"location":{"address":"11 Eccleston St.","lat":"51.494423485886074","lng":"-0.14789700508117676","distance":"16","postalCode":"SW1W 9LX","cc":"GB","city":"London","state":"Greater London","country":"United Kingdom"},"categories":[{"id":"4bf58dd8d48988d1e2931735","name":"Art Gallery","pluralName":"Art Galleries","shortName":"Art Gallery","icon":{"prefix":"https:\/\/ss1.4sqi.net\/img\/categories_v2\/arts_entertainment\/artgallery_","suffix":".png"},"primary":"true"}],"verified":"false","restricted":"true","stats":{"checkinsCount":"3","usersCount":"3","tipCount":"0"},"specials":{"count":"0"},"hereNow":{"count":"0"},"referralId":"v-1392478066"},{"id":"4ac518d0f964a5208ca620e3","name":"earthspa","location":{"address":"4 Eccleston Street","lat":"51.4942548991098","lng":"-0.14694375802931978","distance":"59","postalCode":"SW1W 9LN","cc":"GB","city":"London","state":"Greater London","country":"United Kingdom"},"categories":[{"id":"4bf58dd8d48988d160941735","name":"Hot Spring","pluralName":"Hot Springs","shortName":"Hot Spring","icon":{"prefix":"https:\/\/ss1.4sqi.net\/img\/categories_v2\/parks_outdoors\/hotspring_","suffix":".png"},"primary":"true"}],"verified":"false","restricted":"true","stats":{"checkinsCount":"83","usersCount":"35","tipCount":"2"},"specials":{"count":"0"},"hereNow":{"count":"0"},"referralId":"v-1392478066"},{"id":"4ee3e00029c220f971324870","name":"Eburystreet, London","location":{"address":"Eburystreet 66","lat":"51.494344997572654","lng":"-0.14902857599325212","distance":"85","cc":"GB","city":"London","state":"Greater London","country":"United Kingdom"},"categories":[{"id":"4bf58dd8d48988d130941735","name":"Building","pluralName":"Buildings","shortName":"Building","icon":{"prefix":"https:\/\/ss1.4sqi.net\/img\/categories_v2\/building\/default_","suffix":".png"},"primary":"true"}],"verified":"false","restricted":"true","stats":{"checkinsCount":"30","usersCount":"19","tipCount":"0"},"specials":{"count":"0"},"hereNow":{"count":"0"},"referralId":"v-1392478066"},{"id":"521b3e3511d2272893bff49c","name":"Colonnade Walk","location":{"address":"123-151 Buckingham Palace Road","lat":"51.49421927945103","lng":"-0.1470009612948877","distance":"56","postalCode":"SW1","cc":"GB","city":"City of Wesminster, London","country":"United Kingdom"},"categories":[{"id":"4bf58dd8d48988d1fd941735","name":"Mall","pluralName":"Malls","shortName":"Mall","icon":{"prefix":"https:\/\/ss1.4sqi.net\/img\/categories_v2\/shops\/mall_","suffix":".png"},"primary":"true"}],"verified":"false","restricted":"true","stats":{"checkinsCount":"6","usersCount":"6","tipCount":"0"},"specials":{"count":"0"},"hereNow":{"count":"0"},"referralId":"v-1392478066"},{"id":"4c593d6767ac0f474ab1034c","name":"Homes & Communities Agency","location":{"address":"110 Buckingham Palace Road","lat":"51.494133","lng":"-0.147583","distance":"23","cc":"GB","city":"London","state":"Greater London","country":"United Kingdom"},"categories":[{"id":"4bf58dd8d48988d126941735","name":"Government Building","pluralName":"Government Buildings","shortName":"Government","icon":{"prefix":"https:\/\/ss1.4sqi.net\/img\/categories_v2\/building\/government_","suffix":".png"},"primary":"true"}],"verified":"false","restricted":"true","stats":{"checkinsCount":"1","usersCount":"1","tipCount":"0"},"specials":{"count":"0"},"hereNow":{"count":"0"},"referralId":"v-1392478066"},{"id":"4fc75976e4b0da556a800210","name":"Hobs Reprographics","location":{"address":"Grosvenor Gardens 9-11","lat":"51.49417907131351","lng":"-0.14630651075745335","distance":"104","cc":"GB","country":"United Kingdom"},"categories":[{"id":"4bf58dd8d48988d124941735","name":"Office","pluralName":"Offices","shortName":"Office","icon":{"prefix":"https:\/\/ss1.4sqi.net\/img\/categories_v2\/building\/default_","suffix":".png"},"primary":"true"}],"verified":"false","restricted":"true","stats":{"checkinsCount":"13","usersCount":"3","tipCount":"0"},"specials":{"count":"0"},"hereNow":{"count":"0"},"referralId":"v-1392478066"}],"confident":"true"}}