{"meta":{"code":"200"},"response":{"venues":[{"id":"4b7aef0df964a52011472fe3","name":"TfL Bus 133","location":{"address":"Moving Target!","lat":"51.49944433967644","lng":"-0.0933774494506706","distance":"43","cc":"GB","city":"London","state":"Greater London","country":"United Kingdom"},"categories":[{"id":"4bf58dd8d48988d12b951735","name":"Bus Line","pluralName":"Bus Lines","shortName":"Bus","icon":{"prefix":"https:\/\/ss1.4sqi.net\/img\/categories_v2\/travel\/busstation_","suffix":".png"},"primary":"true"}],"verified":"false","restricted":"true","stats":{"checkinsCount":"1144","usersCount":"218","tipCount":"8"},"specials":{"count":"0"},"hereNow":{"count":"0"},"referralId":"v-1392478058"},{"id":"4dad425f316a21694cd4c5bc","name":"Trinity Church Square Garden","location":{"address":"Trinity Church Square","lat":"51.49864484479821","lng":"-0.09381294250488281","distance":"100","postalCode":"SE1 4HY","cc":"GB","city":"London","state":"Greater London","country":"United Kingdom"},"categories":[{"id":"4bf58dd8d48988d15a941735","name":"Garden","pluralName":"Gardens","shortName":"Garden","icon":{"prefix":"https:\/\/ss1.4sqi.net\/img\/categories_v2\/parks_outdoors\/garden_","suffix":".png"},"primary":"true"}],"verified":"false","restricted":"true","stats":{"checkinsCount":"548","usersCount":"70","tipCount":"3"},"specials":{"count":"0"},"hereNow":{"count":"0"},"referralId":"v-1392478058"},{"id":"4bcc43373740b713faaa6365","name":"Vivo Miles","location":{"lat":"51.499616578186334","lng":"-0.09302329045782476","distance":"39","cc":"GB","city":"Camberwell","state":"Greater London","country":"United Kingdom"},"categories":[{"id":"4bf58dd8d48988d125941735","name":"Tech Startup","pluralName":"Tech Startups","shortName":"Tech Startup","icon":{"prefix":"https:\/\/ss1.4sqi.net\/img\/categories_v2\/shops\/technology_","suffix":".png"},"primary":"true"}],"verified":"false","restricted":"true","stats":{"checkinsCount":"208","usersCount":"13","tipCount":"1"},"specials":{"count":"0"},"hereNow":{"count":"0"},"referralId":"v-1392478058"},{"id":"4df7a067e4cd500714445bb5","name":"Borough","location":{"address":"Everywhere!","lat":"51.50063894332691","lng":"-0.09201298937140845","distance":"159","cc":"GB","city":"Borough","state":"Greater London","country":"United Kingdom"},"categories":[{"id":"4f2a25ac4b909258e854f55f","name":"Neighborhood","pluralName":"Neighborhoods","shortName":"Neighborhood","icon":{"prefix":"https:\/\/ss1.4sqi.net\/img\/categories_v2\/parks_outdoors\/neighborhood_","suffix":".png"},"primary":"true"}],"verified":"false","restricted":"true","stats":{"checkinsCount":"1107","usersCount":"256","tipCount":"1"},"specials":{"count":"0"},"hereNow":{"count":"0"},"referralId":"v-1392478058"},{"id":"4b4c776df964a520b1b326e3","name":"Suburb","contact":{"phone":"+442072340637","formattedPhone":"+44 20 7234 0637","twitter":"wearesuburb"},"location":{"address":"6-8 Cole St","lat":"51.499604","lng":"-0.09299","distance":"37","postalCode":"SE1 4YH","cc":"GB","city":"London","state":"Greater London","country":"United Kingdom"},"categories":[{"id":"4bf58dd8d48988d124941735","name":"Office","pluralName":"Offices","shortName":"Office","icon":{"prefix":"https:\/\/ss1.4sqi.net\/img\/categories_v2\/building\/default_","suffix":".png"},"primary":"true"}],"verified":"true","restricted":"true","stats":{"checkinsCount":"301","usersCount":"25","tipCount":"1"},"url":"http:\/\/wearesuburb.com","specials":{"count":"0"},"hereNow":{"count":"0"},"referralId":"v-1392478058"},{"id":"4f0ad6a9e4b00a27545bd1ed","name":"Conjure","contact":{"twitter":"conjure"},"location":{"address":"16 Cole Street","lat":"51.49926307832375","lng":"-0.09263637324629047","distance":"11","postalCode":"SE1 4YH","cc":"GB","city":"London","state":"Greater London","country":"United Kingdom"},"categories":[{"id":"4bf58dd8d48988d124941735","name":"Office","pluralName":"Offices","shortName":"Office","icon":{"prefix":"https:\/\/ss1.4sqi.net\/img\/categories_v2\/building\/default_","suffix":".png"},"primary":"true"}],"verified":"true","restricted":"true","stats":{"checkinsCount":"309","usersCount":"21","tipCount":"2"},"specials":{"count":"0"},"hereNow":{"count":"0"},"venuePage":{"id":"66913734"},"referralId":"v-1392478058"},{"id":"4ae6071af964a5202ba421e3","name":"Royal Oak","contact":{"phone":"+442073577173","formattedPhone":"+44 20 7357 7173"},"location":{"address":"42 Tabard St","lat":"51.500095833333326","lng":"-0.091429","distance":"130","postalCode":"SE1 4JU","cc":"GB","city":"Borough","state":"Greater London","country":"United Kingdom"},"categories":[{"id":"4bf58dd8d48988d11b941735","name":"Pub","pluralName":"Pubs","shortName":"Pub","icon":{"prefix":"https:\/\/ss1.4sqi.net\/img\/categories_v2\/nightlife\/pub_","suffix":".png"},"primary":"true"}],"verified":"false","restricted":"true","stats":{"checkinsCount":"688","usersCount":"468","tipCount":"13"},"menu":{"type":"Menu","label":"Menu","anchor":"View Menu","url":"https:\/\/foursquare.com\/v\/royal-oak\/4ae6071af964a5202ba421e3\/menu","mobileUrl":"https:\/\/foursquare.com\/v\/4ae6071af964a5202ba421e3\/device_menu"},"specials":{"count":"0"},"hereNow":{"count":"1","groups":[{"type":"others","name":"Other people here","count":"1"}]},"referralId":"v-1392478058"},{"id":"4b71575af964a520e6412de3","name":"Starbucks","contact":{"twitter":"starbucksuk"},"location":{"address":"223-227 Borough High St","lat":"51.5007286626542","lng":"-0.0935983657836914","distance":"169","postalCode":"SE1 1JD","cc":"GB","city":"Borough","state":"Greater London","country":"United Kingdom"},"categories":[{"id":"4bf58dd8d48988d1e0931735","name":"Coffee Shop","pluralName":"Coffee Shops","shortName":"Coffee Shop","icon":{"prefix":"https:\/\/ss1.4sqi.net\/img\/categories_v2\/food\/coffeeshop_","suffix":".png"},"primary":"true"}],"verified":"true","restricted":"true","stats":{"checkinsCount":"1742","usersCount":"799","tipCount":"15"},"url":"http:\/\/starbucks.co.uk","specials":{"count":"0"},"hereNow":{"count":"0"},"storeId":"12809","referralId":"v-1392478058"},{"id":"4ca495c7b0ff8cfa13ecc05e","name":"Great Dover Street Apartments","location":{"address":"165 Great Dover Street","lat":"51.49814102440012","lng":"-0.08969189795624395","distance":"250","postalCode":"SE1 4XA","cc":"GB","city":"London","state":"Greater London","country":"United Kingdom"},"categories":[{"id":"4bf58dd8d48988d1a3941735","name":"College Residence Hall","pluralName":"College Residence Halls","shortName":"Residence Hall","icon":{"prefix":"https:\/\/ss1.4sqi.net\/img\/categories_v2\/education\/residencehall_","suffix":".png"},"primary":"true"}],"verified":"false","restricted":"true","stats":{"checkinsCount":"2389","usersCount":"163","tipCount":"9"},"specials":{"count":"0"},"hereNow":{"count":"0"},"referralId":"v-1392478058"},{"id":"4c321a19ac0ab7138f651c1e","name":"Dover Castle","contact":{"phone":"+442074037773","formattedPhone":"+44 20 7403 7773"},"location":{"address":"6 Great Dover St.","lat":"51.500525750063325","lng":"-0.09237747558236577","distance":"140","postalCode":"SE1 4XW","cc":"GB","city":"Borough","state":"Greater London","country":"United Kingdom"},"categories":[{"id":"4bf58dd8d48988d11b941735","name":"Pub","pluralName":"Pubs","shortName":"Pub","icon":{"prefix":"https:\/\/ss1.4sqi.net\/img\/categories_v2\/nightlife\/pub_","suffix":".png"},"primary":"true"}],"verified":"false","restricted":"true","stats":{"checkinsCount":"558","usersCount":"290","tipCount":"9"},"specials":{"count":"0"},"hereNow":{"count":"0"},"referralId":"v-1392478058"},{"id":"4b97a4f2f964a520530d35e3","name":"Tesco Express","contact":{"phone":"+448450269759","formattedPhone":"+44 845 026 9759","twitter":"uktescooffers"},"location":{"address":"34 Long Lane","lat":"51.50090022452586","lng":"-0.0911345484141877","distance":"213","postalCode":"SE1 4AU","cc":"GB","city":"London","state":"Greater London","country":"United Kingdom"},"categories":[{"id":"4bf58dd8d48988d118951735","name":"Grocery Store","pluralName":"Grocery Stores","shortName":"Grocery Store","icon":{"prefix":"https:\/\/ss1.4sqi.net\/img\/categories_v2\/shops\/food_grocery_","suffix":".png"},"primary":"true"}],"verified":"true","restricted":"true","stats":{"checkinsCount":"849","usersCount":"282","tipCount":"12"},"url":"http:\/\/www.tesco.com","specials":{"count":"0"},"hereNow":{"count":"0"},"storeId":"5518","referralId":"v-1392478058"},{"id":"4aec9f4bf964a52091c921e3","name":"The Roebuck","contact":{"phone":"+442073577324","formattedPhone":"+44 20 7357 7324"},"location":{"address":"50 Great Dover St.","lat":"51.49804372578769","lng":"-0.09054601192474365","distance":"208","postalCode":"SE1 4YG","cc":"GB","city":"Borough","state":"Greater London","country":"United Kingdom"},"categories":[{"id":"4bf58dd8d48988d11b941735","name":"Pub","pluralName":"Pubs","shortName":"Pub","icon":{"prefix":"https:\/\/ss1.4sqi.net\/img\/categories_v2\/nightlife\/pub_","suffix":".png"},"primary":"true"}],"verified":"false","restricted":"true","stats":{"checkinsCount":"1788","usersCount":"678","tipCount":"26"},"specials":{"count":"0"},"hereNow":{"count":"0"},"referralId":"v-1392478058"},{"id":"4ad615ccf964a520fe0421e3","name":"The Trinity","contact":{"phone":"+442074071204","formattedPhone":"+44 20 7407 1204","twitter":"trinityborough"},"location":{"address":"202-206 Borough High St.","lat":"51.50104924156018","lng":"-0.09381294250488281","distance":"208","postalCode":"SE1 1JX","cc":"GB","city":"London","state":"Greater London","country":"United Kingdom"},"categories":[{"id":"4bf58dd8d48988d11b941735","name":"Pub","pluralName":"Pubs","shortName":"Pub","icon":{"prefix":"https:\/\/ss1.4sqi.net\/img\/categories_v2\/nightlife\/pub_","suffix":".png"},"primary":"true"}],"verified":"false","restricted":"true","stats":{"checkinsCount":"1198","usersCount":"490","tipCount":"9"},"url":"http:\/\/www.thetrinity.co.uk","specials":{"count":"0"},"hereNow":{"count":"0"},"referralId":"v-1392478058"},{"id":"4bd55a915631c9b62af2a330","name":"TfL Bus 40","contact":{"phone":"+443432221234","formattedPhone":"+44 343 222 1234","twitter":"tflbusalerts"},"location":{"address":"Moving Target!","lat":"51.501022526737486","lng":"-0.09346961975097656","distance":"198","cc":"GB","city":"London","state":"Greater London","country":"United Kingdom"},"categories":[{"id":"4bf58dd8d48988d12b951735","name":"Bus Line","pluralName":"Bus Lines","shortName":"Bus","icon":{"prefix":"https:\/\/ss1.4sqi.net\/img\/categories_v2\/travel\/busstation_","suffix":".png"},"primary":"true"}],"verified":"false","restricted":"true","stats":{"checkinsCount":"951","usersCount":"99","tipCount":"3"},"url":"http:\/\/tfl.gov.uk","specials":{"count":"0"},"hereNow":{"count":"0"},"referralId":"v-1392478058"},{"id":"4c254058f7ced13a124a246d","name":"Marlin Apartments","contact":{"phone":"+442073784840","formattedPhone":"+44 20 7378 4840"},"location":{"address":"34 Long Lane","lat":"51.50088895238906","lng":"-0.09119510650634766","distance":"210","postalCode":"SE1 4NA","cc":"GB","city":"London","state":"Greater London","country":"United Kingdom"},"categories":[{"id":"4bf58dd8d48988d1fa931735","name":"Hotel","pluralName":"Hotels","shortName":"Hotel","icon":{"prefix":"https:\/\/ss1.4sqi.net\/img\/categories_v2\/travel\/hotel_","suffix":".png"},"primary":"true"}],"verified":"false","restricted":"true","stats":{"checkinsCount":"668","usersCount":"228","tipCount":"6"},"specials":{"count":"0"},"hereNow":{"count":"0"},"referralId":"v-1392478058"},{"id":"52d9bb78498eca66835ca876","name":"Anzhelika London","location":{"lat":"51.500157","lng":"-0.093414","distance":"105","cc":"GB","country":"United Kingdom"},"categories":[{"id":"4eb1daf44b900d56c88a4600","name":"Fair","pluralName":"Fairs","shortName":"Fair","icon":{"prefix":"https:\/\/ss1.4sqi.net\/img\/categories_v2\/building\/fair_","suffix":".png"},"primary":"true"}],"verified":"false","restricted":"true","stats":{"checkinsCount":"3","usersCount":"2","tipCount":"0"},"specials":{"count":"0"},"hereNow":{"count":"0"},"referralId":"v-1392478058"},{"id":"4bd564856f6495212cf76eec","name":"Cetc Borough","location":{"lat":"51.49937","lng":"-0.092652","distance":"13","cc":"GB","city":"Camberwell","state":"Greater London","country":"United Kingdom"},"categories":[{"id":"4f2a25ac4b909258e854f55f","name":"Neighborhood","pluralName":"Neighborhoods","shortName":"Neighborhood","icon":{"prefix":"https:\/\/ss1.4sqi.net\/img\/categories_v2\/parks_outdoors\/neighborhood_","suffix":".png"},"primary":"true"}],"verified":"false","restricted":"true","stats":{"checkinsCount":"14","usersCount":"3","tipCount":"0"},"specials":{"count":"0"},"hereNow":{"count":"0"},"referralId":"v-1392478058"},{"id":"4cebb3c2f1c6236aac4571f0","name":"Borough Station Great Dover Street Bus Stop","location":{"address":"190 Great Dover St","lat":"51.50100692076669","lng":"-0.09327449652072545","distance":"194","postalCode":"SE1 4","cc":"GB","city":"Camberwell","state":"Greater London","country":"United Kingdom"},"categories":[{"id":"4bf58dd8d48988d12b951735","name":"Bus Line","pluralName":"Bus Lines","shortName":"Bus","icon":{"prefix":"https:\/\/ss1.4sqi.net\/img\/categories_v2\/travel\/busstation_","suffix":".png"},"primary":"true"}],"verified":"false","restricted":"true","stats":{"checkinsCount":"423","usersCount":"212","tipCount":"1"},"specials":{"count":"0"},"hereNow":{"count":"0"},"referralId":"v-1392478058"},{"id":"50899fdbe4b01ceeb210a3a3","name":"18 Cheryl Cole Street","location":{"lat":"51.499364","lng":"-0.092719","distance":"10","cc":"GB","country":"United Kingdom"},"categories":[{"id":"4bf58dd8d48988d1d8941735","name":"Gay Bar","pluralName":"Gay Bars","shortName":"Gay Bar","icon":{"prefix":"https:\/\/ss1.4sqi.net\/img\/categories_v2\/nightlife\/gaybar_","suffix":".png"},"primary":"true"}],"verified":"false","restricted":"true","stats":{"checkinsCount":"114","usersCount":"7","tipCount":"1"},"specials":{"count":"0"},"hereNow":{"count":"0"},"referralId":"v-1392478058"},{"id":"4bcdb0eecc8cd13a9de9c2cf","name":"Lola's Cupcakes","location":{"address":"16 Landsdowne Row","lat":"51.499176","lng":"-0.09177","distance":"72","postalCode":"W1J 8QF","cc":"GB","city":"London","state":"Greater London","country":"United Kingdom"},"categories":[{"id":"4bf58dd8d48988d1bc941735","name":"Cupcake Shop","pluralName":"Cupcake Shops","shortName":"Cupcakes","icon":{"prefix":"https:\/\/ss1.4sqi.net\/img\/categories_v2\/food\/cupcakes_","suffix":".png"},"primary":"true"}],"verified":"false","restricted":"true","stats":{"checkinsCount":"26","usersCount":"25","tipCount":"2"},"specials":{"count":"0"},"hereNow":{"count":"0"},"referralId":"v-1392478058"},{"id":"4ac518f7f964a520bcaf20e3","name":"Prospero House","location":{"address":"241 High St.","lat":"51.50075528595568","lng":"-0.09377244611688224","distance":"176","postalCode":"SE1 1GA","cc":"GB","city":"Borough","state":"Greater London","country":"United Kingdom"},"categories":[{"id":"4bf58dd8d48988d124941735","name":"Office","pluralName":"Offices","shortName":"Office","icon":{"prefix":"https:\/\/ss1.4sqi.net\/img\/categories_v2\/building\/default_","suffix":".png"},"primary":"true"}],"verified":"false","restricted":"true","stats":{"checkinsCount":"821","usersCount":"367","tipCount":"5"},"specials":{"count":"0"},"hereNow":{"count":"0"},"referralId":"v-1392478058"},{"id":"4bc611bbbf29c9b65832f92a","name":"The Internet works (UK) Ltd","location":{"address":"Studio 2, 6-8 Cole Street London","lat":"51.49933946133651","lng":"-0.09312629699707031","distance":"23","cc":"GB","city":"se1 4yh","country":"United Kingdom"},"verified":"false","restricted":"true","stats":{"checkinsCount":"28","usersCount":"8","tipCount":"1"},"specials":{"count":"0"},"hereNow":{"count":"0"},"referralId":"v-1392478058"},{"id":"4ec4fb920aaf9233ed9d0e78","name":"iBlocks Ltd","location":{"address":"28A Cole St, Southwark, London SE1 4YH","lat":"51.49923708902797","lng":"-0.09258490880771125","distance":"16","postalCode":"SE1","cc":"GB","city":"London","state":"Greater London","country":"United Kingdom"},"categories":[{"id":"4bf58dd8d48988d124941735","name":"Office","pluralName":"Offices","shortName":"Office","icon":{"prefix":"https:\/\/ss1.4sqi.net\/img\/categories_v2\/building\/default_","suffix":".png"},"primary":"true"}],"verified":"false","restricted":"true","stats":{"checkinsCount":"112","usersCount":"6","tipCount":"0"},"specials":{"count":"0"},"hereNow":{"count":"0"},"referralId":"v-1392478058"},{"id":"4d00fc820457b1f7d1413478","name":"Empire Square","location":{"lat":"51.50052180202359","lng":"-0.09110884233914127","distance":"180","postalCode":"SE1 4NA","cc":"GB","city":"Camberwell","state":"Greater London","country":"United Kingdom"},"categories":[{"id":"4bf58dd8d48988d1fa931735","name":"Hotel","pluralName":"Hotels","shortName":"Hotel","icon":{"prefix":"https:\/\/ss1.4sqi.net\/img\/categories_v2\/travel\/hotel_","suffix":".png"},"primary":"true"}],"verified":"false","restricted":"true","stats":{"checkinsCount":"199","usersCount":"61","tipCount":"1"},"specials":{"count":"0"},"hereNow":{"count":"0"},"referralId":"v-1392478058"},{"id":"4c2632eca852c9287625e66c","name":"Henry Wood Hall","location":{"address":"Trinity Church Square","lat":"51.498727","lng":"-0.093814","distance":"93","cc":"GB","city":"Camberwell","state":"Greater London","country":"United Kingdom"},"categories":[{"id":"4bf58dd8d48988d171941735","name":"Event Space","pluralName":"Event Spaces","shortName":"Event Space","icon":{"prefix":"https:\/\/ss1.4sqi.net\/img\/categories_v2\/building\/eventspace_","suffix":".png"},"primary":"true"}],"verified":"false","restricted":"true","stats":{"checkinsCount":"127","usersCount":"49","tipCount":"1"},"specials":{"count":"0"},"hereNow":{"count":"0"},"referralId":"v-1392478058"},{"id":"4b9623b7f964a5200dbe34e3","name":"Caf\u00e9 Riva","contact":{"phone":"+442074070737","formattedPhone":"+44 20 7407 0737"},"location":{"address":"200 High St.","lat":"51.50108931376486","lng":"-0.09368419647216797","distance":"209","postalCode":"SE1 1JX","cc":"GB","city":"Borough","state":"Greater London","country":"United Kingdom"},"categories":[{"id":"4bf58dd8d48988d16d941735","name":"Caf\u00e9","pluralName":"Caf\u00e9s","shortName":"Caf\u00e9","icon":{"prefix":"https:\/\/ss1.4sqi.net\/img\/categories_v2\/food\/cafe_","suffix":".png"},"primary":"true"}],"verified":"false","restricted":"true","stats":{"checkinsCount":"245","usersCount":"93","tipCount":"11"},"specials":{"count":"0"},"hereNow":{"count":"0"},"referralId":"v-1392478058"},{"id":"4e53ee1a6284ca6a2f77334b","name":"Chicken Cottage","location":{"address":"226 Borough High Street","lat":"51.50070194764357","lng":"-0.09398460388183594","distance":"177","postalCode":"SE1 1JX","cc":"GB","city":"Camberwell","state":"Greater London","country":"United Kingdom"},"categories":[{"id":"4d4ae6fc7a7b7dea34424761","name":"Fried Chicken Joint","pluralName":"Fried Chicken Joints","shortName":"Fried Chicken","icon":{"prefix":"https:\/\/ss1.4sqi.net\/img\/categories_v2\/food\/friedchicken_","suffix":".png"},"primary":"true"}],"verified":"false","restricted":"true","stats":{"checkinsCount":"74","usersCount":"49","tipCount":"0"},"specials":{"count":"0"},"hereNow":{"count":"0"},"referralId":"v-1392478058"},{"id":"4c3f4d1dda3dc9284baec5b9","name":"Marshalsea Prison Wall","location":{"address":"Tabard St","crossStreet":"Long Lane","lat":"51.49951902862588","lng":"-0.09309704761130332","distance":"32","postalCode":"SE1 4","cc":"GB","city":"Borough","state":"Greater London","country":"United Kingdom"},"categories":[{"id":"4bf58dd8d48988d166941735","name":"Sculpture Garden","pluralName":"Sculpture Gardens","shortName":"Sculpture","icon":{"prefix":"https:\/\/ss1.4sqi.net\/img\/categories_v2\/parks_outdoors\/sculpture_","suffix":".png"},"primary":"true"}],"verified":"false","restricted":"true","stats":{"checkinsCount":"6","usersCount":"4","tipCount":"3"},"specials":{"count":"0"},"hereNow":{"count":"0"},"referralId":"v-1392478058"},{"id":"52d8fd70498ef275a1ed4ce7","name":"GSM London","contact":{"phone":"+442085167800","formattedPhone":"+44 20 8516 7800","twitter":"gsmlondon"},"location":{"address":"56 Tabard Street, London","lat":"51.49999","lng":"-0.09209633","distance":"92","postalCode":"SE1 4LG","cc":"GB","country":"United Kingdom"},"categories":[{"id":"4bf58dd8d48988d198941735","name":"College Academic Building","pluralName":"College Academic Buildings","shortName":"Academic Building","icon":{"prefix":"https:\/\/ss1.4sqi.net\/img\/categories_v2\/education\/academicbuilding_","suffix":".png"},"primary":"true"}],"verified":"false","restricted":"true","stats":{"checkinsCount":"2","usersCount":"1","tipCount":"0"},"url":"http:\/\/gsm.org.uk","specials":{"count":"0"},"hereNow":{"count":"0"},"referralId":"v-1392478058"},{"id":"4bdb4cd8c79cc928fa0f82e9","name":"Double Happy","location":{"address":"11 Tabard Street","lat":"51.50084","lng":"-0.091847","distance":"184","postalCode":"SE1 4LA","cc":"GB","city":"London","state":"Greater London","country":"United Kingdom"},"categories":[{"id":"4bf58dd8d48988d145941735","name":"Chinese Restaurant","pluralName":"Chinese Restaurants","shortName":"Chinese","icon":{"prefix":"https:\/\/ss1.4sqi.net\/img\/categories_v2\/food\/chinese_","suffix":".png"},"primary":"true"}],"verified":"false","restricted":"true","stats":{"checkinsCount":"108","usersCount":"32","tipCount":"1"},"specials":{"count":"0"},"hereNow":{"count":"0"},"referralId":"v-1392478058"}],"confident":"true"}}