{"meta":{"code":"200"},"response":{"venues":[{"id":"4eea0a7df9ab8fc95ea3bc38","name":"Chelsea","location":{"address":"Everywhere!","lat":"51.48882208771406","lng":"-0.1688747600292387","distance":"90","postalCode":"SW3","cc":"GB","city":"Chelsea","state":"Greater London","country":"United Kingdom"},"categories":[{"id":"4f2a25ac4b909258e854f55f","name":"Neighborhood","pluralName":"Neighborhoods","shortName":"Neighborhood","icon":{"prefix":"https:\/\/ss1.4sqi.net\/img\/categories_v2\/parks_outdoors\/neighborhood_","suffix":".png"},"primary":"true"}],"verified":"false","restricted":"true","stats":{"checkinsCount":"2756","usersCount":"1182","tipCount":"9"},"url":"http:\/\/www.rbkc.gov.uk","menu":{"type":"Menu","label":"Menu","anchor":"View Menu","url":"https:\/\/foursquare.com\/v\/chelsea\/4eea0a7df9ab8fc95ea3bc38\/menu","mobileUrl":"https:\/\/foursquare.com\/v\/4eea0a7df9ab8fc95ea3bc38\/device_menu"},"specials":{"count":"0"},"hereNow":{"count":"1","groups":[{"type":"others","name":"Other people here","count":"1"}]},"referralId":"v-1392478077"},{"id":"4ac518bdf964a520a5a220e3","name":"Builder's Arms (Geronimo)","contact":{"phone":"+442073499040","formattedPhone":"+44 20 7349 9040","twitter":"mylocalsagpub"},"location":{"address":"13 Britten St.","crossStreet":"at St Luke's St.","lat":"51.4891913","lng":"-0.1679609","distance":"15","postalCode":"SW3 3TY","cc":"GB","city":"Chelsea","state":"Greater London","country":"United Kingdom"},"categories":[{"id":"4bf58dd8d48988d116941735","name":"Bar","pluralName":"Bars","shortName":"Bar","icon":{"prefix":"https:\/\/ss1.4sqi.net\/img\/categories_v2\/nightlife\/bar_","suffix":".png"},"primary":"true"}],"verified":"true","restricted":"true","stats":{"checkinsCount":"776","usersCount":"518","tipCount":"13"},"url":"http:\/\/www.geronimo-inns.co.uk\/thebuildersarms\/","specials":{"count":"0"},"hereNow":{"count":"0"},"referralId":"v-1392478077"},{"id":"4ac518c3f964a52028a420e3","name":"Tom's Kitchen","contact":{"phone":"+442073490202","formattedPhone":"+44 20 7349 0202","facebook":"608220177"},"location":{"address":"27 Cale St.","lat":"51.49051683175955","lng":"-0.16809864392352936","distance":"138","postalCode":"SW3 3QP","cc":"GB","city":"London","state":"Greater London","country":"United Kingdom"},"categories":[{"id":"4bf58dd8d48988d1c4941735","name":"Restaurant","pluralName":"Restaurants","shortName":"Restaurant","icon":{"prefix":"https:\/\/ss1.4sqi.net\/img\/categories_v2\/food\/default_","suffix":".png"},"primary":"true"}],"verified":"true","restricted":"true","stats":{"checkinsCount":"1979","usersCount":"1454","tipCount":"57"},"url":"http:\/\/www.tomskitchen.co.uk\/chelsea","reservations":{"url":"http:\/\/www.toptable.co.uk\/single.aspx?rid=10228&ref=9601"},"menu":{"type":"Menu","label":"Menu","anchor":"View Menu","url":"https:\/\/foursquare.com\/v\/toms-kitchen\/4ac518c3f964a52028a420e3\/menu","mobileUrl":"https:\/\/foursquare.com\/v\/4ac518c3f964a52028a420e3\/device_menu"},"specials":{"count":"0"},"hereNow":{"count":"0"},"storeId":"","referralId":"v-1392478077"},{"id":"4baf51b1f964a5209cf73be3","name":"Chelsea Farmers Market","contact":{"phone":"+442075819722","formattedPhone":"+44 20 7581 9722"},"location":{"address":"125 Sydney St","lat":"51.48790365721089","lng":"-0.16951560974121094","distance":"194","postalCode":"SW3 6NR","cc":"GB","city":"Chelsea","state":"Greater London","country":"United Kingdom"},"categories":[{"id":"4bf58dd8d48988d1fd941735","name":"Mall","pluralName":"Malls","shortName":"Mall","icon":{"prefix":"https:\/\/ss1.4sqi.net\/img\/categories_v2\/shops\/mall_","suffix":".png"},"primary":"true"}],"verified":"false","restricted":"true","stats":{"checkinsCount":"1535","usersCount":"790","tipCount":"13"},"url":"http:\/\/kingsroad.co.uk\/chelseafarmersmarket","specials":{"count":"0"},"hereNow":{"count":"1","groups":[{"type":"others","name":"Other people here","count":"1"}]},"referralId":"v-1392478077"},{"id":"4ae577d7f964a520cca021e3","name":"Starbucks","contact":{"phone":"+442073764678","formattedPhone":"+44 20 7376 4678","twitter":"starbucksuk"},"location":{"address":"123a Kings Rd","lat":"51.488491","lng":"-0.166294","distance":"137","postalCode":"SW3 4PL","cc":"GB","city":"Chelsea","state":"Greater London","country":"United Kingdom"},"categories":[{"id":"4bf58dd8d48988d1e0931735","name":"Coffee Shop","pluralName":"Coffee Shops","shortName":"Coffee Shop","icon":{"prefix":"https:\/\/ss1.4sqi.net\/img\/categories_v2\/food\/coffeeshop_","suffix":".png"},"primary":"true"}],"verified":"true","restricted":"true","stats":{"checkinsCount":"1351","usersCount":"618","tipCount":"10"},"url":"http:\/\/starbucks.co.uk","specials":{"count":"0"},"hereNow":{"count":"0"},"storeId":"12071","referralId":"v-1392478077"},{"id":"4b59ebc3f964a520fda028e3","name":"The Trafalgar","contact":{"phone":"+442073491831","formattedPhone":"+44 20 7349 1831"},"location":{"address":"200 King's Rd","crossStreet":"at Flood St","lat":"51.48810407567057","lng":"-0.16713380813598633","distance":"139","postalCode":"SW3 5XP","cc":"GB","city":"Chelsea","state":"Greater London","country":"United Kingdom"},"categories":[{"id":"4bf58dd8d48988d11b941735","name":"Pub","pluralName":"Pubs","shortName":"Pub","icon":{"prefix":"https:\/\/ss1.4sqi.net\/img\/categories_v2\/nightlife\/pub_","suffix":".png"},"primary":"true"}],"verified":"false","restricted":"true","stats":{"checkinsCount":"1365","usersCount":"913","tipCount":"17"},"specials":{"count":"0"},"hereNow":{"count":"0"},"referralId":"v-1392478077"},{"id":"4ac518bcf964a52094a220e3","name":"Chelsea Potter","contact":{"phone":"+442073529479","formattedPhone":"+44 20 7352 9479"},"location":{"address":"119 King's Rd","crossStreet":"near Godfrey St","lat":"51.4886265","lng":"-0.16598582","distance":"145","postalCode":"SW3 4PL","cc":"GB","city":"Kensington","state":"Greater London","country":"United Kingdom"},"categories":[{"id":"4bf58dd8d48988d11b941735","name":"Pub","pluralName":"Pubs","shortName":"Pub","icon":{"prefix":"https:\/\/ss1.4sqi.net\/img\/categories_v2\/nightlife\/pub_","suffix":".png"},"primary":"true"}],"verified":"false","restricted":"true","stats":{"checkinsCount":"1233","usersCount":"745","tipCount":"7"},"specials":{"count":"0"},"hereNow":{"count":"0"},"referralId":"v-1392478077"},{"id":"4bfa4ead4a67c928b90928cf","name":"Waitrose","contact":{"phone":"+442073512775","formattedPhone":"+44 20 7351 2775","twitter":"waitroseuk"},"location":{"address":"196 Kings Rd.","lat":"51.488296793213934","lng":"-0.1668390071424337","distance":"129","postalCode":"SW3 5XP","cc":"GB","city":"Chelsea","state":"Greater London","country":"United Kingdom"},"categories":[{"id":"4bf58dd8d48988d118951735","name":"Grocery Store","pluralName":"Grocery Stores","shortName":"Grocery Store","icon":{"prefix":"https:\/\/ss1.4sqi.net\/img\/categories_v2\/shops\/food_grocery_","suffix":".png"},"primary":"true"}],"verified":"false","restricted":"true","stats":{"checkinsCount":"1182","usersCount":"389","tipCount":"8"},"url":"http:\/\/www.waitrose.com","specials":{"count":"0"},"hereNow":{"count":"0"},"referralId":"v-1392478077"},{"id":"4bc22283abf49521cf06c293","name":"The Sydney Arms","location":{"address":"Sydney street","lat":"51.488735","lng":"-0.169638","distance":"141","postalCode":"Sw3","cc":"GB","city":"Chelsea","state":"Greater London","country":"United Kingdom"},"categories":[{"id":"4bf58dd8d48988d11b941735","name":"Pub","pluralName":"Pubs","shortName":"Pub","icon":{"prefix":"https:\/\/ss1.4sqi.net\/img\/categories_v2\/nightlife\/pub_","suffix":".png"},"primary":"true"}],"verified":"false","restricted":"true","stats":{"checkinsCount":"502","usersCount":"336","tipCount":"5"},"specials":{"count":"0"},"hereNow":{"count":"0"},"referralId":"v-1392478077"},{"id":"4ba4eb0ff964a520e9c238e3","name":"Anthropologie","contact":{"phone":"+442073493110","formattedPhone":"+44 20 7349 3110"},"location":{"address":"131-141 Kings Road","lat":"51.487999765390576","lng":"-0.16654405822429913","distance":"167","postalCode":"SW3 4PW","cc":"GB","city":"Kensington","state":"Greater London","country":"United Kingdom"},"categories":[{"id":"4bf58dd8d48988d1f6941735","name":"Department Store","pluralName":"Department Stores","shortName":"Department Store","icon":{"prefix":"https:\/\/ss1.4sqi.net\/img\/categories_v2\/shops\/departmentstore_","suffix":".png"},"primary":"true"}],"verified":"true","restricted":"true","stats":{"checkinsCount":"573","usersCount":"398","tipCount":"5"},"specials":{"count":"0"},"hereNow":{"count":"0"},"storeId":"","referralId":"v-1392478077"},{"id":"4c4700e431e41b8d325f4b35","name":"Chelsea Green","location":{"lat":"51.49068468338339","lng":"-0.16618874193303643","distance":"191","postalCode":"SW3 3QT","cc":"GB","city":"London","state":"Greater London","country":"United Kingdom"},"categories":[{"id":"4bf58dd8d48988d164941735","name":"Plaza","pluralName":"Plazas","shortName":"Plaza","icon":{"prefix":"https:\/\/ss1.4sqi.net\/img\/categories_v2\/parks_outdoors\/plaza_","suffix":".png"},"primary":"true"}],"verified":"false","restricted":"true","stats":{"checkinsCount":"468","usersCount":"115","tipCount":"4"},"specials":{"count":"0"},"hereNow":{"count":"0"},"referralId":"v-1392478077"},{"id":"5235a09411d201dc7274bca9","name":"L'Eto","location":{"address":"King's Road","lat":"51.48802393733529","lng":"-0.1673313994240052","distance":"144","cc":"GB","country":"United Kingdom"},"categories":[{"id":"4bf58dd8d48988d16d941735","name":"Caf\u00e9","pluralName":"Caf\u00e9s","shortName":"Caf\u00e9","icon":{"prefix":"https:\/\/ss1.4sqi.net\/img\/categories_v2\/food\/cafe_","suffix":".png"},"primary":"true"}],"verified":"false","restricted":"true","stats":{"checkinsCount":"71","usersCount":"62","tipCount":"1"},"specials":{"count":"0"},"hereNow":{"count":"0"},"referralId":"v-1392478077"},{"id":"4b4077d4f964a52068b825e3","name":"st luke's playground","location":{"address":"Cale st","lat":"51.49012527185717","lng":"-0.1692622750710309","distance":"137","postalCode":"Sw3","cc":"GB","city":"London","state":"Greater London","country":"United Kingdom"},"categories":[{"id":"4bf58dd8d48988d1e7941735","name":"Playground","pluralName":"Playgrounds","shortName":"Playground","icon":{"prefix":"https:\/\/ss1.4sqi.net\/img\/categories_v2\/parks_outdoors\/playground_","suffix":".png"},"primary":"true"}],"verified":"false","restricted":"true","stats":{"checkinsCount":"165","usersCount":"83","tipCount":"0"},"specials":{"count":"0"},"hereNow":{"count":"0"},"referralId":"v-1392478077"},{"id":"4ad0afb2f964a5201bd920e3","name":"Curzon","contact":{"phone":"+443305001331","formattedPhone":"+44 330 500 1331"},"location":{"address":"206 Kings Rd","lat":"51.48807544472989","lng":"-0.1677213277098432","distance":"135","postalCode":"SW3 5XP","cc":"GB","city":"Chelsea","state":"Greater London","country":"United Kingdom"},"categories":[{"id":"4bf58dd8d48988d17e941735","name":"Indie Movie Theater","pluralName":"Indie Movie Theaters","shortName":"Indie Theater","icon":{"prefix":"https:\/\/ss1.4sqi.net\/img\/categories_v2\/arts_entertainment\/movietheater_indietheater_","suffix":".png"},"primary":"true"}],"verified":"false","restricted":"true","stats":{"checkinsCount":"416","usersCount":"289","tipCount":"4"},"url":"http:\/\/www.curzoncinemas.com\/cinemas\/chelsea\/","specials":{"count":"0"},"events":{"count":"1","summary":"The Monuments Men","items":[{"id":"52f995a6498e8438231983ff","name":"The Monuments Men","categories":[{"id":"4dfb90c6bd413dd705e8f897","name":"Movie","pluralName":"Movies","shortName":"Movie","icon":{"prefix":"https:\/\/ss1.4sqi.net\/img\/categories_v2\/arts_entertainment\/movietheater_","suffix":".png"},"primary":"true"}],"allDay":"true","date":"1392336000","timeZone":"Europe\/London","summary":"... 3:40pm, 6:20pm, 9:00pm","text":"Based on the true story of the greatest treasure hunt in history, the film is an action drama focusing on an unlikely World War II platoon, tasked by FDR with going into Germany to rescue artistic masterpieces from Nazi thieves and returning them to their rightful owners.  It would be an impossible mission: with the art trapped behind enemy lines, and with the German army under orders to destroy everything as the Reich fell, how could these guys - seven museum directors, curators, and art historians, all more familiar with Michelangelo than the M-1 - possibly hope to succeed?  But as the Monuments Men, as they were called, found themselves in a race against time to avoid the destruction of 1000 years of culture, they would risk their lives to protect and defend mankind's greatest achievements.","images":["https:\/\/playfoursquare.s3.amazonaws.com\/events\/images\/cinemasource\/155199h1.jpg"],"stats":{"checkinsCount":"0","usersCount":"0"},"participants":[{"participant":{"id":"50db5d467e27899356abfc76","displayName":"The Monuments Men","images":["https:\/\/playfoursquare.s3.amazonaws.com\/events\/images\/cinemasource\/155199h1.jpg","https:\/\/playfoursquare.s3.amazonaws.com\/events\/images\/cinemasource\/155199h2.jpg","https:\/\/playfoursquare.s3.amazonaws.com\/events\/images\/cinemasource\/155199h3.jpg","https:\/\/playfoursquare.s3.amazonaws.com\/events\/images\/cinemasource\/155199h4.jpg","https:\/\/playfoursquare.s3.amazonaws.com\/events\/images\/cinemasource\/155199h5.jpg"],"totalEvents":"0"},"role":"movie"}],"genres":"Action\/Adventure, Drama, Comedy","rating":"PG-13","runningTime":"110"}]},"hereNow":{"count":"0"},"referralId":"v-1392478077"},{"id":"4ac518f7f964a5208eaf20e3","name":"Chelsea Sports Centre","contact":{"phone":"+442073526985","formattedPhone":"+44 20 7352 6985"},"location":{"address":"Chelsea Manor Street","lat":"51.48744901720209","lng":"-0.16758034846064393","distance":"205","postalCode":"SW3 5PL","cc":"GB","city":"London","state":"Greater London","country":"United Kingdom"},"categories":[{"id":"4bf58dd8d48988d175941735","name":"Gym \/ Fitness Center","pluralName":"Gyms or Fitness Centers","shortName":"Gym \/ Fitness","icon":{"prefix":"https:\/\/ss1.4sqi.net\/img\/categories_v2\/building\/gym_","suffix":".png"},"primary":"true"}],"verified":"false","restricted":"true","stats":{"checkinsCount":"770","usersCount":"131","tipCount":"5"},"url":"http:\/\/www.better.org.uk","specials":{"count":"0"},"hereNow":{"count":"0"},"referralId":"v-1392478077"},{"id":"4ac518e8f964a520aeab20e3","name":"Chelsea Old Town Hall","location":{"address":"Kings Rd.","lat":"51.48760689908482","lng":"-0.16820794293529395","distance":"189","postalCode":"SW3 5EE","cc":"GB","city":"London","state":"Greater London","country":"United Kingdom"},"categories":[{"id":"4bf58dd8d48988d12f941735","name":"Library","pluralName":"Libraries","shortName":"Library","icon":{"prefix":"https:\/\/ss1.4sqi.net\/img\/categories_v2\/building\/library_","suffix":".png"},"primary":"true"}],"verified":"false","restricted":"true","stats":{"checkinsCount":"641","usersCount":"409","tipCount":"2"},"specials":{"count":"0"},"hereNow":{"count":"0"},"referralId":"v-1392478077"},{"id":"4c34d132452620a1eac3250f","name":"PizzaExpress","contact":{"phone":"+442073515031","formattedPhone":"+44 20 7351 5031","twitter":"pizzaexpress"},"location":{"address":"The Pheasantry","lat":"51.48898155","lng":"-0.16521799","distance":"182","postalCode":"SW3 4UT","cc":"GB","city":"London","state":"Greater London","country":"United Kingdom"},"categories":[{"id":"4bf58dd8d48988d1ca941735","name":"Pizza Place","pluralName":"Pizza Places","shortName":"Pizza","icon":{"prefix":"https:\/\/ss1.4sqi.net\/img\/categories_v2\/food\/pizza_","suffix":".png"},"primary":"true"}],"verified":"true","restricted":"true","stats":{"checkinsCount":"791","usersCount":"612","tipCount":"13"},"url":"http:\/\/www.pizzaexpress.com","specials":{"count":"0"},"hereNow":{"count":"0"},"storeId":"","referralId":"v-1392478077"},{"id":"4bbb14251261d13a523beb98","name":"Royal Brompton Hospital","location":{"address":"Sydney street","lat":"51.48939401719584","lng":"-0.17072094685102135","distance":"202","cc":"GB","country":"United Kingdom"},"categories":[{"id":"4bf58dd8d48988d196941735","name":"Hospital","pluralName":"Hospitals","shortName":"Hospital","icon":{"prefix":"https:\/\/ss1.4sqi.net\/img\/categories_v2\/building\/medical_hospital_","suffix":".png"},"primary":"true"}],"verified":"false","restricted":"true","stats":{"checkinsCount":"779","usersCount":"264","tipCount":"2"},"specials":{"count":"0"},"hereNow":{"count":"0"},"referralId":"v-1392478077"},{"id":"4b8001fff964a520554a30e3","name":"Marks and Spencer","contact":{"phone":"+442073765634","formattedPhone":"+44 20 7376 5634"},"location":{"address":"85 King's Road","lat":"51.489094644908725","lng":"-0.1648221369225955","distance":"207","postalCode":"SW3 4NX","cc":"GB","city":"Chelsea","state":"Greater London","country":"United Kingdom"},"categories":[{"id":"4bf58dd8d48988d103951735","name":"Clothing Store","pluralName":"Clothing Stores","shortName":"Apparel","icon":{"prefix":"https:\/\/ss1.4sqi.net\/img\/categories_v2\/shops\/apparel_","suffix":".png"},"primary":"true"}],"verified":"true","restricted":"true","stats":{"checkinsCount":"716","usersCount":"335","tipCount":"3"},"specials":{"count":"0"},"hereNow":{"count":"0"},"storeId":"Kings Road","referralId":"v-1392478077"},{"id":"4c29cbb83492a5936466b928","name":"Heartcore","contact":{"phone":"+442074355078","formattedPhone":"+44 20 7435 5078"},"location":{"address":"6 Burnsall St.","lat":"51.48889285398124","lng":"-0.16610795578218251","distance":"125","postalCode":"SW3 3ST","cc":"GB","city":"Chelsea","state":"Greater London","country":"United Kingdom"},"categories":[{"id":"4bf58dd8d48988d175941735","name":"Gym \/ Fitness Center","pluralName":"Gyms or Fitness Centers","shortName":"Gym \/ Fitness","icon":{"prefix":"https:\/\/ss1.4sqi.net\/img\/categories_v2\/building\/gym_","suffix":".png"},"primary":"true"}],"verified":"false","restricted":"true","stats":{"checkinsCount":"191","usersCount":"33","tipCount":"0"},"specials":{"count":"0"},"hereNow":{"count":"0"},"referralId":"v-1392478077"},{"id":"4b6daaa1f964a52096842ce3","name":"Caff\u00e8 Nero","contact":{"phone":"+442073529008","formattedPhone":"+44 20 7352 9008"},"location":{"address":"115 Kings Road","lat":"51.488661","lng":"-0.165849","distance":"152","cc":"GB","city":"London","state":"Greater London","country":"United Kingdom"},"categories":[{"id":"4bf58dd8d48988d1e0931735","name":"Coffee Shop","pluralName":"Coffee Shops","shortName":"Coffee Shop","icon":{"prefix":"https:\/\/ss1.4sqi.net\/img\/categories_v2\/food\/coffeeshop_","suffix":".png"},"primary":"true"}],"verified":"false","restricted":"true","stats":{"checkinsCount":"652","usersCount":"286","tipCount":"7"},"specials":{"count":"0"},"hereNow":{"count":"0"},"referralId":"v-1392478077"},{"id":"4bc07b6dabf49521b944bf93","name":"St Luke's Garden","location":{"address":"Sydney Street","lat":"51.48930528594537","lng":"-0.16927524007209088","distance":"102","postalCode":"SW3 6NH","cc":"GB","city":"Chelsea","state":"Greater London","country":"United Kingdom"},"categories":[{"id":"4bf58dd8d48988d163941735","name":"Park","pluralName":"Parks","shortName":"Park","icon":{"prefix":"https:\/\/ss1.4sqi.net\/img\/categories_v2\/parks_outdoors\/park_","suffix":".png"},"primary":"true"}],"verified":"false","restricted":"true","stats":{"checkinsCount":"382","usersCount":"203","tipCount":"4"},"specials":{"count":"0"},"hereNow":{"count":"0"},"referralId":"v-1392478077"},{"id":"4d3099312748b60ca662dda0","name":"Snog Pure Frozen Yogurt","contact":{"phone":"+442072406225","formattedPhone":"+44 20 7240 6225","twitter":"ifancyasnog","facebook":"153338631029"},"location":{"address":"155 Kings Rd","lat":"51.487925369253254","lng":"-0.16737788915634155","distance":"154","postalCode":"SW3 5TX","cc":"GB","city":"London","state":"Greater London","country":"United Kingdom"},"categories":[{"id":"512e7cae91d4cbb4e5efe0af","name":"Frozen Yogurt","pluralName":"Yogurt","shortName":"Frozen Yogurt","icon":{"prefix":"https:\/\/ss1.4sqi.net\/img\/categories_v2\/food\/default_","suffix":".png"},"primary":"true"}],"verified":"true","restricted":"true","stats":{"checkinsCount":"455","usersCount":"209","tipCount":"5"},"url":"http:\/\/www.ifancyasnog.com","specials":{"count":"0"},"hereNow":{"count":"0"},"storeId":"","referralId":"v-1392478077"},{"id":"4b9f6e47f964a520352237e3","name":"Waterstones","contact":{"phone":"+448432908423","formattedPhone":"+44 843 290 8423","twitter":"waterstones","facebook":"63895785952"},"location":{"address":"150-152 King's Road, Chelsea","lat":"51.48885792391633","lng":"-0.16551027825275974","distance":"166","postalCode":"SW3 3NR","cc":"GB","city":"London","state":"Greater London","country":"United Kingdom"},"categories":[{"id":"4bf58dd8d48988d114951735","name":"Bookstore","pluralName":"Bookstores","shortName":"Bookstore","icon":{"prefix":"https:\/\/ss1.4sqi.net\/img\/categories_v2\/shops\/bookstore_","suffix":".png"},"primary":"true"}],"verified":"true","restricted":"true","stats":{"checkinsCount":"392","usersCount":"251","tipCount":"1"},"url":"http:\/\/www.waterstones.com","specials":{"count":"0"},"hereNow":{"count":"0"},"storeId":"074","referralId":"v-1392478077"},{"id":"4d6bd9829c5337043f2533fa","name":"Mori","contact":{"phone":"+442073511033","formattedPhone":"+44 20 7351 1033","twitter":"morisushiuk"},"location":{"address":"99 Kings Rd","lat":"51.48896098136902","lng":"-0.165173","distance":"185","postalCode":"SW3 4PA","cc":"GB","city":"London","state":"Greater London","country":"United Kingdom"},"categories":[{"id":"4bf58dd8d48988d1d2941735","name":"Sushi Restaurant","pluralName":"Sushi Restaurants","shortName":"Sushi","icon":{"prefix":"https:\/\/ss1.4sqi.net\/img\/categories_v2\/food\/sushi_","suffix":".png"},"primary":"true"}],"verified":"false","restricted":"true","stats":{"checkinsCount":"364","usersCount":"133","tipCount":"4"},"url":"http:\/\/mori.uk.com","menu":{"type":"Menu","label":"Menu","anchor":"View Menu","url":"https:\/\/foursquare.com\/v\/mori\/4d6bd9829c5337043f2533fa\/menu","mobileUrl":"https:\/\/foursquare.com\/v\/4d6bd9829c5337043f2533fa\/device_menu"},"specials":{"count":"0"},"hereNow":{"count":"0"},"referralId":"v-1392478077"},{"id":"4ce4fda476388cfa6f232703","name":"Chelsea Library","location":{"address":"King's Rd","lat":"51.487653399481125","lng":"-0.1687705962037624","distance":"194","cc":"GB","city":"London","state":"Greater London","country":"United Kingdom"},"categories":[{"id":"4bf58dd8d48988d1a7941735","name":"College Library","pluralName":"College Libraries","shortName":"Library","icon":{"prefix":"https:\/\/ss1.4sqi.net\/img\/categories_v2\/building\/library_","suffix":".png"},"primary":"true"}],"verified":"false","restricted":"true","stats":{"checkinsCount":"301","usersCount":"108","tipCount":"3"},"specials":{"count":"0"},"hereNow":{"count":"0"},"referralId":"v-1392478077"},{"id":"4ec3b59329c2f92bf5f6d84a","name":"Habitat","contact":{"phone":"+448444991144","formattedPhone":"+44 844 499 1144"},"location":{"address":"208 King's Rd","lat":"51.48809065009922","lng":"-0.16753801672341978","distance":"134","postalCode":"SW3 5XP","cc":"GB","city":"London","state":"Greater London","country":"United Kingdom"},"categories":[{"id":"4bf58dd8d48988d1f8941735","name":"Furniture \/ Home Store","pluralName":"Furniture \/ Home Stores","shortName":"Furniture \/ Home","icon":{"prefix":"https:\/\/ss1.4sqi.net\/img\/categories_v2\/shops\/furniture_","suffix":".png"},"primary":"true"}],"verified":"false","restricted":"true","stats":{"checkinsCount":"239","usersCount":"160","tipCount":"1"},"url":"http:\/\/www.habitat.co.uk","specials":{"count":"0"},"hereNow":{"count":"0"},"referralId":"v-1392478077"},{"id":"4f897025e4b0089de8dcdefc","name":"Lululemon Athletica","location":{"lat":"51.488918453094065","lng":"-0.16628574297073126","distance":"112","cc":"GB","country":"United Kingdom"},"categories":[{"id":"4bf58dd8d48988d1f2941735","name":"Sporting Goods Shop","pluralName":"Sporting Goods Shops","shortName":"Sporting Goods","icon":{"prefix":"https:\/\/ss1.4sqi.net\/img\/categories_v2\/shops\/sports_outdoors_","suffix":".png"},"primary":"true"}],"verified":"false","restricted":"true","stats":{"checkinsCount":"56","usersCount":"39","tipCount":"2"},"specials":{"count":"0"},"hereNow":{"count":"0"},"referralId":"v-1392478077"},{"id":"51204329e4b0a1ec7f9681a4","name":"Upper West","contact":{"phone":"+447834363888","formattedPhone":"+44 7834 363888"},"location":{"address":"Kings Road","lat":"51.488842546528915","lng":"-0.16542348129610132","distance":"172","cc":"GB","country":"United Kingdom"},"categories":[{"id":"4bf58dd8d48988d11f941735","name":"Nightclub","pluralName":"Nightclubs","shortName":"Nightclub","icon":{"prefix":"https:\/\/ss1.4sqi.net\/img\/categories_v2\/nightlife\/nightclub_","suffix":".png"},"primary":"true"}],"verified":"false","restricted":"true","stats":{"checkinsCount":"157","usersCount":"145","tipCount":"2"},"url":"http:\/\/velvet-pr.com\/guestlists\/upper-west-chelsea\/","specials":{"count":"0"},"hereNow":{"count":"0"},"referralId":"v-1392478077"},{"id":"4da9953a6a2303012ef78763","name":"Heinz Schumi","location":{"address":"18 Britton Street","crossStreet":"Chelsea","lat":"51.48924","lng":"-0.168188","distance":"27","cc":"GB","city":"London","state":"Greater London","country":"United Kingdom"},"categories":[{"id":"4bf58dd8d48988d110951735","name":"Salon \/ Barbershop","pluralName":"Salons \/ Barbershops","shortName":"Salon \/ Barbershop","icon":{"prefix":"https:\/\/ss1.4sqi.net\/img\/categories_v2\/shops\/salon_barber_","suffix":".png"},"primary":"true"}],"verified":"false","restricted":"true","stats":{"checkinsCount":"1","usersCount":"1","tipCount":"0"},"specials":{"count":"0"},"hereNow":{"count":"0"},"referralId":"v-1392478077"}],"confident":"true"}}