{"meta":{"code":"200"},"response":{"venues":[{"id":"4c433cbeaf052d7fd2128079","name":"Battersea Park Lake","location":{"address":"Battersea Park","lat":"51.479218011052446","lng":"-0.15226364135742188","distance":"38","postalCode":"SW11 4BN","cc":"GB","city":"London","state":"Greater London","country":"United Kingdom"},"categories":[{"id":"4bf58dd8d48988d161941735","name":"Lake","pluralName":"Lakes","shortName":"Lake","icon":{"prefix":"https:\/\/ss1.4sqi.net\/img\/categories_v2\/parks_outdoors\/lake_","suffix":".png"},"primary":"true"}],"verified":"false","restricted":"true","stats":{"checkinsCount":"764","usersCount":"591","tipCount":"2"},"specials":{"count":"0"},"hereNow":{"count":"0"},"referralId":"v-1392478105"},{"id":"4ac518cef964a52015a620e3","name":"Battersea Park","contact":{"twitter":"batterseapksw11"},"location":{"address":"Albert Bridge Rd.","lat":"51.479512013817555","lng":"-0.1569843292236328","distance":"290","postalCode":"SW11 4NJ","cc":"GB","city":"London","state":"Greater London","country":"United Kingdom"},"categories":[{"id":"4bf58dd8d48988d163941735","name":"Park","pluralName":"Parks","shortName":"Park","icon":{"prefix":"https:\/\/ss1.4sqi.net\/img\/categories_v2\/parks_outdoors\/park_","suffix":".png"},"primary":"true"}],"verified":"false","restricted":"true","stats":{"checkinsCount":"6816","usersCount":"3344","tipCount":"30"},"specials":{"count":"0"},"hereNow":{"count":"1","groups":[{"type":"others","name":"Other people here","count":"1"}]},"referralId":"v-1392478105"},{"id":"4be957e288ed2d7fabd5cc1d","name":"Battersea Dogs And Cats Home","contact":{"phone":"+442076223626","formattedPhone":"+44 20 7622 3626"},"location":{"address":"4 Battersea Park Rd.","lat":"51.478556435091406","lng":"-0.14580847378629003","distance":"491","postalCode":"SW8 4AA","cc":"GB","city":"London","state":"Greater London","country":"United Kingdom"},"categories":[{"id":"4e52d2d203646f7c19daa8ae","name":"Animal Shelter","pluralName":"Animal Shelters","shortName":"Animal Shelter","icon":{"prefix":"https:\/\/ss1.4sqi.net\/img\/categories_v2\/building\/animalshelter_","suffix":".png"},"primary":"true"}],"verified":"true","restricted":"true","stats":{"checkinsCount":"1320","usersCount":"685","tipCount":"15"},"url":"http:\/\/www.battersea.org.uk","specials":{"count":"0"},"hereNow":{"count":"3","groups":[{"type":"others","name":"Other people here","count":"3"}]},"venuePage":{"id":"44042487"},"storeId":"","referralId":"v-1392478105"},{"id":"4ac518cff964a5206da620e3","name":"The Peace Pagoda","location":{"address":"Battersea Park","lat":"51.48203100527882","lng":"-0.15903353691101074","distance":"528","postalCode":"SW11 4NJ","cc":"GB","city":"London","state":"Greater London","country":"United Kingdom"},"categories":[{"id":"4bf58dd8d48988d12d941735","name":"Monument \/ Landmark","pluralName":"Monuments \/ Landmarks","shortName":"Landmark","icon":{"prefix":"https:\/\/ss1.4sqi.net\/img\/categories_v2\/building\/government_monument_","suffix":".png"},"primary":"true"}],"verified":"false","restricted":"true","stats":{"checkinsCount":"668","usersCount":"398","tipCount":"5"},"specials":{"count":"0"},"hereNow":{"count":"0"},"referralId":"v-1392478105"},{"id":"4f12e398e4b0044a24aef858","name":"La Gondola al Parco","location":{"address":"Battersea Park","lat":"51.47964117885496","lng":"-0.1514050811176391","distance":"104","cc":"GB","country":"United Kingdom"},"categories":[{"id":"4bf58dd8d48988d16d941735","name":"Caf\u00e9","pluralName":"Caf\u00e9s","shortName":"Caf\u00e9","icon":{"prefix":"https:\/\/ss1.4sqi.net\/img\/categories_v2\/food\/cafe_","suffix":".png"},"primary":"true"}],"verified":"false","restricted":"true","stats":{"checkinsCount":"180","usersCount":"122","tipCount":"5"},"specials":{"count":"0"},"hereNow":{"count":"0"},"referralId":"v-1392478105"},{"id":"4ad82178f964a520c81021e3","name":"Battersea Park Railway Station (BAK)","contact":{"phone":"+448457484950","formattedPhone":"+44 845 748 4950","twitter":"nationalrailenq","facebook":"94740547473"},"location":{"address":"Battersea Park Rd","lat":"51.47681246269551","lng":"-0.14745712280273438","distance":"461","postalCode":"SW8 4LJ","cc":"GB","city":"London","state":"Greater London","country":"United Kingdom"},"categories":[{"id":"4bf58dd8d48988d129951735","name":"Train Station","pluralName":"Train Stations","shortName":"Train Station","icon":{"prefix":"https:\/\/ss1.4sqi.net\/img\/categories_v2\/travel\/trainstation_","suffix":".png"},"primary":"true"}],"verified":"true","restricted":"true","stats":{"checkinsCount":"3232","usersCount":"1399","tipCount":"8"},"url":"http:\/\/www.nationalrail.co.uk\/stations\/bak\/details.html","specials":{"count":"0"},"hereNow":{"count":"0"},"storeId":"BAK","referralId":"v-1392478105"},{"id":"4c850e35d92ea093b0156272","name":"Chelsea Bridge Wharf","contact":{"phone":"+442077202600","formattedPhone":"+44 20 7720 2600"},"location":{"address":"380 Queenstown Rd","lat":"51.48221140516388","lng":"-0.1485729217529297","distance":"437","postalCode":"SW8 4PE","cc":"GB","city":"London","state":"Greater London","country":"United Kingdom"},"categories":[{"id":"4d954b06a243a5684965b473","name":"Residential Building (Apartment \/ Condo)","pluralName":"Residential Buildings (Apartments \/ Condos)","shortName":"Residential","icon":{"prefix":"https:\/\/ss1.4sqi.net\/img\/categories_v2\/building\/apartment_","suffix":".png"},"primary":"true"}],"verified":"false","restricted":"true","stats":{"checkinsCount":"3689","usersCount":"852","tipCount":"6"},"specials":{"count":"0"},"hereNow":{"count":"0"},"referralId":"v-1392478105"},{"id":"4cd5a1b4b2a437040f757f44","name":"The Magic Garden","contact":{"phone":"+442076224844","formattedPhone":"+44 20 7622 4844","twitter":"magic_pub"},"location":{"address":"231 Battersea Park Rd","lat":"51.475234","lng":"-0.150683","distance":"474","postalCode":"SW11 4LG","cc":"GB","city":"London","state":"Greater London","country":"United Kingdom"},"categories":[{"id":"4bf58dd8d48988d116941735","name":"Bar","pluralName":"Bars","shortName":"Bar","icon":{"prefix":"https:\/\/ss1.4sqi.net\/img\/categories_v2\/nightlife\/bar_","suffix":".png"},"primary":"true"}],"verified":"false","restricted":"true","stats":{"checkinsCount":"864","usersCount":"555","tipCount":"20"},"specials":{"count":"0"},"events":{"count":"1","summary":"Chainska Brassika","items":[{"id":"52d0a670498e9648d6fdcfd2","name":"Chainska Brassika","categories":[{"id":"4e0a4b91bd41eda0d6092f89","name":"Concert","pluralName":"Concerts","shortName":"Concert","icon":{"prefix":"https:\/\/ss1.4sqi.net\/img\/categories_v2\/arts_entertainment\/musicvenue_","suffix":".png"},"primary":"true"}],"allDay":"true","date":"1392440400","timeZone":"Europe\/London","text":"","url":"http:\/\/www.songkick.com\/concerts\/19159524-chainska-brassika-at-magic-garden?utm_source=4436&utm_medium=partner","provider":{"name":"songkick","iconUrl":{"prefix":"https:\/\/playfoursquare.s3.amazonaws.com\/events\/images\/partners\/sk\/","sizes":["20","40"],"name":"\/logo.png"},"urlText":"more info"},"stats":{"checkinsCount":"1","usersCount":"1"}}]},"hereNow":{"count":"0"},"referralId":"v-1392478105"},{"id":"4e0f54a27d8bb178a8b1cd1d","name":"Battersea Park Outdoor Gym","location":{"address":"Carriage Dr E","lat":"51.48023078596584","lng":"-0.1514344960405307","distance":"141","postalCode":"SW8 4","cc":"GB","city":"Wandsworth","state":"Greater London","country":"United Kingdom"},"categories":[{"id":"4bf58dd8d48988d175941735","name":"Gym \/ Fitness Center","pluralName":"Gyms or Fitness Centers","shortName":"Gym \/ Fitness","icon":{"prefix":"https:\/\/ss1.4sqi.net\/img\/categories_v2\/building\/gym_","suffix":".png"},"primary":"true"}],"verified":"false","restricted":"true","stats":{"checkinsCount":"67","usersCount":"21","tipCount":"0"},"specials":{"count":"0"},"hereNow":{"count":"0"},"referralId":"v-1392478105"},{"id":"4c19037a9990d13a24277c17","name":"Pestana Chelsea Bridge Hotel & Spa","contact":{"phone":"+442070628000","formattedPhone":"+44 20 7062 8000","twitter":"pestanahotels"},"location":{"address":"354 Queenstown Road","lat":"51.481403","lng":"-0.148676","distance":"370","cc":"GB","city":"SW8 4AE","country":"United Kingdom"},"categories":[{"id":"4bf58dd8d48988d1fa931735","name":"Hotel","pluralName":"Hotels","shortName":"Hotel","icon":{"prefix":"https:\/\/ss1.4sqi.net\/img\/categories_v2\/travel\/hotel_","suffix":".png"},"primary":"true"}],"verified":"true","restricted":"true","stats":{"checkinsCount":"2133","usersCount":"826","tipCount":"16"},"url":"http:\/\/www.pestana-chelseabridge.co.uk","specials":{"count":"1","items":[{"id":"51bae3dd8bbdaf7fa0479f24","type":"frequency","message":"10% off food at the Atlantico Restaurant & Bar!","description":"Unlocked every check-in","finePrint":"Offer valid on food bill only, not valid in conjunction with any other offers, not valid on room service orders. Terms & conditions apply.","icon":"check-in","title":"Check-in Special","provider":"foursquare","redemption":"standard","page":{"id":"10362133","firstName":"Pestana Hotels","gender":"none","photo":{"prefix":"https:\/\/irs3.4sqi.net\/img\/user\/","suffix":"\/YON23J3NOJ0WKBBU.png"},"type":"chain","followers":{"count":"1988"},"tips":{"count":"9"},"homeCity":"S\u00e3o Paulo, Brasil","bio":"","contact":{"twitter":"pestanahotels"}}}]},"hereNow":{"count":"0"},"storeId":"","referralId":"v-1392478105"},{"id":"4c0cec75c700c9b6c58ca1dd","name":"Battersea Park Millenium Arena","location":{"address":"Albert Bridge Rd.","lat":"51.481223494582174","lng":"-0.15096484953476394","distance":"250","postalCode":"SW11 4NJ","cc":"GB","city":"London","state":"Greater London","country":"United Kingdom"},"categories":[{"id":"4bf58dd8d48988d106941735","name":"Track","pluralName":"Tracks","shortName":"Track","icon":{"prefix":"https:\/\/ss1.4sqi.net\/img\/categories_v2\/shops\/gym_track_","suffix":".png"},"primary":"true"}],"verified":"false","restricted":"true","stats":{"checkinsCount":"386","usersCount":"210","tipCount":"1"},"specials":{"count":"0"},"hereNow":{"count":"0"},"referralId":"v-1392478105"},{"id":"4b71aad9f964a520cd542de3","name":"Tesco Metro","contact":{"phone":"+448456719420","formattedPhone":"+44 845 671 9420","twitter":"uktescooffers"},"location":{"address":"275-277 Battersea Park Road","lat":"51.47477149433845","lng":"-0.1532989740371704","distance":"504","postalCode":"SW11 4LU","cc":"GB","city":"London","state":"Greater London","country":"United Kingdom"},"categories":[{"id":"4bf58dd8d48988d118951735","name":"Grocery Store","pluralName":"Grocery Stores","shortName":"Grocery Store","icon":{"prefix":"https:\/\/ss1.4sqi.net\/img\/categories_v2\/shops\/food_grocery_","suffix":".png"},"primary":"true"}],"verified":"true","restricted":"true","stats":{"checkinsCount":"474","usersCount":"169","tipCount":"3"},"url":"http:\/\/www.tesco.com","specials":{"count":"0"},"hereNow":{"count":"0"},"storeId":"6133","referralId":"v-1392478105"},{"id":"4ac518bcf964a52092a220e3","name":"The Mason's Arms","contact":{"phone":"+442076222007","formattedPhone":"+44 20 7622 2007","twitter":"masonsbattersea"},"location":{"address":"169 Battersea Park Rd","lat":"51.47692286022314","lng":"-0.14685910248668327","distance":"489","postalCode":"SW8 4BT","cc":"GB","city":"London","state":"Greater London","country":"United Kingdom"},"categories":[{"id":"4bf58dd8d48988d11b941735","name":"Pub","pluralName":"Pubs","shortName":"Pub","icon":{"prefix":"https:\/\/ss1.4sqi.net\/img\/categories_v2\/nightlife\/pub_","suffix":".png"},"primary":"true"}],"verified":"false","restricted":"true","stats":{"checkinsCount":"989","usersCount":"422","tipCount":"12"},"url":"http:\/\/masons-arms-battersea.co.uk","menu":{"type":"Menu","label":"Menu","anchor":"View Menu","url":"https:\/\/foursquare.com\/v\/the-masons-arms\/4ac518bcf964a52092a220e3\/menu","mobileUrl":"https:\/\/foursquare.com\/v\/4ac518bcf964a52092a220e3\/device_menu"},"specials":{"count":"0"},"hereNow":{"count":"0"},"referralId":"v-1392478105"},{"id":"50a8dc64e4b0495d7f3bf2a7","name":"Running Trail in Battersea Park","location":{"lat":"51.47885882955053","lng":"-0.14954841128432184","distance":"230","cc":"GB","country":"United Kingdom"},"categories":[{"id":"4bf58dd8d48988d106941735","name":"Track","pluralName":"Tracks","shortName":"Track","icon":{"prefix":"https:\/\/ss1.4sqi.net\/img\/categories_v2\/shops\/gym_track_","suffix":".png"},"primary":"true"}],"verified":"false","restricted":"true","stats":{"checkinsCount":"27","usersCount":"20","tipCount":"0"},"specials":{"count":"0"},"hereNow":{"count":"0"},"referralId":"v-1392478105"},{"id":"4eaae701e3000d1f05a5d53b","name":"The Market","location":{"address":"Chelsea Bridge Wharf","lat":"51.48183090298698","lng":"-0.148670787249324","distance":"402","cc":"GB","city":"Wandsworth","state":"Greater London","country":"United Kingdom"},"categories":[{"id":"4bf58dd8d48988d118951735","name":"Grocery Store","pluralName":"Grocery Stores","shortName":"Grocery Store","icon":{"prefix":"https:\/\/ss1.4sqi.net\/img\/categories_v2\/shops\/food_grocery_","suffix":".png"},"primary":"true"}],"verified":"false","restricted":"true","stats":{"checkinsCount":"162","usersCount":"53","tipCount":"3"},"specials":{"count":"0"},"hereNow":{"count":"0"},"referralId":"v-1392478105"},{"id":"4ffdb283e4b06558f31890b4","name":"JPMorgan Corporate Challenge At Battersea Park","contact":{"twitter":"jpmorgancc"},"location":{"address":"Battersea Park","lat":"51.47904564889822","lng":"-0.15179337763140233","distance":"75","cc":"GB","city":"London","state":"Greater London","country":"United Kingdom"},"categories":[{"id":"4f4528bc4b90abdf24c9de85","name":"Athletics & Sports","pluralName":"Athletics & Sports","shortName":"Athletics & Sports","icon":{"prefix":"https:\/\/ss1.4sqi.net\/img\/categories_v2\/shops\/sports_outdoors_","suffix":".png"},"primary":"true"}],"verified":"false","restricted":"true","stats":{"checkinsCount":"24","usersCount":"23","tipCount":"1"},"specials":{"count":"0"},"hereNow":{"count":"0"},"referralId":"v-1392478105"},{"id":"4ac518eaf964a520eaab20e3","name":"Battersea Evolution","location":{"address":"Chelsea Bridge Entrance","lat":"51.48052764515145","lng":"-0.1556110382080078","distance":"238","postalCode":"SW11 4NJ","cc":"GB","city":"London","state":"Greater London","country":"United Kingdom"},"categories":[{"id":"4bf58dd8d48988d1f1931735","name":"General Entertainment","pluralName":"General Entertainment","shortName":"Entertainment","icon":{"prefix":"https:\/\/ss1.4sqi.net\/img\/categories_v2\/arts_entertainment\/default_","suffix":".png"},"primary":"true"}],"verified":"false","restricted":"true","stats":{"checkinsCount":"546","usersCount":"442","tipCount":"4"},"specials":{"count":"0"},"hereNow":{"count":"0"},"referralId":"v-1392478105"},{"id":"4de97c4e45dd3993a872ff49","name":"TfL Bus N44","location":{"address":"Moving Target!","lat":"51.478151891570924","lng":"-0.15013829432425785","distance":"223","cc":"GB","city":"London","state":"Greater London","country":"United Kingdom"},"categories":[{"id":"4bf58dd8d48988d12b951735","name":"Bus Line","pluralName":"Bus Lines","shortName":"Bus","icon":{"prefix":"https:\/\/ss1.4sqi.net\/img\/categories_v2\/travel\/busstation_","suffix":".png"},"primary":"true"}],"verified":"false","restricted":"true","stats":{"checkinsCount":"52","usersCount":"23","tipCount":"0"},"specials":{"count":"0"},"hereNow":{"count":"0"},"referralId":"v-1392478105"},{"id":"4e7de54155030a6664cd964e","name":"Battersea Park Lake boat station","location":{"lat":"51.47967237816338","lng":"-0.15144824981689453","distance":"103","cc":"GB","city":"Wandsworth","state":"Greater London","country":"United Kingdom"},"categories":[{"id":"4bf58dd8d48988d12d951735","name":"Boat or Ferry","pluralName":"Boats or Ferries","shortName":"Boat \/ Ferry","icon":{"prefix":"https:\/\/ss1.4sqi.net\/img\/categories_v2\/travel\/boat_","suffix":".png"},"primary":"true"}],"verified":"false","restricted":"true","stats":{"checkinsCount":"57","usersCount":"45","tipCount":"0"},"specials":{"count":"0"},"hereNow":{"count":"0"},"referralId":"v-1392478105"},{"id":"4cbf28c0985aa35ddc6c4512","name":"Affordable Art Fair","location":{"address":"Battersea park","lat":"51.48062618830985","lng":"-0.155290358982944","distance":"227","cc":"GB","city":"Wandsworth","state":"Greater London","country":"United Kingdom"},"categories":[{"id":"4bf58dd8d48988d1f1931735","name":"General Entertainment","pluralName":"General Entertainment","shortName":"Entertainment","icon":{"prefix":"https:\/\/ss1.4sqi.net\/img\/categories_v2\/arts_entertainment\/default_","suffix":".png"},"primary":"true"}],"verified":"false","restricted":"true","stats":{"checkinsCount":"300","usersCount":"245","tipCount":"3"},"specials":{"count":"0"},"hereNow":{"count":"0"},"referralId":"v-1392478105"},{"id":"4b785ce7f964a52089c82ee3","name":"San Gennaro","contact":{"phone":"+442076220475","formattedPhone":"+44 20 7622 0475"},"location":{"address":"22 Battersea Park Rd","lat":"51.47631129081887","lng":"-0.14855682849884033","distance":"443","postalCode":"SW11 4HY","cc":"GB","city":"Wandsworth","state":"Greater London","country":"United Kingdom"},"categories":[{"id":"4bf58dd8d48988d110941735","name":"Italian Restaurant","pluralName":"Italian Restaurants","shortName":"Italian","icon":{"prefix":"https:\/\/ss1.4sqi.net\/img\/categories_v2\/food\/italian_","suffix":".png"},"primary":"true"}],"verified":"false","restricted":"true","stats":{"checkinsCount":"297","usersCount":"123","tipCount":"15"},"menu":{"type":"Menu","label":"Menu","anchor":"View Menu","url":"https:\/\/foursquare.com\/v\/san-gennaro\/4b785ce7f964a52089c82ee3\/menu","mobileUrl":"https:\/\/foursquare.com\/v\/4b785ce7f964a52089c82ee3\/device_menu"},"specials":{"count":"0"},"hereNow":{"count":"0"},"referralId":"v-1392478105"},{"id":"4bceb0ac937ca59356f0ae92","name":"Battersea Park Children's Zoo","location":{"address":"Battersea Park","lat":"51.48140962243473","lng":"-0.1567697525024414","distance":"362","postalCode":"SW11 4NJ","cc":"GB","city":"London","state":"Greater London","country":"United Kingdom"},"categories":[{"id":"4bf58dd8d48988d17b941735","name":"Zoo","pluralName":"Zoos","shortName":"Zoo","icon":{"prefix":"https:\/\/ss1.4sqi.net\/img\/categories_v2\/arts_entertainment\/zoo_","suffix":".png"},"primary":"true"}],"verified":"false","restricted":"true","stats":{"checkinsCount":"302","usersCount":"256","tipCount":"8"},"specials":{"count":"0"},"hereNow":{"count":"0"},"referralId":"v-1392478105"},{"id":"4ac518d3f964a52083a720e3","name":"The Pump House Gallery","location":{"address":"Battersea Park","lat":"51.47889727860177","lng":"-0.15473127365112305","distance":"140","postalCode":"SW11 4NJ","cc":"GB","city":"London","state":"Greater London","country":"United Kingdom"},"categories":[{"id":"4bf58dd8d48988d1e2931735","name":"Art Gallery","pluralName":"Art Galleries","shortName":"Art Gallery","icon":{"prefix":"https:\/\/ss1.4sqi.net\/img\/categories_v2\/arts_entertainment\/artgallery_","suffix":".png"},"primary":"true"}],"verified":"false","restricted":"true","stats":{"checkinsCount":"129","usersCount":"84","tipCount":"2"},"specials":{"count":"0"},"hereNow":{"count":"0"},"referralId":"v-1392478105"},{"id":"511898b0e4b0127187040cba","name":"Bus Stop D @ Battersea Park Station","location":{"lat":"51.477115631103516","lng":"-0.14837980270385742","distance":"390","cc":"GB","country":"United Kingdom"},"categories":[{"id":"4bf58dd8d48988d1fe931735","name":"Bus Station","pluralName":"Bus Stations","shortName":"Bus Station","icon":{"prefix":"https:\/\/ss1.4sqi.net\/img\/categories_v2\/travel\/busstation_","suffix":".png"},"primary":"true"}],"verified":"false","restricted":"true","stats":{"checkinsCount":"15","usersCount":"8","tipCount":"0"},"specials":{"count":"0"},"hereNow":{"count":"0"},"referralId":"v-1392478105"},{"id":"4b73f81ff964a520ffc12de3","name":"Majestic Wine","contact":{"phone":"+442078199796","formattedPhone":"+44 20 7819 9796","twitter":"majesticwine"},"location":{"address":"334 Queenstown Road","lat":"51.47934248611413","lng":"-0.14825427189962817","distance":"315","postalCode":"SW84LZ","cc":"GB","city":"London","state":"Greater London","country":"United Kingdom"},"categories":[{"id":"4bf58dd8d48988d119951735","name":"Wine Shop","pluralName":"Wine Shops","shortName":"Wine Shop","icon":{"prefix":"https:\/\/ss1.4sqi.net\/img\/categories_v2\/shops\/food_wineshop_","suffix":".png"},"primary":"true"}],"verified":"true","restricted":"true","stats":{"checkinsCount":"69","usersCount":"33","tipCount":"2"},"url":"http:\/\/www.majestic.co.uk","specials":{"count":"0"},"hereNow":{"count":"0"},"storeId":"135","referralId":"v-1392478105"},{"id":"51ea522c498e9c131ada3846","name":"CrossFit South London","contact":{"phone":"+447598010788","formattedPhone":"+44 7598 010788","twitter":"slcrossfit"},"location":{"address":"Unit 74 Queens Circus, 326-342 Queenstown Road","lat":"51.47822907875211","lng":"-0.14818668365478516","distance":"341","postalCode":"SW8 4NE","cc":"GB","city":"London","state":"Greater London","country":"United Kingdom"},"categories":[{"id":"4bf58dd8d48988d175941735","name":"Gym \/ Fitness Center","pluralName":"Gyms or Fitness Centers","shortName":"Gym \/ Fitness","icon":{"prefix":"https:\/\/ss1.4sqi.net\/img\/categories_v2\/building\/gym_","suffix":".png"},"primary":"true"}],"verified":"false","restricted":"true","stats":{"checkinsCount":"47","usersCount":"10","tipCount":"0"},"url":"http:\/\/cfsouthlondon.com","specials":{"count":"0"},"hereNow":{"count":"0"},"referralId":"v-1392478105"},{"id":"4f4fa68fe4b0f7bd4df699b2","name":"Battersea Park Athletics Track","location":{"address":"Carriage Dr E","lat":"51.48009154915574","lng":"-0.151517867369879","distance":"126","cc":"GB","city":"Wandsworth","state":"Greater London","country":"United Kingdom"},"categories":[{"id":"4bf58dd8d48988d163941735","name":"Park","pluralName":"Parks","shortName":"Park","icon":{"prefix":"https:\/\/ss1.4sqi.net\/img\/categories_v2\/parks_outdoors\/park_","suffix":".png"},"primary":"true"}],"verified":"false","restricted":"true","stats":{"checkinsCount":"27","usersCount":"21","tipCount":"1"},"specials":{"count":"0"},"hereNow":{"count":"0"},"referralId":"v-1392478105"},{"id":"5250358711d250ace9ceedaa","name":"All Saints, Battersea Park","location":{"address":"100 Prince Of Wales Drive, Battersea Park","lat":"51.477269","lng":"-0.149609","distance":"315","cc":"GB","country":"United Kingdom"},"categories":[{"id":"4bf58dd8d48988d132941735","name":"Church","pluralName":"Churches","shortName":"Church","icon":{"prefix":"https:\/\/ss1.4sqi.net\/img\/categories_v2\/building\/religious_church_","suffix":".png"},"primary":"true"}],"verified":"false","restricted":"true","stats":{"checkinsCount":"6","usersCount":"3","tipCount":"0"},"specials":{"count":"0"},"hereNow":{"count":"0"},"referralId":"v-1392478105"},{"id":"4dd7abc2c65bee535ab73186","name":"Josef ice cream","location":{"lat":"51.48032172924755","lng":"-0.1529878551602371","distance":"115","cc":"GB","country":"United Kingdom"},"categories":[{"id":"4bf58dd8d48988d1c9941735","name":"Ice Cream Shop","pluralName":"Ice Cream Shops","shortName":"Ice Cream","icon":{"prefix":"https:\/\/ss1.4sqi.net\/img\/categories_v2\/food\/icecream_","suffix":".png"},"primary":"true"}],"verified":"false","restricted":"true","stats":{"checkinsCount":"0","usersCount":"0","tipCount":"0"},"specials":{"count":"0"},"hereNow":{"count":"0"},"referralId":"v-1392478105"},{"id":"4e870b3f9adf0cc605a2c10b","name":"Platform 4","location":{"address":"Battersea Park Railway Station (BAK)","lat":"51.477817","lng":"-0.147565","distance":"398","cc":"GB","city":"London","state":"Greater London","country":"United Kingdom"},"categories":[{"id":"4f4531504b9074f6e4fb0102","name":"Platform","pluralName":"Platforms","shortName":"Platform","icon":{"prefix":"https:\/\/ss1.4sqi.net\/img\/categories_v2\/travel\/trainstation_","suffix":".png"},"primary":"true"}],"verified":"false","restricted":"true","stats":{"checkinsCount":"155","usersCount":"53","tipCount":"3"},"specials":{"count":"0"},"hereNow":{"count":"0"},"referralId":"v-1392478105"}],"confident":"true"}}