{"meta":{"code":"200"},"response":{"venues":[{"id":"51c840cb498efc7a499b6ecd","name":"Royal Quarter Caf\u00e9","location":{"address":"72-73 Buckingham Gate","lat":"51.49905914704511","lng":"-0.13796171068361676","distance":"27","postalCode":"SW1E 6af","cc":"GB","city":"London","state":"Greater London","country":"United Kingdom"},"categories":[{"id":"4bf58dd8d48988d16d941735","name":"Caf\u00e9","pluralName":"Caf\u00e9s","shortName":"Caf\u00e9","icon":{"prefix":"https:\/\/ss1.4sqi.net\/img\/categories_v2\/food\/cafe_","suffix":".png"},"primary":"true"}],"verified":"false","restricted":"true","stats":{"checkinsCount":"197","usersCount":"170","tipCount":"10"},"specials":{"count":"0"},"hereNow":{"count":"0"},"referralId":"v-1392478054"},{"id":"4d91f08af5388cfae25bc03d","name":"Westminster chapel","location":{"address":"Buckingham Gate","lat":"51.4990434745451","lng":"-0.13789792909631132","distance":"28","postalCode":"SW1E 6BS","cc":"GB","city":"London","state":"Greater London","country":"United Kingdom"},"categories":[{"id":"4bf58dd8d48988d132941735","name":"Church","pluralName":"Churches","shortName":"Church","icon":{"prefix":"https:\/\/ss1.4sqi.net\/img\/categories_v2\/building\/religious_church_","suffix":".png"},"primary":"true"}],"verified":"false","restricted":"true","stats":{"checkinsCount":"211","usersCount":"176","tipCount":"1"},"url":"http:\/\/www.individualrestaurants.com\/bank\/westminister\/","menu":{"type":"Menu","label":"Menu","anchor":"View Menu","url":"https:\/\/foursquare.com\/v\/westminster-chapel\/4d91f08af5388cfae25bc03d\/menu","mobileUrl":"https:\/\/foursquare.com\/v\/4d91f08af5388cfae25bc03d\/device_menu"},"specials":{"count":"0"},"hereNow":{"count":"0"},"referralId":"v-1392478054"},{"id":"4bc8964015a7ef3b8e617bda","name":"Buckingham Arms","contact":{"phone":"+442072223386","formattedPhone":"+44 20 7222 3386"},"location":{"address":"62 Petty France","crossStreet":"near Buckingham Gate","lat":"51.49927267174478","lng":"-0.13670682907104492","distance":"75","postalCode":"SW1H 9EU","cc":"GB","city":"City of Westminster","state":"Greater London","country":"United Kingdom"},"categories":[{"id":"4bf58dd8d48988d11b941735","name":"Pub","pluralName":"Pubs","shortName":"Pub","icon":{"prefix":"https:\/\/ss1.4sqi.net\/img\/categories_v2\/nightlife\/pub_","suffix":".png"},"primary":"true"}],"verified":"false","restricted":"true","stats":{"checkinsCount":"751","usersCount":"382","tipCount":"5"},"specials":{"count":"0"},"hereNow":{"count":"0"},"referralId":"v-1392478054"},{"id":"4ac518ddf964a5208aa920e3","name":"The Quilon Restaurant & Bar","contact":{"phone":"+442078211899","formattedPhone":"+44 20 7821 1899"},"location":{"address":"41 Buckingham Gate","lat":"51.49883388495285","lng":"-0.13754736979637294","distance":"53","postalCode":"SW1E 6AF","cc":"GB","city":"London","state":"Greater London","country":"United Kingdom"},"categories":[{"id":"4bf58dd8d48988d10f941735","name":"Indian Restaurant","pluralName":"Indian Restaurants","shortName":"Indian","icon":{"prefix":"https:\/\/ss1.4sqi.net\/img\/categories_v2\/food\/indian_","suffix":".png"},"primary":"true"}],"verified":"false","restricted":"true","stats":{"checkinsCount":"490","usersCount":"373","tipCount":"23"},"url":"http:\/\/www.quilon.co.uk","reservations":{"url":"http:\/\/www.toptable.co.uk\/single.aspx?rid=84859&ref=9601"},"menu":{"type":"Menu","label":"Menu","anchor":"View Menu","url":"https:\/\/foursquare.com\/v\/the-quilon-restaurant-bar-london-greater-london\/4ac518ddf964a5208aa920e3\/menu","mobileUrl":"https:\/\/foursquare.com\/v\/4ac518ddf964a5208aa920e3\/device_menu"},"specials":{"count":"0"},"hereNow":{"count":"0"},"referralId":"v-1392478054"},{"id":"52e2f3b011d27cfb545e0a40","name":"St. James' Court, A Taj Hotel","contact":{"phone":"+442078346655","formattedPhone":"+44 20 7834 6655"},"location":{"address":"41-54 Buckingham Gate","lat":"51.49855133791729","lng":"-0.13788700103759766","distance":"82","postalCode":"SW1E 6AF","cc":"GB","city":"London","state":"Greater London","country":"United Kingdom"},"categories":[{"id":"4bf58dd8d48988d1fa931735","name":"Hotel","pluralName":"Hotels","shortName":"Hotel","icon":{"prefix":"https:\/\/ss1.4sqi.net\/img\/categories_v2\/travel\/hotel_","suffix":".png"},"primary":"true"}],"verified":"false","restricted":"true","stats":{"checkinsCount":"47","usersCount":"29","tipCount":"0"},"specials":{"count":"0"},"hereNow":{"count":"0"},"referralId":"v-1392478054"},{"id":"4f64ea20e4b0c7552d443a6c","name":"Taj  51 Buckingham Gate Suites & Residences","contact":{"phone":"+442077697766","formattedPhone":"+44 20 7769 7766"},"location":{"address":"51 Buckingham Gate","lat":"51.498393721404405","lng":"-0.1376172918789257","distance":"100","postalCode":"SW1E 6AF","cc":"GB","city":"London","state":"Greater London","country":"United Kingdom"},"categories":[{"id":"4bf58dd8d48988d1fa931735","name":"Hotel","pluralName":"Hotels","shortName":"Hotel","icon":{"prefix":"https:\/\/ss1.4sqi.net\/img\/categories_v2\/travel\/hotel_","suffix":".png"},"primary":"true"}],"verified":"true","restricted":"true","stats":{"checkinsCount":"812","usersCount":"261","tipCount":"5"},"specials":{"count":"0"},"hereNow":{"count":"0"},"referralId":"v-1392478054"},{"id":"4cee24787db3224b9962262e","name":"Sohot Bikram Yoga","contact":{"phone":"+442078081810","formattedPhone":"+44 20 7808 1810","twitter":"sohotyoga"},"location":{"address":"1 Vandon Passage","lat":"51.498737568647044","lng":"-0.13657057051198984","distance":"105","postalCode":"SW1H 0AS","cc":"GB","city":"Victoria","state":"Greater London","country":"United Kingdom"},"categories":[{"id":"4bf58dd8d48988d102941735","name":"Yoga Studio","pluralName":"Yoga Studios","shortName":"Yoga Studio","icon":{"prefix":"https:\/\/ss1.4sqi.net\/img\/categories_v2\/shops\/gym_yogastudio_","suffix":".png"},"primary":"true"}],"verified":"false","restricted":"true","stats":{"checkinsCount":"742","usersCount":"119","tipCount":"4"},"url":"http:\/\/www.sohotbikramyoga.co.uk","specials":{"count":"0"},"hereNow":{"count":"0"},"referralId":"v-1392478054"},{"id":"4b4c794ef964a520e8b326e3","name":"Crumpets Snack Bar","location":{"address":"Buckingham Gate","lat":"51.499084","lng":"-0.13843475840985775","distance":"49","cc":"GB","country":"United Kingdom"},"categories":[{"id":"4bf58dd8d48988d1c5941735","name":"Sandwich Place","pluralName":"Sandwich Places","shortName":"Sandwiches","icon":{"prefix":"https:\/\/ss1.4sqi.net\/img\/categories_v2\/food\/sandwiches_","suffix":".png"},"primary":"true"}],"verified":"false","restricted":"true","stats":{"checkinsCount":"93","usersCount":"51","tipCount":"2"},"specials":{"count":"0"},"hereNow":{"count":"0"},"referralId":"v-1392478054"},{"id":"51237b60e4b0424405575bec","name":"Impressionist","contact":{"phone":"+447424185355","formattedPhone":"+44 7424 185355"},"location":{"address":"79 Buckingham Gate","lat":"51.499016","lng":"-0.13795","distance":"32","postalCode":"SW1E 6PD","cc":"GB","city":"City of Westminster","state":"Greater London","country":"United Kingdom"},"categories":[{"id":"4bf58dd8d48988d1d2941735","name":"Sushi Restaurant","pluralName":"Sushi Restaurants","shortName":"Sushi","icon":{"prefix":"https:\/\/ss1.4sqi.net\/img\/categories_v2\/food\/sushi_","suffix":".png"},"primary":"true"}],"verified":"false","restricted":"true","stats":{"checkinsCount":"52","usersCount":"11","tipCount":"3"},"specials":{"count":"0"},"hereNow":{"count":"0"},"referralId":"v-1392478054"},{"id":"4ac518fbf964a52048b020e3","name":"Spa at Fifty-one","location":{"address":"51 Buckingham Gate","lat":"51.499884873042525","lng":"-0.13740289459659633","distance":"71","postalCode":"SW1E 6AF","cc":"GB","city":"London","state":"Greater London","country":"United Kingdom"},"categories":[{"id":"4bf58dd8d48988d1ed941735","name":"Spa","pluralName":"Spas","shortName":"Spa","icon":{"prefix":"https:\/\/ss1.4sqi.net\/img\/categories_v2\/shops\/spa_","suffix":".png"},"primary":"true"}],"verified":"false","restricted":"true","stats":{"checkinsCount":"147","usersCount":"37","tipCount":"0"},"specials":{"count":"0"},"hereNow":{"count":"0"},"referralId":"v-1392478054"},{"id":"4b8d1458f964a52001e732e3","name":"Starbucks","contact":{"twitter":"starbucksuk"},"location":{"address":"16-18 Palmer St.","crossStreet":"nr. Petty France","lat":"51.49896543836212","lng":"-0.13578414916992188","distance":"144","postalCode":"SW1H 0AD","cc":"GB","city":"St. James's Park","state":"Greater London","country":"United Kingdom"},"categories":[{"id":"4bf58dd8d48988d1e0931735","name":"Coffee Shop","pluralName":"Coffee Shops","shortName":"Coffee Shop","icon":{"prefix":"https:\/\/ss1.4sqi.net\/img\/categories_v2\/food\/coffeeshop_","suffix":".png"},"primary":"true"}],"verified":"true","restricted":"true","stats":{"checkinsCount":"1520","usersCount":"536","tipCount":"3"},"url":"http:\/\/starbucks.co.uk","specials":{"count":"0"},"hereNow":{"count":"0"},"storeId":"12385","referralId":"v-1392478054"},{"id":"52f8be0e498e29de1eb6444d","name":"Nova Capital Management","location":{"address":"30 Buckingham Gate","lat":"51.49925","lng":"-0.138873","distance":"74","cc":"GB","city":"London","state":"Greater London","country":"United Kingdom"},"categories":[{"id":"4bf58dd8d48988d124941735","name":"Office","pluralName":"Offices","shortName":"Office","icon":{"prefix":"https:\/\/ss1.4sqi.net\/img\/categories_v2\/building\/default_","suffix":".png"},"primary":"true"}],"verified":"false","restricted":"true","stats":{"checkinsCount":"6","usersCount":"2","tipCount":"0"},"specials":{"count":"0"},"hereNow":{"count":"0"},"referralId":"v-1392478054"},{"id":"4bdacf2d3904a5936066479e","name":"Bank","contact":{"phone":"0207630664","formattedPhone":"0207630664"},"location":{"address":"45 Buckingham Gate","lat":"51.49833621334722","lng":"-0.1375440318245531","distance":"107","postalCode":"Sw1e 6bs","cc":"GB","city":"London","state":"Greater London","country":"United Kingdom"},"categories":[{"id":"4bf58dd8d48988d1c4941735","name":"Restaurant","pluralName":"Restaurants","shortName":"Restaurant","icon":{"prefix":"https:\/\/ss1.4sqi.net\/img\/categories_v2\/food\/default_","suffix":".png"},"primary":"true"}],"verified":"true","restricted":"true","stats":{"checkinsCount":"449","usersCount":"318","tipCount":"6"},"url":"http:\/\/www.bankrestaurants.com","reservations":{"url":"http:\/\/www.toptable.co.uk\/single.aspx?rid=50659&ref=9601"},"specials":{"count":"0"},"hereNow":{"count":"0"},"referralId":"v-1392478054"},{"id":"4fd75e994fc654f004fa743a","name":"Albany House","location":{"address":"100 Petty France","lat":"51.49944632447973","lng":"-0.13527989387512207","distance":"175","postalCode":"SW1H 9EA","cc":"GB","city":"London","state":"Greater London","country":"United Kingdom"},"categories":[{"id":"4bf58dd8d48988d124941735","name":"Office","pluralName":"Offices","shortName":"Office","icon":{"prefix":"https:\/\/ss1.4sqi.net\/img\/categories_v2\/building\/default_","suffix":".png"},"primary":"true"}],"verified":"false","restricted":"true","stats":{"checkinsCount":"608","usersCount":"20","tipCount":"0"},"specials":{"count":"0"},"hereNow":{"count":"0"},"referralId":"v-1392478054"},{"id":"4ac518e1f964a52042aa20e3","name":"Bistro 51","location":{"address":"45-51 Buckingham Gate","lat":"51.49856665326547","lng":"-0.1372697009532437","distance":"88","postalCode":"SW1E 6AF","cc":"GB","city":"London","state":"Greater London","country":"United Kingdom"},"categories":[{"id":"4bf58dd8d48988d10c941735","name":"French Restaurant","pluralName":"French Restaurants","shortName":"French","icon":{"prefix":"https:\/\/ss1.4sqi.net\/img\/categories_v2\/food\/french_","suffix":".png"},"primary":"true"}],"verified":"true","restricted":"true","stats":{"checkinsCount":"175","usersCount":"114","tipCount":"3"},"url":"http:\/\/london.crowneplaza.com\/dining\/","reservations":{"url":"http:\/\/www.toptable.co.uk\/single.aspx?rid=29586&ref=9601"},"menu":{"type":"Menu","label":"Menu","anchor":"View Menu","url":"https:\/\/foursquare.com\/v\/bistro-51\/4ac518e1f964a52042aa20e3\/menu","mobileUrl":"https:\/\/foursquare.com\/v\/4ac518e1f964a52042aa20e3\/device_menu"},"specials":{"count":"0"},"hereNow":{"count":"0"},"venuePage":{"id":"61781688"},"referralId":"v-1392478054"},{"id":"509ccf16d63e4f87ba09c411","name":"Pret A Manger","contact":{"phone":"+442077996003","formattedPhone":"+44 20 7799 6003","twitter":"pret","facebook":"162638680417951"},"location":{"address":"14 - 24 Caxton Street","lat":"51.49854465884701","lng":"-0.13606309890747068","distance":"146","postalCode":"SW1H 0QU","cc":"GB","city":"London","state":"Greater London","country":"United Kingdom"},"categories":[{"id":"4bf58dd8d48988d1c5941735","name":"Sandwich Place","pluralName":"Sandwich Places","shortName":"Sandwiches","icon":{"prefix":"https:\/\/ss1.4sqi.net\/img\/categories_v2\/food\/sandwiches_","suffix":".png"},"primary":"true"}],"verified":"true","restricted":"true","stats":{"checkinsCount":"327","usersCount":"138","tipCount":"3"},"url":"http:\/\/www.pret.com","specials":{"count":"0"},"hereNow":{"count":"0"},"storeId":"309","referralId":"v-1392478054"},{"id":"52398cbf498eee6857873084","name":"Im Press Ion Ist","location":{"lat":"51.499129","lng":"-0.137928","distance":"19","cc":"GB","country":"United Kingdom"},"categories":[{"id":"4bf58dd8d48988d1d2941735","name":"Sushi Restaurant","pluralName":"Sushi Restaurants","shortName":"Sushi","icon":{"prefix":"https:\/\/ss1.4sqi.net\/img\/categories_v2\/food\/sushi_","suffix":".png"},"primary":"true"}],"verified":"false","restricted":"true","stats":{"checkinsCount":"4","usersCount":"1","tipCount":"0"},"specials":{"count":"0"},"hereNow":{"count":"0"},"referralId":"v-1392478054"},{"id":"4dd3ba3245dd98b61e72f551","name":"Ristorante Bon Gust\u00f3","contact":{"phone":"+442072227185","formattedPhone":"+44 20 7222 7185"},"location":{"address":"77 Buckingham Gate","lat":"51.49877842572391","lng":"-0.13773679733276367","distance":"57","postalCode":"SW1E 6PD","cc":"GB","city":"City of Westminster","state":"Greater London","country":"United Kingdom"},"categories":[{"id":"4bf58dd8d48988d110941735","name":"Italian Restaurant","pluralName":"Italian Restaurants","shortName":"Italian","icon":{"prefix":"https:\/\/ss1.4sqi.net\/img\/categories_v2\/food\/italian_","suffix":".png"},"primary":"true"}],"verified":"false","restricted":"true","stats":{"checkinsCount":"73","usersCount":"50","tipCount":"1"},"specials":{"count":"0"},"hereNow":{"count":"0"},"referralId":"v-1392478054"},{"id":"4acda14ff964a5206fcc20e3","name":"The Colonies","contact":{"phone":"+442078341407","formattedPhone":"+44 20 7834 1407","twitter":"colonies_pub"},"location":{"address":"25 Wilfred St.","crossStreet":"near Buckingham Gate","lat":"51.49856","lng":"-0.139616","distance":"149","postalCode":"SW1E 6PR","cc":"GB","city":"City of Westminster","state":"Greater London","country":"United Kingdom"},"categories":[{"id":"4bf58dd8d48988d11b941735","name":"Pub","pluralName":"Pubs","shortName":"Pub","icon":{"prefix":"https:\/\/ss1.4sqi.net\/img\/categories_v2\/nightlife\/pub_","suffix":".png"},"primary":"true"}],"verified":"false","restricted":"true","stats":{"checkinsCount":"713","usersCount":"359","tipCount":"5"},"url":"http:\/\/www.taylor-walker.com","specials":{"count":"0"},"hereNow":{"count":"0"},"referralId":"v-1392478054"},{"id":"4ac518bbf964a5202fa220e3","name":"Adam and Eve","location":{"address":"81 Petty France","lat":"51.499513787521764","lng":"-0.13562714323200295","distance":"152","postalCode":"SW1H 9EX","cc":"GB","city":"London","state":"Greater London","country":"United Kingdom"},"categories":[{"id":"4bf58dd8d48988d155941735","name":"Gastropub","pluralName":"Gastropubs","shortName":"Gastropub","icon":{"prefix":"https:\/\/ss1.4sqi.net\/img\/categories_v2\/food\/gastropub_","suffix":".png"},"primary":"true"}],"verified":"false","restricted":"true","stats":{"checkinsCount":"259","usersCount":"181","tipCount":"4"},"specials":{"count":"0"},"hereNow":{"count":"0"},"referralId":"v-1392478054"},{"id":"5139e1a1e4b0b10ea5992449","name":"Crumpets","location":{"lat":"51.499145","lng":"-0.138093","distance":"25","cc":"GB","country":"United Kingdom"},"categories":[{"id":"4bf58dd8d48988d147941735","name":"Diner","pluralName":"Diners","shortName":"Diner","icon":{"prefix":"https:\/\/ss1.4sqi.net\/img\/categories_v2\/food\/diner_","suffix":".png"},"primary":"true"}],"verified":"false","restricted":"true","stats":{"checkinsCount":"6","usersCount":"6","tipCount":"0"},"specials":{"count":"0"},"hereNow":{"count":"0"},"referralId":"v-1392478054"},{"id":"51191d00e4b0446beb8e2758","name":"RatedPeople","location":{"address":"66 Buckingham Gate","lat":"51.49843035665793","lng":"-0.1366618150365956","distance":"124","postalCode":"Sw1e 6au","cc":"GB","city":"London","state":"Greater London","country":"United Kingdom"},"categories":[{"id":"4bf58dd8d48988d125941735","name":"Tech Startup","pluralName":"Tech Startups","shortName":"Tech Startup","icon":{"prefix":"https:\/\/ss1.4sqi.net\/img\/categories_v2\/shops\/technology_","suffix":".png"},"primary":"true"}],"verified":"false","restricted":"true","stats":{"checkinsCount":"64","usersCount":"6","tipCount":"0"},"specials":{"count":"0"},"hereNow":{"count":"0"},"referralId":"v-1392478054"},{"id":"4ad77657f964a520dd0a21e3","name":"Zander","contact":{"phone":"+442076306644","formattedPhone":"+44 20 7630 6644"},"location":{"address":"46 Buckingham Gate","lat":"51.49864484479821","lng":"-0.13702869415283203","distance":"89","postalCode":"SW1E 6BE","cc":"GB","city":"London","state":"Greater London","country":"United Kingdom"},"categories":[{"id":"4bf58dd8d48988d121941735","name":"Lounge","pluralName":"Lounges","shortName":"Lounge","icon":{"prefix":"https:\/\/ss1.4sqi.net\/img\/categories_v2\/nightlife\/lounge_","suffix":".png"},"primary":"true"}],"verified":"false","restricted":"true","stats":{"checkinsCount":"253","usersCount":"192","tipCount":"3"},"url":"http:\/\/www.bankrestaurants.com","specials":{"count":"0"},"hereNow":{"count":"0"},"referralId":"v-1392478054"},{"id":"4bcdf8330687ef3b65d1e1cc","name":"Tapster","location":{"address":"3 Brewers Green","lat":"51.498388","lng":"-0.136007","distance":"159","postalCode":"SW1H 0RH","cc":"GB","city":"London","state":"Greater London","country":"United Kingdom"},"categories":[{"id":"4bf58dd8d48988d123941735","name":"Wine Bar","pluralName":"Wine Bars","shortName":"Wine Bar","icon":{"prefix":"https:\/\/ss1.4sqi.net\/img\/categories_v2\/nightlife\/wine_","suffix":".png"},"primary":"true"}],"verified":"false","restricted":"true","stats":{"checkinsCount":"109","usersCount":"75","tipCount":"1"},"url":"http:\/\/www.davy.co.uk\/tapster","reservations":{"url":"http:\/\/www.toptable.co.uk\/single.aspx?rid=95097&ref=9601"},"menu":{"type":"Menu","label":"Menu","anchor":"View Menu","url":"https:\/\/foursquare.com\/v\/tapster\/4bcdf8330687ef3b65d1e1cc\/menu","mobileUrl":"https:\/\/foursquare.com\/v\/4bcdf8330687ef3b65d1e1cc\/device_menu"},"specials":{"count":"0"},"hereNow":{"count":"0"},"referralId":"v-1392478054"},{"id":"4d243cd8f39ca1432cc273b8","name":"Embassy of Macedonia","location":{"address":"Buckingham Court","crossStreet":"75-83 Buckingham Gate","lat":"51.49923259794274","lng":"-0.13805866241455078","distance":"18","postalCode":"SW1E 6PE","cc":"GB","city":"London","state":"Greater London","country":"United Kingdom"},"categories":[{"id":"4bf58dd8d48988d12c951735","name":"Embassy \/ Consulate","pluralName":"Embassies \/ Consulates","shortName":"Embassy","icon":{"prefix":"https:\/\/ss1.4sqi.net\/img\/categories_v2\/travel\/embassy_","suffix":".png"},"primary":"true"}],"verified":"false","restricted":"true","stats":{"checkinsCount":"18","usersCount":"10","tipCount":"3"},"specials":{"count":"0"},"hereNow":{"count":"0"},"referralId":"v-1392478054"},{"id":"4bc2d0a4abf4952174fac293","name":"Wellington Barracks","location":{"address":"Birdcage Walk","crossStreet":"near Buckingham Gate","lat":"51.50045965423089","lng":"-0.13816329634765825","distance":"132","postalCode":"SW1E 6HQ","cc":"GB","city":"London","state":"Greater London","country":"United Kingdom"},"categories":[{"id":"4e52adeebd41615f56317744","name":"Military Base","pluralName":"Military Bases","shortName":"Military Base","icon":{"prefix":"https:\/\/ss1.4sqi.net\/img\/categories_v2\/building\/militarybase_","suffix":".png"},"primary":"true"}],"verified":"false","restricted":"true","stats":{"checkinsCount":"402","usersCount":"226","tipCount":"1"},"specials":{"count":"0"},"hereNow":{"count":"0"},"referralId":"v-1392478054"},{"id":"50ed73e3e4b0da7c9878addd","name":"McColls - Victoria","location":{"lat":"51.499100391539166","lng":"-0.1378984361511714","distance":"22","cc":"GB","country":"United Kingdom"},"categories":[{"id":"4d954b0ea243a5684a65b473","name":"Convenience Store","pluralName":"Convenience Stores","shortName":"Convenience Stores","icon":{"prefix":"https:\/\/ss1.4sqi.net\/img\/categories_v2\/shops\/conveniencestore_","suffix":".png"},"primary":"true"}],"verified":"false","restricted":"true","stats":{"checkinsCount":"6","usersCount":"5","tipCount":"0"},"specials":{"count":"0"},"hereNow":{"count":"0"},"referralId":"v-1392478054"},{"id":"4ac518d3f964a52088a720e3","name":"The Guards Museum","contact":{"phone":"+442074143428","formattedPhone":"+44 20 7414 3428"},"location":{"address":"Birdcage Walk","crossStreet":"at Wellington Barracks","lat":"51.49988045342238","lng":"-0.13619184494018555","distance":"129","postalCode":"SW1E 6HQ","cc":"GB","city":"London","state":"Greater London","country":"United Kingdom"},"categories":[{"id":"4bf58dd8d48988d190941735","name":"History Museum","pluralName":"History Museums","shortName":"History Museum","icon":{"prefix":"https:\/\/ss1.4sqi.net\/img\/categories_v2\/arts_entertainment\/museum_history_","suffix":".png"},"primary":"true"}],"verified":"false","restricted":"true","stats":{"checkinsCount":"176","usersCount":"165","tipCount":"4"},"url":"http:\/\/www.theguardsmuseum.com","specials":{"count":"0"},"hereNow":{"count":"0"},"referralId":"v-1392478054"},{"id":"4ae55d46f964a520afa021e3","name":"E-skills UK","location":{"address":"1 Castle Lane","lat":"51.498483332679996","lng":"-0.13893444826807477","distance":"119","postalCode":"SW1E 6DR","cc":"GB","city":"London","state":"Greater London","country":"United Kingdom"},"categories":[{"id":"4bf58dd8d48988d124941735","name":"Office","pluralName":"Offices","shortName":"Office","icon":{"prefix":"https:\/\/ss1.4sqi.net\/img\/categories_v2\/building\/default_","suffix":".png"},"primary":"true"}],"verified":"false","restricted":"true","stats":{"checkinsCount":"64","usersCount":"12","tipCount":"0"},"specials":{"count":"0"},"hereNow":{"count":"0"},"referralId":"v-1392478054"},{"id":"504b7056e4b050eb2a1a2f66","name":"Fitness at 51","contact":{"phone":"+442079638307","formattedPhone":"+44 20 7963 8307"},"location":{"address":"51 Buckingham Gate","lat":"51.498472","lng":"-0.138752","distance":"112","postalCode":"SW1E 6AF","cc":"GB","city":"London","state":"Greater London","country":"United Kingdom"},"categories":[{"id":"4bf58dd8d48988d176941735","name":"Gym","pluralName":"Gyms","shortName":"Gym","icon":{"prefix":"https:\/\/ss1.4sqi.net\/img\/categories_v2\/building\/gym_","suffix":".png"},"primary":"true"}],"verified":"false","restricted":"true","stats":{"checkinsCount":"10","usersCount":"6","tipCount":"0"},"specials":{"count":"0"},"hereNow":{"count":"0"},"referralId":"v-1392478054"}],"confident":"true"}}