{"meta":{"code":"200"},"response":{"venues":[{"id":"50b741d4e4b06f5c010455f1","name":"Surrey Square Primary School","location":{"lat":"51.489018","lng":"-0.08299","distance":"32","cc":"GB","country":"United Kingdom"},"categories":[{"id":"4bf58dd8d48988d13b941735","name":"School","pluralName":"Schools","shortName":"School","icon":{"prefix":"https:\/\/ss1.4sqi.net\/img\/categories_v2\/building\/school_","suffix":".png"},"primary":"true"}],"verified":"false","restricted":"true","stats":{"checkinsCount":"1","usersCount":"1","tipCount":"0"},"specials":{"count":"0"},"hereNow":{"count":"0"},"referralId":"v-1392478085"},{"id":"50a61f33e4b0451f15414bd6","name":"Old Kent Road East Street bus stop","location":{"lat":"51.49133187622918","lng":"-0.08191860768532859","distance":"235","cc":"GB","country":"United Kingdom"},"categories":[{"id":"4bf58dd8d48988d1fe931735","name":"Bus Station","pluralName":"Bus Stations","shortName":"Bus Station","icon":{"prefix":"https:\/\/ss1.4sqi.net\/img\/categories_v2\/travel\/busstation_","suffix":".png"},"primary":"true"}],"verified":"false","restricted":"true","stats":{"checkinsCount":"59","usersCount":"25","tipCount":"0"},"specials":{"count":"0"},"hereNow":{"count":"0"},"referralId":"v-1392478085"},{"id":"4f60c50ae4b039028f8c924f","name":"East Street Surgery","location":{"address":"301 East Street","lat":"51.49038232968697","lng":"-0.0824089948166573","distance":"124","postalCode":"SE17 2SX","cc":"GB","city":"London","state":"Greater London","country":"United Kingdom"},"categories":[{"id":"4bf58dd8d48988d177941735","name":"Doctor's Office","pluralName":"Doctor's Offices","shortName":"Doctor's Office","icon":{"prefix":"https:\/\/ss1.4sqi.net\/img\/categories_v2\/building\/medical_doctorsoffice_","suffix":".png"},"primary":"true"}],"verified":"false","restricted":"true","stats":{"checkinsCount":"10","usersCount":"6","tipCount":"0"},"specials":{"count":"0"},"hereNow":{"count":"0"},"referralId":"v-1392478085"},{"id":"4c7e1a35b33a224b8cead981","name":"TfL Bus 343","location":{"address":"Moving Target!","lat":"51.48940009377448","lng":"-0.08694648742675781","distance":"287","cc":"GB","city":"London","state":"Greater London","country":"United Kingdom"},"categories":[{"id":"4bf58dd8d48988d12b951735","name":"Bus Line","pluralName":"Bus Lines","shortName":"Bus","icon":{"prefix":"https:\/\/ss1.4sqi.net\/img\/categories_v2\/travel\/busstation_","suffix":".png"},"primary":"true"}],"verified":"false","restricted":"true","stats":{"checkinsCount":"287","usersCount":"77","tipCount":"1"},"specials":{"count":"0"},"hereNow":{"count":"0"},"referralId":"v-1392478085"},{"id":"4b4a178df964a5204d7a26e3","name":"Rajah Tandoori and Curry","location":{"address":"342 East Street","lat":"51.489316","lng":"-0.082084","distance":"49","postalCode":"SE17 2SX","cc":"GB","city":"London","state":"Greater London","country":"United Kingdom"},"categories":[{"id":"4bf58dd8d48988d10f941735","name":"Indian Restaurant","pluralName":"Indian Restaurants","shortName":"Indian","icon":{"prefix":"https:\/\/ss1.4sqi.net\/img\/categories_v2\/food\/indian_","suffix":".png"},"primary":"true"}],"verified":"false","restricted":"true","stats":{"checkinsCount":"8","usersCount":"7","tipCount":"0"},"specials":{"count":"0"},"hereNow":{"count":"0"},"referralId":"v-1392478085"},{"id":"4dab5292cda1652a2ba103aa","name":"Shu Castle","contact":{"phone":"+442077039797","formattedPhone":"+44 20 7703 9797"},"location":{"address":"194 Old Kent Road","lat":"51.490571","lng":"-0.08065","distance":"206","postalCode":"SE1 5TY","cc":"GB","city":"London","state":"Greater London","country":"United Kingdom"},"categories":[{"id":"4bf58dd8d48988d145941735","name":"Chinese Restaurant","pluralName":"Chinese Restaurants","shortName":"Chinese","icon":{"prefix":"https:\/\/ss1.4sqi.net\/img\/categories_v2\/food\/chinese_","suffix":".png"},"primary":"true"}],"verified":"false","restricted":"true","stats":{"checkinsCount":"48","usersCount":"37","tipCount":"3"},"specials":{"count":"0"},"hereNow":{"count":"0"},"referralId":"v-1392478085"},{"id":"4f2465afe4b0085e49f31f20","name":"Eurotraveller Premier Hotel","location":{"address":"Old Kent Road  194","lat":"51.490327042247806","lng":"-0.08074075505608998","distance":"183","cc":"GB","city":"London","state":"Greater London","country":"United Kingdom"},"categories":[{"id":"4bf58dd8d48988d1fa931735","name":"Hotel","pluralName":"Hotels","shortName":"Hotel","icon":{"prefix":"https:\/\/ss1.4sqi.net\/img\/categories_v2\/travel\/hotel_","suffix":".png"},"primary":"true"}],"verified":"false","restricted":"true","stats":{"checkinsCount":"75","usersCount":"41","tipCount":"2"},"specials":{"count":"0"},"hereNow":{"count":"0"},"referralId":"v-1392478085"},{"id":"4e1f26a7483b6e56e8371cd8","name":"East Street Library","contact":{"phone":"+442075252000","formattedPhone":"+44 20 7525 2000"},"location":{"address":"168-170 Old Kent Rd.","crossStreet":"at East St.","lat":"51.491137079021975","lng":"-0.08178065342011753","distance":"217","postalCode":"SE1 5TY","cc":"GB","city":"Walworth","state":"Greater London","country":"United Kingdom"},"categories":[{"id":"4bf58dd8d48988d12f941735","name":"Library","pluralName":"Libraries","shortName":"Library","icon":{"prefix":"https:\/\/ss1.4sqi.net\/img\/categories_v2\/building\/library_","suffix":".png"},"primary":"true"}],"verified":"false","restricted":"true","stats":{"checkinsCount":"37","usersCount":"29","tipCount":"0"},"url":"http:\/\/southwark.gov.uk\/library","specials":{"count":"0"},"hereNow":{"count":"0"},"referralId":"v-1392478085"},{"id":"4e15f39cb0fb1946c7988f70","name":"Exon Corner","location":{"address":"312 East St","crossStreet":"Exon St","lat":"51.489986","lng":"-0.082984","distance":"78","cc":"GB","city":"Camberwell","state":"Greater London","country":"United Kingdom"},"verified":"false","restricted":"true","stats":{"checkinsCount":"32","usersCount":"5","tipCount":"0"},"specials":{"count":"0"},"hereNow":{"count":"0"},"referralId":"v-1392478085"},{"id":"4b6e9db2f964a52014c42ce3","name":"Lidl","location":{"address":"Old Kent Road","crossStreet":"Massinger St","lat":"51.492018739579336","lng":"-0.08351325988769531","distance":"307","cc":"GB","city":"Camberwell","state":"Greater London","country":"United Kingdom"},"categories":[{"id":"4bf58dd8d48988d118951735","name":"Grocery Store","pluralName":"Grocery Stores","shortName":"Grocery Store","icon":{"prefix":"https:\/\/ss1.4sqi.net\/img\/categories_v2\/shops\/food_grocery_","suffix":".png"},"primary":"true"}],"verified":"false","restricted":"true","stats":{"checkinsCount":"238","usersCount":"99","tipCount":"1"},"specials":{"count":"0"},"hereNow":{"count":"0"},"referralId":"v-1392478085"},{"id":"4bd72dcd304fce725d2e33ab","name":"Hour Glass Hotel Walworth","location":{"address":"131 Beaconsfield Rd Camberwell Greater London SE17","lat":"51.486456","lng":"-0.084347","distance":"333","cc":"GB","city":"Walworth","state":"Greater London","country":"United Kingdom"},"categories":[{"id":"4bf58dd8d48988d11b941735","name":"Pub","pluralName":"Pubs","shortName":"Pub","icon":{"prefix":"https:\/\/ss1.4sqi.net\/img\/categories_v2\/nightlife\/pub_","suffix":".png"},"primary":"true"}],"verified":"false","restricted":"true","stats":{"checkinsCount":"91","usersCount":"50","tipCount":"0"},"specials":{"count":"0"},"hereNow":{"count":"0"},"referralId":"v-1392478085"},{"id":"52752c2a11d2ec02d5aa16ae","name":"Russian Shop","contact":{"phone":"+447988953893","formattedPhone":"+44 7988 953893"},"location":{"address":"229 Old Kent Road","lat":"51.49001970802549","lng":"-0.07983353449689337","distance":"221","postalCode":"SE1 5LU","cc":"GB","city":"London","state":"Greater London","country":"United Kingdom"},"categories":[{"id":"4bf58dd8d48988d118951735","name":"Grocery Store","pluralName":"Grocery Stores","shortName":"Grocery Store","icon":{"prefix":"https:\/\/ss1.4sqi.net\/img\/categories_v2\/shops\/food_grocery_","suffix":".png"},"primary":"true"}],"verified":"false","restricted":"true","stats":{"checkinsCount":"10","usersCount":"4","tipCount":"1"},"specials":{"count":"0"},"hereNow":{"count":"0"},"referralId":"v-1392478085"},{"id":"4fa141f8e4b00c5d71b30488","name":"Kinglake Estate","location":{"crossStreet":"Old Kent Road","lat":"51.48795112958042","lng":"-0.08106646831360806","distance":"191","postalCode":"SE17","cc":"GB","city":"Southwark","state":"Greater London","country":"United Kingdom"},"categories":[{"id":"4f2a25ac4b909258e854f55f","name":"Neighborhood","pluralName":"Neighborhoods","shortName":"Neighborhood","icon":{"prefix":"https:\/\/ss1.4sqi.net\/img\/categories_v2\/parks_outdoors\/neighborhood_","suffix":".png"},"primary":"true"}],"verified":"false","restricted":"true","stats":{"checkinsCount":"22","usersCount":"8","tipCount":"0"},"specials":{"count":"0"},"hereNow":{"count":"0"},"referralId":"v-1392478085"},{"id":"4bbca1a68a4fb71308e93b9d","name":"Royal Mail Enquiry Office","location":{"address":"Mandela Way","lat":"51.49237","lng":"-0.08012514","distance":"389","postalCode":"SE1","cc":"GB","city":"Bermondsey","state":"Greater London","country":"United Kingdom"},"categories":[{"id":"4bf58dd8d48988d172941735","name":"Post Office","pluralName":"Post Offices","shortName":"Post Office","icon":{"prefix":"https:\/\/ss1.4sqi.net\/img\/categories_v2\/building\/postoffice_","suffix":".png"},"primary":"true"}],"verified":"false","restricted":"true","stats":{"checkinsCount":"249","usersCount":"120","tipCount":"7"},"specials":{"count":"0"},"hereNow":{"count":"0"},"referralId":"v-1392478085"},{"id":"4dd26f888130db0680276fd8","name":"Kam's Barbers Shop","location":{"address":"356 East Street","lat":"51.49004555","lng":"-0.08317287500000001","distance":"88","postalCode":"SE17 2SX","cc":"GB","city":"London","state":"Greater London","country":"United Kingdom"},"categories":[{"id":"4bf58dd8d48988d110951735","name":"Salon \/ Barbershop","pluralName":"Salons \/ Barbershops","shortName":"Salon \/ Barbershop","icon":{"prefix":"https:\/\/ss1.4sqi.net\/img\/categories_v2\/shops\/salon_barber_","suffix":".png"},"primary":"true"}],"verified":"false","restricted":"true","stats":{"checkinsCount":"10","usersCount":"6","tipCount":"1"},"specials":{"count":"0"},"hereNow":{"count":"0"},"referralId":"v-1392478085"},{"id":"51925c6d498e88f22be6dd02","name":"Super Pizza","location":{"address":"Old Kent Road","lat":"51.48944722564525","lng":"-0.08411444259770219","distance":"92","cc":"GB","country":"United Kingdom"},"categories":[{"id":"4bf58dd8d48988d1ca941735","name":"Pizza Place","pluralName":"Pizza Places","shortName":"Pizza","icon":{"prefix":"https:\/\/ss1.4sqi.net\/img\/categories_v2\/food\/pizza_","suffix":".png"},"primary":"true"}],"verified":"false","restricted":"true","stats":{"checkinsCount":"5","usersCount":"5","tipCount":"0"},"specials":{"count":"0"},"hereNow":{"count":"0"},"referralId":"v-1392478085"},{"id":"4dda64af814d52408628964e","name":"Friends Corner","location":{"address":"303 East Street","lat":"51.490033425","lng":"-0.08318536000000001","distance":"87","postalCode":"SE17 2SX","cc":"GB","city":"London","state":"Greater London","country":"United Kingdom"},"categories":[{"id":"4d954b0ea243a5684a65b473","name":"Convenience Store","pluralName":"Convenience Stores","shortName":"Convenience Stores","icon":{"prefix":"https:\/\/ss1.4sqi.net\/img\/categories_v2\/shops\/conveniencestore_","suffix":".png"},"primary":"true"}],"verified":"false","restricted":"true","stats":{"checkinsCount":"36","usersCount":"13","tipCount":"0"},"specials":{"count":"0"},"hereNow":{"count":"0"},"referralId":"v-1392478085"},{"id":"4f398b27e4b09ca12f4e02b9","name":"Rajah","location":{"address":"342 East St, London Borough of Southwark, London SE17 2SX","lat":"51.489300295834816","lng":"-0.08144854776013895","distance":"93","postalCode":"SE17 2SX","cc":"GB","city":"London","state":"Greater London","country":"United Kingdom"},"categories":[{"id":"4bf58dd8d48988d10f941735","name":"Indian Restaurant","pluralName":"Indian Restaurants","shortName":"Indian","icon":{"prefix":"https:\/\/ss1.4sqi.net\/img\/categories_v2\/food\/indian_","suffix":".png"},"primary":"true"}],"verified":"false","restricted":"true","stats":{"checkinsCount":"1","usersCount":"1","tipCount":"1"},"specials":{"count":"0"},"hereNow":{"count":"0"},"referralId":"v-1392478085"},{"id":"52dba9c4498e7a132233466c","name":"Alsace Road Bus Stop (Stop A, Northbound)","location":{"lat":"51.487198","lng":"-0.084651","distance":"265","cc":"GB","country":"United Kingdom"},"categories":[{"id":"4bf58dd8d48988d12b951735","name":"Bus Line","pluralName":"Bus Lines","shortName":"Bus","icon":{"prefix":"https:\/\/ss1.4sqi.net\/img\/categories_v2\/travel\/busstation_","suffix":".png"},"primary":"true"}],"verified":"false","restricted":"true","stats":{"checkinsCount":"1","usersCount":"1","tipCount":"0"},"specials":{"count":"0"},"hereNow":{"count":"0"},"referralId":"v-1392478085"},{"id":"4fb245e3e4b0c2b5f4e5065f","name":"new image","location":{"address":"Old Kent Road","lat":"51.48957382170743","lng":"-0.07915084768128099","distance":"255","cc":"GB","country":"United Kingdom"},"categories":[{"id":"4bf58dd8d48988d110951735","name":"Salon \/ Barbershop","pluralName":"Salons \/ Barbershops","shortName":"Salon \/ Barbershop","icon":{"prefix":"https:\/\/ss1.4sqi.net\/img\/categories_v2\/shops\/salon_barber_","suffix":".png"},"primary":"true"}],"verified":"false","restricted":"true","stats":{"checkinsCount":"8","usersCount":"6","tipCount":"1"},"specials":{"count":"0"},"hereNow":{"count":"0"},"referralId":"v-1392478085"},{"id":"521324a0498e2a1f7a404e68","name":"Aylesbury Health Centre","location":{"lat":"51.48837800974101","lng":"-0.08652057110512633","distance":"276","cc":"GB","country":"United Kingdom"},"categories":[{"id":"4bf58dd8d48988d104941735","name":"Medical Center","pluralName":"Medical Centers","shortName":"Medical","icon":{"prefix":"https:\/\/ss1.4sqi.net\/img\/categories_v2\/building\/medical_","suffix":".png"},"primary":"true"}],"verified":"false","restricted":"true","stats":{"checkinsCount":"10","usersCount":"4","tipCount":"0"},"specials":{"count":"0"},"hereNow":{"count":"0"},"referralId":"v-1392478085"},{"id":"51829e59498e1c5fb4bee97e","name":"Victory House Playscheme","location":{"lat":"51.49028778076172","lng":"-0.08127009868621826","distance":"153","cc":"GB","country":"United Kingdom"},"categories":[{"id":"4f2a25ac4b909258e854f55f","name":"Neighborhood","pluralName":"Neighborhoods","shortName":"Neighborhood","icon":{"prefix":"https:\/\/ss1.4sqi.net\/img\/categories_v2\/parks_outdoors\/neighborhood_","suffix":".png"},"primary":"true"}],"verified":"false","restricted":"true","stats":{"checkinsCount":"2","usersCount":"2","tipCount":"0"},"specials":{"count":"0"},"hereNow":{"count":"0"},"referralId":"v-1392478085"},{"id":"4b5aef47f964a52006db28e3","name":"Wolverton","location":{"address":"Walworth","lat":"51.488052","lng":"-0.084099","distance":"164","postalCode":"se17","cc":"GB","city":"London","state":"Greater London","country":"United Kingdom"},"verified":"false","restricted":"true","stats":{"checkinsCount":"2","usersCount":"2","tipCount":"0"},"specials":{"count":"0"},"hereNow":{"count":"0"},"referralId":"v-1392478085"},{"id":"4f0da52ee4b0d8e3c0ad81c6","name":"Miami Health Club","location":{"address":"210 Old Kent Road","lat":"51.490046","lng":"-0.080295","distance":"193","postalCode":"SE1 5TY","cc":"GB","city":"London","state":"Greater London","country":"United Kingdom"},"categories":[{"id":"4bf58dd8d48988d176941735","name":"Gym","pluralName":"Gyms","shortName":"Gym","icon":{"prefix":"https:\/\/ss1.4sqi.net\/img\/categories_v2\/building\/gym_","suffix":".png"},"primary":"true"}],"verified":"false","restricted":"true","stats":{"checkinsCount":"80","usersCount":"9","tipCount":"1"},"specials":{"count":"0"},"hereNow":{"count":"0"},"referralId":"v-1392478085"},{"id":"4c1e9fabfbc5ef3b1e028511","name":"Parilladas del Sur","location":{"address":"186 Old Kent Road","lat":"51.49048612126998","lng":"-0.08083833477553232","distance":"190","postalCode":"SE1 5TY","cc":"GB","city":"London","state":"Greater London","country":"United Kingdom"},"categories":[{"id":"4bf58dd8d48988d1cd941735","name":"South American Restaurant","pluralName":"South American Restaurants","shortName":"South American","icon":{"prefix":"https:\/\/ss1.4sqi.net\/img\/categories_v2\/food\/default_","suffix":".png"},"primary":"true"}],"verified":"false","restricted":"true","stats":{"checkinsCount":"25","usersCount":"15","tipCount":"0"},"specials":{"count":"0"},"hereNow":{"count":"0"},"referralId":"v-1392478085"},{"id":"4f147062e4b0472047b9d34e","name":"Sam's barber","location":{"address":"255 Old Kent Rd, London Borough of Southwark, London SE1 5LU","lat":"51.49063438837371","lng":"-0.08151549527141046","distance":"174","postalCode":"SE1","cc":"GB","city":"London","state":"Greater London","country":"United Kingdom"},"categories":[{"id":"4bf58dd8d48988d110951735","name":"Salon \/ Barbershop","pluralName":"Salons \/ Barbershops","shortName":"Salon \/ Barbershop","icon":{"prefix":"https:\/\/ss1.4sqi.net\/img\/categories_v2\/shops\/salon_barber_","suffix":".png"},"primary":"true"}],"verified":"false","restricted":"true","stats":{"checkinsCount":"5","usersCount":"2","tipCount":"0"},"specials":{"count":"0"},"hereNow":{"count":"0"},"referralId":"v-1392478085"},{"id":"4e6b56d1b61cc3728dfb2623","name":"Ozzies Cafe","location":{"lat":"51.49062599161347","lng":"-0.08084502304521014","distance":"201","cc":"GB","city":"Camberwell","state":"Greater London","country":"United Kingdom"},"categories":[{"id":"4bf58dd8d48988d143941735","name":"Breakfast Spot","pluralName":"Breakfast Spots","shortName":"Breakfast","icon":{"prefix":"https:\/\/ss1.4sqi.net\/img\/categories_v2\/food\/breakfast_","suffix":".png"},"primary":"true"}],"verified":"false","restricted":"true","stats":{"checkinsCount":"12","usersCount":"11","tipCount":"0"},"specials":{"count":"0"},"hereNow":{"count":"0"},"referralId":"v-1392478085"},{"id":"4e3ae552d4c05163b4558c6e","name":"Costa Azul","location":{"address":"190-192 Old Kent Road","lat":"51.49049640754365","lng":"-0.08045447570442824","distance":"211","cc":"GB","city":"London","state":"Greater London","country":"United Kingdom"},"categories":[{"id":"4bf58dd8d48988d1be941735","name":"Latin American Restaurant","pluralName":"Latin American Restaurants","shortName":"Latin American","icon":{"prefix":"https:\/\/ss1.4sqi.net\/img\/categories_v2\/food\/latinamerican_","suffix":".png"},"primary":"true"}],"verified":"false","restricted":"true","stats":{"checkinsCount":"21","usersCount":"11","tipCount":"0"},"specials":{"count":"0"},"hereNow":{"count":"0"},"referralId":"v-1392478085"},{"id":"4b9c15c1f964a520654836e3","name":"The Shaftesbury Premier Hotel","location":{"address":"194 old kent road","lat":"51.490203","lng":"-0.080608","distance":"183","postalCode":"SE1 5TY","cc":"GB","city":"London","state":"Greater London","country":"United Kingdom"},"categories":[{"id":"4bf58dd8d48988d1fa931735","name":"Hotel","pluralName":"Hotels","shortName":"Hotel","icon":{"prefix":"https:\/\/ss1.4sqi.net\/img\/categories_v2\/travel\/hotel_","suffix":".png"},"primary":"true"}],"verified":"false","restricted":"true","stats":{"checkinsCount":"26","usersCount":"19","tipCount":"3"},"specials":{"count":"0"},"hereNow":{"count":"0"},"referralId":"v-1392478085"},{"id":"4cfa74a82d80a14332c844d8","name":"Diamond Nails","location":{"address":"Old Kent Road","lat":"51.490778240755084","lng":"-0.08148089200229666","distance":"189","cc":"GB","city":"Camberwell","state":"Greater London","country":"United Kingdom"},"categories":[{"id":"4bf58dd8d48988d10c951735","name":"Cosmetics Shop","pluralName":"Cosmetics Shops","shortName":"Cosmetics","icon":{"prefix":"https:\/\/ss1.4sqi.net\/img\/categories_v2\/shops\/beauty_cosmetic_","suffix":".png"},"primary":"true"}],"verified":"false","restricted":"true","stats":{"checkinsCount":"8","usersCount":"5","tipCount":"0"},"specials":{"count":"0"},"hereNow":{"count":"0"},"referralId":"v-1392478085"}],"confident":"true"}}