{"meta":{"code":"200"},"response":{"venues":[{"id":"4adf4587f964a520f87821e3","name":"Saatchi Gallery","contact":{"twitter":"saatchigallery"},"location":{"address":"Duke of York Sq","crossStreet":"Kings Road","lat":"51.49046226670941","lng":"-0.1587975025177002","distance":"147","postalCode":"SW3 4SQ","cc":"GB","city":"Chelsea","state":"Greater London","country":"United Kingdom"},"categories":[{"id":"4bf58dd8d48988d1e2931735","name":"Art Gallery","pluralName":"Art Galleries","shortName":"Art Gallery","icon":{"prefix":"https:\/\/ss1.4sqi.net\/img\/categories_v2\/arts_entertainment\/artgallery_","suffix":".png"},"primary":"true"}],"verified":"false","restricted":"true","stats":{"checkinsCount":"7931","usersCount":"6045","tipCount":"86"},"url":"http:\/\/www.saatchi-gallery.co.uk","specials":{"count":"0"},"hereNow":{"count":"14","groups":[{"type":"others","name":"Other people here","count":"14"}]},"referralId":"v-1392478078"},{"id":"4ad771a8f964a520890a21e3","name":"Sloane Square","location":{"address":"Sloane Sq","lat":"51.492499698989036","lng":"-0.15743494033813477","distance":"358","postalCode":"SW1W 8EG","cc":"GB","city":"London","state":"Greater London","country":"United Kingdom"},"categories":[{"id":"4bf58dd8d48988d164941735","name":"Plaza","pluralName":"Plazas","shortName":"Plaza","icon":{"prefix":"https:\/\/ss1.4sqi.net\/img\/categories_v2\/parks_outdoors\/plaza_","suffix":".png"},"primary":"true"}],"verified":"false","restricted":"true","stats":{"checkinsCount":"10882","usersCount":"5148","tipCount":"25"},"specials":{"count":"0"},"hereNow":{"count":"2","groups":[{"type":"others","name":"Other people here","count":"2"}]},"referralId":"v-1392478078"},{"id":"4c2f53c9213c2d7ffb9b305d","name":"Saturday Farmers' Market","location":{"address":"Duke of York Sq","lat":"51.49081987677112","lng":"-0.16054925480583376","distance":"255","cc":"GB","city":"Chelsea","state":"Greater London","country":"United Kingdom"},"categories":[{"id":"4bf58dd8d48988d1fa941735","name":"Farmers Market","pluralName":"Farmers Markets","shortName":"Farmer's Market","icon":{"prefix":"https:\/\/ss1.4sqi.net\/img\/categories_v2\/shops\/food_farmersmarket_","suffix":".png"},"primary":"true"}],"verified":"false","restricted":"true","stats":{"checkinsCount":"1508","usersCount":"828","tipCount":"21"},"specials":{"count":"0"},"hereNow":{"count":"6","groups":[{"type":"others","name":"Other people here","count":"6"}]},"referralId":"v-1392478078"},{"id":"4ac518f3f964a520bfae20e3","name":"Peter Jones","contact":{"phone":"+442077303434","formattedPhone":"+44 20 7730 3434","twitter":"johnlewisretail"},"location":{"address":"Sloane Sq.","lat":"51.49233079267998","lng":"-0.15883650215684397","distance":"346","postalCode":"SW1W 8EL","cc":"GB","city":"Chelsea","state":"Greater London","country":"United Kingdom"},"categories":[{"id":"4bf58dd8d48988d1f6941735","name":"Department Store","pluralName":"Department Stores","shortName":"Department Store","icon":{"prefix":"https:\/\/ss1.4sqi.net\/img\/categories_v2\/shops\/departmentstore_","suffix":".png"},"primary":"true"}],"verified":"true","restricted":"true","stats":{"checkinsCount":"5267","usersCount":"2241","tipCount":"30"},"url":"http:\/\/www.johnlewis.com","specials":{"count":"0"},"hereNow":{"count":"4","groups":[{"type":"others","name":"Other people here","count":"4"}]},"referralId":"v-1392478078"},{"id":"4c30a942a0ced13a256f126e","name":"Duke of York Square","location":{"address":"Kings Rd.","lat":"51.49149769449268","lng":"-0.15924811363220215","distance":"265","postalCode":"SW3 4LY","cc":"GB","city":"Kensington","state":"Greater London","country":"United Kingdom"},"categories":[{"id":"4bf58dd8d48988d164941735","name":"Plaza","pluralName":"Plazas","shortName":"Plaza","icon":{"prefix":"https:\/\/ss1.4sqi.net\/img\/categories_v2\/parks_outdoors\/plaza_","suffix":".png"},"primary":"true"}],"verified":"false","restricted":"true","stats":{"checkinsCount":"3644","usersCount":"1884","tipCount":"20"},"specials":{"count":"0"},"hereNow":{"count":"0"},"referralId":"v-1392478078"},{"id":"4b2d10e0f964a5207fcd24e3","name":"Partridges","contact":{"phone":"+442077300651","formattedPhone":"+44 20 7730 0651"},"location":{"address":"2 Duke of York St","lat":"51.49140417294933","lng":"-0.1597738265991211","distance":"272","postalCode":"SW1Y 6JP","cc":"GB","city":"Chelsea","state":"Greater London","country":"United Kingdom"},"categories":[{"id":"4bf58dd8d48988d118951735","name":"Grocery Store","pluralName":"Grocery Stores","shortName":"Grocery Store","icon":{"prefix":"https:\/\/ss1.4sqi.net\/img\/categories_v2\/shops\/food_grocery_","suffix":".png"},"primary":"true"}],"verified":"false","restricted":"true","stats":{"checkinsCount":"1114","usersCount":"619","tipCount":"19"},"menu":{"type":"Menu","label":"Menu","anchor":"View Menu","url":"https:\/\/foursquare.com\/v\/partridges\/4b2d10e0f964a5207fcd24e3\/menu","mobileUrl":"https:\/\/foursquare.com\/v\/4b2d10e0f964a5207fcd24e3\/device_menu"},"specials":{"count":"0"},"hereNow":{"count":"0"},"referralId":"v-1392478078"},{"id":"5028bf8febcaf254167595cc","name":"Jak's","contact":{"phone":"+442077309476","formattedPhone":"+44 20 7730 9476"},"location":{"address":"77 Lower Sloane St","lat":"51.49002804805969","lng":"-0.15640497207641602","distance":"127","postalCode":"SW1W 8DA","cc":"GB","city":"London","state":"Greater London","country":"United Kingdom"},"categories":[{"id":"4bf58dd8d48988d155941735","name":"Gastropub","pluralName":"Gastropubs","shortName":"Gastropub","icon":{"prefix":"https:\/\/ss1.4sqi.net\/img\/categories_v2\/food\/gastropub_","suffix":".png"},"primary":"true"}],"verified":"false","restricted":"true","stats":{"checkinsCount":"32","usersCount":"30","tipCount":"0"},"specials":{"count":"0"},"hereNow":{"count":"1","groups":[{"type":"others","name":"Other people here","count":"1"}]},"referralId":"v-1392478078"},{"id":"4c39c17dae2da59355fb02c6","name":"Tiffany & Co.","contact":{"phone":"+442070160620","formattedPhone":"+44 20 7016 0620","twitter":"tiffanyandco"},"location":{"address":"Sloane Sq.","lat":"51.4923677112296","lng":"-0.15767315579605112","distance":"342","postalCode":"SW1X 9AY","cc":"GB","city":"Kensington","state":"Greater London","country":"United Kingdom"},"categories":[{"id":"4bf58dd8d48988d111951735","name":"Jewelry Store","pluralName":"Jewelry Stores","shortName":"Jewelry","icon":{"prefix":"https:\/\/ss1.4sqi.net\/img\/categories_v2\/shops\/jewelry_","suffix":".png"},"primary":"true"}],"verified":"true","restricted":"true","stats":{"checkinsCount":"500","usersCount":"284","tipCount":"2"},"url":"http:\/\/www.tiffany.co.uk","specials":{"count":"0"},"hereNow":{"count":"0"},"storeId":"London Store","referralId":"v-1392478078"},{"id":"4ac518c4f964a52083a420e3","name":"Manicomio Restaurant","location":{"address":"85 Duke of York Square","lat":"51.49124755929774","lng":"-0.15918573753080809","distance":"238","postalCode":"SW3 4LY","cc":"GB","city":"London","state":"Greater London","country":"United Kingdom"},"categories":[{"id":"4bf58dd8d48988d116941735","name":"Bar","pluralName":"Bars","shortName":"Bar","icon":{"prefix":"https:\/\/ss1.4sqi.net\/img\/categories_v2\/nightlife\/bar_","suffix":".png"},"primary":"true"}],"verified":"false","restricted":"true","stats":{"checkinsCount":"1065","usersCount":"764","tipCount":"20"},"url":"http:\/\/www.manicomio.co.uk\/chelsea\/","reservations":{"url":"http:\/\/www.toptable.co.uk\/single.aspx?rid=23107&ref=9601"},"menu":{"type":"Menu","label":"Menu","anchor":"View Menu","url":"https:\/\/foursquare.com\/v\/manicomio-restaurant-london-greater-london\/4ac518c4f964a52083a420e3\/menu","mobileUrl":"https:\/\/foursquare.com\/v\/4ac518c4f964a52083a420e3\/device_menu"},"specials":{"count":"0"},"hereNow":{"count":"1","groups":[{"type":"others","name":"Other people here","count":"1"}]},"referralId":"v-1392478078"},{"id":"4b191fbaf964a52040d823e3","name":"Sloane Club","contact":{"phone":"+442077309131","formattedPhone":"+44 20 7730 9131","twitter":"thesloaneclub"},"location":{"address":"52 Lower Sloane St","crossStreet":"Sloane Gdns","lat":"51.490367242600925","lng":"-0.15691285616876396","distance":"134","postalCode":"GU7 1PU","cc":"GB","city":"London","state":"Greater London","country":"United Kingdom"},"categories":[{"id":"4bf58dd8d48988d1fa931735","name":"Hotel","pluralName":"Hotels","shortName":"Hotel","icon":{"prefix":"https:\/\/ss1.4sqi.net\/img\/categories_v2\/travel\/hotel_","suffix":".png"},"primary":"true"}],"verified":"true","restricted":"true","stats":{"checkinsCount":"299","usersCount":"116","tipCount":"3"},"specials":{"count":"0"},"hereNow":{"count":"0"},"venuePage":{"id":"48163426"},"storeId":"","referralId":"v-1392478078"},{"id":"4c121b26b2510f47aafec398","name":"La Bottega","contact":{"phone":"+442077308844","formattedPhone":"+44 20 7730 8844","twitter":"labottegalondon"},"location":{"address":"65 Lower Sloane St","lat":"51.490252","lng":"-0.156865","distance":"125","postalCode":"SW1W 8HD","cc":"GB","city":"London","state":"Greater London","country":"United Kingdom"},"categories":[{"id":"4bf58dd8d48988d110941735","name":"Italian Restaurant","pluralName":"Italian Restaurants","shortName":"Italian","icon":{"prefix":"https:\/\/ss1.4sqi.net\/img\/categories_v2\/food\/italian_","suffix":".png"},"primary":"true"}],"verified":"false","restricted":"true","stats":{"checkinsCount":"259","usersCount":"153","tipCount":"6"},"url":"http:\/\/www.labottega.co.uk","specials":{"count":"0"},"hereNow":{"count":"0"},"referralId":"v-1392478078"},{"id":"4ad3acf0f964a5208de520e3","name":"Patisserie Valerie","contact":{"phone":"+442077307094","formattedPhone":"+44 20 7730 7094"},"location":{"address":"Duke of York Sq.","lat":"51.491427553353155","lng":"-0.1588672399520874","distance":"249","postalCode":"SW3 4LY","cc":"GB","city":"Chelsea","state":"Greater London","country":"United Kingdom"},"categories":[{"id":"4bf58dd8d48988d16a941735","name":"Bakery","pluralName":"Bakeries","shortName":"Bakery","icon":{"prefix":"https:\/\/ss1.4sqi.net\/img\/categories_v2\/food\/bakery_","suffix":".png"},"primary":"true"}],"verified":"false","restricted":"true","stats":{"checkinsCount":"1016","usersCount":"804","tipCount":"19"},"specials":{"count":"0"},"hereNow":{"count":"0"},"referralId":"v-1392478078"},{"id":"4d739f72f7c38cfa6e42b93d","name":"Gallery Mess","contact":{"phone":"+442077308135","formattedPhone":"+44 20 7730 8135"},"location":{"address":"Duke Of York Sq.","lat":"51.490929313846394","lng":"-0.1595397257875766","distance":"218","postalCode":"SW3 4RY","cc":"GB","city":"Chelsea","state":"Greater London","country":"United Kingdom"},"categories":[{"id":"4bf58dd8d48988d16d941735","name":"Caf\u00e9","pluralName":"Caf\u00e9s","shortName":"Caf\u00e9","icon":{"prefix":"https:\/\/ss1.4sqi.net\/img\/categories_v2\/food\/cafe_","suffix":".png"},"primary":"true"}],"verified":"false","restricted":"true","stats":{"checkinsCount":"544","usersCount":"441","tipCount":"14"},"url":"http:\/\/www.saatchi-gallery.co.uk\/gallerymess\/","reservations":{"url":"http:\/\/www.toptable.co.uk\/single.aspx?rid=49605&ref=9601"},"menu":{"type":"Menu","label":"Menu","anchor":"View Menu","url":"https:\/\/foursquare.com\/v\/gallery-mess\/4d739f72f7c38cfa6e42b93d\/menu","mobileUrl":"https:\/\/foursquare.com\/v\/4d739f72f7c38cfa6e42b93d\/device_menu"},"specials":{"count":"0"},"hereNow":{"count":"0"},"referralId":"v-1392478078"},{"id":"52bc6eac498eb183c2aca725","name":"Comptoir Libanais","location":{"address":"Duke of York Square, Chelsea","lat":"51.491719","lng":"-0.15838","distance":"273","cc":"GB","city":"London","state":"Greater London","country":"United Kingdom"},"categories":[{"id":"4bf58dd8d48988d115941735","name":"Middle Eastern Restaurant","pluralName":"Middle Eastern Restaurants","shortName":"Middle Eastern","icon":{"prefix":"https:\/\/ss1.4sqi.net\/img\/categories_v2\/food\/default_","suffix":".png"},"primary":"true"}],"verified":"false","restricted":"true","stats":{"checkinsCount":"70","usersCount":"65","tipCount":"1"},"specials":{"count":"0"},"hereNow":{"count":"0"},"referralId":"v-1392478078"},{"id":"527bdf8f11d2dc8aab9a9af1","name":"Kings Road","location":{"lat":"51.490474409817026","lng":"-0.16148426802921242","distance":"287","cc":"GB","country":"United Kingdom"},"categories":[{"id":"4bf58dd8d48988d1ff941735","name":"Miscellaneous Shop","pluralName":"Miscellaneous Shops","shortName":"Shop","icon":{"prefix":"https:\/\/ss1.4sqi.net\/img\/categories_v2\/shops\/default_","suffix":".png"},"primary":"true"}],"verified":"false","restricted":"true","stats":{"checkinsCount":"86","usersCount":"55","tipCount":"0"},"specials":{"count":"0"},"hereNow":{"count":"0"},"referralId":"v-1392478078"},{"id":"4b3a62d5f964a5201b6625e3","name":"Rose & Crown","location":{"address":"90-92 Lower Sloane St","lat":"51.490302085876465","lng":"-0.156669","distance":"137","postalCode":"SW1W 8BU","cc":"GB","city":"Chelsea","state":"Greater London","country":"United Kingdom"},"categories":[{"id":"4bf58dd8d48988d11b941735","name":"Pub","pluralName":"Pubs","shortName":"Pub","icon":{"prefix":"https:\/\/ss1.4sqi.net\/img\/categories_v2\/nightlife\/pub_","suffix":".png"},"primary":"true"}],"verified":"false","restricted":"true","stats":{"checkinsCount":"284","usersCount":"199","tipCount":"7"},"specials":{"count":"0"},"hereNow":{"count":"0"},"referralId":"v-1392478078"},{"id":"4ac518e7f964a5205aab20e3","name":"Royal Court Theatre","contact":{"phone":"+442075655000","formattedPhone":"+44 20 7565 5000","twitter":"royalcourt"},"location":{"address":"Sloane Square","lat":"51.49251973885434","lng":"-0.15651226043701172","distance":"370","postalCode":"SW1W 8AS","cc":"GB","city":"London","state":"Greater London","country":"United Kingdom"},"categories":[{"id":"4bf58dd8d48988d137941735","name":"Theater","pluralName":"Theaters","shortName":"Theater","icon":{"prefix":"https:\/\/ss1.4sqi.net\/img\/categories_v2\/arts_entertainment\/performingarts_theater_","suffix":".png"},"primary":"true"}],"verified":"false","restricted":"true","stats":{"checkinsCount":"1224","usersCount":"680","tipCount":"13"},"url":"http:\/\/www.royalcourttheatre.com\/visit_detail.asp?ArticleID=9","reservations":{"url":"http:\/\/www.toptable.co.uk\/single.aspx?rid=33925&ref=9601"},"menu":{"type":"Menu","label":"Menu","anchor":"View Menu","url":"https:\/\/foursquare.com\/v\/royal-court-theatre\/4ac518e7f964a5205aab20e3\/menu","mobileUrl":"https:\/\/foursquare.com\/v\/4ac518e7f964a5205aab20e3\/device_menu"},"specials":{"count":"0"},"hereNow":{"count":"0"},"referralId":"v-1392478078"},{"id":"4c0be8a5db369c743ddf91ea","name":"Artisan du Chocolat","contact":{"phone":"+448452706996","formattedPhone":"+44 845 270 6996","twitter":"artisanchocolat"},"location":{"address":"89 Lower Sloane Street","lat":"51.48987867210706","lng":"-0.15620112419128418","distance":"128","postalCode":"SW1W 8DA","cc":"GB","city":"London","state":"Greater London","country":"United Kingdom"},"categories":[{"id":"4bf58dd8d48988d117951735","name":"Candy Store","pluralName":"Candy Stores","shortName":"Candy Store","icon":{"prefix":"https:\/\/ss1.4sqi.net\/img\/categories_v2\/shops\/candystore_","suffix":".png"},"primary":"true"}],"verified":"true","restricted":"true","stats":{"checkinsCount":"98","usersCount":"65","tipCount":"4"},"url":"http:\/\/www.artisanduchocolat.com","specials":{"count":"0"},"hereNow":{"count":"0"},"storeId":"Chelsea","referralId":"v-1392478078"},{"id":"4c58308730d82d7f4675db62","name":"TfL Bus 22","contact":{"twitter":"tflbusalerts"},"location":{"address":"Moving Target!","lat":"51.49196112701262","lng":"-0.1594754289296037","distance":"319","cc":"GB","city":"London","state":"Greater London","country":"United Kingdom"},"categories":[{"id":"4bf58dd8d48988d12b951735","name":"Bus Line","pluralName":"Bus Lines","shortName":"Bus","icon":{"prefix":"https:\/\/ss1.4sqi.net\/img\/categories_v2\/travel\/busstation_","suffix":".png"},"primary":"true"}],"verified":"false","restricted":"true","stats":{"checkinsCount":"590","usersCount":"101","tipCount":"2"},"url":"http:\/\/tfl.gov.uk","specials":{"count":"0"},"hereNow":{"count":"0"},"referralId":"v-1392478078"},{"id":"4ad0a473f964a520e5d820e3","name":"Pret A Manger","contact":{"phone":"+442079325253","formattedPhone":"+44 20 7932 5253","twitter":"pret","facebook":"162638680417951"},"location":{"address":"80 King's Rd","lat":"51.490865281413924","lng":"-0.16137225082507595","distance":"303","postalCode":"SW3 4TZ","cc":"GB","city":"London","state":"Greater London","country":"United Kingdom"},"categories":[{"id":"4bf58dd8d48988d1c5941735","name":"Sandwich Place","pluralName":"Sandwich Places","shortName":"Sandwiches","icon":{"prefix":"https:\/\/ss1.4sqi.net\/img\/categories_v2\/food\/sandwiches_","suffix":".png"},"primary":"true"}],"verified":"true","restricted":"true","stats":{"checkinsCount":"922","usersCount":"428","tipCount":"9"},"url":"http:\/\/www.pret.com","specials":{"count":"0"},"hereNow":{"count":"0"},"storeId":"53","referralId":"v-1392478078"},{"id":"4b65aa9bf964a5209ff82ae3","name":"EAT.","contact":{"phone":"+442076368345","formattedPhone":"+44 20 7636 8345","twitter":"eat_news"},"location":{"address":"82 Kings Road","lat":"51.49089603013943","lng":"-0.16118146647978857","distance":"294","postalCode":"SW3 4TZ","cc":"GB","city":"London","state":"Greater London","country":"United Kingdom"},"categories":[{"id":"4bf58dd8d48988d1c5941735","name":"Sandwich Place","pluralName":"Sandwich Places","shortName":"Sandwiches","icon":{"prefix":"https:\/\/ss1.4sqi.net\/img\/categories_v2\/food\/sandwiches_","suffix":".png"},"primary":"true"}],"verified":"true","restricted":"true","stats":{"checkinsCount":"531","usersCount":"235","tipCount":"11"},"url":"http:\/\/www.eat.co.uk","specials":{"count":"0"},"hereNow":{"count":"0"},"storeId":"EAT - Kings road","referralId":"v-1392478078"},{"id":"4ac518d7f964a5205ea820e3","name":"Caraffini","location":{"address":"61 Lower Sloane Street","lat":"51.49034252238791","lng":"-0.15689465208591707","distance":"133","postalCode":"SW1W 8DH","cc":"GB","city":"London","state":"Greater London","country":"United Kingdom"},"categories":[{"id":"4bf58dd8d48988d110941735","name":"Italian Restaurant","pluralName":"Italian Restaurants","shortName":"Italian","icon":{"prefix":"https:\/\/ss1.4sqi.net\/img\/categories_v2\/food\/italian_","suffix":".png"},"primary":"true"}],"verified":"false","restricted":"true","stats":{"checkinsCount":"93","usersCount":"82","tipCount":"7"},"menu":{"type":"Menu","label":"Menu","anchor":"View Menu","url":"https:\/\/foursquare.com\/v\/caraffini\/4ac518d7f964a5205ea820e3\/menu","mobileUrl":"https:\/\/foursquare.com\/v\/4ac518d7f964a5205ea820e3\/device_menu"},"specials":{"count":"0"},"hereNow":{"count":"0"},"referralId":"v-1392478078"},{"id":"4bae1fb6f964a52021873be3","name":"Zara","location":{"lat":"51.49150504394227","lng":"-0.15853209933981466","distance":"251","cc":"GB","city":"Chelsea","state":"Greater London","country":"United Kingdom"},"categories":[{"id":"4bf58dd8d48988d103951735","name":"Clothing Store","pluralName":"Clothing Stores","shortName":"Apparel","icon":{"prefix":"https:\/\/ss1.4sqi.net\/img\/categories_v2\/shops\/apparel_","suffix":".png"},"primary":"true"}],"verified":"false","restricted":"true","stats":{"checkinsCount":"543","usersCount":"307","tipCount":"6"},"specials":{"count":"0"},"hereNow":{"count":"0"},"referralId":"v-1392478078"},{"id":"4b5484c5f964a52049be27e3","name":"Al-Dar","contact":{"phone":"+442075844455","formattedPhone":"+44 20 7584 4455"},"location":{"address":"74 King's Road","lat":"51.491106918609816","lng":"-0.16084344165489772","distance":"292","postalCode":"SW3 4TZ","cc":"GB","city":"London","state":"Greater London","country":"United Kingdom"},"categories":[{"id":"4bf58dd8d48988d1c0941735","name":"Mediterranean Restaurant","pluralName":"Mediterranean Restaurants","shortName":"Mediterranean","icon":{"prefix":"https:\/\/ss1.4sqi.net\/img\/categories_v2\/food\/mediterranean_","suffix":".png"},"primary":"true"}],"verified":"false","restricted":"true","stats":{"checkinsCount":"492","usersCount":"336","tipCount":"15"},"menu":{"type":"Menu","label":"Menu","anchor":"View Menu","url":"https:\/\/foursquare.com\/v\/aldar\/4b5484c5f964a52049be27e3\/menu","mobileUrl":"https:\/\/foursquare.com\/v\/4b5484c5f964a52049be27e3\/device_menu"},"specials":{"count":"0"},"hereNow":{"count":"0"},"referralId":"v-1392478078"},{"id":"4c40750e7beab71394519555","name":"Tinello","contact":{"phone":"+442077303663","formattedPhone":"+44 20 7730 3663","twitter":"tinello_london"},"location":{"address":"87 Pimlico Rd.","lat":"51.490266","lng":"-0.154257","distance":"268","postalCode":"SW1W 8PH","cc":"GB","city":"London","state":"Greater London","country":"United Kingdom"},"categories":[{"id":"4bf58dd8d48988d110941735","name":"Italian Restaurant","pluralName":"Italian Restaurants","shortName":"Italian","icon":{"prefix":"https:\/\/ss1.4sqi.net\/img\/categories_v2\/food\/italian_","suffix":".png"},"primary":"true"}],"verified":"false","restricted":"true","stats":{"checkinsCount":"269","usersCount":"203","tipCount":"11"},"menu":{"type":"Menu","label":"Menu","anchor":"View Menu","url":"https:\/\/foursquare.com\/v\/tinello\/4c40750e7beab71394519555\/menu","mobileUrl":"https:\/\/foursquare.com\/v\/4c40750e7beab71394519555\/device_menu"},"specials":{"count":"0"},"hereNow":{"count":"0"},"referralId":"v-1392478078"},{"id":"4ac518d1f964a520cda620e3","name":"Royal Hospital Chelsea","location":{"address":"Royal Hospital Rd.","lat":"51.48712869754462","lng":"-0.1588726043701172","distance":"251","postalCode":"SW3 4SR","cc":"GB","city":"London","state":"Greater London","country":"United Kingdom"},"categories":[{"id":"4bf58dd8d48988d12d941735","name":"Monument \/ Landmark","pluralName":"Monuments \/ Landmarks","shortName":"Landmark","icon":{"prefix":"https:\/\/ss1.4sqi.net\/img\/categories_v2\/building\/government_monument_","suffix":".png"},"primary":"true"}],"verified":"false","restricted":"true","stats":{"checkinsCount":"480","usersCount":"363","tipCount":"6"},"specials":{"count":"0"},"hereNow":{"count":"0"},"referralId":"v-1392478078"},{"id":"4b51ebd9f964a5206d5b27e3","name":"Taschen","location":{"address":"12 Duke of York Sq.","lat":"51.491201260302155","lng":"-0.15943239385469615","distance":"240","postalCode":"SW3 4LY","cc":"GB","city":"Chelsea","state":"Greater London","country":"United Kingdom"},"categories":[{"id":"4bf58dd8d48988d114951735","name":"Bookstore","pluralName":"Bookstores","shortName":"Bookstore","icon":{"prefix":"https:\/\/ss1.4sqi.net\/img\/categories_v2\/shops\/bookstore_","suffix":".png"},"primary":"true"}],"verified":"false","restricted":"true","stats":{"checkinsCount":"240","usersCount":"207","tipCount":"1"},"url":"http:\/\/www.taschen.com","specials":{"count":"0"},"hereNow":{"count":"0"},"referralId":"v-1392478078"},{"id":"50eaae91e4b0ae33d4a6bb17","name":"venturethree","contact":{"phone":"+442072901950","formattedPhone":"+44 20 7290 1950"},"location":{"address":"11 Cavalry Square","lat":"51.49029526002587","lng":"-0.15840053558349607","distance":"119","postalCode":"SW3 4RB","cc":"GB","city":"London","state":"Greater London","country":"United Kingdom"},"categories":[{"id":"4bf58dd8d48988d124941735","name":"Office","pluralName":"Offices","shortName":"Office","icon":{"prefix":"https:\/\/ss1.4sqi.net\/img\/categories_v2\/building\/default_","suffix":".png"},"primary":"true"}],"verified":"true","restricted":"true","stats":{"checkinsCount":"35","usersCount":"14","tipCount":"0"},"specials":{"count":"0"},"hereNow":{"count":"0"},"venuePage":{"id":"48002038"},"referralId":"v-1392478078"},{"id":"4eb56f230aaf1abedf4bb066","name":"Poilane","location":{"lat":"51.492","lng":"-0.159494","distance":"323","cc":"GB","country":"United Kingdom"},"categories":[{"id":"4bf58dd8d48988d16a941735","name":"Bakery","pluralName":"Bakeries","shortName":"Bakery","icon":{"prefix":"https:\/\/ss1.4sqi.net\/img\/categories_v2\/food\/bakery_","suffix":".png"},"primary":"true"}],"verified":"false","restricted":"true","stats":{"checkinsCount":"222","usersCount":"107","tipCount":"9"},"menu":{"type":"Menu","label":"Menu","anchor":"View Menu","url":"https:\/\/foursquare.com\/v\/poilane\/4eb56f230aaf1abedf4bb066\/menu","mobileUrl":"https:\/\/foursquare.com\/v\/4eb56f230aaf1abedf4bb066\/device_menu"},"specials":{"count":"0"},"hereNow":{"count":"0"},"referralId":"v-1392478078"},{"id":"4c320f48ed37a593c2336b03","name":"Burton Court","location":{"address":"St Leonards Terrace","lat":"51.48875822076613","lng":"-0.15972213967273732","distance":"145","postalCode":"SW3","cc":"GB","city":"Kensington","state":"Greater London","country":"United Kingdom"},"categories":[{"id":"4bf58dd8d48988d130941735","name":"Building","pluralName":"Buildings","shortName":"Building","icon":{"prefix":"https:\/\/ss1.4sqi.net\/img\/categories_v2\/building\/default_","suffix":".png"},"primary":"true"}],"verified":"false","restricted":"true","stats":{"checkinsCount":"64","usersCount":"27","tipCount":"0"},"specials":{"count":"0"},"hereNow":{"count":"0"},"referralId":"v-1392478078"}],"confident":"true"}}