{"meta":{"code":"200"},"response":{"venues":[{"id":"4d41cc75c1d4721edc1e1dc7","name":"sofa.com","contact":{"phone":"+448454002222","formattedPhone":"+44 845 400 2222"},"location":{"address":"15 Lots Rd (Door E)","crossStreet":"35 Chelsea Warf","lat":"51.479221999207105","lng":"-0.17903967553331784","distance":"86","postalCode":"SW10 0QJ","cc":"GB","city":"Chelsea","state":"Greater London","country":"United Kingdom"},"categories":[{"id":"4bf58dd8d48988d1f8941735","name":"Furniture \/ Home Store","pluralName":"Furniture \/ Home Stores","shortName":"Furniture \/ Home","icon":{"prefix":"https:\/\/ss1.4sqi.net\/img\/categories_v2\/shops\/furniture_","suffix":".png"},"primary":"true"}],"verified":"false","restricted":"true","stats":{"checkinsCount":"85","usersCount":"57","tipCount":"0"},"specials":{"count":"0"},"hereNow":{"count":"0"},"referralId":"v-1392478102"},{"id":"52596f4711d2558310c81414","name":"Kayaking London","location":{"lat":"51.479897012000926","lng":"-0.1778004964514088","distance":"67","cc":"GB","country":"United Kingdom"},"categories":[{"id":"4f4528bc4b90abdf24c9de85","name":"Athletics & Sports","pluralName":"Athletics & Sports","shortName":"Athletics & Sports","icon":{"prefix":"https:\/\/ss1.4sqi.net\/img\/categories_v2\/shops\/sports_outdoors_","suffix":".png"},"primary":"true"}],"verified":"false","restricted":"true","stats":{"checkinsCount":"5","usersCount":"5","tipCount":"0"},"specials":{"count":"0"},"hereNow":{"count":"0"},"referralId":"v-1392478102"},{"id":"4f58e755e4b017e9a1c3f748","name":"Cremorne Gardens","location":{"lat":"51.479942499911225","lng":"-0.17839246586973234","distance":"83","cc":"GB","country":"United Kingdom"},"categories":[{"id":"4bf58dd8d48988d163941735","name":"Park","pluralName":"Parks","shortName":"Park","icon":{"prefix":"https:\/\/ss1.4sqi.net\/img\/categories_v2\/parks_outdoors\/park_","suffix":".png"},"primary":"true"}],"verified":"false","restricted":"true","stats":{"checkinsCount":"54","usersCount":"37","tipCount":"0"},"specials":{"count":"0"},"hereNow":{"count":"0"},"referralId":"v-1392478102"},{"id":"4adcb02ff964a520c42e21e3","name":"Battersea Bridge","location":{"address":"Battersea Bridge Rd.","lat":"51.48087509278401","lng":"-0.17243385314941406","distance":"411","postalCode":"SW11 3BA","cc":"GB","city":"London","state":"Greater London","country":"United Kingdom"},"categories":[{"id":"4bf58dd8d48988d1df941735","name":"Bridge","pluralName":"Bridges","shortName":"Bridge","icon":{"prefix":"https:\/\/ss1.4sqi.net\/img\/categories_v2\/parks_outdoors\/bridge_","suffix":".png"},"primary":"true"}],"verified":"false","restricted":"true","stats":{"checkinsCount":"3155","usersCount":"1100","tipCount":"7"},"specials":{"count":"0"},"hereNow":{"count":"0"},"referralId":"v-1392478102"},{"id":"4ac518c8f964a52085a520e3","name":"606 Club","location":{"address":"90 Lots Rd.","lat":"51.478446","lng":"-0.181611","distance":"280","postalCode":"SW10 0QD","cc":"GB","city":"London","state":"Greater London","country":"United Kingdom"},"categories":[{"id":"4bf58dd8d48988d1e7931735","name":"Jazz Club","pluralName":"Jazz Clubs","shortName":"Jazz Club","icon":{"prefix":"https:\/\/ss1.4sqi.net\/img\/categories_v2\/arts_entertainment\/musicvenue_jazzclub_","suffix":".png"},"primary":"true"}],"verified":"false","restricted":"true","stats":{"checkinsCount":"419","usersCount":"373","tipCount":"17"},"specials":{"count":"0"},"hereNow":{"count":"0"},"referralId":"v-1392478102"},{"id":"4ac518d5f964a520d3a720e3","name":"La Famiglia","contact":{"phone":"+442073510761","formattedPhone":"+44 20 7351 0761"},"location":{"address":"7 Langton Street","crossStreet":"Kings Road","lat":"51.482167","lng":"-0.1804416","distance":"368","postalCode":"SW10 0JL","cc":"GB","city":"London","state":"Greater London","country":"United Kingdom"},"categories":[{"id":"4bf58dd8d48988d110941735","name":"Italian Restaurant","pluralName":"Italian Restaurants","shortName":"Italian","icon":{"prefix":"https:\/\/ss1.4sqi.net\/img\/categories_v2\/food\/italian_","suffix":".png"},"primary":"true"}],"verified":"false","restricted":"true","stats":{"checkinsCount":"365","usersCount":"256","tipCount":"13"},"url":"http:\/\/www.lafamiglia.co.uk","reservations":{"url":"http:\/\/www.toptable.co.uk\/single.aspx?rid=92358&ref=9601"},"menu":{"type":"Menu","label":"Menu","anchor":"View Menu","url":"https:\/\/foursquare.com\/v\/la-famiglia\/4ac518d5f964a520d3a720e3\/menu","mobileUrl":"https:\/\/foursquare.com\/v\/4ac518d5f964a520d3a720e3\/device_menu"},"specials":{"count":"0"},"hereNow":{"count":"0"},"referralId":"v-1392478102"},{"id":"4ac518bcf964a52089a220e3","name":"The Chelsea Ram","location":{"address":"32 Burnaby Street","lat":"51.479087","lng":"-0.182433","distance":"321","postalCode":"SW10 0PL","cc":"GB","city":"London","state":"Greater London","country":"United Kingdom"},"categories":[{"id":"4bf58dd8d48988d11b941735","name":"Pub","pluralName":"Pubs","shortName":"Pub","icon":{"prefix":"https:\/\/ss1.4sqi.net\/img\/categories_v2\/nightlife\/pub_","suffix":".png"},"primary":"true"}],"verified":"true","restricted":"true","stats":{"checkinsCount":"408","usersCount":"210","tipCount":"4"},"specials":{"count":"0"},"hereNow":{"count":"0"},"referralId":"v-1392478102"},{"id":"4ac518bff964a52063a320e3","name":"The Painted Heron","contact":{"phone":"+442073515232","formattedPhone":"+44 20 7351 5232"},"location":{"address":"112 Cheyne Walk","lat":"51.48163863640968","lng":"-0.17604881927657712","distance":"288","postalCode":"SW10 0DJ","cc":"GB","city":"London","state":"Greater London","country":"United Kingdom"},"categories":[{"id":"4bf58dd8d48988d10f941735","name":"Indian Restaurant","pluralName":"Indian Restaurants","shortName":"Indian","icon":{"prefix":"https:\/\/ss1.4sqi.net\/img\/categories_v2\/food\/indian_","suffix":".png"},"primary":"true"}],"verified":"false","restricted":"true","stats":{"checkinsCount":"147","usersCount":"119","tipCount":"2"},"url":"http:\/\/www.thepaintedheron.com","reservations":{"url":"http:\/\/www.toptable.co.uk\/single.aspx?rid=98376&ref=9601"},"menu":{"type":"Menu","label":"Menu","anchor":"View Menu","url":"https:\/\/foursquare.com\/v\/the-painted-heron\/4ac518bff964a52063a320e3\/menu","mobileUrl":"https:\/\/foursquare.com\/v\/4ac518bff964a52063a320e3\/device_menu"},"specials":{"count":"0"},"hereNow":{"count":"0"},"referralId":"v-1392478102"},{"id":"51977b19498eebef74cc73a8","name":"Storm in a Cupcake","location":{"lat":"51.480336965015375","lng":"-0.17857203099382407","distance":"128","cc":"GB","country":"United Kingdom"},"categories":[{"id":"4bf58dd8d48988d16d941735","name":"Caf\u00e9","pluralName":"Caf\u00e9s","shortName":"Caf\u00e9","icon":{"prefix":"https:\/\/ss1.4sqi.net\/img\/categories_v2\/food\/cafe_","suffix":".png"},"primary":"true"}],"verified":"false","restricted":"true","stats":{"checkinsCount":"3","usersCount":"3","tipCount":"0"},"specials":{"count":"0"},"hereNow":{"count":"0"},"referralId":"v-1392478102"},{"id":"4bae015af964a520207a3be3","name":"L'Art du Fromage","contact":{"phone":"+442073522759","formattedPhone":"+44 20 7352 2759"},"location":{"address":"1A Langton St.","lat":"51.48205216","lng":"-0.180674","distance":"366","postalCode":"SW10 0JL","cc":"GB","city":"Chelsea","state":"Greater London","country":"United Kingdom"},"categories":[{"id":"4bf58dd8d48988d10c941735","name":"French Restaurant","pluralName":"French Restaurants","shortName":"French","icon":{"prefix":"https:\/\/ss1.4sqi.net\/img\/categories_v2\/food\/french_","suffix":".png"},"primary":"true"}],"verified":"false","restricted":"true","stats":{"checkinsCount":"188","usersCount":"155","tipCount":"8"},"url":"http:\/\/artdufromage.co.uk","menu":{"type":"Menu","label":"Menu","anchor":"View Menu","url":"https:\/\/foursquare.com\/v\/lart-du-fromage\/4bae015af964a520207a3be3\/menu","mobileUrl":"https:\/\/foursquare.com\/v\/4bae015af964a520207a3be3\/device_menu"},"specials":{"count":"0"},"hereNow":{"count":"0"},"referralId":"v-1392478102"},{"id":"4b55ed70f964a520faf627e3","name":"Starberry","location":{"lat":"51.478292","lng":"-0.181922","distance":"306","cc":"GB","city":"London","state":"Greater London","country":"United Kingdom"},"categories":[{"id":"4bf58dd8d48988d124941735","name":"Office","pluralName":"Offices","shortName":"Office","icon":{"prefix":"https:\/\/ss1.4sqi.net\/img\/categories_v2\/building\/default_","suffix":".png"},"primary":"true"}],"verified":"false","restricted":"true","stats":{"checkinsCount":"119","usersCount":"6","tipCount":"1"},"specials":{"count":"0"},"hereNow":{"count":"0"},"referralId":"v-1392478102"},{"id":"4d932d5e52ed224bfbbb16ac","name":"Medlar Restaurant","location":{"address":"438 Kings Rd.","lat":"51.48305771722937","lng":"-0.177594854142741","distance":"419","postalCode":"SW10 0LJ","cc":"GB","city":"Kensington","state":"Greater London","country":"United Kingdom"},"categories":[{"id":"4bf58dd8d48988d1c4941735","name":"Restaurant","pluralName":"Restaurants","shortName":"Restaurant","icon":{"prefix":"https:\/\/ss1.4sqi.net\/img\/categories_v2\/food\/default_","suffix":".png"},"primary":"true"}],"verified":"false","restricted":"true","stats":{"checkinsCount":"240","usersCount":"209","tipCount":"12"},"url":"http:\/\/www.medlarrestaurant.co.uk","reservations":{"url":"http:\/\/www.toptable.co.uk\/single.aspx?rid=92952&ref=9601"},"menu":{"type":"Menu","label":"Menu","anchor":"View Menu","url":"https:\/\/foursquare.com\/v\/medlar-restaurant\/4d932d5e52ed224bfbbb16ac\/menu","mobileUrl":"https:\/\/foursquare.com\/v\/4d932d5e52ed224bfbbb16ac\/device_menu"},"specials":{"count":"0"},"hereNow":{"count":"0"},"referralId":"v-1392478102"},{"id":"4c2e3d67987f20a135d34aaa","name":"Chelsea Yacht and Boat Club","location":{"lat":"51.48116742841461","lng":"-0.18000925664076314","distance":"259","cc":"GB","city":"Kensington","state":"Greater London","country":"United Kingdom"},"categories":[{"id":"4bf58dd8d48988d162941735","name":"Other Great Outdoors","pluralName":"Other Great Outdoors","shortName":"Other Outdoors","icon":{"prefix":"https:\/\/ss1.4sqi.net\/img\/categories_v2\/parks_outdoors\/outdoors_","suffix":".png"},"primary":"true"}],"verified":"false","restricted":"true","stats":{"checkinsCount":"318","usersCount":"145","tipCount":"0"},"specials":{"count":"0"},"hereNow":{"count":"0"},"referralId":"v-1392478102"},{"id":"4c63136579d1e21e04b3d715","name":"St. Mary's Church Battersea","location":{"address":"Battersea church street","lat":"51.476554877976916","lng":"-0.17518347817251567","distance":"354","postalCode":"Sw11","cc":"GB","city":"London","state":"Greater London","country":"United Kingdom"},"categories":[{"id":"4bf58dd8d48988d132941735","name":"Church","pluralName":"Churches","shortName":"Church","icon":{"prefix":"https:\/\/ss1.4sqi.net\/img\/categories_v2\/building\/religious_church_","suffix":".png"},"primary":"true"}],"verified":"false","restricted":"true","stats":{"checkinsCount":"157","usersCount":"57","tipCount":"4"},"specials":{"count":"0"},"hereNow":{"count":"0"},"referralId":"v-1392478102"},{"id":"4ac518b5f964a5208aa020e3","name":"Wyndham Grand London Chelsea Harbour","contact":{"phone":"+448004458667","formattedPhone":"+44 800 445 8667"},"location":{"address":"Chelsea Harbour, Lots Rd.","lat":"51.47573053366325","lng":"-0.181533842531931","distance":"473","postalCode":"SW10 0XG","cc":"GB","city":"London","state":"Greater London","country":"United Kingdom"},"categories":[{"id":"4bf58dd8d48988d1fa931735","name":"Hotel","pluralName":"Hotels","shortName":"Hotel","icon":{"prefix":"https:\/\/ss1.4sqi.net\/img\/categories_v2\/travel\/hotel_","suffix":".png"},"primary":"true"}],"verified":"true","restricted":"true","stats":{"checkinsCount":"1145","usersCount":"497","tipCount":"15"},"url":"http:\/\/www.wyndhamgrandlondon.co.uk","menu":{"type":"Menu","label":"Menu","anchor":"View Menu","url":"https:\/\/foursquare.com\/v\/wyndham-grand-london-chelsea-harbour\/4ac518b5f964a5208aa020e3\/menu","mobileUrl":"https:\/\/foursquare.com\/v\/4ac518b5f964a5208aa020e3\/device_menu"},"specials":{"count":"1","items":[{"id":"4ce4187888e460fc9dd5748d","type":"count","message":"As a foursquare user you are entitled to a free cup of coffee on your 5th check-in!","description":"Unlocked on your 5th check-in","icon":"frequency","title":"Loyalty Special","provider":"foursquare","redemption":"standard"}]},"hereNow":{"count":"0"},"referralId":"v-1392478102"},{"id":"4aeadcd4f964a52059bc21e3","name":"Lots Road (Pub and Dining Room)","contact":{"phone":"+442073526645","formattedPhone":"+44 20 7352 6645"},"location":{"address":"114 Lots Road","lat":"51.47758091554473","lng":"-0.18316268920898438","distance":"417","postalCode":"SW10 0RJ","cc":"GB","city":"London","state":"Greater London","country":"United Kingdom"},"categories":[{"id":"4bf58dd8d48988d155941735","name":"Gastropub","pluralName":"Gastropubs","shortName":"Gastropub","icon":{"prefix":"https:\/\/ss1.4sqi.net\/img\/categories_v2\/food\/gastropub_","suffix":".png"},"primary":"true"}],"verified":"false","restricted":"true","stats":{"checkinsCount":"668","usersCount":"312","tipCount":"6"},"specials":{"count":"0"},"hereNow":{"count":"0"},"referralId":"v-1392478102"},{"id":"4fc636ffe4b05ab8c3e4182d","name":"Riley's","location":{"lat":"51.482601","lng":"-0.179218","distance":"381","cc":"GB","country":"United Kingdom"},"categories":[{"id":"4bf58dd8d48988d116941735","name":"Bar","pluralName":"Bars","shortName":"Bar","icon":{"prefix":"https:\/\/ss1.4sqi.net\/img\/categories_v2\/nightlife\/bar_","suffix":".png"},"primary":"true"}],"verified":"false","restricted":"true","stats":{"checkinsCount":"8","usersCount":"7","tipCount":"0"},"specials":{"count":"0"},"hereNow":{"count":"0"},"referralId":"v-1392478102"},{"id":"4ad71ddff964a520ba0821e3","name":"Chelsea Bun","location":{"address":"Limerston St","lat":"51.483179","lng":"-0.178018","distance":"433","postalCode":"SW10 0","cc":"GB","city":"Kensington","state":"Greater London","country":"United Kingdom"},"categories":[{"id":"4bf58dd8d48988d143941735","name":"Breakfast Spot","pluralName":"Breakfast Spots","shortName":"Breakfast","icon":{"prefix":"https:\/\/ss1.4sqi.net\/img\/categories_v2\/food\/breakfast_","suffix":".png"},"primary":"true"}],"verified":"false","restricted":"true","stats":{"checkinsCount":"308","usersCount":"161","tipCount":"5"},"specials":{"count":"0"},"hereNow":{"count":"0"},"referralId":"v-1392478102"},{"id":"4ac518baf964a520eda120e3","name":"Mona Lisa Cafe","location":{"address":"417 Kings Road","lat":"51.482699","lng":"-0.178222","distance":"380","postalCode":"SW10 0LR","cc":"GB","city":"London","state":"Greater London","country":"United Kingdom"},"categories":[{"id":"4bf58dd8d48988d16d941735","name":"Caf\u00e9","pluralName":"Caf\u00e9s","shortName":"Caf\u00e9","icon":{"prefix":"https:\/\/ss1.4sqi.net\/img\/categories_v2\/food\/cafe_","suffix":".png"},"primary":"true"}],"verified":"false","restricted":"true","stats":{"checkinsCount":"83","usersCount":"50","tipCount":"6"},"specials":{"count":"0"},"hereNow":{"count":"0"},"referralId":"v-1392478102"},{"id":"4fb52ca2e4b0c293229c716a","name":"World's End Chelsea","location":{"lat":"51.48172168458371","lng":"-0.18252974730389684","distance":"425","postalCode":"SW35Ex","cc":"GB","country":"United Kingdom"},"categories":[{"id":"4bf58dd8d48988d162941735","name":"Other Great Outdoors","pluralName":"Other Great Outdoors","shortName":"Other Outdoors","icon":{"prefix":"https:\/\/ss1.4sqi.net\/img\/categories_v2\/parks_outdoors\/outdoors_","suffix":".png"},"primary":"true"}],"verified":"false","restricted":"true","stats":{"checkinsCount":"179","usersCount":"118","tipCount":"0"},"specials":{"count":"0"},"hereNow":{"count":"0"},"referralId":"v-1392478102"},{"id":"4aede41bf964a520efcf21e3","name":"Chelsea Theatre","location":{"address":"Worlds End Place","crossStreet":"Kings Road","lat":"51.48185845192447","lng":"-0.18014362313319784","distance":"328","postalCode":"SW10 0DR","cc":"GB","city":"Chelsea","state":"Greater London","country":"United Kingdom"},"categories":[{"id":"4bf58dd8d48988d1f2931735","name":"Performing Arts Venue","pluralName":"Performing Arts Venues","shortName":"Performing Arts","icon":{"prefix":"https:\/\/ss1.4sqi.net\/img\/categories_v2\/arts_entertainment\/default_","suffix":".png"},"primary":"true"}],"verified":"false","restricted":"true","stats":{"checkinsCount":"181","usersCount":"125","tipCount":"1"},"specials":{"count":"0"},"hereNow":{"count":"0"},"referralId":"v-1392478102"},{"id":"52f0f2e4498e1b81bb293df3","name":"World's End Dentist","location":{"address":"World's End","lat":"51.481937408447266","lng":"-0.18023400008678436","distance":"339","postalCode":"SW10 0EA","cc":"GB","city":"London","state":"Greater London","country":"United Kingdom"},"categories":[{"id":"4bf58dd8d48988d178941735","name":"Dentist's Office","pluralName":"Dentist's Offices","shortName":"Dentist's Office","icon":{"prefix":"https:\/\/ss1.4sqi.net\/img\/categories_v2\/building\/medical_dentist_","suffix":".png"},"primary":"true"}],"verified":"false","restricted":"true","stats":{"checkinsCount":"1","usersCount":"1","tipCount":"0"},"specials":{"count":"0"},"hereNow":{"count":"0"},"referralId":"v-1392478102"},{"id":"4b8e497af964a5202c1e33e3","name":"Westfield Park","location":{"address":"King's Rd.","crossStreet":"Thorndike Cl.","lat":"51.47999606763799","lng":"-0.18346131631632176","distance":"400","cc":"GB","city":"Kensington","state":"Greater London","country":"United Kingdom"},"categories":[{"id":"4bf58dd8d48988d163941735","name":"Park","pluralName":"Parks","shortName":"Park","icon":{"prefix":"https:\/\/ss1.4sqi.net\/img\/categories_v2\/parks_outdoors\/park_","suffix":".png"},"primary":"true"}],"verified":"false","restricted":"true","stats":{"checkinsCount":"85","usersCount":"42","tipCount":"1"},"specials":{"count":"0"},"hereNow":{"count":"0"},"referralId":"v-1392478102"},{"id":"527e83d111d28258c77ab7ff","name":"Lavolio Boutique Confectionery","contact":{"twitter":"lavolio_com"},"location":{"address":"53 Upcerne Road","lat":"51.478453","lng":"-0.182442","distance":"334","postalCode":"Sw10 0sf","cc":"GB","city":"London","state":"Greater London","country":"United Kingdom"},"categories":[{"id":"4bf58dd8d48988d124941735","name":"Office","pluralName":"Offices","shortName":"Office","icon":{"prefix":"https:\/\/ss1.4sqi.net\/img\/categories_v2\/building\/default_","suffix":".png"},"primary":"true"}],"verified":"false","restricted":"true","stats":{"checkinsCount":"5","usersCount":"1","tipCount":"0"},"specials":{"count":"0"},"hereNow":{"count":"0"},"referralId":"v-1392478102"},{"id":"4fbe65f26d86adf7813c1b33","name":"Battersea bridge gardens","location":{"address":"battersea bridge rd","crossStreet":"cheyne walk","lat":"51.48197087182523","lng":"-0.17388224601745605","distance":"403","cc":"GB","city":"London","state":"Greater London","country":"United Kingdom"},"categories":[{"id":"4deefb944765f83613cdba6e","name":"Historic Site","pluralName":"Historic Sites","shortName":"Historic Site","icon":{"prefix":"https:\/\/ss1.4sqi.net\/img\/categories_v2\/arts_entertainment\/historicsite_","suffix":".png"},"primary":"true"}],"verified":"false","restricted":"true","stats":{"checkinsCount":"45","usersCount":"34","tipCount":"1"},"specials":{"count":"0"},"hereNow":{"count":"0"},"referralId":"v-1392478102"},{"id":"4d04bfc58620224b0fceaa40","name":"Shell","location":{"address":"49 Tadema Rd.","lat":"51.480409386057815","lng":"-0.1822418014615999","distance":"332","postalCode":"SW10 0NY","cc":"GB","city":"Chelsea","state":"Greater London","country":"United Kingdom"},"categories":[{"id":"4bf58dd8d48988d113951735","name":"Gas Station \/ Garage","pluralName":"Gas Stations \/ Garages","shortName":"Gas Station \/ Garage","icon":{"prefix":"https:\/\/ss1.4sqi.net\/img\/categories_v2\/shops\/gas_","suffix":".png"},"primary":"true"}],"verified":"true","restricted":"true","stats":{"checkinsCount":"78","usersCount":"66","tipCount":"1"},"url":"http:\/\/www.shell.co.uk","specials":{"count":"0"},"hereNow":{"count":"0"},"storeId":"","referralId":"v-1392478102"},{"id":"4c7e42588da18cfab89fa1ce","name":"Chelsea Academy","location":{"address":"Lots Rd","lat":"51.47800063288716","lng":"-0.18319482904297862","distance":"400","cc":"GB","city":"London","state":"Greater London","country":"United Kingdom"},"categories":[{"id":"4f4533814b9074f6e4fb0106","name":"Middle School","pluralName":"Middle Schools","shortName":"Middle School","icon":{"prefix":"https:\/\/ss1.4sqi.net\/img\/categories_v2\/building\/school_","suffix":".png"},"primary":"true"}],"verified":"false","restricted":"true","stats":{"checkinsCount":"86","usersCount":"42","tipCount":"0"},"specials":{"count":"0"},"hereNow":{"count":"0"},"referralId":"v-1392478102"},{"id":"4cc850090fa2721eaa3763b1","name":"Vivienne Westwood Worlds End","contact":{"phone":"+442073526551","formattedPhone":"+44 20 7352 6551"},"location":{"address":"430 kings road","lat":"51.48301217296876","lng":"-0.1772915351214671","distance":"415","postalCode":"SW10 0LJ","cc":"GB","city":"London","state":"Greater London","country":"United Kingdom"},"categories":[{"id":"4bf58dd8d48988d1f4941735","name":"Design Studio","pluralName":"Design Studios","shortName":"Design","icon":{"prefix":"https:\/\/ss1.4sqi.net\/img\/categories_v2\/shops\/design_","suffix":".png"},"primary":"true"}],"verified":"false","restricted":"true","stats":{"checkinsCount":"200","usersCount":"171","tipCount":"7"},"url":"http:\/\/worldsendshop.co.uk","specials":{"count":"0"},"hereNow":{"count":"0"},"referralId":"v-1392478102"},{"id":"4c910d1a7f3b8cfa007e991e","name":"Exotikka","location":{"address":"35 Stadium Street","lat":"51.47998456283344","lng":"-0.1807353279282307","distance":"217","postalCode":"SW10","cc":"GB","city":"London","state":"Greater London","country":"United Kingdom"},"categories":[{"id":"4bf58dd8d48988d10f941735","name":"Indian Restaurant","pluralName":"Indian Restaurants","shortName":"Indian","icon":{"prefix":"https:\/\/ss1.4sqi.net\/img\/categories_v2\/food\/indian_","suffix":".png"},"primary":"true"}],"verified":"false","restricted":"true","stats":{"checkinsCount":"10","usersCount":"6","tipCount":"0"},"specials":{"count":"0"},"hereNow":{"count":"0"},"referralId":"v-1392478102"},{"id":"4d2caf13fb8e59415ba95254","name":"Blue Harbour Health Club and Spa","contact":{"phone":"+442078233000","formattedPhone":"+44 20 7823 3000","twitter":"blueharbourspa"},"location":{"address":"Chelsea Harbour","lat":"51.475477","lng":"-0.181617","distance":"499","postalCode":"SW10 0XG","cc":"GB","city":"Chelsea","state":"Greater London","country":"United Kingdom"},"categories":[{"id":"4bf58dd8d48988d1ed941735","name":"Spa","pluralName":"Spas","shortName":"Spa","icon":{"prefix":"https:\/\/ss1.4sqi.net\/img\/categories_v2\/shops\/spa_","suffix":".png"},"primary":"true"}],"verified":"true","restricted":"true","stats":{"checkinsCount":"53","usersCount":"26","tipCount":"1"},"url":"http:\/\/www.blueharbourspa.co.uk","specials":{"count":"0"},"hereNow":{"count":"0"},"venuePage":{"id":"49363653"},"storeId":"","referralId":"v-1392478102"}],"confident":"true"}}