{"meta":{"code":"200"},"response":{"venues":[{"id":"4ace3795f964a5201fcf20e3","name":"Imperial College","contact":{"phone":"+442075895111","formattedPhone":"+44 20 7589 5111","twitter":"imperialcollege"},"location":{"address":"Exhibition Rd.","lat":"51.498805141862064","lng":"-0.17698287963867188","distance":"78","postalCode":"SW7 2AZ","cc":"GB","city":"London","state":"Greater London","country":"United Kingdom"},"categories":[{"id":"4bf58dd8d48988d1ae941735","name":"University","pluralName":"Universities","shortName":"University","icon":{"prefix":"https:\/\/ss1.4sqi.net\/img\/categories_v2\/education\/default_","suffix":".png"},"primary":"true"}],"verified":"false","restricted":"true","stats":{"checkinsCount":"7134","usersCount":"1869","tipCount":"13"},"url":"http:\/\/www.imperial.ac.uk","specials":{"count":"0"},"hereNow":{"count":"3","groups":[{"type":"others","name":"Other people here","count":"3"}]},"referralId":"v-1392478050"},{"id":"4ac518e8f964a52075ab20e3","name":"Royal Albert Hall","contact":{"phone":"+448454015019","formattedPhone":"+44 845 401 5019","twitter":"royalalberthall"},"location":{"address":"Kensington Gore","lat":"51.500982454474055","lng":"-0.1774120330810547","distance":"190","postalCode":"SW7 2AP","cc":"GB","city":"South Kensington","state":"Greater London","country":"United Kingdom"},"categories":[{"id":"5032792091d4c4b30a586d5c","name":"Concert Hall","pluralName":"Concert Halls","shortName":"Concert Hall","icon":{"prefix":"https:\/\/ss1.4sqi.net\/img\/categories_v2\/arts_entertainment\/musicvenue_","suffix":".png"},"primary":"true"}],"verified":"true","restricted":"true","stats":{"checkinsCount":"19688","usersCount":"13121","tipCount":"134"},"url":"http:\/\/www.royalalberthall.com","menu":{"type":"Menu","label":"Menu","anchor":"View Menu","url":"https:\/\/foursquare.com\/v\/royal-albert-hall\/4ac518e8f964a52075ab20e3\/menu","mobileUrl":"https:\/\/foursquare.com\/v\/4ac518e8f964a52075ab20e3\/device_menu"},"specials":{"count":"0"},"hereNow":{"count":"2","groups":[{"type":"others","name":"Other people here","count":"2"}]},"venuePage":{"id":"66554972"},"storeId":"","referralId":"v-1392478050"},{"id":"4c443138f97fbe9a81c5ba30","name":"Imperial College Central Library","contact":{"phone":"+442075948820","formattedPhone":"+44 20 7594 8820"},"location":{"address":"Imperial College London","crossStreet":"South Kensington Campus","lat":"51.497896784379265","lng":"-0.17771244049072266","distance":"155","postalCode":"SW7 2AZ","cc":"GB","city":"London","state":"Greater London","country":"United Kingdom"},"categories":[{"id":"4bf58dd8d48988d1a7941735","name":"College Library","pluralName":"College Libraries","shortName":"Library","icon":{"prefix":"https:\/\/ss1.4sqi.net\/img\/categories_v2\/building\/library_","suffix":".png"},"primary":"true"}],"verified":"true","restricted":"true","stats":{"checkinsCount":"2729","usersCount":"473","tipCount":"8"},"url":"http:\/\/www.imperial.ac.uk\/library\/usethelibrary\/central","specials":{"count":"0"},"hereNow":{"count":"1","groups":[{"type":"others","name":"Other people here","count":"1"}]},"venuePage":{"id":"53596615"},"referralId":"v-1392478050"},{"id":"4d3ef8e4457cb60c2a7c05a5","name":"Department of Computing","location":{"address":"180 Queen's Gate","lat":"51.49879876","lng":"-0.17883669","distance":"90","cc":"GB","city":"London","state":"Greater London","country":"United Kingdom"},"categories":[{"id":"4bf58dd8d48988d19e941735","name":"College Engineering Building","pluralName":"College Engineering Buildings","shortName":"Engineering","icon":{"prefix":"https:\/\/ss1.4sqi.net\/img\/categories_v2\/education\/collegeacademicbuildings_engineering_","suffix":".png"},"primary":"true"}],"verified":"false","restricted":"true","stats":{"checkinsCount":"456","usersCount":"73","tipCount":"2"},"specials":{"count":"0"},"hereNow":{"count":"0"},"referralId":"v-1392478050"},{"id":"4cb474771168a093c9c64823","name":"Imperial College EEE Building","location":{"address":"Imperial College Rd","lat":"51.49899341357735","lng":"-0.17599132837095977","distance":"129","cc":"GB","city":"London","state":"Greater London","country":"United Kingdom"},"categories":[{"id":"4bf58dd8d48988d19e941735","name":"College Engineering Building","pluralName":"College Engineering Buildings","shortName":"Engineering","icon":{"prefix":"https:\/\/ss1.4sqi.net\/img\/categories_v2\/education\/collegeacademicbuildings_engineering_","suffix":".png"},"primary":"true"}],"verified":"false","restricted":"true","stats":{"checkinsCount":"2623","usersCount":"202","tipCount":"3"},"specials":{"count":"0"},"hereNow":{"count":"0"},"referralId":"v-1392478050"},{"id":"4acfa181f964a52010d520e3","name":"Imperial College Union","contact":{"twitter":"icunion"},"location":{"address":"Beit Quad, Prince Consort Rd.","lat":"51.49995392098815","lng":"-0.1783132553100586","distance":"82","postalCode":"SW7 2BB","cc":"GB","city":"London","state":"Greater London","country":"United Kingdom"},"categories":[{"id":"4bf58dd8d48988d1ab941735","name":"Student Center","pluralName":"Student Centers","shortName":"Student Center","icon":{"prefix":"https:\/\/ss1.4sqi.net\/img\/categories_v2\/education\/studentcenter_","suffix":".png"},"primary":"true"}],"verified":"false","restricted":"true","stats":{"checkinsCount":"1554","usersCount":"584","tipCount":"7"},"url":"http:\/\/www.imperialcollegeunion.org","specials":{"count":"0"},"hereNow":{"count":"0"},"referralId":"v-1392478050"},{"id":"4b520f8ff964a520e16427e3","name":"Royal College of Music","contact":{"phone":"+442075893643","formattedPhone":"+44 20 7589 3643","twitter":"rcmlatest"},"location":{"address":"Prince Consort Rd.","lat":"51.49969344453868","lng":"-0.1771867275238037","distance":"62","postalCode":"SW7 2BS","cc":"GB","city":"London","state":"Greater London","country":"United Kingdom"},"categories":[{"id":"4bf58dd8d48988d1ae941735","name":"University","pluralName":"Universities","shortName":"University","icon":{"prefix":"https:\/\/ss1.4sqi.net\/img\/categories_v2\/education\/default_","suffix":".png"},"primary":"true"}],"verified":"false","restricted":"true","stats":{"checkinsCount":"968","usersCount":"376","tipCount":"5"},"url":"http:\/\/www.rcm.ac.uk","specials":{"count":"0"},"hereNow":{"count":"0"},"referralId":"v-1392478050"},{"id":"5116acd5e4b081062a8bdb21","name":"Cirque Du Soleil","location":{"address":"Royal Albert Hall","lat":"51.500992366049914","lng":"-0.17744598734832975","distance":"191","cc":"GB","country":"United Kingdom"},"categories":[{"id":"5032792091d4c4b30a586d5c","name":"Concert Hall","pluralName":"Concert Halls","shortName":"Concert Hall","icon":{"prefix":"https:\/\/ss1.4sqi.net\/img\/categories_v2\/arts_entertainment\/musicvenue_","suffix":".png"},"primary":"true"}],"verified":"false","restricted":"true","stats":{"checkinsCount":"318","usersCount":"194","tipCount":"5"},"specials":{"count":"0"},"hereNow":{"count":"2","groups":[{"type":"others","name":"Other people here","count":"2"}]},"referralId":"v-1392478050"},{"id":"4caca24da6e08cfa3b04ad94","name":"The Union Bar","contact":{"phone":"+442075948060","formattedPhone":"+44 20 7594 8060"},"location":{"address":"Prince Consort Rd.","lat":"51.500203","lng":"-0.178075","distance":"103","postalCode":"SW7 2BB","cc":"GB","city":"London","state":"Greater London","country":"United Kingdom"},"categories":[{"id":"4bf58dd8d48988d116941735","name":"Bar","pluralName":"Bars","shortName":"Bar","icon":{"prefix":"https:\/\/ss1.4sqi.net\/img\/categories_v2\/nightlife\/bar_","suffix":".png"},"primary":"true"}],"verified":"false","restricted":"true","stats":{"checkinsCount":"558","usersCount":"228","tipCount":"3"},"specials":{"count":"0"},"hereNow":{"count":"1","groups":[{"type":"others","name":"Other people here","count":"1"}]},"referralId":"v-1392478050"},{"id":"4bd17203462cb7131433da07","name":"The JCR","contact":{"twitter":"imperialcollege"},"location":{"address":"Sherfield Building Walkway (Level 2)","crossStreet":"Imperial College London","lat":"51.498377681772325","lng":"-0.17698287963867188","distance":"116","postalCode":"SW7 2AZ","cc":"GB","city":"London","state":"Greater London","country":"United Kingdom"},"categories":[{"id":"4bf58dd8d48988d1a1941735","name":"College Cafeteria","pluralName":"College Cafeterias","shortName":"Cafeteria","icon":{"prefix":"https:\/\/ss1.4sqi.net\/img\/categories_v2\/education\/cafeteria_","suffix":".png"},"primary":"true"}],"verified":"false","restricted":"true","stats":{"checkinsCount":"565","usersCount":"110","tipCount":"2"},"specials":{"count":"0"},"hereNow":{"count":"0"},"referralId":"v-1392478050"},{"id":"4c62b4e9ec94a593eedd29ca","name":"Huxley Building","location":{"address":"Imperial College London","crossStreet":"180 Queen's Gate","lat":"51.49856469605487","lng":"-0.1794719696044922","distance":"140","postalCode":"SW7 2AZ","cc":"GB","city":"London","state":"Greater London","country":"United Kingdom"},"categories":[{"id":"4bf58dd8d48988d19c941735","name":"College Math Building","pluralName":"College Math Buildings","shortName":"Math","icon":{"prefix":"https:\/\/ss1.4sqi.net\/img\/categories_v2\/education\/collegeacademicbuildings_math_","suffix":".png"},"primary":"true"}],"verified":"false","restricted":"true","stats":{"checkinsCount":"1821","usersCount":"367","tipCount":"2"},"specials":{"count":"0"},"hereNow":{"count":"0"},"referralId":"v-1392478050"},{"id":"4ccecb1d7c2ff04d5cbda67e","name":"Blackett Laboratory","location":{"address":"Imperial College London","crossStreet":"Prince Consort Rd","lat":"51.49928602967096","lng":"-0.1792144775390625","distance":"97","postalCode":"SW7 2AZ","cc":"GB","city":"London","state":"Greater London","country":"United Kingdom"},"categories":[{"id":"4bf58dd8d48988d19b941735","name":"College Science Building","pluralName":"College Science Buildings","shortName":"Science","icon":{"prefix":"https:\/\/ss1.4sqi.net\/img\/categories_v2\/education\/collegeacademicbuildings_science_","suffix":".png"},"primary":"true"}],"verified":"false","restricted":"true","stats":{"checkinsCount":"445","usersCount":"93","tipCount":"0"},"specials":{"count":"0"},"hereNow":{"count":"0"},"referralId":"v-1392478050"},{"id":"4d10b020cf09a14363a62d0f","name":"Senior Common Room (SCR)","contact":{"twitter":"imperialcollege"},"location":{"address":"Sherfield Building Walkway (Level 2)","crossStreet":"Imperial College London","lat":"51.49851363139948","lng":"-0.1774184138641293","distance":"90","postalCode":"SW7 2AZ","cc":"GB","city":"London","state":"Greater London","country":"United Kingdom"},"categories":[{"id":"4bf58dd8d48988d16d941735","name":"Caf\u00e9","pluralName":"Caf\u00e9s","shortName":"Caf\u00e9","icon":{"prefix":"https:\/\/ss1.4sqi.net\/img\/categories_v2\/food\/cafe_","suffix":".png"},"primary":"true"}],"verified":"false","restricted":"true","stats":{"checkinsCount":"1456","usersCount":"159","tipCount":"2"},"specials":{"count":"0"},"hereNow":{"count":"0"},"referralId":"v-1392478050"},{"id":"4c0ac132009a0f47b500eabf","name":"The Crofton","location":{"address":"14 Queen's Gate","lat":"51.499835","lng":"-0.180013","distance":"164","postalCode":"SW7","cc":"GB","city":"London","state":"Greater London","country":"United Kingdom"},"categories":[{"id":"4bf58dd8d48988d1a3941735","name":"College Residence Hall","pluralName":"College Residence Halls","shortName":"Residence Hall","icon":{"prefix":"https:\/\/ss1.4sqi.net\/img\/categories_v2\/education\/residencehall_","suffix":".png"},"primary":"true"}],"verified":"false","restricted":"true","stats":{"checkinsCount":"1242","usersCount":"124","tipCount":"0"},"specials":{"count":"0"},"hereNow":{"count":"1","groups":[{"type":"others","name":"Other people here","count":"1"}]},"referralId":"v-1392478050"},{"id":"528a5ab4498e1c4aa5cc9a41","name":"\u0127 (h-bar)","location":{"address":"Level 0 Sherfield Building, Imperial College London","lat":"51.49825072184602","lng":"-0.17819715396414854","distance":"118","postalCode":"SW7 2AZ","cc":"GB","city":"London","state":"Greater London","country":"United Kingdom"},"categories":[{"id":"4bf58dd8d48988d1a1941735","name":"College Cafeteria","pluralName":"College Cafeterias","shortName":"Cafeteria","icon":{"prefix":"https:\/\/ss1.4sqi.net\/img\/categories_v2\/education\/cafeteria_","suffix":".png"},"primary":"true"}],"verified":"false","restricted":"true","stats":{"checkinsCount":"55","usersCount":"27","tipCount":"3"},"specials":{"count":"0"},"hereNow":{"count":"0"},"referralId":"v-1392478050"},{"id":"4c692ea9c946e21ec46de98e","name":"Sherfield Building","location":{"address":"Imperial College London","crossStreet":"South Kensington Campus","lat":"51.49856463846291","lng":"-0.1778672652621541","distance":"80","postalCode":"SW72AZ","cc":"GB","city":"London","state":"Greater London","country":"United Kingdom"},"categories":[{"id":"4bf58dd8d48988d198941735","name":"College Academic Building","pluralName":"College Academic Buildings","shortName":"Academic Building","icon":{"prefix":"https:\/\/ss1.4sqi.net\/img\/categories_v2\/education\/academicbuilding_","suffix":".png"},"primary":"true"}],"verified":"false","restricted":"true","stats":{"checkinsCount":"964","usersCount":"305","tipCount":"2"},"specials":{"count":"0"},"hereNow":{"count":"0"},"referralId":"v-1392478050"},{"id":"4eb2a09061af6506d55a41ad","name":"Imperial College Chemical Engineering Building","location":{"lat":"51.498892796557264","lng":"-0.17782842108619468","distance":"44","cc":"GB","city":"London","state":"Greater London","country":"United Kingdom"},"categories":[{"id":"4bf58dd8d48988d19e941735","name":"College Engineering Building","pluralName":"College Engineering Buildings","shortName":"Engineering","icon":{"prefix":"https:\/\/ss1.4sqi.net\/img\/categories_v2\/education\/collegeacademicbuildings_engineering_","suffix":".png"},"primary":"true"}],"verified":"false","restricted":"true","stats":{"checkinsCount":"202","usersCount":"39","tipCount":"0"},"specials":{"count":"0"},"hereNow":{"count":"0"},"referralId":"v-1392478050"},{"id":"4bb0a181f964a520ad503ce3","name":"Gore Hotel","contact":{"phone":"+442075846601","formattedPhone":"+44 20 7584 6601","twitter":"gorehotel"},"location":{"address":"190 Queen's Gate","crossStreet":"by Hyde Park","lat":"51.50011421344789","lng":"-0.17981529235839844","distance":"166","postalCode":"SW7 5EX","cc":"GB","city":"London","state":"Greater London","country":"United Kingdom"},"categories":[{"id":"4bf58dd8d48988d1fa931735","name":"Hotel","pluralName":"Hotels","shortName":"Hotel","icon":{"prefix":"https:\/\/ss1.4sqi.net\/img\/categories_v2\/travel\/hotel_","suffix":".png"},"primary":"true"}],"verified":"true","restricted":"true","stats":{"checkinsCount":"712","usersCount":"426","tipCount":"10"},"url":"http:\/\/www.gorehotel.com","specials":{"count":"0"},"hereNow":{"count":"1","groups":[{"type":"others","name":"Other people here","count":"1"}]},"storeId":"","referralId":"v-1392478050"},{"id":"4e26fbafae609b2f94ec383f","name":"Santander","contact":{"phone":"+448457654321","formattedPhone":"+44 845 765 4321"},"location":{"address":"The Walkway, Imperial College London","lat":"51.49892655198656","lng":"-0.17603452227172192","distance":"129","postalCode":"SW7 2AZ","cc":"GB","city":"London","state":"Greater London","country":"United Kingdom"},"categories":[{"id":"4bf58dd8d48988d10a951735","name":"Bank","pluralName":"Banks","shortName":"Bank","icon":{"prefix":"https:\/\/ss1.4sqi.net\/img\/categories_v2\/shops\/financial_","suffix":".png"},"primary":"true"}],"verified":"false","restricted":"true","stats":{"checkinsCount":"42","usersCount":"12","tipCount":"0"},"specials":{"count":"0"},"hereNow":{"count":"1","groups":[{"type":"others","name":"Other people here","count":"1"}]},"referralId":"v-1392478050"},{"id":"4e302aa3c65b80dfd847f0e9","name":"Bessemer Building","location":{"address":"Imperial College London","crossStreet":"South Kensington","lat":"51.499553","lng":"-0.175968","distance":"130","postalCode":"SW7 2AZ","cc":"GB","city":"London","state":"Greater London","country":"United Kingdom"},"categories":[{"id":"4bf58dd8d48988d130941735","name":"Building","pluralName":"Buildings","shortName":"Building","icon":{"prefix":"https:\/\/ss1.4sqi.net\/img\/categories_v2\/building\/default_","suffix":".png"},"primary":"true"}],"verified":"false","restricted":"true","stats":{"checkinsCount":"93","usersCount":"26","tipCount":"1"},"specials":{"count":"0"},"hereNow":{"count":"1","groups":[{"type":"others","name":"Other people here","count":"1"}]},"referralId":"v-1392478050"},{"id":"4ace4adff964a520b0cf20e3","name":"Royal School of Mines","location":{"address":"Prince Consort Road","lat":"51.49982894901582","lng":"-0.17584086351740308","distance":"148","postalCode":"SW7 2AZ","cc":"GB","city":"London","state":"Greater London","country":"United Kingdom"},"categories":[{"id":"4bf58dd8d48988d19b941735","name":"College Science Building","pluralName":"College Science Buildings","shortName":"Science","icon":{"prefix":"https:\/\/ss1.4sqi.net\/img\/categories_v2\/education\/collegeacademicbuildings_science_","suffix":".png"},"primary":"true"}],"verified":"false","restricted":"true","stats":{"checkinsCount":"1498","usersCount":"158","tipCount":"2"},"specials":{"count":"0"},"hereNow":{"count":"0"},"referralId":"v-1392478050"},{"id":"4e9c37950aaf5f690f06e0d2","name":"Chemistry\/ Sir Ernst Chain Building- Wolfson Laboratories","location":{"address":"Imperial College Road","lat":"51.498144","lng":"-0.177262","distance":"132","cc":"GB","city":"London","state":"Greater London","country":"United Kingdom"},"categories":[{"id":"4bf58dd8d48988d19b941735","name":"College Science Building","pluralName":"College Science Buildings","shortName":"Science","icon":{"prefix":"https:\/\/ss1.4sqi.net\/img\/categories_v2\/education\/collegeacademicbuildings_science_","suffix":".png"},"primary":"true"}],"verified":"false","restricted":"true","stats":{"checkinsCount":"258","usersCount":"35","tipCount":"0"},"specials":{"count":"0"},"hereNow":{"count":"0"},"referralId":"v-1392478050"},{"id":"4e9854304901ee0ca4b21895","name":"RCS Chemistry","location":{"address":"Imperial College London","lat":"51.49782870716239","lng":"-0.17573023698955328","distance":"216","cc":"GB","city":"London","state":"Greater London","country":"United Kingdom"},"categories":[{"id":"4bf58dd8d48988d19b941735","name":"College Science Building","pluralName":"College Science Buildings","shortName":"Science","icon":{"prefix":"https:\/\/ss1.4sqi.net\/img\/categories_v2\/education\/collegeacademicbuildings_science_","suffix":".png"},"primary":"true"}],"verified":"false","restricted":"true","stats":{"checkinsCount":"182","usersCount":"15","tipCount":"0"},"url":"http:\/\/www.imperial.ac.uk\/chemistry","specials":{"count":"0"},"hereNow":{"count":"0"},"referralId":"v-1392478050"},{"id":"4d4f0bf09a2a6ea8b396286f","name":"Roderic Hill Building","location":{"address":"Imperial College London","lat":"51.499756","lng":"-0.178034","distance":"54","postalCode":"SW7 2AZ","cc":"GB","city":"London","state":"Greater London","country":"United Kingdom"},"categories":[{"id":"4bf58dd8d48988d198941735","name":"College Academic Building","pluralName":"College Academic Buildings","shortName":"Academic Building","icon":{"prefix":"https:\/\/ss1.4sqi.net\/img\/categories_v2\/education\/academicbuilding_","suffix":".png"},"primary":"true"}],"verified":"false","restricted":"true","stats":{"checkinsCount":"199","usersCount":"17","tipCount":"0"},"specials":{"count":"0"},"hereNow":{"count":"0"},"referralId":"v-1392478050"},{"id":"52a5ced811d249c220f2ad70","name":"Clore Lecture Theatre","location":{"address":"Imperial College London, Queen's Gate","lat":"51.49860817438739","lng":"-0.17933224797008757","distance":"130","cc":"GB","city":"London","state":"Greater London","country":"United Kingdom"},"categories":[{"id":"4bf58dd8d48988d1af941735","name":"College Auditorium","pluralName":"College Auditoriums","shortName":"Auditorium","icon":{"prefix":"https:\/\/ss1.4sqi.net\/img\/categories_v2\/building\/auditorium_","suffix":".png"},"primary":"true"}],"verified":"false","restricted":"true","stats":{"checkinsCount":"23","usersCount":"1","tipCount":"0"},"specials":{"count":"0"},"hereNow":{"count":"0"},"referralId":"v-1392478050"},{"id":"4db196d6fc60cfe27fbbc532","name":"Beit Quad","location":{"address":"Prince Consort Road","lat":"51.50008749807709","lng":"-0.1780986785888672","distance":"91","postalCode":"SW7 2BB","cc":"GB","city":"South Kensington","state":"Greater London","country":"United Kingdom"},"categories":[{"id":"4bf58dd8d48988d1aa941735","name":"College Quad","pluralName":"College Quads","shortName":"Quad","icon":{"prefix":"https:\/\/ss1.4sqi.net\/img\/categories_v2\/education\/quad_","suffix":".png"},"primary":"true"}],"verified":"false","restricted":"true","stats":{"checkinsCount":"484","usersCount":"75","tipCount":"0"},"specials":{"count":"0"},"hereNow":{"count":"0"},"referralId":"v-1392478050"},{"id":"5073edeae4b03e9d07f478a8","name":"EEE Caf\u00e9","location":{"address":"Electrical and Electronc Engineering Department","lat":"51.49897794037413","lng":"-0.1758358526318872","distance":"140","postalCode":"SW7 2BT","cc":"GB","city":"London","state":"Greater London","country":"United Kingdom"},"categories":[{"id":"4bf58dd8d48988d16d941735","name":"Caf\u00e9","pluralName":"Caf\u00e9s","shortName":"Caf\u00e9","icon":{"prefix":"https:\/\/ss1.4sqi.net\/img\/categories_v2\/food\/cafe_","suffix":".png"},"primary":"true"}],"verified":"false","restricted":"true","stats":{"checkinsCount":"58","usersCount":"11","tipCount":"1"},"specials":{"count":"0"},"hereNow":{"count":"0"},"referralId":"v-1392478050"},{"id":"524fc90e11d2160fb0f4a770","name":"RCM Concert Hall","location":{"lat":"51.499559","lng":"-0.177147","distance":"54","cc":"GB","country":"United Kingdom"},"categories":[{"id":"5032792091d4c4b30a586d5c","name":"Concert Hall","pluralName":"Concert Halls","shortName":"Concert Hall","icon":{"prefix":"https:\/\/ss1.4sqi.net\/img\/categories_v2\/arts_entertainment\/musicvenue_","suffix":".png"},"primary":"true"}],"verified":"false","restricted":"true","stats":{"checkinsCount":"11","usersCount":"1","tipCount":"0"},"specials":{"count":"0"},"hereNow":{"count":"0"},"referralId":"v-1392478050"},{"id":"51713b14e4b0d0d25ef98cf2","name":"Ayrton Road","location":{"lat":"51.499129","lng":"-0.178378","distance":"43","cc":"GB","country":"United Kingdom"},"categories":[{"id":"4bf58dd8d48988d162941735","name":"Other Great Outdoors","pluralName":"Other Great Outdoors","shortName":"Other Outdoors","icon":{"prefix":"https:\/\/ss1.4sqi.net\/img\/categories_v2\/parks_outdoors\/outdoors_","suffix":".png"},"primary":"true"}],"verified":"false","restricted":"true","stats":{"checkinsCount":"3","usersCount":"1","tipCount":"0"},"specials":{"count":"0"},"hereNow":{"count":"0"},"referralId":"v-1392478050"},{"id":"5197435c498ec577ca283cc3","name":"RCM Recital Hall","location":{"lat":"51.499535811019555","lng":"-0.1769432317637952","distance":"65","cc":"GB","country":"United Kingdom"},"categories":[{"id":"4bf58dd8d48988d1af941735","name":"College Auditorium","pluralName":"College Auditoriums","shortName":"Auditorium","icon":{"prefix":"https:\/\/ss1.4sqi.net\/img\/categories_v2\/building\/auditorium_","suffix":".png"},"primary":"true"}],"verified":"false","restricted":"true","stats":{"checkinsCount":"18","usersCount":"2","tipCount":"0"},"specials":{"count":"0"},"hereNow":{"count":"0"},"referralId":"v-1392478050"}],"confident":"true"}}