{"meta":{"code":"200"},"response":{"venues":[{"id":"4d47cc6a0bfd54819ec73600","name":"Riverside Walk (Battersea)","location":{"address":"York road","lat":"51.47276229695544","lng":"-0.17701137700516506","distance":"178","cc":"GB","city":"Wandsworth","state":"Greater London","country":"United Kingdom"},"categories":[{"id":"4bf58dd8d48988d159941735","name":"Trail","pluralName":"Trails","shortName":"Trail","icon":{"prefix":"https:\/\/ss1.4sqi.net\/img\/categories_v2\/parks_outdoors\/hikingtrail_","suffix":".png"},"primary":"true"}],"verified":"false","restricted":"true","stats":{"checkinsCount":"733","usersCount":"139","tipCount":"0"},"specials":{"count":"0"},"hereNow":{"count":"0"},"referralId":"v-1392478115"},{"id":"4bdc3dfd63c5c9b60be02a68","name":"Chelsea Harbour","location":{"lat":"51.475369072783394","lng":"-0.18114566802978516","distance":"261","cc":"GB","city":"Chelsea","state":"Greater London","country":"United Kingdom"},"categories":[{"id":"4bf58dd8d48988d1e0941735","name":"Harbor \/ Marina","pluralName":"Harbors \/ Marinas","shortName":"Harbor \/ Marina","icon":{"prefix":"https:\/\/ss1.4sqi.net\/img\/categories_v2\/parks_outdoors\/harbor_","suffix":".png"},"primary":"true"}],"verified":"false","restricted":"true","stats":{"checkinsCount":"1371","usersCount":"551","tipCount":"7"},"specials":{"count":"0"},"hereNow":{"count":"0"},"referralId":"v-1392478115"},{"id":"4c94c8636b35a14354621edc","name":"Battersea Square","location":{"address":"Battersea Church Rd.","lat":"51.47388594397289","lng":"-0.17455564978640056","distance":"229","cc":"GB","city":"London","state":"Greater London","country":"United Kingdom"},"categories":[{"id":"4bf58dd8d48988d162941735","name":"Other Great Outdoors","pluralName":"Other Great Outdoors","shortName":"Other Outdoors","icon":{"prefix":"https:\/\/ss1.4sqi.net\/img\/categories_v2\/parks_outdoors\/outdoors_","suffix":".png"},"primary":"true"}],"verified":"false","restricted":"true","stats":{"checkinsCount":"1036","usersCount":"226","tipCount":"3"},"specials":{"count":"0"},"hereNow":{"count":"0"},"referralId":"v-1392478115"},{"id":"4b6aef7df964a520a4e72be3","name":"Royal Academy of Dance","location":{"address":"36 Battersea Square","lat":"51.474356142631656","lng":"-0.1752375836972574","distance":"178","postalCode":"SW11 3RA\u200e","cc":"GB","city":"London","state":"Greater London","country":"United Kingdom"},"categories":[{"id":"4bf58dd8d48988d1a8941735","name":"General College & University","pluralName":"General Colleges & Universities","shortName":"Education","icon":{"prefix":"https:\/\/ss1.4sqi.net\/img\/categories_v2\/education\/other_","suffix":".png"},"primary":"true"}],"verified":"false","restricted":"true","stats":{"checkinsCount":"510","usersCount":"115","tipCount":"1"},"url":"http:\/\/www.rad.org.uk","specials":{"count":"0"},"hereNow":{"count":"0"},"referralId":"v-1392478115"},{"id":"52eb78ae11d2c981bc33680a","name":"London House","contact":{"phone":"+442075928545","formattedPhone":"+44 20 7592 8545"},"location":{"address":"7-9 Battersea Square","lat":"51.47527324253835","lng":"-0.17519294117055412","distance":"211","postalCode":"SW11 3RA","cc":"GB","city":"London","state":"Greater London","country":"United Kingdom"},"categories":[{"id":"4bf58dd8d48988d1c4941735","name":"Restaurant","pluralName":"Restaurants","shortName":"Restaurant","icon":{"prefix":"https:\/\/ss1.4sqi.net\/img\/categories_v2\/food\/default_","suffix":".png"},"primary":"true"}],"verified":"false","restricted":"true","stats":{"checkinsCount":"14","usersCount":"14","tipCount":"0"},"url":"http:\/\/gordonramsay.com\/londonhouse","specials":{"count":"0"},"hereNow":{"count":"1","groups":[{"type":"others","name":"Other people here","count":"1"}]},"referralId":"v-1392478115"},{"id":"5036b36acc6417d4bcd9a1ba","name":"Imperial Wharf London Overground Station","contact":{"phone":"+448432221234","formattedPhone":"+44 843 222 1234","twitter":"tflofficial","facebook":"212038972186253"},"location":{"address":"Townmead Rd.","lat":"51.47502027116863","lng":"-0.1829878974018347","distance":"368","postalCode":"SW6 2ZH","cc":"GB","city":"London","state":"Greater London","country":"United Kingdom"},"categories":[{"id":"4bf58dd8d48988d129951735","name":"Train Station","pluralName":"Train Stations","shortName":"Train Station","icon":{"prefix":"https:\/\/ss1.4sqi.net\/img\/categories_v2\/travel\/trainstation_","suffix":".png"},"primary":"true"}],"verified":"true","restricted":"true","stats":{"checkinsCount":"3097","usersCount":"982","tipCount":"7"},"url":"http:\/\/www.tfl.gov.uk\/livetravelnews","specials":{"count":"0"},"hereNow":{"count":"0"},"storeId":"","referralId":"v-1392478115"},{"id":"4bdc3eaa2a3a0f4758fab1b6","name":"Chelsea Harbour Pier","location":{"lat":"51.473891469376795","lng":"-0.1800345180274979","distance":"160","cc":"GB","country":"United Kingdom"},"categories":[{"id":"4bf58dd8d48988d12d951735","name":"Boat or Ferry","pluralName":"Boats or Ferries","shortName":"Boat \/ Ferry","icon":{"prefix":"https:\/\/ss1.4sqi.net\/img\/categories_v2\/travel\/boat_","suffix":".png"},"primary":"true"}],"verified":"false","restricted":"true","stats":{"checkinsCount":"393","usersCount":"123","tipCount":"1"},"specials":{"count":"0"},"hereNow":{"count":"0"},"referralId":"v-1392478115"},{"id":"4f1662f9e4b0804e8f4e73ca","name":"River Side","location":{"lat":"51.4736506765394","lng":"-0.17621012518511303","distance":"131","cc":"GB","country":"United Kingdom"},"verified":"false","restricted":"true","stats":{"checkinsCount":"46","usersCount":"13","tipCount":"0"},"specials":{"count":"0"},"hereNow":{"count":"0"},"referralId":"v-1392478115"},{"id":"4ac518b5f964a5208aa020e3","name":"Wyndham Grand London Chelsea Harbour","contact":{"phone":"+448004458667","formattedPhone":"+44 800 445 8667"},"location":{"address":"Chelsea Harbour, Lots Rd.","lat":"51.47573053366325","lng":"-0.181533842531931","distance":"304","postalCode":"SW10 0XG","cc":"GB","city":"London","state":"Greater London","country":"United Kingdom"},"categories":[{"id":"4bf58dd8d48988d1fa931735","name":"Hotel","pluralName":"Hotels","shortName":"Hotel","icon":{"prefix":"https:\/\/ss1.4sqi.net\/img\/categories_v2\/travel\/hotel_","suffix":".png"},"primary":"true"}],"verified":"true","restricted":"true","stats":{"checkinsCount":"1145","usersCount":"497","tipCount":"15"},"url":"http:\/\/www.wyndhamgrandlondon.co.uk","menu":{"type":"Menu","label":"Menu","anchor":"View Menu","url":"https:\/\/foursquare.com\/v\/wyndham-grand-london-chelsea-harbour\/4ac518b5f964a5208aa020e3\/menu","mobileUrl":"https:\/\/foursquare.com\/v\/4ac518b5f964a5208aa020e3\/device_menu"},"specials":{"count":"1","items":[{"id":"4ce4187888e460fc9dd5748d","type":"count","message":"As a foursquare user you are entitled to a free cup of coffee on your 5th check-in!","description":"Unlocked on your 5th check-in","icon":"frequency","title":"Loyalty Special","provider":"foursquare","redemption":"standard"}]},"hereNow":{"count":"0"},"referralId":"v-1392478115"},{"id":"4eda6a1db8f7fcd0404c5cc2","name":"Imperial Wharf","location":{"lat":"51.47316067903987","lng":"-0.1828105610175721","distance":"369","cc":"GB","country":"United Kingdom"},"categories":[{"id":"4d954b06a243a5684965b473","name":"Residential Building (Apartment \/ Condo)","pluralName":"Residential Buildings (Apartments \/ Condos)","shortName":"Residential","icon":{"prefix":"https:\/\/ss1.4sqi.net\/img\/categories_v2\/building\/apartment_","suffix":".png"},"primary":"true"}],"verified":"false","restricted":"true","stats":{"checkinsCount":"925","usersCount":"293","tipCount":"2"},"specials":{"count":"0"},"hereNow":{"count":"1","groups":[{"type":"others","name":"Other people here","count":"1"}]},"referralId":"v-1392478115"},{"id":"4bd1d4da9854d13aa64efa4d","name":"The Waterside","contact":{"phone":"+442073710802","formattedPhone":"+44 20 7371 0802","twitter":"thewatersidesw6"},"location":{"address":"The Boulevard","crossStreet":"Imperial Wharf","lat":"51.47313058376312","lng":"-0.18112421035766602","distance":"263","postalCode":"SW6 2SU","cc":"GB","city":"London","state":"Greater London","country":"United Kingdom"},"categories":[{"id":"4bf58dd8d48988d11b941735","name":"Pub","pluralName":"Pubs","shortName":"Pub","icon":{"prefix":"https:\/\/ss1.4sqi.net\/img\/categories_v2\/nightlife\/pub_","suffix":".png"},"primary":"true"}],"verified":"false","restricted":"true","stats":{"checkinsCount":"933","usersCount":"417","tipCount":"17"},"url":"http:\/\/www.watersideimperialwharf.co.uk","menu":{"type":"Menu","label":"Menu","anchor":"View Menu","url":"https:\/\/foursquare.com\/v\/the-waterside\/4bd1d4da9854d13aa64efa4d\/menu","mobileUrl":"https:\/\/foursquare.com\/v\/4bd1d4da9854d13aa64efa4d\/device_menu"},"specials":{"count":"0"},"hereNow":{"count":"0"},"referralId":"v-1392478115"},{"id":"4f1dc6a0e4b08fa66732c593","name":"The Blue Elephant","contact":{"phone":"+442077513111","formattedPhone":"+44 20 7751 3111"},"location":{"address":"The Boulevard","lat":"51.47303275410675","lng":"-0.18089075030090723","distance":"255","postalCode":"SW6 2UB","cc":"GB","city":"London","state":"Greater London","country":"United Kingdom"},"categories":[{"id":"4bf58dd8d48988d149941735","name":"Thai Restaurant","pluralName":"Thai Restaurants","shortName":"Thai","icon":{"prefix":"https:\/\/ss1.4sqi.net\/img\/categories_v2\/food\/thai_","suffix":".png"},"primary":"true"}],"verified":"false","restricted":"true","stats":{"checkinsCount":"285","usersCount":"246","tipCount":"6"},"url":"http:\/\/www.blueelephant.com\/london\/","reservations":{"url":"http:\/\/www.toptable.co.uk\/single.aspx?rid=85411&ref=9601"},"menu":{"type":"Menu","label":"Menu","anchor":"View Menu","url":"https:\/\/foursquare.com\/v\/the-blue-elephant\/4f1dc6a0e4b08fa66732c593\/menu","mobileUrl":"https:\/\/foursquare.com\/v\/4f1dc6a0e4b08fa66732c593\/device_menu"},"specials":{"count":"0"},"hereNow":{"count":"0"},"referralId":"v-1392478115"},{"id":"4e6df577483bf105214984c1","name":"The Square Sandwich","contact":{"phone":"+442079242428","formattedPhone":"+44 20 7924 2428"},"location":{"address":"20 Battersea Square","lat":"51.474191964088526","lng":"-0.17423248391169704","distance":"247","postalCode":"SW11 3RA","cc":"GB","city":"Wandsworth","state":"Greater London","country":"United Kingdom"},"categories":[{"id":"4bf58dd8d48988d1c5941735","name":"Sandwich Place","pluralName":"Sandwich Places","shortName":"Sandwiches","icon":{"prefix":"https:\/\/ss1.4sqi.net\/img\/categories_v2\/food\/sandwiches_","suffix":".png"},"primary":"true"}],"verified":"false","restricted":"true","stats":{"checkinsCount":"200","usersCount":"30","tipCount":"2"},"specials":{"count":"0"},"hereNow":{"count":"0"},"referralId":"v-1392478115"},{"id":"51b44ccd498e87bc8d40ca24","name":"Harris + Hoole","location":{"address":"215 Townmead Rd","crossStreet":"Imperial Wharf","lat":"51.474604921747435","lng":"-0.18282647422240747","distance":"350","postalCode":"SW6 2TW","cc":"GB","city":"Chelsea","state":"Greater London","country":"United Kingdom"},"categories":[{"id":"4bf58dd8d48988d16d941735","name":"Caf\u00e9","pluralName":"Caf\u00e9s","shortName":"Caf\u00e9","icon":{"prefix":"https:\/\/ss1.4sqi.net\/img\/categories_v2\/food\/cafe_","suffix":".png"},"primary":"true"}],"verified":"false","restricted":"true","stats":{"checkinsCount":"189","usersCount":"85","tipCount":"5"},"url":"http:\/\/www.harrisandhoole.co.uk\/shops\/imperial-wharf","specials":{"count":"0"},"hereNow":{"count":"1","groups":[{"type":"others","name":"Other people here","count":"1"}]},"referralId":"v-1392478115"},{"id":"4edc7f788231efe391e1e8d3","name":"Peekaboo Invt.","location":{"lat":"51.474645765836904","lng":"-0.18304815723311824","distance":"365","cc":"GB","city":"London","state":"Greater London","country":"United Kingdom"},"categories":[{"id":"4bf58dd8d48988d130941735","name":"Building","pluralName":"Buildings","shortName":"Building","icon":{"prefix":"https:\/\/ss1.4sqi.net\/img\/categories_v2\/building\/default_","suffix":".png"},"primary":"true"}],"verified":"false","restricted":"true","stats":{"checkinsCount":"717","usersCount":"17","tipCount":"0"},"url":"http:\/\/www.peekabooinvest.com","specials":{"count":"0"},"hereNow":{"count":"0"},"referralId":"v-1392478115"},{"id":"4b6d3b9cf964a520b76c2ce3","name":"mazar","contact":{"phone":"+442079785374","formattedPhone":"+44 20 7978 5374"},"location":{"address":"11-12 Battersea Square","lat":"51.47502158320545","lng":"-0.17468690872192383","distance":"230","postalCode":"SW11 3RA","cc":"GB","city":"London","state":"Greater London","country":"United Kingdom"},"categories":[{"id":"4bf58dd8d48988d115941735","name":"Middle Eastern Restaurant","pluralName":"Middle Eastern Restaurants","shortName":"Middle Eastern","icon":{"prefix":"https:\/\/ss1.4sqi.net\/img\/categories_v2\/food\/default_","suffix":".png"},"primary":"true"}],"verified":"false","restricted":"true","stats":{"checkinsCount":"214","usersCount":"75","tipCount":"6"},"url":"http:\/\/mazarrestaurant.com","menu":{"type":"Menu","label":"Menu","anchor":"View Menu","url":"https:\/\/foursquare.com\/v\/mazar\/4b6d3b9cf964a520b76c2ce3\/menu","mobileUrl":"https:\/\/foursquare.com\/v\/4b6d3b9cf964a520b76c2ce3\/device_menu"},"specials":{"count":"0"},"hereNow":{"count":"0"},"referralId":"v-1392478115"},{"id":"52ed4292498ec7563ea6016d","name":"Dermadoc Cosmetic Clinic","contact":{"phone":"+442087489883","formattedPhone":"+44 20 8748 9883","twitter":"dermadoc_clinic"},"location":{"address":"96 Fulham Palace Road","lat":"51.475317971238134","lng":"-0.1795503045782381","distance":"166","postalCode":"W6 9PL","cc":"GB","city":"London","state":"Greater London","country":"United Kingdom"},"categories":[{"id":"4bf58dd8d48988d177941735","name":"Doctor's Office","pluralName":"Doctor's Offices","shortName":"Doctor's Office","icon":{"prefix":"https:\/\/ss1.4sqi.net\/img\/categories_v2\/building\/medical_doctorsoffice_","suffix":".png"},"primary":"true"}],"verified":"false","restricted":"true","stats":{"checkinsCount":"3","usersCount":"2","tipCount":"0"},"specials":{"count":"0"},"hereNow":{"count":"0"},"referralId":"v-1392478115"},{"id":"4b5ad4a8f964a52086d628e3","name":"Gambado","contact":{"phone":"+442073841635","formattedPhone":"+44 20 7384 1635"},"location":{"address":"7 Station Court","lat":"51.474192943529474","lng":"-0.1833021640777588","distance":"381","postalCode":"SW6 2PY","cc":"GB","city":"Chelsea","state":"Greater London","country":"United Kingdom"},"categories":[{"id":"4bf58dd8d48988d1e7941735","name":"Playground","pluralName":"Playgrounds","shortName":"Playground","icon":{"prefix":"https:\/\/ss1.4sqi.net\/img\/categories_v2\/parks_outdoors\/playground_","suffix":".png"},"primary":"true"}],"verified":"false","restricted":"true","stats":{"checkinsCount":"329","usersCount":"172","tipCount":"7"},"specials":{"count":"0"},"hereNow":{"count":"0"},"referralId":"v-1392478115"},{"id":"4d287edf342d6dcb4aeaf8ca","name":"Yamal Alsham","contact":{"phone":"+442030101100","formattedPhone":"+44 20 3010 1100","twitter":"yamalalshamuk"},"location":{"address":"5 The Boulevard, Imperial Wharf","crossStreet":"Townmead Rd","lat":"51.47339506537382","lng":"-0.18230729204261092","distance":"327","postalCode":"SW6 2UB","cc":"GB","city":"London","state":"Greater London","country":"United Kingdom"},"categories":[{"id":"4bf58dd8d48988d115941735","name":"Middle Eastern Restaurant","pluralName":"Middle Eastern Restaurants","shortName":"Middle Eastern","icon":{"prefix":"https:\/\/ss1.4sqi.net\/img\/categories_v2\/food\/default_","suffix":".png"},"primary":"true"}],"verified":"false","restricted":"true","stats":{"checkinsCount":"363","usersCount":"169","tipCount":"9"},"url":"http:\/\/www.yamalalsham.co.uk","reservations":{"url":"http:\/\/www.toptable.co.uk\/single.aspx?rid=54883&ref=9601"},"menu":{"type":"Menu","label":"Menu","anchor":"View Menu","url":"https:\/\/foursquare.com\/v\/yamal-alsham\/4d287edf342d6dcb4aeaf8ca\/menu","mobileUrl":"https:\/\/foursquare.com\/v\/4d287edf342d6dcb4aeaf8ca\/device_menu"},"specials":{"count":"0"},"hereNow":{"count":"0"},"referralId":"v-1392478115"},{"id":"4b6728c9f964a520823e2be3","name":"The Woodman","location":{"address":"60-68 Battersea High St","lat":"51.4735980541767","lng":"-0.17373473936113934","distance":"292","postalCode":"SW11 3","cc":"GB","city":"Wandsworth","state":"Greater London","country":"United Kingdom"},"categories":[{"id":"4bf58dd8d48988d11b941735","name":"Pub","pluralName":"Pubs","shortName":"Pub","icon":{"prefix":"https:\/\/ss1.4sqi.net\/img\/categories_v2\/nightlife\/pub_","suffix":".png"},"primary":"true"}],"verified":"false","restricted":"true","stats":{"checkinsCount":"434","usersCount":"127","tipCount":"10"},"menu":{"type":"Menu","label":"Menu","anchor":"View Menu","url":"https:\/\/foursquare.com\/v\/the-woodman\/4b6728c9f964a520823e2be3\/menu","mobileUrl":"https:\/\/foursquare.com\/v\/4b6728c9f964a520823e2be3\/device_menu"},"specials":{"count":"0"},"hereNow":{"count":"0"},"referralId":"v-1392478115"},{"id":"4b5d7ef1f964a520f05e29e3","name":"Hotel Rafayel","contact":{"phone":"+442078013600","formattedPhone":"+44 20 7801 3600","twitter":"hotelrafayel"},"location":{"address":"34 Lombard Rd","lat":"51.470382","lng":"-0.17792715","distance":"435","postalCode":"SW11 3RF","cc":"GB","city":"London","state":"Greater London","country":"United Kingdom"},"categories":[{"id":"4bf58dd8d48988d1fa931735","name":"Hotel","pluralName":"Hotels","shortName":"Hotel","icon":{"prefix":"https:\/\/ss1.4sqi.net\/img\/categories_v2\/travel\/hotel_","suffix":".png"},"primary":"true"}],"verified":"true","restricted":"true","stats":{"checkinsCount":"462","usersCount":"300","tipCount":"10"},"url":"http:\/\/www.hotelrafayel.com","menu":{"type":"Menu","label":"Menu","anchor":"View Menu","url":"https:\/\/foursquare.com\/v\/hotel-rafayel\/4b5d7ef1f964a520f05e29e3\/menu","mobileUrl":"https:\/\/foursquare.com\/v\/4b5d7ef1f964a520f05e29e3\/device_menu"},"specials":{"count":"0"},"hereNow":{"count":"0"},"venuePage":{"id":"33781407"},"storeId":"","referralId":"v-1392478115"},{"id":"4b8a5683f964a5201c6932e3","name":"Melanzana","contact":{"phone":"+442072285420","formattedPhone":"+44 20 7228 5420"},"location":{"address":"Westbridge Rd.","crossStreet":"Battersea Church Rd.","lat":"51.475255","lng":"-0.175091","distance":"216","postalCode":"SW11 3PF","cc":"GB","city":"London","state":"Greater London","country":"United Kingdom"},"categories":[{"id":"4bf58dd8d48988d110941735","name":"Italian Restaurant","pluralName":"Italian Restaurants","shortName":"Italian","icon":{"prefix":"https:\/\/ss1.4sqi.net\/img\/categories_v2\/food\/italian_","suffix":".png"},"primary":"true"}],"verified":"false","restricted":"true","stats":{"checkinsCount":"291","usersCount":"119","tipCount":"7"},"menu":{"type":"Menu","label":"Menu","anchor":"View Menu","url":"https:\/\/foursquare.com\/v\/melanzana\/4b8a5683f964a5201c6932e3\/menu","mobileUrl":"https:\/\/foursquare.com\/v\/4b8a5683f964a5201c6932e3\/device_menu"},"specials":{"count":"0"},"hereNow":{"count":"0"},"referralId":"v-1392478115"},{"id":"4d6d5b62fbf0a093ccebfe8c","name":"Bar RIO","location":{"lat":"51.47496574347688","lng":"-0.1749843639597992","distance":"209","postalCode":"SW11 3","cc":"GB","city":"Wandsworth","state":"Greater London","country":"United Kingdom"},"categories":[{"id":"4bf58dd8d48988d116941735","name":"Bar","pluralName":"Bars","shortName":"Bar","icon":{"prefix":"https:\/\/ss1.4sqi.net\/img\/categories_v2\/nightlife\/bar_","suffix":".png"},"primary":"true"}],"verified":"false","restricted":"true","stats":{"checkinsCount":"6","usersCount":"5","tipCount":"0"},"specials":{"count":"0"},"hereNow":{"count":"0"},"referralId":"v-1392478115"},{"id":"4c814756e602b1f7d046917a","name":"Le QuecumBar","location":{"address":"42-44 Battersea High St.","lat":"51.47400582926133","lng":"-0.17380714416503906","distance":"278","postalCode":"SW11 3HX","cc":"GB","city":"London","state":"Greater London","country":"United Kingdom"},"categories":[{"id":"4bf58dd8d48988d116941735","name":"Bar","pluralName":"Bars","shortName":"Bar","icon":{"prefix":"https:\/\/ss1.4sqi.net\/img\/categories_v2\/nightlife\/bar_","suffix":".png"},"primary":"true"}],"verified":"false","restricted":"true","stats":{"checkinsCount":"309","usersCount":"117","tipCount":"13"},"menu":{"type":"Menu","label":"Menu","anchor":"View Menu","url":"https:\/\/foursquare.com\/v\/le-quecumbar\/4c814756e602b1f7d046917a\/menu","mobileUrl":"https:\/\/foursquare.com\/v\/4c814756e602b1f7d046917a\/device_menu"},"specials":{"count":"0"},"hereNow":{"count":"0"},"referralId":"v-1392478115"},{"id":"4beb0ad2415e20a18fcfe5bb","name":"Harbour Yard, Chelsea Harbour","location":{"lat":"51.47518627798585","lng":"-0.18201554953993632","distance":"308","cc":"GB","country":"United Kingdom"},"categories":[{"id":"4bf58dd8d48988d124941735","name":"Office","pluralName":"Offices","shortName":"Office","icon":{"prefix":"https:\/\/ss1.4sqi.net\/img\/categories_v2\/building\/default_","suffix":".png"},"primary":"true"}],"verified":"false","restricted":"true","stats":{"checkinsCount":"182","usersCount":"43","tipCount":"0"},"specials":{"count":"0"},"hereNow":{"count":"0"},"referralId":"v-1392478115"},{"id":"4c63136579d1e21e04b3d715","name":"St. Mary's Church Battersea","location":{"address":"Battersea church street","lat":"51.476554877976916","lng":"-0.17518347817251567","distance":"310","postalCode":"Sw11","cc":"GB","city":"London","state":"Greater London","country":"United Kingdom"},"categories":[{"id":"4bf58dd8d48988d132941735","name":"Church","pluralName":"Churches","shortName":"Church","icon":{"prefix":"https:\/\/ss1.4sqi.net\/img\/categories_v2\/building\/religious_church_","suffix":".png"},"primary":"true"}],"verified":"false","restricted":"true","stats":{"checkinsCount":"157","usersCount":"57","tipCount":"4"},"specials":{"count":"0"},"hereNow":{"count":"0"},"referralId":"v-1392478115"},{"id":"4fb26d57e4b0aed64c78df72","name":"flexion mobile","location":{"address":"306 harbour Yard","crossStreet":"Chelsea Harbour","lat":"51.475011481254334","lng":"-0.18202840276970012","distance":"303","postalCode":"sw10 0xd","cc":"GB","city":"London","state":"Greater London","country":"United Kingdom"},"categories":[{"id":"4bf58dd8d48988d125941735","name":"Tech Startup","pluralName":"Tech Startups","shortName":"Tech Startup","icon":{"prefix":"https:\/\/ss1.4sqi.net\/img\/categories_v2\/shops\/technology_","suffix":".png"},"primary":"true"}],"verified":"false","restricted":"true","stats":{"checkinsCount":"20","usersCount":"2","tipCount":"0"},"specials":{"count":"0"},"hereNow":{"count":"0"},"referralId":"v-1392478115"},{"id":"4ef1c9b549010b41f4bfd03b","name":"Roca London Gallery","location":{"address":"Station Court","crossStreet":"at Townmead Rd","lat":"51.474496260347955","lng":"-0.18309639501653446","distance":"367","postalCode":"SW6 2PY","cc":"GB","city":"Fulham","state":"Greater London","country":"United Kingdom"},"categories":[{"id":"4bf58dd8d48988d130941735","name":"Building","pluralName":"Buildings","shortName":"Building","icon":{"prefix":"https:\/\/ss1.4sqi.net\/img\/categories_v2\/building\/default_","suffix":".png"},"primary":"true"}],"verified":"true","restricted":"true","stats":{"checkinsCount":"77","usersCount":"60","tipCount":"1"},"url":"http:\/\/www.rocalondongallery.com","specials":{"count":"0"},"hereNow":{"count":"0"},"venuePage":{"id":"67665276"},"referralId":"v-1392478115"},{"id":"4c1b4ae08b3aa593f6ea965f","name":"TfL Bus C3","location":{"address":"Moving Target!","lat":"51.474195","lng":"-0.183017","distance":"361","cc":"GB","city":"London","state":"Greater London","country":"United Kingdom"},"categories":[{"id":"4bf58dd8d48988d1fe931735","name":"Bus Station","pluralName":"Bus Stations","shortName":"Bus Station","icon":{"prefix":"https:\/\/ss1.4sqi.net\/img\/categories_v2\/travel\/busstation_","suffix":".png"},"primary":"true"}],"verified":"false","restricted":"true","stats":{"checkinsCount":"153","usersCount":"44","tipCount":"3"},"specials":{"count":"0"},"hereNow":{"count":"0"},"referralId":"v-1392478115"},{"id":"4beea1e12c082d7f879e3042","name":"Barrio","location":{"address":"Battersea Square","lat":"51.47493977671434","lng":"-0.17503644342421507","distance":"205","postalCode":"SW11","cc":"GB","city":"London","state":"Greater London","country":"United Kingdom"},"categories":[{"id":"4bf58dd8d48988d116941735","name":"Bar","pluralName":"Bars","shortName":"Bar","icon":{"prefix":"https:\/\/ss1.4sqi.net\/img\/categories_v2\/nightlife\/bar_","suffix":".png"},"primary":"true"}],"verified":"false","restricted":"true","stats":{"checkinsCount":"107","usersCount":"68","tipCount":"4"},"specials":{"count":"0"},"hereNow":{"count":"0"},"referralId":"v-1392478115"}],"confident":"true"}}