{"meta":{"code":"200"},"response":{"venues":[{"id":"4b155f6bf964a520cfab23e3","name":"Camberwell Green","contact":{"phone":"+442075252000","formattedPhone":"+44 20 7525 2000"},"location":{"address":"Camberwell Church St","lat":"51.474423493982954","lng":"-0.09283661842346191","distance":"344","postalCode":"SE5 7BT","cc":"GB","city":"Camberwell","state":"Greater London","country":"United Kingdom"},"categories":[{"id":"4bf58dd8d48988d163941735","name":"Park","pluralName":"Parks","shortName":"Park","icon":{"prefix":"https:\/\/ss1.4sqi.net\/img\/categories_v2\/parks_outdoors\/park_","suffix":".png"},"primary":"true"}],"verified":"false","restricted":"true","stats":{"checkinsCount":"3508","usersCount":"644","tipCount":"12"},"specials":{"count":"0"},"hereNow":{"count":"1","groups":[{"type":"others","name":"Other people here","count":"1"}]},"referralId":"v-1392478123"},{"id":"4e5cfd39cc3f288d990922cf","name":"Camberwell","location":{"address":"Everywhere!","lat":"51.475101773342985","lng":"-0.0926971435546875","distance":"365","postalCode":"SE5","cc":"GB","city":"Camberwell","state":"Greater London","country":"United Kingdom"},"categories":[{"id":"4f2a25ac4b909258e854f55f","name":"Neighborhood","pluralName":"Neighborhoods","shortName":"Neighborhood","icon":{"prefix":"https:\/\/ss1.4sqi.net\/img\/categories_v2\/parks_outdoors\/neighborhood_","suffix":".png"},"primary":"true"}],"verified":"false","restricted":"true","stats":{"checkinsCount":"2847","usersCount":"373","tipCount":"5"},"specials":{"count":"0"},"hereNow":{"count":"0"},"referralId":"v-1392478123"},{"id":"4bd30fd6a8b3a59330f3685f","name":"The Bear","contact":{"phone":"+442072747037","formattedPhone":"+44 20 7274 7037","twitter":"bearfreehouse"},"location":{"address":"296a Camberwell New Rd.","lat":"51.47502826572228","lng":"-0.09596943855285645","distance":"151","postalCode":"SE5 0RP","cc":"GB","city":"Camberwell","state":"Greater London","country":"United Kingdom"},"categories":[{"id":"4bf58dd8d48988d11b941735","name":"Pub","pluralName":"Pubs","shortName":"Pub","icon":{"prefix":"https:\/\/ss1.4sqi.net\/img\/categories_v2\/nightlife\/pub_","suffix":".png"},"primary":"true"}],"verified":"false","restricted":"true","stats":{"checkinsCount":"504","usersCount":"245","tipCount":"9"},"menu":{"type":"Menu","label":"Menu","anchor":"View Menu","url":"https:\/\/foursquare.com\/v\/the-bear\/4bd30fd6a8b3a59330f3685f\/menu","mobileUrl":"https:\/\/foursquare.com\/v\/4bd30fd6a8b3a59330f3685f\/device_menu"},"specials":{"count":"0"},"hereNow":{"count":"0"},"referralId":"v-1392478123"},{"id":"4b9694e6f964a52057d634e3","name":"The Tiger","contact":{"phone":"+442077033020","formattedPhone":"+44 20 7703 3020","twitter":"camberwelltiger"},"location":{"address":"18 Camberwell Gn","crossStreet":"cnr Church St & Denmark Hill","lat":"51.47384210364713","lng":"-0.09278297424316406","distance":"351","postalCode":"SE5 7AA","cc":"GB","city":"Camberwell","state":"Greater London","country":"United Kingdom"},"categories":[{"id":"4bf58dd8d48988d11b941735","name":"Pub","pluralName":"Pubs","shortName":"Pub","icon":{"prefix":"https:\/\/ss1.4sqi.net\/img\/categories_v2\/nightlife\/pub_","suffix":".png"},"primary":"true"}],"verified":"false","restricted":"true","stats":{"checkinsCount":"975","usersCount":"474","tipCount":"20"},"url":"http:\/\/www.thetigerpub.com","menu":{"type":"Menu","label":"Menu","anchor":"View Menu","url":"https:\/\/foursquare.com\/v\/the-tiger\/4b9694e6f964a52057d634e3\/menu","mobileUrl":"https:\/\/foursquare.com\/v\/4b9694e6f964a52057d634e3\/device_menu"},"specials":{"count":"0"},"hereNow":{"count":"0"},"referralId":"v-1392478123"},{"id":"4e01dcb752b1ac66aacb557e","name":"Rayne Institute, KCL","location":{"address":"123 Coldharbour Lane","lat":"51.474325","lng":"-0.098078","distance":"19","postalCode":"SE5 9NU","cc":"GB","city":"London","state":"Greater London","country":"United Kingdom"},"verified":"false","restricted":"true","stats":{"checkinsCount":"2","usersCount":"1","tipCount":"0"},"specials":{"count":"0"},"hereNow":{"count":"0"},"referralId":"v-1392478123"},{"id":"4dca434b1f6e28126772f8f9","name":"Royal Mail Enquiry Office","location":{"address":"44 Camberwell Station Rd","lat":"51.47390684759587","lng":"-0.0971087058751593","distance":"64","postalCode":"SE5 9","cc":"GB","city":"Camberwell","state":"Greater London","country":"United Kingdom"},"categories":[{"id":"4bf58dd8d48988d172941735","name":"Post Office","pluralName":"Post Offices","shortName":"Post Office","icon":{"prefix":"https:\/\/ss1.4sqi.net\/img\/categories_v2\/building\/postoffice_","suffix":".png"},"primary":"true"}],"verified":"false","restricted":"true","stats":{"checkinsCount":"114","usersCount":"30","tipCount":"1"},"specials":{"count":"0"},"hereNow":{"count":"0"},"referralId":"v-1392478123"},{"id":"4edaa83dd3e346be34afaf3f","name":"Studio A8 via Brooke Hall","location":{"address":"17 Flodden Road","lat":"51.47429265775509","lng":"-0.09812486728912466","distance":"22","cc":"GB","country":"United Kingdom"},"categories":[{"id":"4bf58dd8d48988d1f4941735","name":"Design Studio","pluralName":"Design Studios","shortName":"Design","icon":{"prefix":"https:\/\/ss1.4sqi.net\/img\/categories_v2\/shops\/design_","suffix":".png"},"primary":"true"}],"verified":"false","restricted":"true","stats":{"checkinsCount":"7","usersCount":"1","tipCount":"1"},"specials":{"count":"0"},"hereNow":{"count":"0"},"referralId":"v-1392478123"},{"id":"4bf4340e98ac0f47f2b763a8","name":"Myatt's Fields Park","contact":{"phone":"+442079269000","formattedPhone":"+44 20 7926 9000","twitter":"myattsfields"},"location":{"address":"Cormont Rd.","crossStreet":"Knatchbull Rd.","lat":"51.47352467476185","lng":"-0.10376930236816406","distance":"422","postalCode":"SE5 9RA","cc":"GB","city":"Camberwell","state":"Greater London","country":"United Kingdom"},"categories":[{"id":"4bf58dd8d48988d163941735","name":"Park","pluralName":"Parks","shortName":"Park","icon":{"prefix":"https:\/\/ss1.4sqi.net\/img\/categories_v2\/parks_outdoors\/park_","suffix":".png"},"primary":"true"}],"verified":"false","restricted":"true","stats":{"checkinsCount":"580","usersCount":"155","tipCount":"9"},"specials":{"count":"0"},"hereNow":{"count":"0"},"referralId":"v-1392478123"},{"id":"4c0bd246a1b32d7fb9899bf0","name":"Joiner's Arms","contact":{"phone":"+442077011957","formattedPhone":"+44 20 7701 1957","twitter":"joinersarmsse51"},"location":{"address":"35 Denmark Hill","crossStreet":"Joiners Yard","lat":"51.47242226842146","lng":"-0.09306953580424523","distance":"388","postalCode":"SE5 8RS","cc":"GB","city":"Camberwell","state":"Greater London","country":"United Kingdom"},"categories":[{"id":"4bf58dd8d48988d11b941735","name":"Pub","pluralName":"Pubs","shortName":"Pub","icon":{"prefix":"https:\/\/ss1.4sqi.net\/img\/categories_v2\/nightlife\/pub_","suffix":".png"},"primary":"true"}],"verified":"false","restricted":"true","stats":{"checkinsCount":"165","usersCount":"51","tipCount":"1"},"specials":{"count":"0"},"hereNow":{"count":"2","groups":[{"type":"others","name":"Other people here","count":"2"}]},"referralId":"v-1392478123"},{"id":"4dc5b1b1b0fb5556ccf8285c","name":"Jono's Snooker Club","contact":{"phone":"+442077030501","formattedPhone":"+44 20 7703 0501"},"location":{"address":"315-317 Camberwell New Rd.","lat":"51.47474032020539","lng":"-0.09407991792029452","distance":"262","postalCode":"SE5 0TF","cc":"GB","city":"Camberwell","state":"Greater London","country":"United Kingdom"},"categories":[{"id":"4bf58dd8d48988d1e3931735","name":"Pool Hall","pluralName":"Pool Halls","shortName":"Billiards","icon":{"prefix":"https:\/\/ss1.4sqi.net\/img\/categories_v2\/arts_entertainment\/billiards_","suffix":".png"},"primary":"true"}],"verified":"false","restricted":"true","stats":{"checkinsCount":"49","usersCount":"16","tipCount":"1"},"specials":{"count":"0"},"hereNow":{"count":"0"},"referralId":"v-1392478123"},{"id":"4ffc4c21e4b075d51e31f51a","name":"I \u2665 Aytas Boutique","location":{"address":"Camberwell","lat":"51.47407407999968","lng":"-0.09313829747015906","distance":"324","cc":"GB","city":"London","state":"Greater London","country":"United Kingdom"},"categories":[{"id":"4bf58dd8d48988d104951735","name":"Boutique","pluralName":"Boutiques","shortName":"Boutique","icon":{"prefix":"https:\/\/ss1.4sqi.net\/img\/categories_v2\/shops\/apparel_boutique_","suffix":".png"},"primary":"true"}],"verified":"false","restricted":"true","stats":{"checkinsCount":"46","usersCount":"3","tipCount":"0"},"specials":{"count":"0"},"hereNow":{"count":"1","groups":[{"type":"others","name":"Other people here","count":"1"}]},"referralId":"v-1392478123"},{"id":"4bc0a823b492d13a8994a460","name":"Rat Records","contact":{"phone":"+442072743222","formattedPhone":"+44 20 7274 3222"},"location":{"address":"348 Camberwell New Rd.","lat":"51.474463824468835","lng":"-0.09514429509868945","distance":"185","postalCode":"SE5 0RW","cc":"GB","city":"Camberwell","state":"Greater London","country":"United Kingdom"},"categories":[{"id":"4bf58dd8d48988d10d951735","name":"Record Shop","pluralName":"Record Shops","shortName":"Record Shop","icon":{"prefix":"https:\/\/ss1.4sqi.net\/img\/categories_v2\/shops\/record_shop_","suffix":".png"},"primary":"true"}],"verified":"false","restricted":"true","stats":{"checkinsCount":"225","usersCount":"58","tipCount":"4"},"url":"http:\/\/www.ratrecordsuk.net","specials":{"count":"0"},"hereNow":{"count":"0"},"referralId":"v-1392478123"},{"id":"4de1315f922e69741217aee0","name":"Camberwell Delivery Office","contact":{"phone":"+448456112443","formattedPhone":"+44 845 611 2443","twitter":"royalmail"},"location":{"address":"41-43 Station Rd.","lat":"51.47400582926133","lng":"-0.09651660919189453","distance":"94","postalCode":"SE5 9JH","cc":"GB","city":"Camberwell","state":"Greater London","country":"United Kingdom"},"categories":[{"id":"4bf58dd8d48988d172941735","name":"Post Office","pluralName":"Post Offices","shortName":"Post Office","icon":{"prefix":"https:\/\/ss1.4sqi.net\/img\/categories_v2\/building\/postoffice_","suffix":".png"},"primary":"true"}],"verified":"false","restricted":"true","stats":{"checkinsCount":"37","usersCount":"14","tipCount":"0"},"specials":{"count":"0"},"hereNow":{"count":"0"},"referralId":"v-1392478123"},{"id":"52cddb4a498e0e5a14212ea7","name":"Denmark food And Wine","location":{"address":"74 Denmark Hill","lat":"51.47234344482422","lng":"-0.09312230348587036","distance":"390","postalCode":"SE5 8RZ","cc":"GB","city":"London","state":"Greater London","country":"United Kingdom"},"categories":[{"id":"4d954b0ea243a5684a65b473","name":"Convenience Store","pluralName":"Convenience Stores","shortName":"Convenience Stores","icon":{"prefix":"https:\/\/ss1.4sqi.net\/img\/categories_v2\/shops\/conveniencestore_","suffix":".png"},"primary":"true"}],"verified":"false","restricted":"true","stats":{"checkinsCount":"25","usersCount":"2","tipCount":"0"},"specials":{"count":"0"},"hereNow":{"count":"0"},"referralId":"v-1392478123"},{"id":"4d3b0ba6039eb60c0157f19c","name":"The Old Dispensary","contact":{"phone":"+442077017660","formattedPhone":"+44 20 7701 7660","twitter":"olddispensary"},"location":{"address":"325 Camberwell New Rd.","lat":"51.47422241928078","lng":"-0.0936887664866265","distance":"285","postalCode":"SE5 0TF","cc":"GB","city":"Camberwell","state":"Greater London","country":"United Kingdom"},"categories":[{"id":"4bf58dd8d48988d11b941735","name":"Pub","pluralName":"Pubs","shortName":"Pub","icon":{"prefix":"https:\/\/ss1.4sqi.net\/img\/categories_v2\/nightlife\/pub_","suffix":".png"},"primary":"true"}],"verified":"false","restricted":"true","stats":{"checkinsCount":"70","usersCount":"48","tipCount":"1"},"url":"http:\/\/www.olddispensaryirishbar.com","specials":{"count":"0"},"hereNow":{"count":"0"},"referralId":"v-1392478123"},{"id":"4b6ac348f964a5204edf2be3","name":"Mydeo HQ","contact":{"twitter":"mydeo"},"location":{"address":"10-12 Gladstone Road","lat":"51.474649","lng":"-0.097376","distance":"49","postalCode":"Sw191qt","cc":"GB","city":"London","state":"Greater London","country":"United Kingdom"},"verified":"false","restricted":"true","stats":{"checkinsCount":"2","usersCount":"1","tipCount":"0"},"specials":{"count":"0"},"hereNow":{"count":"0"},"referralId":"v-1392478123"},{"id":"4c247b33905a0f477bcd5f60","name":"NatWest","contact":{"phone":"+448457888444","formattedPhone":"+44 845 788 8444","twitter":"natwest_help"},"location":{"address":"70 Denmark Hill","lat":"51.47251973709268","lng":"-0.0931031632399253","distance":"380","postalCode":"SE5 8SD","cc":"GB","city":"Camberwell","state":"Greater London","country":"United Kingdom"},"categories":[{"id":"4bf58dd8d48988d10a951735","name":"Bank","pluralName":"Banks","shortName":"Bank","icon":{"prefix":"https:\/\/ss1.4sqi.net\/img\/categories_v2\/shops\/financial_","suffix":".png"},"primary":"true"}],"verified":"false","restricted":"true","stats":{"checkinsCount":"77","usersCount":"14","tipCount":"0"},"url":"https:\/\/www.natwest.com","specials":{"count":"0"},"hereNow":{"count":"0"},"referralId":"v-1392478123"},{"id":"52d7bdd2498e4e86c10ef90c","name":"CRI Drug and Alcohol Recovery Centre","location":{"lat":"51.47531037805243","lng":"-0.10059176923456281","distance":"224","cc":"GB","country":"United Kingdom"},"categories":[{"id":"4bf58dd8d48988d130941735","name":"Building","pluralName":"Buildings","shortName":"Building","icon":{"prefix":"https:\/\/ss1.4sqi.net\/img\/categories_v2\/building\/default_","suffix":".png"},"primary":"true"}],"verified":"false","restricted":"true","stats":{"checkinsCount":"5","usersCount":"1","tipCount":"0"},"specials":{"count":"0"},"hereNow":{"count":"0"},"referralId":"v-1392478123"},{"id":"4c599a4cd3aee21e1f976855","name":"Butterfly Walk","location":{"address":"Denmark Hill","lat":"51.47326908270287","lng":"-0.09263673810663454","distance":"375","postalCode":"SE5 8RW","cc":"GB","city":"Camberwell","state":"Greater London","country":"United Kingdom"},"categories":[{"id":"4bf58dd8d48988d1fd941735","name":"Mall","pluralName":"Malls","shortName":"Mall","icon":{"prefix":"https:\/\/ss1.4sqi.net\/img\/categories_v2\/shops\/mall_","suffix":".png"},"primary":"true"}],"verified":"false","restricted":"true","stats":{"checkinsCount":"773","usersCount":"109","tipCount":"1"},"specials":{"count":"0"},"hereNow":{"count":"0"},"referralId":"v-1392478123"},{"id":"4b6931b1f964a5206d9b2be3","name":"McDonald's","contact":{"phone":"+442077038514","formattedPhone":"+44 20 7703 8514"},"location":{"address":"16 Butterfly Walk","crossStreet":"Denmark Hill","lat":"51.47326852093104","lng":"-0.09302714935541233","distance":"350","postalCode":"SE5 8RW","cc":"GB","city":"Camberwell","state":"Greater London","country":"United Kingdom"},"categories":[{"id":"4bf58dd8d48988d16e941735","name":"Fast Food Restaurant","pluralName":"Fast Food Restaurants","shortName":"Fast Food","icon":{"prefix":"https:\/\/ss1.4sqi.net\/img\/categories_v2\/food\/fastfood_","suffix":".png"},"primary":"true"}],"verified":"false","restricted":"true","stats":{"checkinsCount":"397","usersCount":"165","tipCount":"9"},"specials":{"count":"0"},"hereNow":{"count":"0"},"referralId":"v-1392478123"},{"id":"5038fbe9e4b027db4fde8e51","name":"Sacred Heart Hall","location":{"lat":"51.47485026998969","lng":"-0.09755925002532385","distance":"64","cc":"GB","country":"United Kingdom"},"categories":[{"id":"4bf58dd8d48988d171941735","name":"Event Space","pluralName":"Event Spaces","shortName":"Event Space","icon":{"prefix":"https:\/\/ss1.4sqi.net\/img\/categories_v2\/building\/eventspace_","suffix":".png"},"primary":"true"}],"verified":"false","restricted":"true","stats":{"checkinsCount":"2","usersCount":"1","tipCount":"0"},"specials":{"count":"0"},"hereNow":{"count":"0"},"referralId":"v-1392478123"},{"id":"4c8cdfc9f87e224b1d763805","name":"Brooke Hall","location":{"lat":"51.47489958831565","lng":"-0.09985768609823958","distance":"157","cc":"GB","country":"United Kingdom"},"categories":[{"id":"4bf58dd8d48988d1a3941735","name":"College Residence Hall","pluralName":"College Residence Halls","shortName":"Residence Hall","icon":{"prefix":"https:\/\/ss1.4sqi.net\/img\/categories_v2\/education\/residencehall_","suffix":".png"},"primary":"true"}],"verified":"false","restricted":"true","stats":{"checkinsCount":"165","usersCount":"22","tipCount":"2"},"specials":{"count":"0"},"hereNow":{"count":"0"},"referralId":"v-1392478123"},{"id":"4b55f9ccf964a520ebf927e3","name":"Nando's","contact":{"twitter":"nandosuk"},"location":{"address":"Denmark Hill","lat":"51.47162673808046","lng":"-0.0933837890625","distance":"426","postalCode":"SE5 8RX","cc":"GB","city":"Camberwell","state":"Greater London","country":"United Kingdom"},"categories":[{"id":"4def73e84765ae376e57713a","name":"Portuguese Restaurant","pluralName":"Portuguese Restaurants","shortName":"Portuguese","icon":{"prefix":"https:\/\/ss1.4sqi.net\/img\/categories_v2\/food\/default_","suffix":".png"},"primary":"true"}],"verified":"true","restricted":"true","stats":{"checkinsCount":"482","usersCount":"276","tipCount":"5"},"url":"http:\/\/www.nandos.co.uk","specials":{"count":"0"},"hereNow":{"count":"0"},"storeId":"N007","referralId":"v-1392478123"},{"id":"4f88a5a2e4b02981898551a2","name":"Sharp Edge barbers & Unisex saloon","contact":{"phone":"+442072525293","formattedPhone":"+44 20 7252 5293"},"location":{"address":"237 Camberwell New Rd.","lat":"51.473577704180634","lng":"-0.09825435655903715","distance":"85","postalCode":"SE5 0TH","cc":"GB","city":"London","state":"Greater London","country":"United Kingdom"},"categories":[{"id":"4bf58dd8d48988d110951735","name":"Salon \/ Barbershop","pluralName":"Salons \/ Barbershops","shortName":"Salon \/ Barbershop","icon":{"prefix":"https:\/\/ss1.4sqi.net\/img\/categories_v2\/shops\/salon_barber_","suffix":".png"},"primary":"true"}],"verified":"false","restricted":"true","stats":{"checkinsCount":"5","usersCount":"4","tipCount":"0"},"specials":{"count":"0"},"hereNow":{"count":"0"},"referralId":"v-1392478123"},{"id":"4ea7d623d3e33e1d4f183fd3","name":"Garage Canteen","location":{"address":"Warner Rd, Camberwell, Greater London","lat":"51.47310883065202","lng":"-0.09938575231829633","distance":"171","cc":"GB","city":"Camberwell","state":"Greater London","country":"United Kingdom"},"categories":[{"id":"4bf58dd8d48988d147941735","name":"Diner","pluralName":"Diners","shortName":"Diner","icon":{"prefix":"https:\/\/ss1.4sqi.net\/img\/categories_v2\/food\/diner_","suffix":".png"},"primary":"true"}],"verified":"false","restricted":"true","stats":{"checkinsCount":"229","usersCount":"11","tipCount":"0"},"specials":{"count":"0"},"hereNow":{"count":"0"},"referralId":"v-1392478123"},{"id":"4fd75310e4b0d514873fd72a","name":"five star caterers","location":{"address":"Camberwell Station Road","lat":"51.47299575805664","lng":"-0.09920799732208252","distance":"173","cc":"GB","city":"Camberwell","state":"Greater London","country":"United Kingdom"},"categories":[{"id":"4bf58dd8d48988d1cb941735","name":"Food Truck","pluralName":"Food Trucks","shortName":"Food Truck","icon":{"prefix":"https:\/\/ss1.4sqi.net\/img\/categories_v2\/food\/streetfood_","suffix":".png"},"primary":"true"}],"verified":"false","restricted":"true","stats":{"checkinsCount":"96","usersCount":"3","tipCount":"0"},"specials":{"count":"0"},"hereNow":{"count":"0"},"referralId":"v-1392478123"},{"id":"5076e369e4b0068fd251b95b","name":"Chitter Chatter","contact":{"phone":"+442077032469","formattedPhone":"+44 20 7703 2469","twitter":"camberwellcct"},"location":{"address":"11 Butterfly Walk","crossStreet":"Denmark Hill","lat":"51.47304344461863","lng":"-0.09252302210900873","distance":"391","postalCode":"SE5 8RW","cc":"GB","country":"United Kingdom"},"categories":[{"id":"4f04afc02fb6e1c99f3db0bc","name":"Mobile Phone Shop","pluralName":"Mobile Phone Shops","shortName":"Mobile Phone","icon":{"prefix":"https:\/\/ss1.4sqi.net\/img\/categories_v2\/shops\/mobilephoneshop_","suffix":".png"},"primary":"true"}],"verified":"false","restricted":"true","stats":{"checkinsCount":"69","usersCount":"3","tipCount":"0"},"specials":{"count":"0"},"hereNow":{"count":"0"},"referralId":"v-1392478123"},{"id":"4becfda791380f471a589f18","name":"Camberwell Green Surgery","contact":{"phone":"+442077033788","formattedPhone":"+44 20 7703 3788"},"location":{"address":"17 Camberwell Green","lat":"51.47440678746752","lng":"-0.09344816207885742","distance":"302","postalCode":"SE5 7AF","cc":"GB","city":"Camberwell","state":"Greater London","country":"United Kingdom"},"categories":[{"id":"4bf58dd8d48988d177941735","name":"Doctor's Office","pluralName":"Doctor's Offices","shortName":"Doctor's Office","icon":{"prefix":"https:\/\/ss1.4sqi.net\/img\/categories_v2\/building\/medical_doctorsoffice_","suffix":".png"},"primary":"true"}],"verified":"false","restricted":"true","stats":{"checkinsCount":"82","usersCount":"25","tipCount":"0"},"specials":{"count":"0"},"hereNow":{"count":"0"},"referralId":"v-1392478123"},{"id":"4d70323fb73bb1f78f15b672","name":"Golden Grill","contact":{"phone":"+442077034498","formattedPhone":"+44 20 7703 4498"},"location":{"address":"20 Camberwell Green","lat":"51.47387217574276","lng":"-0.0926971435546875","distance":"357","postalCode":"SE5 7AA","cc":"GB","city":"Camberwell","state":"Greater London","country":"United Kingdom"},"categories":[{"id":"4bf58dd8d48988d16e941735","name":"Fast Food Restaurant","pluralName":"Fast Food Restaurants","shortName":"Fast Food","icon":{"prefix":"https:\/\/ss1.4sqi.net\/img\/categories_v2\/food\/fastfood_","suffix":".png"},"primary":"true"}],"verified":"false","restricted":"true","stats":{"checkinsCount":"86","usersCount":"46","tipCount":"6"},"specials":{"count":"0"},"hereNow":{"count":"0"},"referralId":"v-1392478123"},{"id":"5002a1fae4b087cfc2a21658","name":"TFC Supermarket","location":{"lat":"51.4749085762586","lng":"-0.09528454136963128","distance":"187","cc":"GB","country":"United Kingdom"},"categories":[{"id":"4d954b0ea243a5684a65b473","name":"Convenience Store","pluralName":"Convenience Stores","shortName":"Convenience Stores","icon":{"prefix":"https:\/\/ss1.4sqi.net\/img\/categories_v2\/shops\/conveniencestore_","suffix":".png"},"primary":"true"}],"verified":"false","restricted":"true","stats":{"checkinsCount":"42","usersCount":"22","tipCount":"2"},"specials":{"count":"0"},"hereNow":{"count":"0"},"referralId":"v-1392478123"}],"confident":"false"}}