{"meta":{"code":"200"},"response":{"venues":[{"id":"4d874db002eb548156a067f5","name":"St John's Gardens","location":{"address":"Horseferry Rd.","lat":"51.49464162607095","lng":"-0.1282892808561416","distance":"51","postalCode":"SW1","cc":"GB","city":"City of Westminster","state":"Greater London","country":"United Kingdom"},"categories":[{"id":"4bf58dd8d48988d163941735","name":"Park","pluralName":"Parks","shortName":"Park","icon":{"prefix":"https:\/\/ss1.4sqi.net\/img\/categories_v2\/parks_outdoors\/park_","suffix":".png"},"primary":"true"}],"verified":"false","restricted":"true","stats":{"checkinsCount":"653","usersCount":"182","tipCount":"1"},"specials":{"count":"0"},"hereNow":{"count":"0"},"referralId":"v-1392478068"},{"id":"4b5d576af964a520575a29e3","name":"Burberry Global Headquarters","contact":{"twitter":"burberry"},"location":{"address":"Horseferry Rd.","lat":"51.49470069154183","lng":"-0.1267021894454956","distance":"88","postalCode":"SW1P 2AW","cc":"GB","city":"London","state":"Greater London","country":"United Kingdom"},"categories":[{"id":"4bf58dd8d48988d124941735","name":"Office","pluralName":"Offices","shortName":"Office","icon":{"prefix":"https:\/\/ss1.4sqi.net\/img\/categories_v2\/building\/default_","suffix":".png"},"primary":"true"}],"verified":"false","restricted":"true","stats":{"checkinsCount":"3954","usersCount":"643","tipCount":"5"},"url":"http:\/\/www.burberry.com","specials":{"count":"0"},"hereNow":{"count":"0"},"referralId":"v-1392478068"},{"id":"4bb495885148d13a67ac523b","name":"Sapori Caf\u00e9 & Restaurant","location":{"address":"60 Horseferry Road","lat":"51.4948374019381","lng":"-0.1274950305719948","distance":"64","postalCode":"SW1P 2AF","cc":"GB","city":"London","state":"Greater London","country":"United Kingdom"},"categories":[{"id":"4bf58dd8d48988d16d941735","name":"Caf\u00e9","pluralName":"Caf\u00e9s","shortName":"Caf\u00e9","icon":{"prefix":"https:\/\/ss1.4sqi.net\/img\/categories_v2\/food\/cafe_","suffix":".png"},"primary":"true"}],"verified":"false","restricted":"true","stats":{"checkinsCount":"547","usersCount":"85","tipCount":"6"},"url":"http:\/\/www.saporicafe.co.uk","menu":{"type":"Menu","label":"Menu","anchor":"View Menu","url":"https:\/\/foursquare.com\/v\/sapori-caf%C3%A9--restaurant\/4bb495885148d13a67ac523b\/menu","mobileUrl":"https:\/\/foursquare.com\/v\/4bb495885148d13a67ac523b\/device_menu"},"specials":{"count":"0"},"hereNow":{"count":"0"},"referralId":"v-1392478068"},{"id":"4eef76bd8231688f20a3c86b","name":"DoubleTree By Hilton Hotel","contact":{"phone":"+442076301000","formattedPhone":"+44 20 7630 1000","twitter":"doubletree"},"location":{"address":"30 John Islip St","lat":"51.493174714758254","lng":"-0.1270515193722422","distance":"134","postalCode":"SW1P 4DD","cc":"GB","city":"London","state":"Greater London","country":"United Kingdom"},"categories":[{"id":"4bf58dd8d48988d1fa931735","name":"Hotel","pluralName":"Hotels","shortName":"Hotel","icon":{"prefix":"https:\/\/ss1.4sqi.net\/img\/categories_v2\/travel\/hotel_","suffix":".png"},"primary":"true"}],"verified":"true","restricted":"true","stats":{"checkinsCount":"2874","usersCount":"1116","tipCount":"24"},"url":"http:\/\/doubletree3.hilton.com\/en\/hotels\/united-kingdom\/doubletree-by-hilton-hotel-london-westminster-LONWMDI\/index.html","menu":{"type":"Menu","label":"Menu","anchor":"View Menu","url":"https:\/\/foursquare.com\/v\/doubletree-by-hilton-hotel\/4eef76bd8231688f20a3c86b\/menu","mobileUrl":"https:\/\/foursquare.com\/v\/4eef76bd8231688f20a3c86b\/device_menu"},"specials":{"count":"0"},"hereNow":{"count":"0"},"storeId":"LONWM","referralId":"v-1392478068"},{"id":"4bb33ef1eb3e952104dbca0a","name":"Pret A Manger","contact":{"phone":"+442079325459","formattedPhone":"+44 20 7932 5459","twitter":"pret","facebook":"162638680417951"},"location":{"address":"Unit12, 19 - 23 Horseferry Rd","lat":"51.4947571927","lng":"-0.129766667712","distance":"145","postalCode":"SW1P 2AA","cc":"GB","city":"Horseferry Road, London","country":"United Kingdom"},"categories":[{"id":"4bf58dd8d48988d1c5941735","name":"Sandwich Place","pluralName":"Sandwich Places","shortName":"Sandwiches","icon":{"prefix":"https:\/\/ss1.4sqi.net\/img\/categories_v2\/food\/sandwiches_","suffix":".png"},"primary":"true"}],"verified":"true","restricted":"true","stats":{"checkinsCount":"816","usersCount":"273","tipCount":"2"},"url":"http:\/\/www.pret.com","specials":{"count":"0"},"hereNow":{"count":"0"},"storeId":"296","referralId":"v-1392478068"},{"id":"4c7264dcad69b60c7e4483b9","name":"Gianni's","contact":{"phone":"+442077995225","formattedPhone":"+44 20 7799 5225"},"location":{"address":"48 Horseferry Road","lat":"51.49485825147382","lng":"-0.1270882468770581","distance":"80","postalCode":"SW1P 2AF","cc":"GB","city":"London","state":"Greater London","country":"United Kingdom"},"categories":[{"id":"4bf58dd8d48988d16d941735","name":"Caf\u00e9","pluralName":"Caf\u00e9s","shortName":"Caf\u00e9","icon":{"prefix":"https:\/\/ss1.4sqi.net\/img\/categories_v2\/food\/cafe_","suffix":".png"},"primary":"true"}],"verified":"false","restricted":"true","stats":{"checkinsCount":"169","usersCount":"57","tipCount":"5"},"specials":{"count":"0"},"hereNow":{"count":"0"},"referralId":"v-1392478068"},{"id":"4c402a11da3dc9281beac6b9","name":"Caff\u00e8 Nero","contact":{"phone":"+442072224154","formattedPhone":"+44 20 7222 4154"},"location":{"address":"53 Marsham St.","lat":"51.495512259853754","lng":"-0.12907862663269043","distance":"162","postalCode":"SW1P 3DP","cc":"GB","city":"London","state":"Greater London","country":"United Kingdom"},"categories":[{"id":"4bf58dd8d48988d1e0931735","name":"Coffee Shop","pluralName":"Coffee Shops","shortName":"Coffee Shop","icon":{"prefix":"https:\/\/ss1.4sqi.net\/img\/categories_v2\/food\/coffeeshop_","suffix":".png"},"primary":"true"}],"verified":"false","restricted":"true","stats":{"checkinsCount":"537","usersCount":"223","tipCount":"3"},"url":"http:\/\/www.caffenero.com","specials":{"count":"0"},"hereNow":{"count":"1","groups":[{"type":"others","name":"Other people here","count":"1"}]},"referralId":"v-1392478068"},{"id":"4bc331f8abf49521ef5fc393","name":"Department for Transport","contact":{"twitter":"transportgovuk"},"location":{"address":"33 Horseferry Road","lat":"51.494728","lng":"-0.130114","distance":"167","postalCode":"SW1P 4DR","cc":"GB","city":"City of Westminster","state":"Greater London","country":"United Kingdom"},"categories":[{"id":"4bf58dd8d48988d126941735","name":"Government Building","pluralName":"Government Buildings","shortName":"Government","icon":{"prefix":"https:\/\/ss1.4sqi.net\/img\/categories_v2\/building\/government_","suffix":".png"},"primary":"true"}],"verified":"false","restricted":"true","stats":{"checkinsCount":"664","usersCount":"95","tipCount":"3"},"specials":{"count":"0"},"hereNow":{"count":"0"},"referralId":"v-1392478068"},{"id":"50995097e4b09681c9fdb1bc","name":"Horseferry Road","location":{"lat":"51.494814036793436","lng":"-0.12952936603204257","distance":"133","cc":"GB","country":"United Kingdom"},"categories":[{"id":"4bf58dd8d48988d1fe931735","name":"Bus Station","pluralName":"Bus Stations","shortName":"Bus Station","icon":{"prefix":"https:\/\/ss1.4sqi.net\/img\/categories_v2\/travel\/busstation_","suffix":".png"},"primary":"true"}],"verified":"false","restricted":"true","stats":{"checkinsCount":"27","usersCount":"13","tipCount":"0"},"specials":{"count":"0"},"hereNow":{"count":"0"},"referralId":"v-1392478068"},{"id":"4bc5fc1fd35d9c743df2e13a","name":"vInspired","contact":{"phone":"+442079607000","formattedPhone":"+44 20 7960 7000","twitter":"vinspired"},"location":{"address":"5th Floor, Dean Bradley House","crossStreet":"52 Horseferry Rd.","lat":"51.494858170823534","lng":"-0.12723637388621997","distance":"74","postalCode":"SW1P 2AF","cc":"GB","city":"London","state":"Greater London","country":"United Kingdom"},"categories":[{"id":"4bf58dd8d48988d124941735","name":"Office","pluralName":"Offices","shortName":"Office","icon":{"prefix":"https:\/\/ss1.4sqi.net\/img\/categories_v2\/building\/default_","suffix":".png"},"primary":"true"}],"verified":"true","restricted":"true","stats":{"checkinsCount":"396","usersCount":"32","tipCount":"3"},"url":"http:\/\/vinspired.com","specials":{"count":"0"},"hereNow":{"count":"0"},"storeId":"","referralId":"v-1392478068"},{"id":"4c0cef5298102d7f0b59e106","name":"Firecracker","contact":{"twitter":"firecracker_mod"},"location":{"address":"44 Horseferry Rd","crossStreet":"Marsham St","lat":"51.494886","lng":"-0.127003","distance":"86","postalCode":"SW1P 2AF","cc":"GB","city":"London","state":"Greater London","country":"United Kingdom"},"categories":[{"id":"4bf58dd8d48988d145941735","name":"Chinese Restaurant","pluralName":"Chinese Restaurants","shortName":"Chinese","icon":{"prefix":"https:\/\/ss1.4sqi.net\/img\/categories_v2\/food\/chinese_","suffix":".png"},"primary":"true"}],"verified":"false","restricted":"true","stats":{"checkinsCount":"531","usersCount":"284","tipCount":"21"},"url":"http:\/\/www.firecracker.uk.com","reservations":{"url":"http:\/\/www.toptable.co.uk\/single.aspx?rid=91641&ref=9601"},"menu":{"type":"Menu","label":"Menu","anchor":"View Menu","url":"https:\/\/foursquare.com\/v\/firecracker\/4c0cef5298102d7f0b59e106\/menu","mobileUrl":"https:\/\/foursquare.com\/v\/4c0cef5298102d7f0b59e106\/device_menu"},"specials":{"count":"0"},"hereNow":{"count":"0"},"referralId":"v-1392478068"},{"id":"4c517eda250dd13aba94517d","name":"Ravello Coffee Co","location":{"address":"Dean Bradley St.","lat":"51.49506874920541","lng":"-0.1268538756893463","distance":"108","postalCode":"SW1","cc":"GB","city":"London","state":"Greater London","country":"United Kingdom"},"categories":[{"id":"4bf58dd8d48988d1e0931735","name":"Coffee Shop","pluralName":"Coffee Shops","shortName":"Coffee Shop","icon":{"prefix":"https:\/\/ss1.4sqi.net\/img\/categories_v2\/food\/coffeeshop_","suffix":".png"},"primary":"true"}],"verified":"false","restricted":"true","stats":{"checkinsCount":"499","usersCount":"103","tipCount":"9"},"specials":{"count":"0"},"hereNow":{"count":"0"},"referralId":"v-1392478068"},{"id":"4c2dead7987f20a1482b4aaa","name":"BBC Millbank","location":{"address":"4 Millbank","crossStreet":"Millbank","lat":"51.49458379779617","lng":"-0.1254415512084961","distance":"166","postalCode":"SW1P 3","cc":"GB","city":"London","state":"Greater London","country":"United Kingdom"},"categories":[{"id":"4bf58dd8d48988d124941735","name":"Office","pluralName":"Offices","shortName":"Office","icon":{"prefix":"https:\/\/ss1.4sqi.net\/img\/categories_v2\/building\/default_","suffix":".png"},"primary":"true"}],"verified":"false","restricted":"true","stats":{"checkinsCount":"658","usersCount":"120","tipCount":"0"},"specials":{"count":"0"},"hereNow":{"count":"0"},"referralId":"v-1392478068"},{"id":"4d88657f26a36ea8f6d7caad","name":"Department For Environment Food And Rural Affairs","location":{"address":"Smith square","lat":"51.49541251065284","lng":"-0.12706732486612513","distance":"135","cc":"GB","city":"London","state":"Greater London","country":"United Kingdom"},"verified":"false","restricted":"true","stats":{"checkinsCount":"6","usersCount":"3","tipCount":"0"},"specials":{"count":"0"},"hereNow":{"count":"1","groups":[{"type":"others","name":"Other people here","count":"1"}]},"referralId":"v-1392478068"},{"id":"4ad71ff0f964a520bd0821e3","name":"The Marquis of Granby (Nicholson's)","location":{"address":"41 Romney St","crossStreet":"Dean Bradley St","lat":"51.495205001122585","lng":"-0.12708306312561035","distance":"113","postalCode":"SW1P 3RF","cc":"GB","city":"City of Westminster","state":"Greater London","country":"United Kingdom"},"categories":[{"id":"4bf58dd8d48988d11b941735","name":"Pub","pluralName":"Pubs","shortName":"Pub","icon":{"prefix":"https:\/\/ss1.4sqi.net\/img\/categories_v2\/nightlife\/pub_","suffix":".png"},"primary":"true"}],"verified":"false","restricted":"true","stats":{"checkinsCount":"792","usersCount":"390","tipCount":"6"},"url":"http:\/\/www.nicholsonspubs.co.uk\/themarquisofgranbywestminsterlondon\/","specials":{"count":"0"},"hereNow":{"count":"0"},"referralId":"v-1392478068"},{"id":"5208e35a498e7bbf58c1f31e","name":"Early Intervention Foundation","contact":{"phone":"+442035422481","formattedPhone":"+44 20 3542 2481","twitter":"theeifoundation"},"location":{"address":"Local Government House","crossStreet":"Smith Square","lat":"51.49537161194018","lng":"-0.12692367201691282","distance":"135","postalCode":"SW1P 3HZ","cc":"GB","city":"London","state":"Greater London","country":"United Kingdom"},"categories":[{"id":"50328a8e91d4c4b30a586d6c","name":"Non-Profit","pluralName":"Non-Profits","shortName":"Non-Profit","icon":{"prefix":"https:\/\/ss1.4sqi.net\/img\/categories_v2\/building\/default_","suffix":".png"},"primary":"true"}],"verified":"false","restricted":"true","stats":{"checkinsCount":"82","usersCount":"3","tipCount":"0"},"specials":{"count":"0"},"hereNow":{"count":"0"},"referralId":"v-1392478068"},{"id":"4b8bb8aff964a52053a832e3","name":"Local Government Association","contact":{"phone":"0207743000","formattedPhone":"0207743000","twitter":"lgacomms"},"location":{"address":"Smith Square","lat":"51.495451","lng":"-0.126846","distance":"145","postalCode":"SW1P 3HZ","cc":"GB","city":"London","state":"Greater London","country":"United Kingdom"},"categories":[{"id":"4bf58dd8d48988d126941735","name":"Government Building","pluralName":"Government Buildings","shortName":"Government","icon":{"prefix":"https:\/\/ss1.4sqi.net\/img\/categories_v2\/building\/government_","suffix":".png"},"primary":"true"}],"verified":"true","restricted":"true","stats":{"checkinsCount":"405","usersCount":"122","tipCount":"2"},"url":"http:\/\/www.local.gov.uk","specials":{"count":"0"},"hereNow":{"count":"0"},"venuePage":{"id":"58575794"},"storeId":"","referralId":"v-1392478068"},{"id":"4ad70c53f964a520860821e3","name":"Westminster Green","location":{"address":"8 Dean Ryle Street","lat":"51.494345","lng":"-0.127819","distance":"6","postalCode":"SW1P 4DA","cc":"GB","city":"London","state":"Greater London","country":"United Kingdom"},"categories":[{"id":"4bf58dd8d48988d163941735","name":"Park","pluralName":"Parks","shortName":"Park","icon":{"prefix":"https:\/\/ss1.4sqi.net\/img\/categories_v2\/parks_outdoors\/park_","suffix":".png"},"primary":"true"}],"verified":"false","restricted":"true","stats":{"checkinsCount":"214","usersCount":"55","tipCount":"0"},"specials":{"count":"0"},"hereNow":{"count":"0"},"referralId":"v-1392478068"},{"id":"51fbb62c498e9cd769653a9c","name":"2020 Delivery","location":{"address":"7th Floor, Dean Bradley House, 52 Horseferry Road","lat":"51.494953","lng":"-0.127158","distance":"86","postalCode":"SW1P 2AF","cc":"GB","city":"London","state":"Greater London","country":"United Kingdom"},"categories":[{"id":"4bf58dd8d48988d124941735","name":"Office","pluralName":"Offices","shortName":"Office","icon":{"prefix":"https:\/\/ss1.4sqi.net\/img\/categories_v2\/building\/default_","suffix":".png"},"primary":"true"}],"verified":"false","restricted":"true","stats":{"checkinsCount":"9","usersCount":"1","tipCount":"0"},"specials":{"count":"0"},"hereNow":{"count":"0"},"referralId":"v-1392478068"},{"id":"4d170c21f4ee6a3165b64812","name":"millbank medical centre","contact":{"phone":"+442078345502","formattedPhone":"+44 20 7834 5502"},"location":{"address":"20 Page street","crossStreet":"John Islip Street","lat":"51.49407614148009","lng":"-0.1272439956665039","distance":"45","postalCode":"SW1P 4EN","cc":"GB","city":"City of Westminster","state":"Greater London","country":"United Kingdom"},"categories":[{"id":"4bf58dd8d48988d104941735","name":"Medical Center","pluralName":"Medical Centers","shortName":"Medical","icon":{"prefix":"https:\/\/ss1.4sqi.net\/img\/categories_v2\/building\/medical_","suffix":".png"},"primary":"true"}],"verified":"false","restricted":"true","stats":{"checkinsCount":"27","usersCount":"12","tipCount":"2"},"specials":{"count":"0"},"hereNow":{"count":"0"},"referralId":"v-1392478068"},{"id":"4dd2bd5dae60da0ebece0e53","name":"Burberry Showroom","location":{"address":"Horseferry House","lat":"51.4944072360252","lng":"-0.12657402681824745","distance":"86","cc":"GB","city":"London","state":"Greater London","country":"United Kingdom"},"categories":[{"id":"4bf58dd8d48988d171941735","name":"Event Space","pluralName":"Event Spaces","shortName":"Event Space","icon":{"prefix":"https:\/\/ss1.4sqi.net\/img\/categories_v2\/building\/eventspace_","suffix":".png"},"primary":"true"}],"verified":"false","restricted":"true","stats":{"checkinsCount":"167","usersCount":"55","tipCount":"0"},"specials":{"count":"0"},"hereNow":{"count":"0"},"referralId":"v-1392478068"},{"id":"4e086bfdae60a90eabce9fa5","name":"Natwest, Horseferry Rd","location":{"address":"Horseferry Rd","crossStreet":"Marsham St","lat":"51.49419733892523","lng":"-0.12772314226922213","distance":"11","cc":"GB","city":"London","state":"Greater London","country":"United Kingdom"},"categories":[{"id":"4bf58dd8d48988d10a951735","name":"Bank","pluralName":"Banks","shortName":"Bank","icon":{"prefix":"https:\/\/ss1.4sqi.net\/img\/categories_v2\/shops\/financial_","suffix":".png"},"primary":"true"}],"verified":"false","restricted":"true","stats":{"checkinsCount":"43","usersCount":"12","tipCount":"1"},"specials":{"count":"0"},"hereNow":{"count":"0"},"referralId":"v-1392478068"},{"id":"526fa89a11d2aa42230dff04","name":"Kindred","contact":{"phone":"+442070100800","formattedPhone":"+44 20 7010 0800","twitter":"kindredagency"},"location":{"lat":"51.49483","lng":"-0.127018","distance":"81","cc":"GB","country":"United Kingdom"},"categories":[{"id":"4bf58dd8d48988d124941735","name":"Office","pluralName":"Offices","shortName":"Office","icon":{"prefix":"https:\/\/ss1.4sqi.net\/img\/categories_v2\/building\/default_","suffix":".png"},"primary":"true"}],"verified":"false","restricted":"true","stats":{"checkinsCount":"14","usersCount":"2","tipCount":"0"},"url":"http:\/\/www.kindredagency.com","specials":{"count":"0"},"hereNow":{"count":"0"},"referralId":"v-1392478068"},{"id":"52cd4f23498eb673a137414b","name":"RPD International HQ","contact":{"twitter":"rpdintl"},"location":{"address":"The Millbank tower","lat":"51.49307424947958","lng":"-0.12542132143875873","distance":"213","cc":"GB","country":"United Kingdom"},"categories":[{"id":"4bf58dd8d48988d124941735","name":"Office","pluralName":"Offices","shortName":"Office","icon":{"prefix":"https:\/\/ss1.4sqi.net\/img\/categories_v2\/building\/default_","suffix":".png"},"primary":"true"}],"verified":"false","restricted":"true","stats":{"checkinsCount":"14","usersCount":"2","tipCount":"0"},"specials":{"count":"0"},"hereNow":{"count":"0"},"referralId":"v-1392478068"},{"id":"4dad765b5da31bb15234d13b","name":"Smith Square","location":{"lat":"51.49575093104524","lng":"-0.12702860213724237","distance":"171","cc":"GB","country":"United Kingdom"},"categories":[{"id":"4bf58dd8d48988d164941735","name":"Plaza","pluralName":"Plazas","shortName":"Plaza","icon":{"prefix":"https:\/\/ss1.4sqi.net\/img\/categories_v2\/parks_outdoors\/plaza_","suffix":".png"},"primary":"true"}],"verified":"false","restricted":"true","stats":{"checkinsCount":"407","usersCount":"111","tipCount":"0"},"specials":{"count":"0"},"hereNow":{"count":"0"},"referralId":"v-1392478068"},{"id":"4d2b4c103c7954818f86e79b","name":"Europe House","contact":{"phone":"+442072274300","formattedPhone":"+44 20 7227 4300","twitter":"europeinuk"},"location":{"address":"32 Smith Square","lat":"51.495754","lng":"-0.12731","distance":"166","postalCode":"SW1P 3EU","cc":"GB","city":"London","state":"Greater London","country":"United Kingdom"},"categories":[{"id":"4bf58dd8d48988d126941735","name":"Government Building","pluralName":"Government Buildings","shortName":"Government","icon":{"prefix":"https:\/\/ss1.4sqi.net\/img\/categories_v2\/building\/government_","suffix":".png"},"primary":"true"}],"verified":"true","restricted":"true","stats":{"checkinsCount":"368","usersCount":"162","tipCount":"4"},"url":"http:\/\/www.europe.org.uk\/europe-house\/","specials":{"count":"0"},"hereNow":{"count":"0"},"venuePage":{"id":"71455710"},"storeId":"","referralId":"v-1392478068"},{"id":"5249d78a11d2e2108ba45f1b","name":"Executive Lounge - Hilton Tower Bridge","location":{"lat":"51.49337012307408","lng":"-0.1270580283402721","distance":"114","cc":"GB","country":"United Kingdom"},"categories":[{"id":"4bf58dd8d48988d1fa931735","name":"Hotel","pluralName":"Hotels","shortName":"Hotel","icon":{"prefix":"https:\/\/ss1.4sqi.net\/img\/categories_v2\/travel\/hotel_","suffix":".png"},"primary":"true"}],"verified":"false","restricted":"true","stats":{"checkinsCount":"18","usersCount":"11","tipCount":"0"},"specials":{"count":"0"},"hereNow":{"count":"0"},"referralId":"v-1392478068"},{"id":"4dd2ab00fa767fb7079834f3","name":"Burberry Caf\u00e9taria","location":{"address":"Horseferry House","lat":"51.494393","lng":"-0.126554","distance":"87","cc":"GB","city":"London","state":"Greater London","country":"United Kingdom"},"categories":[{"id":"4bf58dd8d48988d128941735","name":"Cafeteria","pluralName":"Cafeterias","shortName":"Cafeteria","icon":{"prefix":"https:\/\/ss1.4sqi.net\/img\/categories_v2\/food\/cafeteria_","suffix":".png"},"primary":"true"}],"verified":"false","restricted":"true","stats":{"checkinsCount":"197","usersCount":"51","tipCount":"0"},"specials":{"count":"0"},"hereNow":{"count":"0"},"referralId":"v-1392478068"},{"id":"4c29c138e19720a184edf958","name":"Headonizm","location":{"address":"Page St","lat":"51.493548531943375","lng":"-0.1283855176523265","distance":"91","postalCode":"SW1P 4","cc":"GB","city":"London","state":"Greater London","country":"United Kingdom"},"categories":[{"id":"4bf58dd8d48988d110951735","name":"Salon \/ Barbershop","pluralName":"Salons \/ Barbershops","shortName":"Salon \/ Barbershop","icon":{"prefix":"https:\/\/ss1.4sqi.net\/img\/categories_v2\/shops\/salon_barber_","suffix":".png"},"primary":"true"}],"verified":"false","restricted":"true","stats":{"checkinsCount":"50","usersCount":"10","tipCount":"1"},"specials":{"count":"0"},"hereNow":{"count":"0"},"referralId":"v-1392478068"},{"id":"4baa05f1f964a52090443ae3","name":"Westminster House Dental Practice","contact":{"phone":"+442079765251","formattedPhone":"+44 20 7976 5251"},"location":{"address":"11-13 Horseferry Rd.","lat":"51.49485693","lng":"-0.127278","distance":"72","postalCode":"SW1P 2AH","cc":"GB","city":"London","state":"Greater London","country":"United Kingdom"},"categories":[{"id":"4bf58dd8d48988d104941735","name":"Medical Center","pluralName":"Medical Centers","shortName":"Medical","icon":{"prefix":"https:\/\/ss1.4sqi.net\/img\/categories_v2\/building\/medical_","suffix":".png"},"primary":"true"}],"verified":"false","restricted":"true","stats":{"checkinsCount":"44","usersCount":"18","tipCount":"1"},"specials":{"count":"0"},"hereNow":{"count":"0"},"referralId":"v-1392478068"}],"confident":"true"}}