{"meta":{"code":"200"},"response":{"venues":[{"id":"4ae2b056f964a5204f8f21e3","name":"Regency Cafe","contact":{"phone":"+442078216596","formattedPhone":"+44 20 7821 6596"},"location":{"address":"17-19 Regency St.","crossStreet":"near Horseferry Rd.","lat":"51.4939492265177","lng":"-0.1322704553604126","distance":"52","postalCode":"SW1P 4BY","cc":"GB","city":"City of Westminster","state":"Greater London","country":"United Kingdom"},"categories":[{"id":"4bf58dd8d48988d16d941735","name":"Caf\u00e9","pluralName":"Caf\u00e9s","shortName":"Caf\u00e9","icon":{"prefix":"https:\/\/ss1.4sqi.net\/img\/categories_v2\/food\/cafe_","suffix":".png"},"primary":"true"}],"verified":"false","restricted":"true","stats":{"checkinsCount":"1276","usersCount":"568","tipCount":"44"},"specials":{"count":"0"},"hereNow":{"count":"0"},"referralId":"v-1392478067"},{"id":"4b2abdd8f964a520adae24e3","name":"The Royal Oak","contact":{"phone":"+442078347046","formattedPhone":"+44 20 7834 7046"},"location":{"address":"2 Regency Street","crossStreet":"at Rutherford Street","lat":"51.494283","lng":"-0.132411","distance":"27","postalCode":"SW1P 4BZ","cc":"GB","city":"City of Westminster","state":"Greater London","country":"United Kingdom"},"categories":[{"id":"4bf58dd8d48988d11b941735","name":"Pub","pluralName":"Pubs","shortName":"Pub","icon":{"prefix":"https:\/\/ss1.4sqi.net\/img\/categories_v2\/nightlife\/pub_","suffix":".png"},"primary":"true"}],"verified":"false","restricted":"true","stats":{"checkinsCount":"233","usersCount":"133","tipCount":"1"},"specials":{"count":"0"},"hereNow":{"count":"0"},"referralId":"v-1392478067"},{"id":"4bd581fd6798ef3bcc64638d","name":"Vincent Square Playing Fields","location":{"lat":"51.49313177761747","lng":"-0.13429803932188075","distance":"165","cc":"GB","country":"United Kingdom"},"categories":[{"id":"4bf58dd8d48988d164941735","name":"Plaza","pluralName":"Plazas","shortName":"Plaza","icon":{"prefix":"https:\/\/ss1.4sqi.net\/img\/categories_v2\/parks_outdoors\/plaza_","suffix":".png"},"primary":"true"}],"verified":"false","restricted":"true","stats":{"checkinsCount":"531","usersCount":"138","tipCount":"2"},"specials":{"count":"0"},"hereNow":{"count":"0"},"referralId":"v-1392478067"},{"id":"4acf008af964a5203fd220e3","name":"Channel 4 HQ","contact":{"phone":"+442073964444","formattedPhone":"+44 20 7396 4444"},"location":{"address":"124-126 Horseferry Rd.","crossStreet":"Chadwick St.","lat":"51.495839554919655","lng":"-0.13312339782714844","distance":"174","postalCode":"SW1P 2TX","cc":"GB","city":"City of Westminster","state":"Greater London","country":"United Kingdom"},"categories":[{"id":"4bf58dd8d48988d124941735","name":"Office","pluralName":"Offices","shortName":"Office","icon":{"prefix":"https:\/\/ss1.4sqi.net\/img\/categories_v2\/building\/default_","suffix":".png"},"primary":"true"}],"verified":"false","restricted":"true","stats":{"checkinsCount":"3355","usersCount":"958","tipCount":"13"},"specials":{"count":"0"},"hereNow":{"count":"0"},"referralId":"v-1392478067"},{"id":"4f8c93cfe4b000fda233c237","name":"Regency Court","location":{"lat":"51.49403663323146","lng":"-0.13231779701774293","distance":"43","cc":"GB","country":"United Kingdom"},"categories":[{"id":"4d954b06a243a5684965b473","name":"Residential Building (Apartment \/ Condo)","pluralName":"Residential Buildings (Apartments \/ Condos)","shortName":"Residential","icon":{"prefix":"https:\/\/ss1.4sqi.net\/img\/categories_v2\/building\/apartment_","suffix":".png"},"primary":"true"}],"verified":"false","restricted":"true","stats":{"checkinsCount":"264","usersCount":"10","tipCount":"0"},"specials":{"count":"0"},"hereNow":{"count":"0"},"referralId":"v-1392478067"},{"id":"4b7da609f964a5202acc2fe3","name":"The Loose Box","contact":{"phone":"+442079320123","formattedPhone":"+44 20 7932 0123"},"location":{"address":"51 Horseferry Rd.","crossStreet":"near Monck St.","lat":"51.49491818571429","lng":"-0.131079","distance":"138","postalCode":"SW1P 2AA","cc":"GB","city":"London","state":"Greater London","country":"United Kingdom"},"categories":[{"id":"4bf58dd8d48988d116941735","name":"Bar","pluralName":"Bars","shortName":"Bar","icon":{"prefix":"https:\/\/ss1.4sqi.net\/img\/categories_v2\/nightlife\/bar_","suffix":".png"},"primary":"true"}],"verified":"false","restricted":"true","stats":{"checkinsCount":"614","usersCount":"348","tipCount":"12"},"url":"http:\/\/www.theloosebox.co.uk","menu":{"type":"Menu","label":"Menu","anchor":"View Menu","url":"https:\/\/foursquare.com\/v\/the-loose-box\/4b7da609f964a5202acc2fe3\/menu","mobileUrl":"https:\/\/foursquare.com\/v\/4b7da609f964a5202acc2fe3\/device_menu"},"specials":{"count":"0"},"hereNow":{"count":"0"},"referralId":"v-1392478067"},{"id":"4b0e8c76f964a520615823e3","name":"The Barley Mow","contact":{"phone":"+448719511000","formattedPhone":"+44 871 951 1000"},"location":{"address":"104 Horseferry Rd","crossStreet":"Arneway St","lat":"51.49497873046104","lng":"-0.13177692890167236","distance":"104","postalCode":"SW1P 2EE","cc":"GB","city":"City of Westminster","state":"Greater London","country":"United Kingdom"},"categories":[{"id":"4bf58dd8d48988d11b941735","name":"Pub","pluralName":"Pubs","shortName":"Pub","icon":{"prefix":"https:\/\/ss1.4sqi.net\/img\/categories_v2\/nightlife\/pub_","suffix":".png"},"primary":"true"}],"verified":"false","restricted":"true","stats":{"checkinsCount":"634","usersCount":"366","tipCount":"3"},"specials":{"count":"0"},"hereNow":{"count":"0"},"referralId":"v-1392478067"},{"id":"4bf533da706e20a14924aa98","name":"The Lindley Hall (Royal Horticultural Halls)","contact":{"phone":"+448453704606","formattedPhone":"+44 845 370 4606"},"location":{"address":"80 Vincent Square","lat":"51.494423485886074","lng":"-0.13471126556396484","distance":"133","postalCode":"SW1P 2PE","cc":"GB","city":"London","state":"Greater London","country":"United Kingdom"},"categories":[{"id":"4bf58dd8d48988d1a9941735","name":"College Rec Center","pluralName":"College Rec Centers","shortName":"Rec Center","icon":{"prefix":"https:\/\/ss1.4sqi.net\/img\/categories_v2\/education\/reccenter_","suffix":".png"},"primary":"true"}],"verified":"false","restricted":"true","stats":{"checkinsCount":"282","usersCount":"232","tipCount":"4"},"specials":{"count":"0"},"hereNow":{"count":"0"},"referralId":"v-1392478067"},{"id":"4b068caff964a52005ed22e3","name":"Starbucks","contact":{"twitter":"starbucksuk"},"location":{"address":"Unit 15 Great Minster Court, 35 Horseferry Road","crossStreet":"Unit 15, Great Minster Ct.","lat":"51.49493113833391","lng":"-0.13033390045166016","distance":"185","postalCode":"SW1P 2AA","cc":"GB","city":"London","state":"Greater London","country":"United Kingdom"},"categories":[{"id":"4bf58dd8d48988d1e0931735","name":"Coffee Shop","pluralName":"Coffee Shops","shortName":"Coffee Shop","icon":{"prefix":"https:\/\/ss1.4sqi.net\/img\/categories_v2\/food\/coffeeshop_","suffix":".png"},"primary":"true"}],"verified":"true","restricted":"true","stats":{"checkinsCount":"933","usersCount":"420","tipCount":"7"},"url":"http:\/\/starbucks.co.uk","specials":{"count":"0"},"hereNow":{"count":"0"},"storeId":"12352","referralId":"v-1392478067"},{"id":"4bd93ede0115c9b61cd07680","name":"Channel 4 Canteen","location":{"address":"124-126 Horseferry Road","crossStreet":"Westminster","lat":"51.49598073498344","lng":"-0.13303887833458425","distance":"189","postalCode":"SW1P 2TX","cc":"GB","city":"Greater London","state":"Greater London","country":"United Kingdom"},"categories":[{"id":"4bf58dd8d48988d1c4941735","name":"Restaurant","pluralName":"Restaurants","shortName":"Restaurant","icon":{"prefix":"https:\/\/ss1.4sqi.net\/img\/categories_v2\/food\/default_","suffix":".png"},"primary":"true"}],"verified":"false","restricted":"true","stats":{"checkinsCount":"117","usersCount":"19","tipCount":"0"},"specials":{"count":"0"},"hereNow":{"count":"0"},"referralId":"v-1392478067"},{"id":"4af190fdf964a52065e121e3","name":"1, Vincent Square","location":{"address":"1 Vincent Square","lat":"51.49377437263955","lng":"-0.1327404107278306","distance":"57","postalCode":"SW1P 2PN","cc":"GB","city":"London","state":"Greater London","country":"United Kingdom"},"categories":[{"id":"4bf58dd8d48988d124941735","name":"Office","pluralName":"Offices","shortName":"Office","icon":{"prefix":"https:\/\/ss1.4sqi.net\/img\/categories_v2\/building\/default_","suffix":".png"},"primary":"true"}],"verified":"false","restricted":"true","stats":{"checkinsCount":"74","usersCount":"24","tipCount":"0"},"specials":{"count":"0"},"hereNow":{"count":"0"},"referralId":"v-1392478067"},{"id":"4ff581c5e4b038644a95cba9","name":"Ravello","contact":{"phone":"+442072224125","formattedPhone":"+44 20 7222 4125"},"location":{"address":"42 Horseferry Road","crossStreet":"Monck Street","lat":"51.494885103958914","lng":"-0.13079175198865808","distance":"154","postalCode":"SW1P 2AF","cc":"GB","city":"London","state":"Greater London","country":"United Kingdom"},"categories":[{"id":"4bf58dd8d48988d1bd941735","name":"Salad Place","pluralName":"Salad Shop","shortName":"Salad","icon":{"prefix":"https:\/\/ss1.4sqi.net\/img\/categories_v2\/food\/salad_","suffix":".png"},"primary":"true"}],"verified":"false","restricted":"true","stats":{"checkinsCount":"296","usersCount":"75","tipCount":"4"},"url":"http:\/\/www.myravello.co.uk","specials":{"count":"0"},"hereNow":{"count":"0"},"referralId":"v-1392478067"},{"id":"4d4ac8abb480a143bcfb32ec","name":"The Ape Enclosure","location":{"lat":"51.494219","lng":"-0.132551","distance":"19","cc":"GB","country":"United Kingdom"},"categories":[{"id":"4bf58dd8d48988d1e7941735","name":"Playground","pluralName":"Playgrounds","shortName":"Playground","icon":{"prefix":"https:\/\/ss1.4sqi.net\/img\/categories_v2\/parks_outdoors\/playground_","suffix":".png"},"primary":"true"}],"verified":"false","restricted":"true","stats":{"checkinsCount":"1","usersCount":"1","tipCount":"0"},"specials":{"count":"0"},"hereNow":{"count":"0"},"referralId":"v-1392478067"},{"id":"4d8bae9ccdfbb60c5d875907","name":"The 8","location":{"lat":"51.493324","lng":"-0.133528","distance":"118","postalCode":"SW1P2LX","cc":"GB","city":"London","state":"Greater London","country":"United Kingdom"},"categories":[{"id":"4bf58dd8d48988d110941735","name":"Italian Restaurant","pluralName":"Italian Restaurants","shortName":"Italian","icon":{"prefix":"https:\/\/ss1.4sqi.net\/img\/categories_v2\/food\/italian_","suffix":".png"},"primary":"true"}],"verified":"false","restricted":"true","stats":{"checkinsCount":"66","usersCount":"6","tipCount":"0"},"specials":{"count":"0"},"hereNow":{"count":"0"},"referralId":"v-1392478067"},{"id":"4b1d6138f964a520b10f24e3","name":"White Horse & Bower (Shepherd Neame)","contact":{"phone":"+442072270951","formattedPhone":"+44 20 7227 0951","facebook":"8029823489"},"location":{"address":"Horseferry Road","lat":"51.49500127408285","lng":"-0.13087034225463867","distance":"155","postalCode":"SW1P 2EE","cc":"GB","city":"City of Westminster","state":"Greater London","country":"United Kingdom"},"categories":[{"id":"4bf58dd8d48988d11b941735","name":"Pub","pluralName":"Pubs","shortName":"Pub","icon":{"prefix":"https:\/\/ss1.4sqi.net\/img\/categories_v2\/nightlife\/pub_","suffix":".png"},"primary":"true"}],"verified":"true","restricted":"true","stats":{"checkinsCount":"408","usersCount":"138","tipCount":"2"},"url":"http:\/\/www.whitehorseandbower.co.uk","menu":{"type":"Menu","label":"Menu","anchor":"View Menu","url":"https:\/\/foursquare.com\/v\/white-horse--bower-shepherd-neame\/4b1d6138f964a520b10f24e3\/menu","mobileUrl":"https:\/\/foursquare.com\/v\/4b1d6138f964a520b10f24e3\/device_menu"},"specials":{"count":"0"},"hereNow":{"count":"0"},"storeId":"","referralId":"v-1392478067"},{"id":"50f6a1f8e4b02d5a4c629967","name":"Mayther","location":{"address":"Horseferry Road","crossStreet":"Marsham Street","lat":"51.49459278456715","lng":"-0.13052404271176057","distance":"161","cc":"GB","city":"London","state":"Greater London","country":"United Kingdom"},"categories":[{"id":"4bf58dd8d48988d128951735","name":"Gift Shop","pluralName":"Gift Shops","shortName":"Gift Shop","icon":{"prefix":"https:\/\/ss1.4sqi.net\/img\/categories_v2\/shops\/giftshop_","suffix":".png"},"primary":"true"}],"verified":"false","restricted":"true","stats":{"checkinsCount":"36","usersCount":"5","tipCount":"2"},"specials":{"count":"0"},"hereNow":{"count":"0"},"referralId":"v-1392478067"},{"id":"52b80479498ec85a01d52549","name":"Regency Gents","location":{"lat":"51.494829","lng":"-0.132311","distance":"69","cc":"GB","country":"United Kingdom"},"categories":[{"id":"4bf58dd8d48988d130941735","name":"Building","pluralName":"Buildings","shortName":"Building","icon":{"prefix":"https:\/\/ss1.4sqi.net\/img\/categories_v2\/building\/default_","suffix":".png"},"primary":"true"}],"verified":"false","restricted":"true","stats":{"checkinsCount":"1","usersCount":"1","tipCount":"1"},"specials":{"count":"0"},"hereNow":{"count":"0"},"referralId":"v-1392478067"},{"id":"4c5d7052857ca59307c1cccb","name":"The Bakery","location":{"lat":"51.49494687517069","lng":"-0.13279952924355462","distance":"73","postalCode":"SW1P 4","cc":"GB","city":"London","state":"Greater London","country":"United Kingdom"},"categories":[{"id":"4bf58dd8d48988d16a941735","name":"Bakery","pluralName":"Bakeries","shortName":"Bakery","icon":{"prefix":"https:\/\/ss1.4sqi.net\/img\/categories_v2\/food\/bakery_","suffix":".png"},"primary":"true"}],"verified":"false","restricted":"true","stats":{"checkinsCount":"18","usersCount":"18","tipCount":"0"},"specials":{"count":"0"},"hereNow":{"count":"0"},"referralId":"v-1392478067"},{"id":"4d3d66ed6e0aa1cd293beb2c","name":"vincent Square Nhs Centre","location":{"address":"Westminster, London SW1P 2PB","lat":"51.4943164250725","lng":"-0.13441386214650006","distance":"111","postalCode":"SW1P 2PB","cc":"GB","city":"London","state":"Greater London","country":"United Kingdom"},"categories":[{"id":"4bf58dd8d48988d104941735","name":"Medical Center","pluralName":"Medical Centers","shortName":"Medical","icon":{"prefix":"https:\/\/ss1.4sqi.net\/img\/categories_v2\/building\/medical_","suffix":".png"},"primary":"true"}],"verified":"false","restricted":"true","stats":{"checkinsCount":"32","usersCount":"19","tipCount":"0"},"specials":{"count":"0"},"hereNow":{"count":"0"},"referralId":"v-1392478067"},{"id":"4c20f1ca4d4a20a1248b9b70","name":"Westminster Kingsway College","location":{"lat":"51.49476661206487","lng":"-0.1356206016723093","distance":"202","cc":"GB","country":"United Kingdom"},"categories":[{"id":"4bf58dd8d48988d198941735","name":"College Academic Building","pluralName":"College Academic Buildings","shortName":"Academic Building","icon":{"prefix":"https:\/\/ss1.4sqi.net\/img\/categories_v2\/education\/academicbuilding_","suffix":".png"},"primary":"true"}],"verified":"false","restricted":"true","stats":{"checkinsCount":"241","usersCount":"90","tipCount":"1"},"specials":{"count":"0"},"hereNow":{"count":"0"},"referralId":"v-1392478067"},{"id":"50fe4d4ae4b0aae3bc99fcbd","name":"Natwest","location":{"address":"Horseferry Road","lat":"51.49482466746968","lng":"-0.13055259321155147","distance":"166","cc":"GB","country":"United Kingdom"},"categories":[{"id":"4bf58dd8d48988d10a951735","name":"Bank","pluralName":"Banks","shortName":"Bank","icon":{"prefix":"https:\/\/ss1.4sqi.net\/img\/categories_v2\/shops\/financial_","suffix":".png"},"primary":"true"}],"verified":"false","restricted":"true","stats":{"checkinsCount":"28","usersCount":"6","tipCount":"1"},"specials":{"count":"0"},"hereNow":{"count":"0"},"referralId":"v-1392478067"},{"id":"5293eef2498e98a8a5d20487","name":"Londonroomlet.co.uk Ltd","location":{"lat":"51.49387752806382","lng":"-0.13227679727529806","distance":"58","cc":"GB","country":"United Kingdom"},"categories":[{"id":"4bf58dd8d48988d130941735","name":"Building","pluralName":"Buildings","shortName":"Building","icon":{"prefix":"https:\/\/ss1.4sqi.net\/img\/categories_v2\/building\/default_","suffix":".png"},"primary":"true"}],"verified":"false","restricted":"true","stats":{"checkinsCount":"3","usersCount":"1","tipCount":"0"},"specials":{"count":"0"},"hereNow":{"count":"0"},"referralId":"v-1392478067"},{"id":"50d18fc41648ed84f39dcc60","name":"Galliard Residential","contact":{"phone":"+442072222005","formattedPhone":"+44 20 7222 2005"},"location":{"address":"23 Monck Street","lat":"51.494396767179566","lng":"-0.1320934295654297","distance":"50","postalCode":"SW1P 2AE","cc":"GB","city":"London","state":"Greater London","country":"United Kingdom"},"categories":[{"id":"4bf58dd8d48988d10c951735","name":"Cosmetics Shop","pluralName":"Cosmetics Shops","shortName":"Cosmetics","icon":{"prefix":"https:\/\/ss1.4sqi.net\/img\/categories_v2\/shops\/beauty_cosmetic_","suffix":".png"},"primary":"true"}],"verified":"false","restricted":"true","stats":{"checkinsCount":"0","usersCount":"0","tipCount":"0"},"specials":{"count":"0"},"hereNow":{"count":"0"},"referralId":"v-1392478067"},{"id":"4b2e1fabf964a520dedc24e3","name":"Express Coffee Co","contact":{"phone":"+442072330557","formattedPhone":"+44 20 7233 0557"},"location":{"address":"40 strutton ground","lat":"51.496452","lng":"-0.133713","distance":"248","postalCode":"SW1P 1","cc":"GB","city":"London","state":"Greater London","country":"United Kingdom"},"categories":[{"id":"4bf58dd8d48988d1dc931735","name":"Tea Room","pluralName":"Tea Rooms","shortName":"Tea Room","icon":{"prefix":"https:\/\/ss1.4sqi.net\/img\/categories_v2\/food\/tearoom_","suffix":".png"},"primary":"true"}],"verified":"false","restricted":"true","stats":{"checkinsCount":"351","usersCount":"120","tipCount":"4"},"specials":{"count":"0"},"hereNow":{"count":"0"},"referralId":"v-1392478067"},{"id":"4d5f61db5b276dcb357807c6","name":"Astral Cafe","location":{"address":"8 Regency Pl","crossStreet":"Horseferry Rd","lat":"51.4947624781149","lng":"-0.13237975537776947","distance":"60","postalCode":"SW1P 2EB","cc":"GB","city":"City of Westminster","state":"Greater London","country":"United Kingdom"},"categories":[{"id":"4bf58dd8d48988d16d941735","name":"Caf\u00e9","pluralName":"Caf\u00e9s","shortName":"Caf\u00e9","icon":{"prefix":"https:\/\/ss1.4sqi.net\/img\/categories_v2\/food\/cafe_","suffix":".png"},"primary":"true"}],"verified":"false","restricted":"true","stats":{"checkinsCount":"57","usersCount":"28","tipCount":"2"},"specials":{"count":"0"},"hereNow":{"count":"0"},"referralId":"v-1392478067"},{"id":"504f65d4e4b0baeda5310ea0","name":"Wellers Accountants","location":{"address":"1 Vincent Square","lat":"51.49380274431057","lng":"-0.13308910977242303","distance":"57","postalCode":"SW1","cc":"GB","city":"London","state":"Greater London","country":"United Kingdom"},"categories":[{"id":"4bf58dd8d48988d124941735","name":"Office","pluralName":"Offices","shortName":"Office","icon":{"prefix":"https:\/\/ss1.4sqi.net\/img\/categories_v2\/building\/default_","suffix":".png"},"primary":"true"}],"verified":"false","restricted":"true","stats":{"checkinsCount":"1","usersCount":"1","tipCount":"0"},"specials":{"count":"0"},"hereNow":{"count":"0"},"referralId":"v-1392478067"},{"id":"4d1c5c8efd7bb60cd6449de1","name":"Robbie's Gents Barber Shop","location":{"address":"36 Page Street","lat":"51.494063","lng":"-0.131095","distance":"121","postalCode":"SW1","cc":"GB","city":"London","state":"Greater London","country":"United Kingdom"},"categories":[{"id":"4bf58dd8d48988d110951735","name":"Salon \/ Barbershop","pluralName":"Salons \/ Barbershops","shortName":"Salon \/ Barbershop","icon":{"prefix":"https:\/\/ss1.4sqi.net\/img\/categories_v2\/shops\/salon_barber_","suffix":".png"},"primary":"true"}],"verified":"false","restricted":"true","stats":{"checkinsCount":"28","usersCount":"5","tipCount":"2"},"specials":{"count":"0"},"hereNow":{"count":"0"},"referralId":"v-1392478067"},{"id":"4d8a486c401a224be6bd9e18","name":"Vestry Court","location":{"address":"5 Monck Street","lat":"51.4958295473039","lng":"-0.13096033615950803","distance":"213","cc":"GB","city":"London","state":"Greater London","country":"United Kingdom"},"categories":[{"id":"4bf58dd8d48988d130941735","name":"Building","pluralName":"Buildings","shortName":"Building","icon":{"prefix":"https:\/\/ss1.4sqi.net\/img\/categories_v2\/building\/default_","suffix":".png"},"primary":"true"}],"verified":"false","restricted":"true","stats":{"checkinsCount":"296","usersCount":"11","tipCount":"0"},"specials":{"count":"0"},"hereNow":{"count":"0"},"referralId":"v-1392478067"},{"id":"4ac518d1f964a520f3a620e3","name":"Royal Horticultural Hall","location":{"address":"80 Vincent Square","lat":"51.49498","lng":"-0.134005","distance":"113","postalCode":"SW1P 2PE","cc":"GB","city":"London","state":"Greater London","country":"United Kingdom"},"categories":[{"id":"4bf58dd8d48988d1f1931735","name":"General Entertainment","pluralName":"General Entertainment","shortName":"Entertainment","icon":{"prefix":"https:\/\/ss1.4sqi.net\/img\/categories_v2\/arts_entertainment\/default_","suffix":".png"},"primary":"true"}],"verified":"false","restricted":"true","stats":{"checkinsCount":"165","usersCount":"146","tipCount":"1"},"specials":{"count":"0"},"hereNow":{"count":"0"},"referralId":"v-1392478067"},{"id":"4d820af22fb7370427e98311","name":"deli etc","location":{"address":"Horseferry Road","crossStreet":"Elverton Street","lat":"51.494947","lng":"-0.132647","distance":"74","cc":"GB","city":"London","state":"Greater London","country":"United Kingdom"},"categories":[{"id":"4bf58dd8d48988d110941735","name":"Italian Restaurant","pluralName":"Italian Restaurants","shortName":"Italian","icon":{"prefix":"https:\/\/ss1.4sqi.net\/img\/categories_v2\/food\/italian_","suffix":".png"},"primary":"true"}],"verified":"false","restricted":"true","stats":{"checkinsCount":"8","usersCount":"5","tipCount":"0"},"specials":{"count":"0"},"hereNow":{"count":"0"},"referralId":"v-1392478067"}],"confident":"true"}}