{"meta":{"code":"200"},"response":{"venues":[{"id":"4b20abbbf964a520cc3324e3","name":"Burgess Park","location":{"address":"Camberwell Rd.","crossStreet":"Albany Rd.","lat":"51.48242521151098","lng":"-0.08578777313232422","distance":"250","postalCode":"SE5","cc":"GB","city":"Walworth","state":"Greater London","country":"United Kingdom"},"categories":[{"id":"4bf58dd8d48988d163941735","name":"Park","pluralName":"Parks","shortName":"Park","icon":{"prefix":"https:\/\/ss1.4sqi.net\/img\/categories_v2\/parks_outdoors\/park_","suffix":".png"},"primary":"true"}],"verified":"false","restricted":"true","stats":{"checkinsCount":"1592","usersCount":"500","tipCount":"15"},"specials":{"count":"0"},"hereNow":{"count":"0"},"referralId":"v-1392478098"},{"id":"4d4c5112190ba093db871fa5","name":"TfL Bus 12","contact":{"twitter":"tflbusalerts"},"location":{"address":"Moving Target!","lat":"51.4824519372339","lng":"-0.09346961975097656","distance":"442","cc":"GB","city":"London","state":"Greater London","country":"United Kingdom"},"categories":[{"id":"4bf58dd8d48988d12b951735","name":"Bus Line","pluralName":"Bus Lines","shortName":"Bus","icon":{"prefix":"https:\/\/ss1.4sqi.net\/img\/categories_v2\/travel\/busstation_","suffix":".png"},"primary":"true"}],"verified":"false","restricted":"true","stats":{"checkinsCount":"692","usersCount":"192","tipCount":"6"},"url":"http:\/\/tfl.gov.uk","specials":{"count":"0"},"hereNow":{"count":"0"},"referralId":"v-1392478098"},{"id":"4c890c917223b1f72f8a30a8","name":"Tesco Express","contact":{"phone":"+448456719367","formattedPhone":"+44 845 671 9367","twitter":"uktescooffers"},"location":{"address":"364-368 Walworth Road","lat":"51.48520460280602","lng":"-0.09400606155395508","distance":"441","postalCode":"SE17 2NF","cc":"GB","city":"Camberwell","state":"Greater London","country":"United Kingdom"},"categories":[{"id":"4bf58dd8d48988d118951735","name":"Grocery Store","pluralName":"Grocery Stores","shortName":"Grocery Store","icon":{"prefix":"https:\/\/ss1.4sqi.net\/img\/categories_v2\/shops\/food_grocery_","suffix":".png"},"primary":"true"}],"verified":"true","restricted":"true","stats":{"checkinsCount":"645","usersCount":"120","tipCount":"1"},"url":"http:\/\/www.tesco.com","specials":{"count":"0"},"hereNow":{"count":"0"},"storeId":"6291","referralId":"v-1392478098"},{"id":"5202920f498e012705f4c984","name":"Burgess Park BMX Track","location":{"lat":"51.4825337193178","lng":"-0.08694196836349921","distance":"204","cc":"GB","country":"United Kingdom"},"categories":[{"id":"4bf58dd8d48988d167941735","name":"Skate Park","pluralName":"Skate Parks","shortName":"Skate Park","icon":{"prefix":"https:\/\/ss1.4sqi.net\/img\/categories_v2\/parks_outdoors\/skate_park_","suffix":".png"},"primary":"true"}],"verified":"false","restricted":"true","stats":{"checkinsCount":"10","usersCount":"7","tipCount":"3"},"specials":{"count":"0"},"hereNow":{"count":"0"},"referralId":"v-1392478098"},{"id":"4b89844df964a520113e32e3","name":"La Luna","contact":{"phone":"+442072771991","formattedPhone":"+44 20 7277 1991"},"location":{"address":"380 Walworth Rd.","crossStreet":"at Camberwell Rd.","lat":"51.48466283451766","lng":"-0.0937925821767206","distance":"417","postalCode":"SE17 2NG","cc":"GB","city":"Camberwell","state":"Greater London","country":"United Kingdom"},"categories":[{"id":"4bf58dd8d48988d110941735","name":"Italian Restaurant","pluralName":"Italian Restaurants","shortName":"Italian","icon":{"prefix":"https:\/\/ss1.4sqi.net\/img\/categories_v2\/food\/italian_","suffix":".png"},"primary":"true"}],"verified":"false","restricted":"true","stats":{"checkinsCount":"249","usersCount":"100","tipCount":"10"},"url":"http:\/\/www.lalunapizzeria.com\/La_Luna_Pizzeria\/Home.html","reservations":{"url":"http:\/\/www.toptable.co.uk\/single.aspx?rid=24120&ref=9601"},"menu":{"type":"Menu","label":"Menu","anchor":"View Menu","url":"https:\/\/foursquare.com\/v\/la-luna\/4b89844df964a520113e32e3\/menu","mobileUrl":"https:\/\/foursquare.com\/v\/4b89844df964a520113e32e3\/device_menu"},"specials":{"count":"0"},"hereNow":{"count":"0"},"referralId":"v-1392478098"},{"id":"51e01343498ec303e2ab205c","name":"Aylesbury Early Years Centre","location":{"lat":"51.4848903100938","lng":"-0.0883342791348696","distance":"76","cc":"GB","country":"United Kingdom"},"verified":"false","restricted":"true","stats":{"checkinsCount":"3","usersCount":"1","tipCount":"0"},"specials":{"count":"0"},"hereNow":{"count":"0"},"referralId":"v-1392478098"},{"id":"4bd72dcd304fce725d2e33ab","name":"Hour Glass Hotel Walworth","location":{"address":"131 Beaconsfield Rd Camberwell Greater London SE17","lat":"51.486456","lng":"-0.084347","distance":"339","cc":"GB","city":"Walworth","state":"Greater London","country":"United Kingdom"},"categories":[{"id":"4bf58dd8d48988d11b941735","name":"Pub","pluralName":"Pubs","shortName":"Pub","icon":{"prefix":"https:\/\/ss1.4sqi.net\/img\/categories_v2\/nightlife\/pub_","suffix":".png"},"primary":"true"}],"verified":"false","restricted":"true","stats":{"checkinsCount":"91","usersCount":"50","tipCount":"0"},"specials":{"count":"0"},"hereNow":{"count":"0"},"referralId":"v-1392478098"},{"id":"4cfa5abfee9cb60cd8b289ad","name":"Park Life","contact":{"phone":"+442072526556","formattedPhone":"+44 20 7252 6556"},"location":{"address":"Burgess Park","lat":"51.483897","lng":"-0.084009","distance":"266","postalCode":"SE5 0RJ","cc":"GB","city":"London","state":"Greater London","country":"United Kingdom"},"categories":[{"id":"4bf58dd8d48988d16d941735","name":"Caf\u00e9","pluralName":"Caf\u00e9s","shortName":"Caf\u00e9","icon":{"prefix":"https:\/\/ss1.4sqi.net\/img\/categories_v2\/food\/cafe_","suffix":".png"},"primary":"true"}],"verified":"false","restricted":"true","stats":{"checkinsCount":"38","usersCount":"31","tipCount":"4"},"specials":{"count":"0"},"hereNow":{"count":"0"},"referralId":"v-1392478098"},{"id":"4ff44955e4b08a4c71535837","name":"Walworth","location":{"address":"Everywhere!","lat":"51.48642199057882","lng":"-0.09445774304337104","distance":"518","cc":"GB","city":"Walworth","state":"Greater London","country":"United Kingdom"},"categories":[{"id":"4f2a25ac4b909258e854f55f","name":"Neighborhood","pluralName":"Neighborhoods","shortName":"Neighborhood","icon":{"prefix":"https:\/\/ss1.4sqi.net\/img\/categories_v2\/parks_outdoors\/neighborhood_","suffix":".png"},"primary":"true"}],"verified":"false","restricted":"true","stats":{"checkinsCount":"190","usersCount":"66","tipCount":"1"},"specials":{"count":"0"},"hereNow":{"count":"0"},"referralId":"v-1392478098"},{"id":"4ba5fcadf964a520e82c39e3","name":"Fitness First","contact":{"phone":"+448445712954","formattedPhone":"+44 844 571 2954"},"location":{"address":"Walworth Rd.","lat":"51.486086489639675","lng":"-0.0945425033569336","distance":"508","postalCode":"SE17 2NA","cc":"GB","city":"Walworth","state":"Greater London","country":"United Kingdom"},"categories":[{"id":"4bf58dd8d48988d176941735","name":"Gym","pluralName":"Gyms","shortName":"Gym","icon":{"prefix":"https:\/\/ss1.4sqi.net\/img\/categories_v2\/building\/gym_","suffix":".png"},"primary":"true"}],"verified":"true","restricted":"true","stats":{"checkinsCount":"438","usersCount":"87","tipCount":"5"},"specials":{"count":"0"},"hereNow":{"count":"0"},"referralId":"v-1392478098"},{"id":"4b5a2ce2f964a52022b228e3","name":"Red Lion","location":{"address":"407 Walworth Rd","lat":"51.48452416816693","lng":"-0.09400437384889689","distance":"430","postalCode":"SE17 2AW","cc":"GB","city":"London","state":"Greater London","country":"United Kingdom"},"categories":[{"id":"4bf58dd8d48988d11b941735","name":"Pub","pluralName":"Pubs","shortName":"Pub","icon":{"prefix":"https:\/\/ss1.4sqi.net\/img\/categories_v2\/nightlife\/pub_","suffix":".png"},"primary":"true"}],"verified":"false","restricted":"true","stats":{"checkinsCount":"48","usersCount":"24","tipCount":"1"},"specials":{"count":"0"},"hereNow":{"count":"0"},"referralId":"v-1392478098"},{"id":"51cc8a58498e8f0682729a0d","name":"Queen Elizabeth","location":{"address":"42 Merrow St","lat":"51.485644691731395","lng":"-0.09142268217497775","distance":"292","postalCode":"SE17","cc":"GB","city":"Walworth","state":"Greater London","country":"United Kingdom"},"categories":[{"id":"4bf58dd8d48988d11b941735","name":"Pub","pluralName":"Pubs","shortName":"Pub","icon":{"prefix":"https:\/\/ss1.4sqi.net\/img\/categories_v2\/nightlife\/pub_","suffix":".png"},"primary":"true"}],"verified":"false","restricted":"true","stats":{"checkinsCount":"9","usersCount":"8","tipCount":"0"},"specials":{"count":"0"},"hereNow":{"count":"0"},"referralId":"v-1392478098"},{"id":"4e9bef43775b2c05ae65af63","name":"Villa Street Medical Centre","location":{"lat":"51.48663734990585","lng":"-0.08835960684335702","distance":"264","cc":"GB","city":"Camberwell","state":"Greater London","country":"United Kingdom"},"categories":[{"id":"4bf58dd8d48988d104941735","name":"Medical Center","pluralName":"Medical Centers","shortName":"Medical","icon":{"prefix":"https:\/\/ss1.4sqi.net\/img\/categories_v2\/building\/medical_","suffix":".png"},"primary":"true"}],"verified":"false","restricted":"true","stats":{"checkinsCount":"39","usersCount":"15","tipCount":"2"},"specials":{"count":"0"},"hereNow":{"count":"0"},"referralId":"v-1392478098"},{"id":"513a2d8ce4b0cff95c04861d","name":"Ocean Fish Bar","location":{"address":"1 Westmoreland Road","lat":"51.48449915266159","lng":"-0.09323631091308619","distance":"377","postalCode":"SE17 2AX","cc":"GB","city":"London","state":"Greater London","country":"United Kingdom"},"categories":[{"id":"4edd64a0c7ddd24ca188df1a","name":"Fish & Chips Shop","pluralName":"Fish & Chips Shops","shortName":"Fish & Chips","icon":{"prefix":"https:\/\/ss1.4sqi.net\/img\/categories_v2\/food\/fishandchips_","suffix":".png"},"primary":"true"}],"verified":"false","restricted":"true","stats":{"checkinsCount":"22","usersCount":"9","tipCount":"0"},"specials":{"count":"0"},"hereNow":{"count":"0"},"referralId":"v-1392478098"},{"id":"4cc06e2d575d236aac99c48e","name":"Iceland","contact":{"phone":"+442072526068","formattedPhone":"+44 20 7252 6068","twitter":"icelandfoods"},"location":{"address":"332\/334 Walworth Rd.","crossStreet":"at MacLeod St.","lat":"51.4860119208301","lng":"-0.09432488032306942","distance":"491","postalCode":"SE17 2NA","cc":"GB","city":"Southwark","state":"Greater London","country":"United Kingdom"},"categories":[{"id":"4bf58dd8d48988d118951735","name":"Grocery Store","pluralName":"Grocery Stores","shortName":"Grocery Store","icon":{"prefix":"https:\/\/ss1.4sqi.net\/img\/categories_v2\/shops\/food_grocery_","suffix":".png"},"primary":"true"}],"verified":"false","restricted":"true","stats":{"checkinsCount":"139","usersCount":"38","tipCount":"0"},"url":"http:\/\/www.iceland.co.uk","specials":{"count":"0"},"hereNow":{"count":"0"},"referralId":"v-1392478098"},{"id":"4bec0800415e20a1def9e6bb","name":"Argos","contact":{"twitter":"argos_online"},"location":{"address":"367-369 Walworth Road","lat":"51.485455","lng":"-0.094065","distance":"453","postalCode":"SE17 2AL","cc":"GB","country":"United Kingdom"},"categories":[{"id":"4bf58dd8d48988d1ff941735","name":"Miscellaneous Shop","pluralName":"Miscellaneous Shops","shortName":"Shop","icon":{"prefix":"https:\/\/ss1.4sqi.net\/img\/categories_v2\/shops\/default_","suffix":".png"},"primary":"true"}],"verified":"true","restricted":"true","stats":{"checkinsCount":"152","usersCount":"99","tipCount":"4"},"specials":{"count":"0"},"hereNow":{"count":"0"},"storeId":"","referralId":"v-1392478098"},{"id":"4d035f4f54d0236afa8ae8d5","name":"Flints","location":{"address":"Queen's Row","lat":"51.48473098999222","lng":"-0.09199871757126533","distance":"294","postalCode":"SE17 2PX","cc":"GB","city":"London","state":"Greater London","country":"United Kingdom"},"categories":[{"id":"4bf58dd8d48988d112951735","name":"Hardware Store","pluralName":"Hardware Stores","shortName":"Hardware","icon":{"prefix":"https:\/\/ss1.4sqi.net\/img\/categories_v2\/shops\/hardware_","suffix":".png"},"primary":"true"}],"verified":"false","restricted":"true","stats":{"checkinsCount":"17","usersCount":"10","tipCount":"2"},"specials":{"count":"0"},"hereNow":{"count":"0"},"referralId":"v-1392478098"},{"id":"528906d111d2cccd105f5855","name":"\u732a\u7a9d","location":{"lat":"51.48488519867848","lng":"-0.09163808916025133","distance":"274","cc":"GB","city":"London","state":"Greater London","country":"United Kingdom"},"verified":"false","restricted":"true","stats":{"checkinsCount":"6","usersCount":"3","tipCount":"0"},"specials":{"count":"0"},"hereNow":{"count":"0"},"referralId":"v-1392478098"},{"id":"50716a46e4b09822b91a7977","name":"Safi Nails & Beauty","location":{"lat":"51.48546293548021","lng":"-0.09424257652098214","distance":"465","cc":"GB","country":"United Kingdom"},"categories":[{"id":"4f04aa0c2fb6e1c99f3db0b8","name":"Nail Salon","pluralName":"Nail Salons","shortName":"Nail Salon","icon":{"prefix":"https:\/\/ss1.4sqi.net\/img\/categories_v2\/shops\/nailsalon_","suffix":".png"},"primary":"true"}],"verified":"false","restricted":"true","stats":{"checkinsCount":"30","usersCount":"6","tipCount":"0"},"specials":{"count":"0"},"hereNow":{"count":"0"},"referralId":"v-1392478098"},{"id":"5259c495498e1c2023bb2de0","name":"Legacy","location":{"lat":"51.4838072442353","lng":"-0.09224215558975062","distance":"312","cc":"GB","country":"United Kingdom"},"categories":[{"id":"4bf58dd8d48988d1c8941735","name":"African Restaurant","pluralName":"African Restaurants","shortName":"African","icon":{"prefix":"https:\/\/ss1.4sqi.net\/img\/categories_v2\/food\/african_","suffix":".png"},"primary":"true"}],"verified":"false","restricted":"true","stats":{"checkinsCount":"2","usersCount":"2","tipCount":"0"},"specials":{"count":"0"},"hereNow":{"count":"0"},"referralId":"v-1392478098"},{"id":"52b71e1711d22f848e50867b","name":"Superdrug","contact":{"phone":"+442072774040","formattedPhone":"+44 20 7277 4040"},"location":{"address":"371-375 Walworth Rd.","crossStreet":"Walworth","lat":"51.485298","lng":"-0.093746","distance":"427","postalCode":"SE17 2AL","cc":"GB","city":"London","state":"Greater London","country":"United Kingdom"},"categories":[{"id":"4bf58dd8d48988d10f951735","name":"Drugstore \/ Pharmacy","pluralName":"Drugstores \/ Pharmacies","shortName":"Pharmacy","icon":{"prefix":"https:\/\/ss1.4sqi.net\/img\/categories_v2\/shops\/pharmacy_","suffix":".png"},"primary":"true"}],"verified":"false","restricted":"true","stats":{"checkinsCount":"2","usersCount":"2","tipCount":"0"},"specials":{"count":"0"},"hereNow":{"count":"0"},"referralId":"v-1392478098"},{"id":"4c8f3b85ad70a143cbe88f0f","name":"Michael Faraday School","location":{"lat":"51.485339999198914","lng":"-0.08902251720428467","distance":"144","cc":"GB","country":"United Kingdom"},"categories":[{"id":"4bf58dd8d48988d1a0941735","name":"College Classroom","pluralName":"College Classrooms","shortName":"Classroom","icon":{"prefix":"https:\/\/ss1.4sqi.net\/img\/categories_v2\/education\/classroom_","suffix":".png"},"primary":"true"}],"verified":"false","restricted":"true","stats":{"checkinsCount":"32","usersCount":"10","tipCount":"2"},"specials":{"count":"0"},"hereNow":{"count":"0"},"referralId":"v-1392478098"},{"id":"4b5a2597f964a52032b028e3","name":"Banana's Bar","location":{"address":"374 Walworth Road","lat":"51.484764","lng":"-0.093788","distance":"418","postalCode":"SE17 2NF","cc":"GB","city":"London","state":"Greater London","country":"United Kingdom"},"categories":[{"id":"4bf58dd8d48988d116941735","name":"Bar","pluralName":"Bars","shortName":"Bar","icon":{"prefix":"https:\/\/ss1.4sqi.net\/img\/categories_v2\/nightlife\/bar_","suffix":".png"},"primary":"true"}],"verified":"false","restricted":"true","stats":{"checkinsCount":"61","usersCount":"24","tipCount":"4"},"specials":{"count":"0"},"hereNow":{"count":"0"},"referralId":"v-1392478098"},{"id":"4e134bab1838f8ad816cc78f","name":"Westmoreland Road Bus stop","location":{"lat":"51.4844028727021","lng":"-0.09360909461975098","distance":"402","cc":"GB","country":"United Kingdom"},"categories":[{"id":"4bf58dd8d48988d12b951735","name":"Bus Line","pluralName":"Bus Lines","shortName":"Bus","icon":{"prefix":"https:\/\/ss1.4sqi.net\/img\/categories_v2\/travel\/busstation_","suffix":".png"},"primary":"true"}],"verified":"false","restricted":"true","stats":{"checkinsCount":"156","usersCount":"39","tipCount":"0"},"specials":{"count":"0"},"hereNow":{"count":"0"},"referralId":"v-1392478098"},{"id":"52dba9c4498e7a132233466c","name":"Alsace Road Bus Stop (Stop A, Northbound)","location":{"lat":"51.487198","lng":"-0.084651","distance":"390","cc":"GB","country":"United Kingdom"},"categories":[{"id":"4bf58dd8d48988d12b951735","name":"Bus Line","pluralName":"Bus Lines","shortName":"Bus","icon":{"prefix":"https:\/\/ss1.4sqi.net\/img\/categories_v2\/travel\/busstation_","suffix":".png"},"primary":"true"}],"verified":"false","restricted":"true","stats":{"checkinsCount":"1","usersCount":"1","tipCount":"0"},"specials":{"count":"0"},"hereNow":{"count":"0"},"referralId":"v-1392478098"},{"id":"518d4add498e322549d1d7a7","name":"Costcutter","location":{"lat":"51.483668","lng":"-0.094147","distance":"445","cc":"GB","country":"United Kingdom"},"categories":[{"id":"4d954b0ea243a5684a65b473","name":"Convenience Store","pluralName":"Convenience Stores","shortName":"Convenience Stores","icon":{"prefix":"https:\/\/ss1.4sqi.net\/img\/categories_v2\/shops\/conveniencestore_","suffix":".png"},"primary":"true"}],"verified":"false","restricted":"true","stats":{"checkinsCount":"14","usersCount":"4","tipCount":"0"},"specials":{"count":"0"},"hereNow":{"count":"0"},"referralId":"v-1392478098"},{"id":"4d88a14d0c422d431978f430","name":"Art in the Park studio","contact":{"phone":"+442072774297","formattedPhone":"+44 20 7277 4297","twitter":"artintheparktwt"},"location":{"address":"Chumleigh Gardens, Chumleigh Street","crossStreet":"Burgess Park","lat":"51.48413545","lng":"-0.0849213","distance":"200","postalCode":"SE5 0RJ","cc":"GB","city":"London","state":"Greater London","country":"United Kingdom"},"categories":[{"id":"4bf58dd8d48988d130941735","name":"Building","pluralName":"Buildings","shortName":"Building","icon":{"prefix":"https:\/\/ss1.4sqi.net\/img\/categories_v2\/building\/default_","suffix":".png"},"primary":"true"}],"verified":"true","restricted":"true","stats":{"checkinsCount":"9","usersCount":"5","tipCount":"1"},"url":"http:\/\/www.artinthepark.co.uk","specials":{"count":"0"},"hereNow":{"count":"0"},"referralId":"v-1392478098"},{"id":"4b5af090f964a52047db28e3","name":"Chumleigh Gardens","location":{"address":"Burgess Park","crossStreet":"Albany Road","lat":"51.48352062015924","lng":"-0.08453154894345932","distance":"242","postalCode":"SE5 0RJ","cc":"GB","city":"London","state":"Greater London","country":"United Kingdom"},"categories":[{"id":"4bf58dd8d48988d15a941735","name":"Garden","pluralName":"Gardens","shortName":"Garden","icon":{"prefix":"https:\/\/ss1.4sqi.net\/img\/categories_v2\/parks_outdoors\/garden_","suffix":".png"},"primary":"true"}],"verified":"false","restricted":"true","stats":{"checkinsCount":"51","usersCount":"32","tipCount":"2"},"specials":{"count":"0"},"hereNow":{"count":"0"},"referralId":"v-1392478098"},{"id":"4eb3b56402d5f33e91cd088f","name":"Star Cafe","contact":{"phone":"+442077034805","formattedPhone":"+44 20 7703 4805"},"location":{"address":"4 Arnside Street","lat":"51.48462685430721","lng":"-0.09395455997828178","distance":"428","postalCode":"SE17","cc":"GB","city":"London","state":"Greater London","country":"United Kingdom"},"categories":[{"id":"4bf58dd8d48988d16d941735","name":"Caf\u00e9","pluralName":"Caf\u00e9s","shortName":"Caf\u00e9","icon":{"prefix":"https:\/\/ss1.4sqi.net\/img\/categories_v2\/food\/cafe_","suffix":".png"},"primary":"true"}],"verified":"false","restricted":"true","stats":{"checkinsCount":"151","usersCount":"17","tipCount":"1"},"specials":{"count":"0"},"hereNow":{"count":"0"},"referralId":"v-1392478098"},{"id":"521324a0498e2a1f7a404e68","name":"Aylesbury Health Centre","location":{"lat":"51.48837800974101","lng":"-0.08652057110512633","distance":"463","cc":"GB","country":"United Kingdom"},"categories":[{"id":"4bf58dd8d48988d104941735","name":"Medical Center","pluralName":"Medical Centers","shortName":"Medical","icon":{"prefix":"https:\/\/ss1.4sqi.net\/img\/categories_v2\/building\/medical_","suffix":".png"},"primary":"true"}],"verified":"false","restricted":"true","stats":{"checkinsCount":"10","usersCount":"4","tipCount":"0"},"specials":{"count":"0"},"hereNow":{"count":"0"},"referralId":"v-1392478098"}],"confident":"true"}}