{"meta":{"code":"200"},"response":{"venues":[{"id":"4c0ce8ae2466a59393b07621","name":"TfL Bus 11","contact":{"twitter":"tflbusalerts"},"location":{"address":"Moving Target!","lat":"51.49036206277271","lng":"-0.1531219482421875","distance":"121","cc":"GB","city":"London","state":"Greater London","country":"United Kingdom"},"categories":[{"id":"4bf58dd8d48988d12b951735","name":"Bus Line","pluralName":"Bus Lines","shortName":"Bus","icon":{"prefix":"https:\/\/ss1.4sqi.net\/img\/categories_v2\/travel\/busstation_","suffix":".png"},"primary":"true"}],"verified":"false","restricted":"true","stats":{"checkinsCount":"573","usersCount":"172","tipCount":"5"},"url":"http:\/\/tfl.gov.uk","specials":{"count":"0"},"hereNow":{"count":"1","groups":[{"type":"others","name":"Other people here","count":"1"}]},"referralId":"v-1392478078"},{"id":"4bf28f349f93952144b83098","name":"The Orange","contact":{"phone":"+442078819844","formattedPhone":"+44 20 7881 9844"},"location":{"address":"37 Pimlico Rd.","crossStreet":"at St. Barnabas St.","lat":"51.49046894696402","lng":"-0.1522207260131836","distance":"137","postalCode":"SW1W 8NE","cc":"GB","city":"London","state":"Greater London","country":"United Kingdom"},"categories":[{"id":"4bf58dd8d48988d11b941735","name":"Pub","pluralName":"Pubs","shortName":"Pub","icon":{"prefix":"https:\/\/ss1.4sqi.net\/img\/categories_v2\/nightlife\/pub_","suffix":".png"},"primary":"true"}],"verified":"false","restricted":"true","stats":{"checkinsCount":"2113","usersCount":"1353","tipCount":"33"},"url":"http:\/\/www.theorange.co.uk","reservations":{"url":"http:\/\/www.toptable.co.uk\/single.aspx?rid=37546&ref=9601"},"menu":{"type":"Menu","label":"Menu","anchor":"View Menu","url":"https:\/\/foursquare.com\/v\/the-orange\/4bf28f349f93952144b83098\/menu","mobileUrl":"https:\/\/foursquare.com\/v\/4bf28f349f93952144b83098\/device_menu"},"specials":{"count":"0"},"hereNow":{"count":"0"},"referralId":"v-1392478078"},{"id":"4b5b1c8ef964a520e2e328e3","name":"Daylesford Organic","contact":{"phone":"+442078818060","formattedPhone":"+44 20 7881 8060"},"location":{"address":"44b Pimlico Rd","lat":"51.49057295637637","lng":"-0.15327806418610118","distance":"146","postalCode":"SW1W 8LP","cc":"GB","city":"City of Westminster","state":"Greater London","country":"United Kingdom"},"categories":[{"id":"4bf58dd8d48988d146941735","name":"Deli \/ Bodega","pluralName":"Delis \/ Bodegas","shortName":"Deli \/ Bodega","icon":{"prefix":"https:\/\/ss1.4sqi.net\/img\/categories_v2\/food\/deli_","suffix":".png"},"primary":"true"}],"verified":"false","restricted":"true","stats":{"checkinsCount":"1043","usersCount":"541","tipCount":"21"},"menu":{"type":"Menu","label":"Menu","anchor":"View Menu","url":"https:\/\/foursquare.com\/v\/daylesford-organic\/4b5b1c8ef964a520e2e328e3\/menu","mobileUrl":"https:\/\/foursquare.com\/v\/4b5b1c8ef964a520e2e328e3\/device_menu"},"specials":{"count":"0"},"hereNow":{"count":"0"},"referralId":"v-1392478078"},{"id":"4b5b1e45f964a5205de428e3","name":"William Curley","contact":{"phone":"+442077305522","formattedPhone":"+44 20 7730 5522","twitter":"team_curley"},"location":{"address":"198 Ebury St","lat":"51.490818","lng":"-0.152868","distance":"170","postalCode":"SW1W 8UN","cc":"GB","city":"Belgravia","state":"Greater London","country":"United Kingdom"},"categories":[{"id":"4bf58dd8d48988d117951735","name":"Candy Store","pluralName":"Candy Stores","shortName":"Candy Store","icon":{"prefix":"https:\/\/ss1.4sqi.net\/img\/categories_v2\/shops\/candystore_","suffix":".png"},"primary":"true"}],"verified":"false","restricted":"true","stats":{"checkinsCount":"281","usersCount":"198","tipCount":"7"},"url":"http:\/\/williamcurley.com","specials":{"count":"0"},"hereNow":{"count":"1","groups":[{"type":"others","name":"Other people here","count":"1"}]},"referralId":"v-1392478078"},{"id":"4c40750e7beab71394519555","name":"Tinello","contact":{"phone":"+442077303663","formattedPhone":"+44 20 7730 3663","twitter":"tinello_london"},"location":{"address":"87 Pimlico Rd.","lat":"51.490266","lng":"-0.154257","distance":"148","postalCode":"SW1W 8PH","cc":"GB","city":"London","state":"Greater London","country":"United Kingdom"},"categories":[{"id":"4bf58dd8d48988d110941735","name":"Italian Restaurant","pluralName":"Italian Restaurants","shortName":"Italian","icon":{"prefix":"https:\/\/ss1.4sqi.net\/img\/categories_v2\/food\/italian_","suffix":".png"},"primary":"true"}],"verified":"false","restricted":"true","stats":{"checkinsCount":"269","usersCount":"203","tipCount":"11"},"menu":{"type":"Menu","label":"Menu","anchor":"View Menu","url":"https:\/\/foursquare.com\/v\/tinello\/4c40750e7beab71394519555\/menu","mobileUrl":"https:\/\/foursquare.com\/v\/4c40750e7beab71394519555\/device_menu"},"specials":{"count":"0"},"hereNow":{"count":"0"},"referralId":"v-1392478078"},{"id":"4ac518e6f964a52010ab20e3","name":"Hunan","location":{"address":"51 Pimlico Road","lat":"51.490658","lng":"-0.152956","distance":"152","postalCode":"SW1W 8NE","cc":"GB","city":"London","state":"Greater London","country":"United Kingdom"},"categories":[{"id":"4bf58dd8d48988d145941735","name":"Chinese Restaurant","pluralName":"Chinese Restaurants","shortName":"Chinese","icon":{"prefix":"https:\/\/ss1.4sqi.net\/img\/categories_v2\/food\/chinese_","suffix":".png"},"primary":"true"}],"verified":"false","restricted":"true","stats":{"checkinsCount":"249","usersCount":"195","tipCount":"10"},"specials":{"count":"0"},"hereNow":{"count":"0"},"referralId":"v-1392478078"},{"id":"4baba93ff964a520e3bd3ae3","name":"Rising Sun","contact":{"phone":"+442077309519","formattedPhone":"+44 20 7730 9519"},"location":{"address":"46 Ebury Bridge Rd","lat":"51.48969054222107","lng":"-0.150306","distance":"178","postalCode":"SW1W 8PZ","cc":"GB","city":"London","state":"Greater London","country":"United Kingdom"},"categories":[{"id":"4bf58dd8d48988d11b941735","name":"Pub","pluralName":"Pubs","shortName":"Pub","icon":{"prefix":"https:\/\/ss1.4sqi.net\/img\/categories_v2\/nightlife\/pub_","suffix":".png"},"primary":"true"}],"verified":"false","restricted":"true","stats":{"checkinsCount":"338","usersCount":"151","tipCount":"2"},"url":"http:\/\/www.risingsunpimlico.co.uk","menu":{"type":"Menu","label":"Menu","anchor":"View Menu","url":"https:\/\/foursquare.com\/v\/rising-sun\/4baba93ff964a520e3bd3ae3\/menu","mobileUrl":"https:\/\/foursquare.com\/v\/4baba93ff964a520e3bd3ae3\/device_menu"},"specials":{"count":"0"},"hereNow":{"count":"0"},"referralId":"v-1392478078"},{"id":"4c416b42cc410f471d38ab61","name":"Pimlico Road Farmers' Market","location":{"address":"Pimlico Road","crossStreet":"Orange square","lat":"51.49067759513855","lng":"-0.15277862548828125","distance":"154","postalCode":"Sw1","cc":"GB","city":"London","state":"Greater London","country":"United Kingdom"},"categories":[{"id":"4bf58dd8d48988d1fa941735","name":"Farmers Market","pluralName":"Farmers Markets","shortName":"Farmer's Market","icon":{"prefix":"https:\/\/ss1.4sqi.net\/img\/categories_v2\/shops\/food_farmersmarket_","suffix":".png"},"primary":"true"}],"verified":"false","restricted":"true","stats":{"checkinsCount":"277","usersCount":"111","tipCount":"4"},"specials":{"count":"0"},"hereNow":{"count":"0"},"referralId":"v-1392478078"},{"id":"51096367e4b0a6dc0b52acbf","name":"Sainsbury's Local","contact":{"phone":"+442077077200","formattedPhone":"+44 20 7707 7200"},"location":{"address":"Gatliff Road","lat":"51.488210965155474","lng":"-0.15062212944030762","distance":"193","postalCode":"SW1W","cc":"GB","city":"City of Westminster","state":"Greater London","country":"United Kingdom"},"categories":[{"id":"4bf58dd8d48988d118951735","name":"Grocery Store","pluralName":"Grocery Stores","shortName":"Grocery Store","icon":{"prefix":"https:\/\/ss1.4sqi.net\/img\/categories_v2\/shops\/food_grocery_","suffix":".png"},"primary":"true"}],"verified":"false","restricted":"true","stats":{"checkinsCount":"152","usersCount":"40","tipCount":"1"},"specials":{"count":"0"},"hereNow":{"count":"0"},"referralId":"v-1392478078"},{"id":"4ac518d4f964a520bca720e3","name":"La Poule au Pot","contact":{"phone":"+442077307763","formattedPhone":"+44 20 7730 7763"},"location":{"address":"231 Ebury Street","lat":"51.490834","lng":"-0.152689","distance":"172","postalCode":"SW1W 8UT","cc":"GB","city":"London","state":"Greater London","country":"United Kingdom"},"categories":[{"id":"4bf58dd8d48988d10c941735","name":"French Restaurant","pluralName":"French Restaurants","shortName":"French","icon":{"prefix":"https:\/\/ss1.4sqi.net\/img\/categories_v2\/food\/french_","suffix":".png"},"primary":"true"}],"verified":"false","restricted":"true","stats":{"checkinsCount":"357","usersCount":"271","tipCount":"18"},"specials":{"count":"0"},"hereNow":{"count":"0"},"referralId":"v-1392478078"},{"id":"51bb54b6498e4a3ea3756ad1","name":"Orange Square","location":{"lat":"51.48916063895401","lng":"-0.15032109509094443","distance":"172","cc":"GB","country":"United Kingdom"},"categories":[{"id":"4bf58dd8d48988d164941735","name":"Plaza","pluralName":"Plazas","shortName":"Plaza","icon":{"prefix":"https:\/\/ss1.4sqi.net\/img\/categories_v2\/parks_outdoors\/plaza_","suffix":".png"},"primary":"true"}],"verified":"false","restricted":"true","stats":{"checkinsCount":"58","usersCount":"15","tipCount":"0"},"specials":{"count":"0"},"hereNow":{"count":"0"},"referralId":"v-1392478078"},{"id":"4bb86db67421a593c2c9c140","name":"Starbucks","contact":{"twitter":"starbucksuk"},"location":{"address":"53-55 Pimlico Road,","crossStreet":"At Ebury St.","lat":"51.490629","lng":"-0.153088","distance":"150","postalCode":"SW1W 8NE","cc":"GB","city":"London","state":"Greater London","country":"United Kingdom"},"categories":[{"id":"4bf58dd8d48988d1e0931735","name":"Coffee Shop","pluralName":"Coffee Shops","shortName":"Coffee Shop","icon":{"prefix":"https:\/\/ss1.4sqi.net\/img\/categories_v2\/food\/coffeeshop_","suffix":".png"},"primary":"true"}],"verified":"true","restricted":"true","stats":{"checkinsCount":"450","usersCount":"290","tipCount":"3"},"url":"http:\/\/starbucks.co.uk","specials":{"count":"0"},"hereNow":{"count":"0"},"storeId":"12169","referralId":"v-1392478078"},{"id":"52adf78d498ec952006ee4c0","name":"St Barnabas Church","location":{"address":"St Barnabas Street","crossStreet":"Pimlico Road","lat":"51.4898008959515","lng":"-0.15117988353092884","distance":"126","postalCode":"SW1","cc":"GB","city":"London","state":"Greater London","country":"United Kingdom"},"categories":[{"id":"4bf58dd8d48988d132941735","name":"Church","pluralName":"Churches","shortName":"Church","icon":{"prefix":"https:\/\/ss1.4sqi.net\/img\/categories_v2\/building\/religious_church_","suffix":".png"},"primary":"true"}],"verified":"false","restricted":"true","stats":{"checkinsCount":"4","usersCount":"2","tipCount":"0"},"specials":{"count":"0"},"hereNow":{"count":"0"},"referralId":"v-1392478078"},{"id":"5028d0cd067de1c8a8d007d0","name":"Semmalina","contact":{"phone":"+442077309333","formattedPhone":"+44 20 7730 9333"},"location":{"address":"225 Ebury Street","lat":"51.49093656235483","lng":"-0.1526498794555664","distance":"183","postalCode":"SW1W 8UT","cc":"GB","city":"London","state":"Greater London","country":"United Kingdom"},"categories":[{"id":"4bf58dd8d48988d102951735","name":"Accessories Store","pluralName":"Accessories Stores","shortName":"Accessories","icon":{"prefix":"https:\/\/ss1.4sqi.net\/img\/categories_v2\/shops\/apparel_accessories_","suffix":".png"},"primary":"true"}],"verified":"false","restricted":"true","stats":{"checkinsCount":"1","usersCount":"1","tipCount":"0"},"specials":{"count":"0"},"hereNow":{"count":"0"},"referralId":"v-1392478078"},{"id":"4f5daccee4b0b28dd5eb7b16","name":"Mozart","location":{"lat":"51.489150325171536","lng":"-0.15041274375226196","distance":"166","cc":"GB","country":"United Kingdom"},"categories":[{"id":"4bf58dd8d48988d12d941735","name":"Monument \/ Landmark","pluralName":"Monuments \/ Landmarks","shortName":"Landmark","icon":{"prefix":"https:\/\/ss1.4sqi.net\/img\/categories_v2\/building\/government_monument_","suffix":".png"},"primary":"true"}],"verified":"false","restricted":"true","stats":{"checkinsCount":"59","usersCount":"16","tipCount":"0"},"specials":{"count":"0"},"hereNow":{"count":"0"},"referralId":"v-1392478078"},{"id":"4d970aa6c19fb60c1eff8b65","name":"Ranelagh Gardens","location":{"lat":"51.48738811414148","lng":"-0.1516619395092754","distance":"225","cc":"GB","city":"Kensington","state":"Greater London","country":"United Kingdom"},"categories":[{"id":"4bf58dd8d48988d15a941735","name":"Garden","pluralName":"Gardens","shortName":"Garden","icon":{"prefix":"https:\/\/ss1.4sqi.net\/img\/categories_v2\/parks_outdoors\/garden_","suffix":".png"},"primary":"true"}],"verified":"false","restricted":"true","stats":{"checkinsCount":"95","usersCount":"53","tipCount":"2"},"specials":{"count":"0"},"hereNow":{"count":"0"},"referralId":"v-1392478078"},{"id":"4c29fc3e3492a5935bb7b928","name":"Bozberg","contact":{"phone":"012060547177","formattedPhone":"012060547177","twitter":"martin_rainleaf"},"location":{"address":"Unit 26 Peartree Business Centre","crossStreet":"Peartree rd","lat":"51.488574","lng":"-0.152929","distance":"80","postalCode":"CO3 0JN","cc":"GB","city":"Colchester","state":"Essex","country":"United Kingdom"},"categories":[{"id":"4bf58dd8d48988d1f4941735","name":"Design Studio","pluralName":"Design Studios","shortName":"Design","icon":{"prefix":"https:\/\/ss1.4sqi.net\/img\/categories_v2\/shops\/design_","suffix":".png"},"primary":"true"}],"verified":"false","restricted":"true","stats":{"checkinsCount":"4","usersCount":"3","tipCount":"0"},"specials":{"count":"0"},"hereNow":{"count":"0"},"referralId":"v-1392478078"},{"id":"4c29faeaed0ac9b6d98e62aa","name":"Rainleaf Flooring","contact":{"phone":"+447768865502","formattedPhone":"+44 7768 865502","twitter":"martin_rainleaf"},"location":{"address":"172","crossStreet":"Queenstown rd Battersea","lat":"51.488574","lng":"-0.152929","distance":"80","postalCode":"SW8 3NL","cc":"GB","city":"London","state":"Greater London","country":"United Kingdom"},"categories":[{"id":"4bf58dd8d48988d1f4941735","name":"Design Studio","pluralName":"Design Studios","shortName":"Design","icon":{"prefix":"https:\/\/ss1.4sqi.net\/img\/categories_v2\/shops\/design_","suffix":".png"},"primary":"true"}],"verified":"false","restricted":"true","stats":{"checkinsCount":"1","usersCount":"1","tipCount":"0"},"specials":{"count":"0"},"hereNow":{"count":"0"},"referralId":"v-1392478078"},{"id":"4c825337d92ea0931c104972","name":"TfL Barclays Cycle Hire","location":{"address":"Bourne St.","crossStreet":"at Pimlico Rd.","lat":"51.4906","lng":"-0.153064","distance":"147","postalCode":"SW1W 8","cc":"GB","city":"City of Westminster","state":"Greater London","country":"United Kingdom"},"categories":[{"id":"4e4c9077bd41f78e849722f9","name":"Bike Rental \/ Bike Share","pluralName":"Bike Rentals \/ Bike Shares","shortName":"Bike","icon":{"prefix":"https:\/\/ss1.4sqi.net\/img\/categories_v2\/shops\/bikeshop_","suffix":".png"},"primary":"true"}],"verified":"false","restricted":"true","stats":{"checkinsCount":"34","usersCount":"12","tipCount":"0"},"specials":{"count":"0"},"hereNow":{"count":"0"},"referralId":"v-1392478078"},{"id":"527ff07311d2708b1bc03f03","name":"Olivogelo","location":{"address":"28 Elizabeth Street","lat":"51.490919","lng":"-0.152873","distance":"181","postalCode":"SW1W 9RB","cc":"GB","city":"London","state":"Greater London","country":"United Kingdom"},"categories":[{"id":"4bf58dd8d48988d1c9941735","name":"Ice Cream Shop","pluralName":"Ice Cream Shops","shortName":"Ice Cream","icon":{"prefix":"https:\/\/ss1.4sqi.net\/img\/categories_v2\/food\/icecream_","suffix":".png"},"primary":"true"}],"verified":"false","restricted":"true","stats":{"checkinsCount":"2","usersCount":"2","tipCount":"0"},"specials":{"count":"0"},"hereNow":{"count":"0"},"referralId":"v-1392478078"},{"id":"52960dd711d2ee06e68c4426","name":"Lily's Kitchen Santa Paws Christmas Grotto","location":{"lat":"51.490956786139336","lng":"-0.15355964265519612","distance":"192","cc":"GB","country":"United Kingdom"},"categories":[{"id":"4bf58dd8d48988d100951735","name":"Pet Store","pluralName":"Pet Stores","shortName":"Pet Store","icon":{"prefix":"https:\/\/ss1.4sqi.net\/img\/categories_v2\/shops\/pet_store_","suffix":".png"},"primary":"true"}],"verified":"false","restricted":"true","stats":{"checkinsCount":"4","usersCount":"2","tipCount":"0"},"specials":{"count":"0"},"hereNow":{"count":"0"},"referralId":"v-1392478078"},{"id":"4ca333abd5a2a143750b4790","name":"Wild At Heart Flowers","location":{"lat":"51.49084124730672","lng":"-0.15219587737370885","distance":"177","cc":"GB","country":"United Kingdom"},"categories":[{"id":"4bf58dd8d48988d11b951735","name":"Flower Shop","pluralName":"Flower Shops","shortName":"Flower Shop","icon":{"prefix":"https:\/\/ss1.4sqi.net\/img\/categories_v2\/shops\/flowershop_","suffix":".png"},"primary":"true"}],"verified":"false","restricted":"true","stats":{"checkinsCount":"17","usersCount":"13","tipCount":"0"},"specials":{"count":"0"},"hereNow":{"count":"0"},"referralId":"v-1392478078"},{"id":"50364459fe7046896b36d954","name":"The Dining Chair Company","location":{"address":"4 St Barnabus Street","lat":"51.49030862058306","lng":"-0.15215635299682617","distance":"122","postalCode":"SW1W 8PE","cc":"GB","city":"London","state":"Greater London","country":"United Kingdom"},"categories":[{"id":"4bf58dd8d48988d1f8941735","name":"Furniture \/ Home Store","pluralName":"Furniture \/ Home Stores","shortName":"Furniture \/ Home","icon":{"prefix":"https:\/\/ss1.4sqi.net\/img\/categories_v2\/shops\/furniture_","suffix":".png"},"primary":"true"}],"verified":"false","restricted":"true","stats":{"checkinsCount":"0","usersCount":"0","tipCount":"0"},"specials":{"count":"0"},"hereNow":{"count":"0"},"referralId":"v-1392478078"},{"id":"5028c43ae88907e1c5a1ad4b","name":"Zuber","contact":{"phone":"+442078248265","formattedPhone":"+44 20 7824 8265"},"location":{"address":"42 Pimlico Road","lat":"51.49070943547835","lng":"-0.15310049057006836","distance":"159","postalCode":"SW1W","cc":"GB","city":"London","state":"Greater London","country":"United Kingdom"},"categories":[{"id":"4bf58dd8d48988d1f8941735","name":"Furniture \/ Home Store","pluralName":"Furniture \/ Home Stores","shortName":"Furniture \/ Home","icon":{"prefix":"https:\/\/ss1.4sqi.net\/img\/categories_v2\/shops\/furniture_","suffix":".png"},"primary":"true"}],"verified":"false","restricted":"true","stats":{"checkinsCount":"1","usersCount":"1","tipCount":"0"},"specials":{"count":"0"},"hereNow":{"count":"0"},"referralId":"v-1392478078"},{"id":"5028caacebcaf25416768ce0","name":"Gallery 25","contact":{"phone":"+442077307516","formattedPhone":"+44 20 7730 7516"},"location":{"address":"26 Pimlico Road","lat":"51.49085640005704","lng":"-0.15179157257080078","distance":"188","postalCode":"SW1W 8LJ","cc":"GB","city":"London","state":"Greater London","country":"United Kingdom"},"categories":[{"id":"4bf58dd8d48988d1e2931735","name":"Art Gallery","pluralName":"Art Galleries","shortName":"Art Gallery","icon":{"prefix":"https:\/\/ss1.4sqi.net\/img\/categories_v2\/arts_entertainment\/artgallery_","suffix":".png"},"primary":"true"}],"verified":"false","restricted":"true","stats":{"checkinsCount":"2","usersCount":"2","tipCount":"0"},"specials":{"count":"0"},"hereNow":{"count":"0"},"referralId":"v-1392478078"},{"id":"51f42d35498ecd8ef55b95ed","name":"Crystal Convenience Store","location":{"lat":"51.490313129220375","lng":"-0.1518772644225222","distance":"130","cc":"GB","country":"United Kingdom"},"categories":[{"id":"4d954b0ea243a5684a65b473","name":"Convenience Store","pluralName":"Convenience Stores","shortName":"Convenience Stores","icon":{"prefix":"https:\/\/ss1.4sqi.net\/img\/categories_v2\/shops\/conveniencestore_","suffix":".png"},"primary":"true"}],"verified":"false","restricted":"true","stats":{"checkinsCount":"1","usersCount":"1","tipCount":"0"},"specials":{"count":"0"},"hereNow":{"count":"0"},"referralId":"v-1392478078"},{"id":"4bdc323e3904a59378234d9e","name":"Linley","location":{"lat":"51.4903104720215","lng":"-0.1539540874905805","distance":"138","cc":"GB","country":"United Kingdom"},"categories":[{"id":"4bf58dd8d48988d1f8941735","name":"Furniture \/ Home Store","pluralName":"Furniture \/ Home Stores","shortName":"Furniture \/ Home","icon":{"prefix":"https:\/\/ss1.4sqi.net\/img\/categories_v2\/shops\/furniture_","suffix":".png"},"primary":"true"}],"verified":"false","restricted":"true","stats":{"checkinsCount":"63","usersCount":"36","tipCount":"0"},"specials":{"count":"0"},"hereNow":{"count":"0"},"referralId":"v-1392478078"},{"id":"4c2125997e85c928750bba21","name":"Roussillon","location":{"address":"16 St Barnabus Street","lat":"51.489952","lng":"-0.151476","distance":"117","cc":"GB","country":"United Kingdom"},"categories":[{"id":"4bf58dd8d48988d10c941735","name":"French Restaurant","pluralName":"French Restaurants","shortName":"French","icon":{"prefix":"https:\/\/ss1.4sqi.net\/img\/categories_v2\/food\/french_","suffix":".png"},"primary":"true"}],"verified":"false","restricted":"true","stats":{"checkinsCount":"84","usersCount":"50","tipCount":"2"},"menu":{"type":"Menu","label":"Menu","anchor":"View Menu","url":"https:\/\/foursquare.com\/v\/roussillon\/4c2125997e85c928750bba21\/menu","mobileUrl":"https:\/\/foursquare.com\/v\/4c2125997e85c928750bba21\/device_menu"},"specials":{"count":"0"},"hereNow":{"count":"0"},"referralId":"v-1392478078"},{"id":"5028c50ae88907e1c5a1bfbe","name":"Thomas Jewellers","contact":{"phone":"+442077307710","formattedPhone":"+44 20 7730 7710"},"location":{"address":"65 Pimlico Road","lat":"51.49048230747033","lng":"-0.15331506729125977","distance":"137","postalCode":"SW1W","cc":"GB","city":"London","state":"Greater London","country":"United Kingdom"},"categories":[{"id":"4bf58dd8d48988d111951735","name":"Jewelry Store","pluralName":"Jewelry Stores","shortName":"Jewelry","icon":{"prefix":"https:\/\/ss1.4sqi.net\/img\/categories_v2\/shops\/jewelry_","suffix":".png"},"primary":"true"}],"verified":"false","restricted":"true","stats":{"checkinsCount":"1","usersCount":"1","tipCount":"0"},"specials":{"count":"0"},"hereNow":{"count":"0"},"referralId":"v-1392478078"},{"id":"502e51e1d86cfb1f6f469f4c","name":"David Thomas, Master Goldsmith","location":{"address":"65 Pimlico Road","lat":"51.49050902847119","lng":"-0.15318632125854492","distance":"138","postalCode":"SW1W 8NE","cc":"GB","city":"London","state":"Greater London","country":"United Kingdom"},"categories":[{"id":"4bf58dd8d48988d111951735","name":"Jewelry Store","pluralName":"Jewelry Stores","shortName":"Jewelry","icon":{"prefix":"https:\/\/ss1.4sqi.net\/img\/categories_v2\/shops\/jewelry_","suffix":".png"},"primary":"true"}],"verified":"false","restricted":"true","stats":{"checkinsCount":"0","usersCount":"0","tipCount":"0"},"specials":{"count":"0"},"hereNow":{"count":"0"},"referralId":"v-1392478078"}],"confident":"false"}}