{"meta":{"code":"200"},"response":{"venues":[{"id":"4bc9abc1fb84c9b672631b3e","name":"Kernel Brewery","contact":{"phone":"+442072314516","formattedPhone":"+44 20 7231 4516","twitter":"kernelbrewery"},"location":{"address":"Unit 11, Dockley Rd Industrial Estate","crossStreet":"Lucey Way","lat":"51.49576905259232","lng":"-0.06868946407339725","distance":"329","postalCode":"SE16 3SF","cc":"GB","city":"London","state":"Greater London","country":"United Kingdom"},"categories":[{"id":"50327c8591d4c4b30a586d5d","name":"Brewery","pluralName":"Breweries","shortName":"Brewery","icon":{"prefix":"https:\/\/ss1.4sqi.net\/img\/categories_v2\/food\/brewery_","suffix":".png"},"primary":"true"}],"verified":"false","restricted":"true","stats":{"checkinsCount":"1006","usersCount":"491","tipCount":"18"},"url":"http:\/\/www.thekernelbrewery.com","specials":{"count":"0"},"hereNow":{"count":"2","groups":[{"type":"others","name":"Other people here","count":"2"}]},"referralId":"v-1392478073"},{"id":"4af576bbf964a5203bf921e3","name":"Monmouth Coffee Company","contact":{"phone":"+442072323010","formattedPhone":"+44 20 7232 3010","twitter":"monmouthcoffee_"},"location":{"address":"Dockley Rd","crossStreet":"Spa Rd","lat":"51.49589967008447","lng":"-0.06844997406005858","distance":"350","postalCode":"SE1","cc":"GB","city":"Bermondsey","state":"Greater London","country":"United Kingdom"},"categories":[{"id":"4bf58dd8d48988d1e0931735","name":"Coffee Shop","pluralName":"Coffee Shops","shortName":"Coffee Shop","icon":{"prefix":"https:\/\/ss1.4sqi.net\/img\/categories_v2\/food\/coffeeshop_","suffix":".png"},"primary":"true"}],"verified":"false","restricted":"true","stats":{"checkinsCount":"701","usersCount":"304","tipCount":"20"},"specials":{"count":"0"},"hereNow":{"count":"0"},"referralId":"v-1392478073"},{"id":"4c447914f799e21ec1d6ada2","name":"Bermondsey Spa Gardens","location":{"address":"Spa Rd.","crossStreet":"Grange Rd.","lat":"51.49490744632701","lng":"-0.07427043185361624","distance":"122","postalCode":"SE1 3AH","cc":"GB","city":"Bermondsey","state":"Greater London","country":"United Kingdom"},"categories":[{"id":"4bf58dd8d48988d163941735","name":"Park","pluralName":"Parks","shortName":"Park","icon":{"prefix":"https:\/\/ss1.4sqi.net\/img\/categories_v2\/parks_outdoors\/park_","suffix":".png"},"primary":"true"}],"verified":"false","restricted":"true","stats":{"checkinsCount":"433","usersCount":"109","tipCount":"5"},"specials":{"count":"0"},"hereNow":{"count":"0"},"referralId":"v-1392478073"},{"id":"4bfda88ae529c9285043bb8c","name":"Artesian House","location":{"address":"98 Alscot Rd","lat":"51.494218","lng":"-0.074326","distance":"105","postalCode":"SE1 3GG","cc":"GB","city":"London","state":"Greater London","country":"United Kingdom"},"categories":[{"id":"4bf58dd8d48988d130941735","name":"Building","pluralName":"Buildings","shortName":"Building","icon":{"prefix":"https:\/\/ss1.4sqi.net\/img\/categories_v2\/building\/default_","suffix":".png"},"primary":"true"}],"verified":"false","restricted":"true","stats":{"checkinsCount":"421","usersCount":"24","tipCount":"0"},"specials":{"count":"0"},"hereNow":{"count":"0"},"referralId":"v-1392478073"},{"id":"52467442498e78d20acdc8f8","name":"Caf\u00e9 Delamore","location":{"crossStreet":"96 Spa Road","lat":"51.495851","lng":"-0.072407","distance":"176","postalCode":"SE16 3QT","cc":"GB","city":"London","state":"Greater London","country":"United Kingdom"},"categories":[{"id":"4bf58dd8d48988d128941735","name":"Cafeteria","pluralName":"Cafeterias","shortName":"Cafeteria","icon":{"prefix":"https:\/\/ss1.4sqi.net\/img\/categories_v2\/food\/cafeteria_","suffix":".png"},"primary":"true"}],"verified":"false","restricted":"true","stats":{"checkinsCount":"14","usersCount":"4","tipCount":"0"},"specials":{"count":"0"},"hereNow":{"count":"1","groups":[{"type":"others","name":"Other people here","count":"1"}]},"referralId":"v-1392478073"},{"id":"51e142eb498ec6954bda963b","name":"Brew by Numbers","location":{"address":"79 Enid St","lat":"51.49741425772785","lng":"-0.07212726287988776","distance":"351","postalCode":"SE16 3RA","cc":"GB","city":"London","state":"Greater London","country":"United Kingdom"},"categories":[{"id":"50327c8591d4c4b30a586d5d","name":"Brewery","pluralName":"Breweries","shortName":"Brewery","icon":{"prefix":"https:\/\/ss1.4sqi.net\/img\/categories_v2\/food\/brewery_","suffix":".png"},"primary":"true"}],"verified":"false","restricted":"true","stats":{"checkinsCount":"132","usersCount":"97","tipCount":"3"},"specials":{"count":"0"},"hereNow":{"count":"3","groups":[{"type":"others","name":"Other people here","count":"3"}]},"referralId":"v-1392478073"},{"id":"4ad35afbf964a520eee320e3","name":"Henley Drive","location":{"address":"Henley Drive","lat":"51.494014","lng":"-0.073123","distance":"37","cc":"GB","city":"London","state":"Greater London","country":"United Kingdom"},"verified":"false","restricted":"true","stats":{"checkinsCount":"29","usersCount":"6","tipCount":"0"},"specials":{"count":"0"},"hereNow":{"count":"0"},"referralId":"v-1392478073"},{"id":"4f7459abe4b0dd96b6c8146a","name":"Little Bread Pedlar","contact":{"twitter":"lbpedlar"},"location":{"address":"Unit 10, Dockley Road","lat":"51.495866182970865","lng":"-0.06937207450035435","distance":"295","cc":"GB","city":"London","state":"Greater London","country":"United Kingdom"},"categories":[{"id":"4bf58dd8d48988d16a941735","name":"Bakery","pluralName":"Bakeries","shortName":"Bakery","icon":{"prefix":"https:\/\/ss1.4sqi.net\/img\/categories_v2\/food\/bakery_","suffix":".png"},"primary":"true"}],"verified":"false","restricted":"true","stats":{"checkinsCount":"145","usersCount":"61","tipCount":"7"},"specials":{"count":"0"},"hereNow":{"count":"0"},"referralId":"v-1392478073"},{"id":"4f367378e4b0d3ab5062d71a","name":"The Butchery","location":{"address":"Dockley Rd","crossStreet":"Maltby Street","lat":"51.49563573751177","lng":"-0.06855712900334289","distance":"330","cc":"GB","city":"London","state":"Greater London","country":"United Kingdom"},"categories":[{"id":"4bf58dd8d48988d11d951735","name":"Butcher","pluralName":"Butchers","shortName":"Butcher","icon":{"prefix":"https:\/\/ss1.4sqi.net\/img\/categories_v2\/shops\/food_butcher_","suffix":".png"},"primary":"true"}],"verified":"false","restricted":"true","stats":{"checkinsCount":"193","usersCount":"63","tipCount":"1"},"specials":{"count":"0"},"hereNow":{"count":"0"},"referralId":"v-1392478073"},{"id":"4f857e2fe4b08d4037dfb522","name":"Old Jamaica Road Bus Stop","location":{"lat":"51.497322013960336","lng":"-0.07191492138205069","distance":"343","cc":"GB","country":"United Kingdom"},"categories":[{"id":"4bf58dd8d48988d1fe931735","name":"Bus Station","pluralName":"Bus Stations","shortName":"Bus Station","icon":{"prefix":"https:\/\/ss1.4sqi.net\/img\/categories_v2\/travel\/busstation_","suffix":".png"},"primary":"true"}],"verified":"false","restricted":"true","stats":{"checkinsCount":"36","usersCount":"4","tipCount":"0"},"specials":{"count":"0"},"hereNow":{"count":"0"},"referralId":"v-1392478073"},{"id":"4df389c152b100c2d7fae468","name":"Alscot Road Bus Stop","location":{"lat":"51.493776","lng":"-0.074243","distance":"114","cc":"GB","city":"Camberwell","state":"Greater London","country":"United Kingdom"},"categories":[{"id":"4bf58dd8d48988d1fe931735","name":"Bus Station","pluralName":"Bus Stations","shortName":"Bus Station","icon":{"prefix":"https:\/\/ss1.4sqi.net\/img\/categories_v2\/travel\/busstation_","suffix":".png"},"primary":"true"}],"verified":"false","restricted":"true","stats":{"checkinsCount":"65","usersCount":"16","tipCount":"2"},"specials":{"count":"0"},"hereNow":{"count":"0"},"referralId":"v-1392478073"},{"id":"4fca033be4b0f82a4b777032","name":"The Ham And Cheese Co","location":{"address":"Dockley Road","lat":"51.49582502420271","lng":"-0.06898983890828325","distance":"314","cc":"GB","city":"London","state":"Greater London","country":"United Kingdom"},"categories":[{"id":"4bf58dd8d48988d11e951735","name":"Cheese Shop","pluralName":"Cheese Shops","shortName":"Cheese Shop","icon":{"prefix":"https:\/\/ss1.4sqi.net\/img\/categories_v2\/shops\/food_cheese_","suffix":".png"},"primary":"true"}],"verified":"false","restricted":"true","stats":{"checkinsCount":"74","usersCount":"40","tipCount":"0"},"specials":{"count":"0"},"hereNow":{"count":"0"},"referralId":"v-1392478073"},{"id":"51460248e4b00b9d30bbca11","name":"Butovo","location":{"lat":"51.493904","lng":"-0.06961","distance":"225","cc":"GB","country":"United Kingdom"},"categories":[{"id":"4f2a25ac4b909258e854f55f","name":"Neighborhood","pluralName":"Neighborhoods","shortName":"Neighborhood","icon":{"prefix":"https:\/\/ss1.4sqi.net\/img\/categories_v2\/parks_outdoors\/neighborhood_","suffix":".png"},"primary":"true"}],"verified":"false","restricted":"true","stats":{"checkinsCount":"53","usersCount":"11","tipCount":"1"},"specials":{"count":"0"},"hereNow":{"count":"0"},"referralId":"v-1392478073"},{"id":"4f0ac93ee4b0ca3a5e9884fd","name":"The Artesian Health Centre","contact":{"phone":"+442074033618","formattedPhone":"+44 20 7403 3618"},"location":{"address":"137-138 Grange Rd.","lat":"51.49469940803255","lng":"-0.07544841253828673","distance":"188","postalCode":"SE1 3GF","cc":"GB","city":"London","state":"Greater London","country":"United Kingdom"},"categories":[{"id":"4bf58dd8d48988d104941735","name":"Medical Center","pluralName":"Medical Centers","shortName":"Medical","icon":{"prefix":"https:\/\/ss1.4sqi.net\/img\/categories_v2\/building\/medical_","suffix":".png"},"primary":"true"}],"verified":"false","restricted":"true","stats":{"checkinsCount":"28","usersCount":"18","tipCount":"0"},"url":"http:\/\/www.southwarkpct.nhs.uk","specials":{"count":"0"},"hereNow":{"count":"0"},"referralId":"v-1392478073"},{"id":"4f9babe8e4b0873b66e77c63","name":"The London Honey","location":{"lat":"51.495784071587394","lng":"-0.06931415651322133","distance":"293","cc":"GB","country":"United Kingdom"},"categories":[{"id":"4bf58dd8d48988d1f9941735","name":"Food & Drink Shop","pluralName":"Food & Drink Shops","shortName":"Food & Drink","icon":{"prefix":"https:\/\/ss1.4sqi.net\/img\/categories_v2\/shops\/foodanddrink_","suffix":".png"},"primary":"true"}],"verified":"false","restricted":"true","stats":{"checkinsCount":"17","usersCount":"14","tipCount":"0"},"specials":{"count":"0"},"hereNow":{"count":"0"},"referralId":"v-1392478073"},{"id":"4b75c7b7f964a5202f242ee3","name":"Cafe Amisha","location":{"address":"161 Grange Rd. Southwark","lat":"51.495249","lng":"-0.076764","distance":"294","postalCode":"SE1 3GH","cc":"GB","city":"London","state":"Greater London","country":"United Kingdom"},"categories":[{"id":"4bf58dd8d48988d110941735","name":"Italian Restaurant","pluralName":"Italian Restaurants","shortName":"Italian","icon":{"prefix":"https:\/\/ss1.4sqi.net\/img\/categories_v2\/food\/italian_","suffix":".png"},"primary":"true"}],"verified":"false","restricted":"true","stats":{"checkinsCount":"259","usersCount":"97","tipCount":"9"},"url":"http:\/\/www.cafeamisha.co.uk","reservations":{"url":"http:\/\/www.toptable.co.uk\/single.aspx?rid=82549&ref=9601"},"menu":{"type":"Menu","label":"Menu","anchor":"View Menu","url":"https:\/\/foursquare.com\/v\/cafe-amisha\/4b75c7b7f964a5202f242ee3\/menu","mobileUrl":"https:\/\/foursquare.com\/v\/4b75c7b7f964a5202f242ee3\/device_menu"},"specials":{"count":"0"},"hereNow":{"count":"0"},"referralId":"v-1392478073"},{"id":"4d7f2d734219a1cd027e6fd3","name":"London Displays UK Ltd","contact":{"phone":"+442072379333","formattedPhone":"+44 20 7237 9333"},"location":{"address":"69 Enid Street","lat":"51.497778","lng":"-0.07287","distance":"388","postalCode":"SE16 3RA","cc":"GB","city":"Camberwell","state":"Greater London","country":"United Kingdom"},"categories":[{"id":"4bf58dd8d48988d124941735","name":"Office","pluralName":"Offices","shortName":"Office","icon":{"prefix":"https:\/\/ss1.4sqi.net\/img\/categories_v2\/building\/default_","suffix":".png"},"primary":"true"}],"verified":"false","restricted":"true","stats":{"checkinsCount":"50","usersCount":"4","tipCount":"0"},"specials":{"count":"0"},"hereNow":{"count":"0"},"referralId":"v-1392478073"},{"id":"4d8f63adc1b1721e17214546","name":"Fox And Trumpet","contact":{"twitter":"foxandtrumpet"},"location":{"address":"2 Haven Way","crossStreet":"Maltby Street","lat":"51.496487458629524","lng":"-0.07579922676086426","distance":"320","postalCode":"SE1 3FL","cc":"GB","city":"London","state":"Greater London","country":"United Kingdom"},"categories":[{"id":"4bf58dd8d48988d155941735","name":"Gastropub","pluralName":"Gastropubs","shortName":"Gastropub","icon":{"prefix":"https:\/\/ss1.4sqi.net\/img\/categories_v2\/food\/gastropub_","suffix":".png"},"primary":"true"}],"verified":"true","restricted":"true","stats":{"checkinsCount":"24","usersCount":"7","tipCount":"3"},"specials":{"count":"0"},"hereNow":{"count":"0"},"venuePage":{"id":"63241101"},"referralId":"v-1392478073"},{"id":"4e05bc896284d9ee92ca4215","name":"Kappacasein","location":{"lat":"51.49688249345264","lng":"-0.0689787553119456","distance":"391","cc":"GB","country":"United Kingdom"},"categories":[{"id":"4bf58dd8d48988d11e951735","name":"Cheese Shop","pluralName":"Cheese Shops","shortName":"Cheese Shop","icon":{"prefix":"https:\/\/ss1.4sqi.net\/img\/categories_v2\/shops\/food_cheese_","suffix":".png"},"primary":"true"}],"verified":"false","restricted":"true","stats":{"checkinsCount":"96","usersCount":"52","tipCount":"3"},"specials":{"count":"0"},"hereNow":{"count":"0"},"referralId":"v-1392478073"},{"id":"50be5b13e4b09846c21d7269","name":"SE1 3AG","location":{"lat":"51.495449","lng":"-0.076452","distance":"283","cc":"GB","country":"United Kingdom"},"categories":[{"id":"4d954b06a243a5684965b473","name":"Residential Building (Apartment \/ Condo)","pluralName":"Residential Buildings (Apartments \/ Condos)","shortName":"Residential","icon":{"prefix":"https:\/\/ss1.4sqi.net\/img\/categories_v2\/building\/apartment_","suffix":".png"},"primary":"true"}],"verified":"false","restricted":"true","stats":{"checkinsCount":"26","usersCount":"5","tipCount":"0"},"specials":{"count":"0"},"hereNow":{"count":"0"},"referralId":"v-1392478073"},{"id":"50c089b4e4b0d858ec590735","name":"Croydon Coroners Court","location":{"address":"Barclays Road","lat":"51.49299852291884","lng":"-0.07417593588873346","distance":"172","cc":"GB","city":"Croydon","state":"Greater London","country":"United Kingdom"},"categories":[{"id":"4bf58dd8d48988d12b941735","name":"Courthouse","pluralName":"Courthouses","shortName":"Courthouse","icon":{"prefix":"https:\/\/ss1.4sqi.net\/img\/categories_v2\/building\/government_courthouse_","suffix":".png"},"primary":"true"}],"verified":"false","restricted":"true","stats":{"checkinsCount":"2","usersCount":"2","tipCount":"0"},"specials":{"count":"0"},"hereNow":{"count":"0"},"referralId":"v-1392478073"},{"id":"5264e4a111d206f2e91842f5","name":"The Grange Dental Surgery","location":{"address":"Grange Road","lat":"51.493798","lng":"-0.074591","distance":"135","cc":"GB","city":"London","state":"Greater London","country":"United Kingdom"},"categories":[{"id":"4bf58dd8d48988d178941735","name":"Dentist's Office","pluralName":"Dentist's Offices","shortName":"Dentist's Office","icon":{"prefix":"https:\/\/ss1.4sqi.net\/img\/categories_v2\/building\/medical_dentist_","suffix":".png"},"primary":"true"}],"verified":"false","restricted":"true","stats":{"checkinsCount":"4","usersCount":"2","tipCount":"0"},"specials":{"count":"0"},"hereNow":{"count":"0"},"referralId":"v-1392478073"},{"id":"4c1e2c95fcf8c9b6e9cdac0b","name":"Kagyu Samye Dzong London","contact":{"phone":"+442033271650","formattedPhone":"+44 20 3327 1650","twitter":"ksdlondon"},"location":{"address":"15 Spa Rd.","lat":"51.49543177761076","lng":"-0.07415637243561729","distance":"158","postalCode":"SE16 3SA","cc":"GB","city":"Bermondsey","state":"Greater London","country":"United Kingdom"},"categories":[{"id":"4bf58dd8d48988d13a941735","name":"Temple","pluralName":"Temples","shortName":"Temple","icon":{"prefix":"https:\/\/ss1.4sqi.net\/img\/categories_v2\/building\/religious_temple_","suffix":".png"},"primary":"true"}],"verified":"false","restricted":"true","stats":{"checkinsCount":"106","usersCount":"24","tipCount":"2"},"specials":{"count":"0"},"hereNow":{"count":"0"},"referralId":"v-1392478073"},{"id":"4e7e1ce602d59de1bbee9b05","name":"Golden Delight","location":{"lat":"51.493633","lng":"-0.074148","distance":"118","cc":"GB","city":"Camberwell","state":"Greater London","country":"United Kingdom"},"categories":[{"id":"4bf58dd8d48988d145941735","name":"Chinese Restaurant","pluralName":"Chinese Restaurants","shortName":"Chinese","icon":{"prefix":"https:\/\/ss1.4sqi.net\/img\/categories_v2\/food\/chinese_","suffix":".png"},"primary":"true"}],"verified":"false","restricted":"true","stats":{"checkinsCount":"5","usersCount":"3","tipCount":"0"},"specials":{"count":"0"},"hereNow":{"count":"0"},"referralId":"v-1392478073"},{"id":"4e996bbe0aaf0a73a1d5235d","name":"Coleman Coffee Roasters","location":{"lat":"51.49591718206546","lng":"-0.06988212742251262","distance":"271","cc":"GB","city":"London","state":"Greater London","country":"United Kingdom"},"categories":[{"id":"4bf58dd8d48988d1e0931735","name":"Coffee Shop","pluralName":"Coffee Shops","shortName":"Coffee Shop","icon":{"prefix":"https:\/\/ss1.4sqi.net\/img\/categories_v2\/food\/coffeeshop_","suffix":".png"},"primary":"true"}],"verified":"false","restricted":"true","stats":{"checkinsCount":"52","usersCount":"29","tipCount":"1"},"specials":{"count":"0"},"hereNow":{"count":"0"},"referralId":"v-1392478073"},{"id":"511bef53e4b06f0b977a0df6","name":"Best One Convenience","location":{"address":"128 Grange Road","lat":"51.49347","lng":"-0.074008","distance":"123","postalCode":"SE1 3AL","cc":"GB","city":"London","state":"Greater London","country":"United Kingdom"},"categories":[{"id":"4d954b0ea243a5684a65b473","name":"Convenience Store","pluralName":"Convenience Stores","shortName":"Convenience Stores","icon":{"prefix":"https:\/\/ss1.4sqi.net\/img\/categories_v2\/shops\/conveniencestore_","suffix":".png"},"primary":"true"}],"verified":"false","restricted":"true","stats":{"checkinsCount":"2","usersCount":"1","tipCount":"0"},"specials":{"count":"0"},"hereNow":{"count":"0"},"referralId":"v-1392478073"},{"id":"4fca0621e4b00af0502ec144","name":"Aubert & Mascoli","contact":{"twitter":"aubertmascoli"},"location":{"address":"Spa Rd","crossStreet":"Frean St","lat":"51.49657477843845","lng":"-0.0688522454080039","distance":"373","cc":"GB","city":"London","state":"Greater London","country":"United Kingdom"},"categories":[{"id":"4bf58dd8d48988d119951735","name":"Wine Shop","pluralName":"Wine Shops","shortName":"Wine Shop","icon":{"prefix":"https:\/\/ss1.4sqi.net\/img\/categories_v2\/shops\/food_wineshop_","suffix":".png"},"primary":"true"}],"verified":"false","restricted":"true","stats":{"checkinsCount":"18","usersCount":"7","tipCount":"0"},"specials":{"count":"0"},"hereNow":{"count":"0"},"referralId":"v-1392478073"},{"id":"4f6f5dc9e4b086107860adc8","name":"The Grange Pub","contact":{"phone":"+442072316563","formattedPhone":"+44 20 7231 6563"},"location":{"address":"103 Grange Rd, London Borough of Southwark, London SE1 3BW","lat":"51.4938921412747","lng":"-0.07471513494088741","distance":"139","postalCode":"SE1","cc":"GB","city":"London","state":"Greater London","country":"United Kingdom"},"categories":[{"id":"4bf58dd8d48988d11b941735","name":"Pub","pluralName":"Pubs","shortName":"Pub","icon":{"prefix":"https:\/\/ss1.4sqi.net\/img\/categories_v2\/nightlife\/pub_","suffix":".png"},"primary":"true"}],"verified":"false","restricted":"true","stats":{"checkinsCount":"20","usersCount":"8","tipCount":"0"},"specials":{"count":"0"},"hereNow":{"count":"0"},"referralId":"v-1392478073"},{"id":"51a715f5498e6cf7d7440db2","name":"Grange Road Practice","location":{"address":"Grande Road","lat":"51.493548529039295","lng":"-0.07458772510053019","distance":"148","postalCode":"Se1 3gf","cc":"GB","city":"London","state":"Greater London","country":"United Kingdom"},"categories":[{"id":"4bf58dd8d48988d104941735","name":"Medical Center","pluralName":"Medical Centers","shortName":"Medical","icon":{"prefix":"https:\/\/ss1.4sqi.net\/img\/categories_v2\/building\/medical_","suffix":".png"},"primary":"true"}],"verified":"false","restricted":"true","stats":{"checkinsCount":"2","usersCount":"2","tipCount":"0"},"specials":{"count":"0"},"hereNow":{"count":"0"},"referralId":"v-1392478073"},{"id":"4f92909de4b0a510a608fb9f","name":"Cadbury Way","location":{"lat":"51.493915330902404","lng":"-0.0706050432354571","distance":"157","cc":"GB","country":"United Kingdom"},"categories":[{"id":"4d954b06a243a5684965b473","name":"Residential Building (Apartment \/ Condo)","pluralName":"Residential Buildings (Apartments \/ Condos)","shortName":"Residential","icon":{"prefix":"https:\/\/ss1.4sqi.net\/img\/categories_v2\/building\/apartment_","suffix":".png"},"primary":"true"}],"verified":"false","restricted":"true","stats":{"checkinsCount":"19","usersCount":"5","tipCount":"0"},"specials":{"count":"0"},"hereNow":{"count":"0"},"referralId":"v-1392478073"}],"confident":"true"}}