{"meta":{"code":"200"},"response":{"venues":[{"id":"4ddeb2181f6e03694749e96c","name":"Rutland Gate","location":{"lat":"51.50096031479189","lng":"-0.16792869783752262","distance":"186","cc":"GB","city":"London","state":"Greater London","country":"United Kingdom"},"categories":[{"id":"4d954b06a243a5684965b473","name":"Residential Building (Apartment \/ Condo)","pluralName":"Residential Buildings (Apartments \/ Condos)","shortName":"Residential","icon":{"prefix":"https:\/\/ss1.4sqi.net\/img\/categories_v2\/building\/apartment_","suffix":".png"},"primary":"true"}],"verified":"false","restricted":"true","stats":{"checkinsCount":"541","usersCount":"83","tipCount":"0"},"specials":{"count":"0"},"hereNow":{"count":"0"},"referralId":"v-1392478051"},{"id":"52d71ac611d2dae852a0be1f","name":"Chapati & Karak","location":{"address":"144\/2 Brompton Rd","lat":"51.49842782431663","lng":"-0.16587710836994135","distance":"164","cc":"GB","city":"London","state":"Greater London","country":"United Kingdom"},"categories":[{"id":"4bf58dd8d48988d16d941735","name":"Caf\u00e9","pluralName":"Caf\u00e9s","shortName":"Caf\u00e9","icon":{"prefix":"https:\/\/ss1.4sqi.net\/img\/categories_v2\/food\/cafe_","suffix":".png"},"primary":"true"}],"verified":"false","restricted":"true","stats":{"checkinsCount":"246","usersCount":"164","tipCount":"14"},"specials":{"count":"0"},"hereNow":{"count":"0"},"referralId":"v-1392478051"},{"id":"4b54db58f964a520f6cf27e3","name":"Caffe Concerto","contact":{"phone":"+448443358403","formattedPhone":"+44 844 335 8403","twitter":"caffeconcerto"},"location":{"address":"152 Brompton Rd.","lat":"51.498391039960794","lng":"-0.16639888286590576","distance":"139","postalCode":"SW3 1HX","cc":"GB","city":"Knightsbridge","state":"Greater London","country":"United Kingdom"},"categories":[{"id":"4bf58dd8d48988d110941735","name":"Italian Restaurant","pluralName":"Italian Restaurants","shortName":"Italian","icon":{"prefix":"https:\/\/ss1.4sqi.net\/img\/categories_v2\/food\/italian_","suffix":".png"},"primary":"true"}],"verified":"false","restricted":"true","stats":{"checkinsCount":"1468","usersCount":"903","tipCount":"29"},"specials":{"count":"0"},"hereNow":{"count":"0"},"referralId":"v-1392478051"},{"id":"4b166178f964a52091b823e3","name":"Gap","contact":{"phone":"+442072251112","formattedPhone":"+44 20 7225 1112","twitter":"ukgap"},"location":{"address":"145-149 Brompton Road, London SW3 1QP","crossStreet":"off Hans Rd.","lat":"51.49890630786486","lng":"-0.16484637365410665","distance":"209","postalCode":"SW3 1QP","cc":"GB","city":"London","state":"Greater London","country":"United Kingdom"},"categories":[{"id":"4bf58dd8d48988d103951735","name":"Clothing Store","pluralName":"Clothing Stores","shortName":"Apparel","icon":{"prefix":"https:\/\/ss1.4sqi.net\/img\/categories_v2\/shops\/apparel_","suffix":".png"},"primary":"true"}],"verified":"true","restricted":"true","stats":{"checkinsCount":"661","usersCount":"582","tipCount":"1"},"url":"http:\/\/www.gap.eu","specials":{"count":"0"},"hereNow":{"count":"0"},"storeId":"943 \/ 9072","referralId":"v-1392478051"},{"id":"4ac518c3f964a52037a420e3","name":"Tea Clipper","contact":{"phone":"+442075895251","formattedPhone":"+44 20 7589 5251"},"location":{"address":"19 Montpelier St.","lat":"51.499543","lng":"-0.165905","distance":"134","postalCode":"SW7 1HF","cc":"GB","city":"London","state":"Greater London","country":"United Kingdom"},"categories":[{"id":"4bf58dd8d48988d11b941735","name":"Pub","pluralName":"Pubs","shortName":"Pub","icon":{"prefix":"https:\/\/ss1.4sqi.net\/img\/categories_v2\/nightlife\/pub_","suffix":".png"},"primary":"true"}],"verified":"false","restricted":"true","stats":{"checkinsCount":"820","usersCount":"466","tipCount":"19"},"url":"http:\/\/teaclipperknightsbridge.com","menu":{"type":"Menu","label":"Menu","anchor":"View Menu","url":"https:\/\/foursquare.com\/v\/tea-clipper\/4ac518c3f964a52037a420e3\/menu","mobileUrl":"https:\/\/foursquare.com\/v\/4ac518c3f964a52037a420e3\/device_menu"},"specials":{"count":"0"},"hereNow":{"count":"1","groups":[{"type":"others","name":"Other people here","count":"1"}]},"referralId":"v-1392478051"},{"id":"4bdfce4fffdec9288335eda1","name":"Paul","contact":{"phone":"+442075846117","formattedPhone":"+44 20 7584 6117","twitter":"paul__uk"},"location":{"address":"122 Brompton Rd.","lat":"51.49899869138449","lng":"-0.16496155433634582","distance":"199","postalCode":"SW3 1JD","cc":"GB","city":"London","state":"Greater London","country":"United Kingdom"},"categories":[{"id":"4bf58dd8d48988d16a941735","name":"Bakery","pluralName":"Bakeries","shortName":"Bakery","icon":{"prefix":"https:\/\/ss1.4sqi.net\/img\/categories_v2\/food\/bakery_","suffix":".png"},"primary":"true"}],"verified":"false","restricted":"true","stats":{"checkinsCount":"674","usersCount":"484","tipCount":"5"},"url":"http:\/\/www.paul-uk.com","specials":{"count":"0"},"hereNow":{"count":"2","groups":[{"type":"others","name":"Other people here","count":"2"}]},"referralId":"v-1392478051"},{"id":"4ac518e1f964a52062aa20e3","name":"Haandi Knightsbridge","contact":{"phone":"+442078237373","formattedPhone":"+44 20 7823 7373"},"location":{"address":"7 Cheval Place","lat":"51.49887","lng":"-0.166142","distance":"124","postalCode":"SW7 1EW","cc":"GB","city":"London","state":"Greater London","country":"United Kingdom"},"categories":[{"id":"4bf58dd8d48988d10f941735","name":"Indian Restaurant","pluralName":"Indian Restaurants","shortName":"Indian","icon":{"prefix":"https:\/\/ss1.4sqi.net\/img\/categories_v2\/food\/indian_","suffix":".png"},"primary":"true"}],"verified":"false","restricted":"true","stats":{"checkinsCount":"173","usersCount":"151","tipCount":"4"},"url":"http:\/\/www.haandi-restaurants.com\/default.aspx","menu":{"type":"Menu","label":"Menu","anchor":"View Menu","url":"https:\/\/foursquare.com\/v\/haandi-knightsbridge\/4ac518e1f964a52062aa20e3\/menu","mobileUrl":"https:\/\/foursquare.com\/v\/4ac518e1f964a52062aa20e3\/device_menu"},"specials":{"count":"0"},"hereNow":{"count":"1","groups":[{"type":"others","name":"Other people here","count":"1"}]},"referralId":"v-1392478051"},{"id":"4cfbaaf834c1a093c04c470e","name":"Mamounia Lounge Knightsbridge","contact":{"phone":"+442075817777","formattedPhone":"+44 20 7581 7777","facebook":"150766204982123"},"location":{"address":"136 Brompton Road","lat":"51.49852052302965","lng":"-0.16565410275995823","distance":"171","postalCode":"SW3 1HY","cc":"GB","city":"Knightsbridge","state":"Greater London","country":"United Kingdom"},"categories":[{"id":"4bf58dd8d48988d115941735","name":"Middle Eastern Restaurant","pluralName":"Middle Eastern Restaurants","shortName":"Middle Eastern","icon":{"prefix":"https:\/\/ss1.4sqi.net\/img\/categories_v2\/food\/default_","suffix":".png"},"primary":"true"}],"verified":"true","restricted":"true","stats":{"checkinsCount":"2280","usersCount":"1046","tipCount":"12"},"url":"http:\/\/www.mamounialounge.com","specials":{"count":"3","items":[{"id":"5020fbe429a6d2dc98f42a02","type":"count","message":"Free glass of Prosecco with any course ordered. Can not be combined with any other offer.","description":"Unlocked on your 1st check-in","finePrint":"Can not be combined with any other offer. Offer only valid in main restaurant area.","icon":"newbie","title":"Newbie Special","provider":"foursquare","redemption":"standard","page":{"id":"34205393","firstName":"Mamounia Lounge","gender":"none","photo":{"prefix":"https:\/\/irs2.4sqi.net\/img\/user\/","suffix":"\/DASWGXXGLPWFX2GT.jpg"},"type":"chain","followers":{"count":"3"},"tips":{"count":"0"},"homeCity":"London, United Kingdom","bio":"","contact":{"facebook":"150766204982123"}}},{"id":"5020fdb929a6d2dc98f4bc0b","type":"frequency","message":"Free Baklawa with every two courses ordered.","description":"Unlocked every check-in","finePrint":"Can not be combined with any other offer. Offer only availble when you order a starter and a main course.","icon":"check-in","title":"Check-in Special","provider":"foursquare","redemption":"standard","page":{"id":"34205393","firstName":"Mamounia Lounge","gender":"none","photo":{"prefix":"https:\/\/irs2.4sqi.net\/img\/user\/","suffix":"\/DASWGXXGLPWFX2GT.jpg"},"type":"chain","followers":{"count":"3"},"tips":{"count":"0"},"homeCity":"London, United Kingdom","bio":"","contact":{"facebook":"150766204982123"}}},{"id":"50224e5529a6d4f88747d20c","type":"regular","message":"Complimentary cocktail of the day when you order any two courses.","description":"Unlocked for checking in 4 times in 30 days","finePrint":"Not to be used in conjunction with any other offer. One offer per person. Only valid in the main restaurant dining area.","icon":"frequency","title":"Loyalty Special","provider":"foursquare","redemption":"standard","page":{"id":"34205393","firstName":"Mamounia Lounge","gender":"none","photo":{"prefix":"https:\/\/irs2.4sqi.net\/img\/user\/","suffix":"\/DASWGXXGLPWFX2GT.jpg"},"type":"chain","followers":{"count":"3"},"tips":{"count":"0"},"homeCity":"London, United Kingdom","bio":"","contact":{"facebook":"150766204982123"}}}]},"hereNow":{"count":"1","groups":[{"type":"others","name":"Other people here","count":"1"}]},"storeId":"","referralId":"v-1392478051"},{"id":"4b1a87caf964a520b6eb23e3","name":"Costa Coffee","contact":{"phone":"+442075810192","formattedPhone":"+44 20 7581 0192"},"location":{"address":"197 Brompton Rd.","lat":"51.49788235444099","lng":"-0.16670623831697529","distance":"174","postalCode":"SW3 1LA","cc":"GB","city":"Knightsbridge","state":"Greater London","country":"United Kingdom"},"categories":[{"id":"4bf58dd8d48988d1e0931735","name":"Coffee Shop","pluralName":"Coffee Shops","shortName":"Coffee Shop","icon":{"prefix":"https:\/\/ss1.4sqi.net\/img\/categories_v2\/food\/coffeeshop_","suffix":".png"},"primary":"true"}],"verified":"false","restricted":"true","stats":{"checkinsCount":"851","usersCount":"554","tipCount":"8"},"specials":{"count":"0"},"hereNow":{"count":"1","groups":[{"type":"others","name":"Other people here","count":"1"}]},"referralId":"v-1392478051"},{"id":"52e3d610498e3a9d1d42c9fd","name":"\u062c\u0628\u0627\u062a\u064a \u0648\u0643\u0631\u0643 | \u0644\u0646\u062f\u0646 - \u0642\u0637\u0631","location":{"lat":"51.498398","lng":"-0.166007","distance":"159","cc":"GB","country":"United Kingdom"},"categories":[{"id":"4bf58dd8d48988d16d941735","name":"Caf\u00e9","pluralName":"Caf\u00e9s","shortName":"Caf\u00e9","icon":{"prefix":"https:\/\/ss1.4sqi.net\/img\/categories_v2\/food\/cafe_","suffix":".png"},"primary":"true"}],"verified":"false","restricted":"true","stats":{"checkinsCount":"25","usersCount":"17","tipCount":"0"},"specials":{"count":"0"},"hereNow":{"count":"1","groups":[{"type":"others","name":"Other people here","count":"1"}]},"referralId":"v-1392478051"},{"id":"4cf73bf10a71224b0ea62293","name":"Nespresso Boutique","contact":{"phone":"+44800442442","formattedPhone":"+44 800 442442","twitter":"nespresso"},"location":{"address":"163-165 Brompton Rd","lat":"51.49849527571098","lng":"-0.16542498662240185","distance":"186","postalCode":"SW3 1PY","cc":"GB","city":"London","state":"Greater London","country":"United Kingdom"},"categories":[{"id":"4bf58dd8d48988d1e0931735","name":"Coffee Shop","pluralName":"Coffee Shops","shortName":"Coffee Shop","icon":{"prefix":"https:\/\/ss1.4sqi.net\/img\/categories_v2\/food\/coffeeshop_","suffix":".png"},"primary":"true"}],"verified":"true","restricted":"true","stats":{"checkinsCount":"547","usersCount":"362","tipCount":"5"},"url":"http:\/\/www.nespresso.com\/uk\/en","specials":{"count":"0"},"hereNow":{"count":"1","groups":[{"type":"others","name":"Other people here","count":"1"}]},"storeId":"","referralId":"v-1392478051"},{"id":"4c0922efffb8c9b6df556961","name":"Pret A Manger","contact":{"phone":"+442079325337","formattedPhone":"+44 20 7932 5337","twitter":"pret","facebook":"162638680417951"},"location":{"address":"132 Brompton Rd","crossStreet":"Montpelier Street","lat":"51.4987362781","lng":"-0.165685596314","distance":"159","postalCode":"SW3 1HY","cc":"GB","city":"Brompton Road, London","country":"United Kingdom"},"categories":[{"id":"4bf58dd8d48988d1c5941735","name":"Sandwich Place","pluralName":"Sandwich Places","shortName":"Sandwiches","icon":{"prefix":"https:\/\/ss1.4sqi.net\/img\/categories_v2\/food\/sandwiches_","suffix":".png"},"primary":"true"}],"verified":"true","restricted":"true","stats":{"checkinsCount":"901","usersCount":"571","tipCount":"6"},"url":"http:\/\/www.pret.com","specials":{"count":"0"},"hereNow":{"count":"0"},"storeId":"137","referralId":"v-1392478051"},{"id":"4c1d4908b4e62d7f7586dc93","name":"McDonald's","contact":{"phone":"+442075845096","formattedPhone":"+44 20 7584 5096"},"location":{"address":"177 Brompton Rd","lat":"51.49841242853201","lng":"-0.165922998387046","distance":"162","postalCode":"SW3 1NF","cc":"GB","city":"Kensington","state":"Greater London","country":"United Kingdom"},"categories":[{"id":"4bf58dd8d48988d16e941735","name":"Fast Food Restaurant","pluralName":"Fast Food Restaurants","shortName":"Fast Food","icon":{"prefix":"https:\/\/ss1.4sqi.net\/img\/categories_v2\/food\/fastfood_","suffix":".png"},"primary":"true"}],"verified":"false","restricted":"true","stats":{"checkinsCount":"1064","usersCount":"865","tipCount":"8"},"url":"http:\/\/www.mcdonalds.co.uk","specials":{"count":"0"},"hereNow":{"count":"0"},"referralId":"v-1392478051"},{"id":"50bc9f18e4b0b627a8ca9c12","name":"Luna Cafe","contact":{"phone":"+442075810702","formattedPhone":"+44 20 7581 0702"},"location":{"address":"176 Brompton Road, Knightsbridge","lat":"51.497868","lng":"-0.166994","distance":"167","postalCode":"SW3 1HQ","cc":"GB","city":"London","state":"Greater London","country":"United Kingdom"},"categories":[{"id":"4bf58dd8d48988d16d941735","name":"Caf\u00e9","pluralName":"Caf\u00e9s","shortName":"Caf\u00e9","icon":{"prefix":"https:\/\/ss1.4sqi.net\/img\/categories_v2\/food\/cafe_","suffix":".png"},"primary":"true"}],"verified":"false","restricted":"true","stats":{"checkinsCount":"1252","usersCount":"684","tipCount":"19"},"url":"http:\/\/www.lunacafe.co.uk","specials":{"count":"0"},"hereNow":{"count":"0"},"referralId":"v-1392478051"},{"id":"4bfa52838d30d13af0650318","name":"Patisserie Valerie","contact":{"phone":"+442078239971","formattedPhone":"+44 20 7823 9971"},"location":{"address":"215 Brompton Rd.","lat":"51.4973524291245","lng":"-0.16759514808654785","distance":"216","postalCode":"SW3 2EJ","cc":"GB","city":"Knightsbridge","state":"Greater London","country":"United Kingdom"},"categories":[{"id":"4bf58dd8d48988d16a941735","name":"Bakery","pluralName":"Bakeries","shortName":"Bakery","icon":{"prefix":"https:\/\/ss1.4sqi.net\/img\/categories_v2\/food\/bakery_","suffix":".png"},"primary":"true"}],"verified":"true","restricted":"true","stats":{"checkinsCount":"865","usersCount":"729","tipCount":"9"},"menu":{"type":"Menu","label":"Menu","anchor":"View Menu","url":"https:\/\/foursquare.com\/v\/patisserie-valerie\/4bfa52838d30d13af0650318\/menu","mobileUrl":"https:\/\/foursquare.com\/v\/4bfa52838d30d13af0650318\/device_menu"},"specials":{"count":"0"},"hereNow":{"count":"0"},"venuePage":{"id":"42636388"},"referralId":"v-1392478051"},{"id":"4b609bb3f964a520ffef29e3","name":"Shanghai Knightsbridge","location":{"lat":"51.498582171023635","lng":"-0.16577982832305932","distance":"160","cc":"GB","country":"United Kingdom"},"categories":[{"id":"4bf58dd8d48988d145941735","name":"Chinese Restaurant","pluralName":"Chinese Restaurants","shortName":"Chinese","icon":{"prefix":"https:\/\/ss1.4sqi.net\/img\/categories_v2\/food\/chinese_","suffix":".png"},"primary":"true"}],"verified":"false","restricted":"true","stats":{"checkinsCount":"390","usersCount":"247","tipCount":"7"},"reservations":{"url":"http:\/\/www.toptable.co.uk\/single.aspx?rid=48199&ref=9601"},"specials":{"count":"0"},"hereNow":{"count":"1","groups":[{"type":"others","name":"Other people here","count":"1"}]},"referralId":"v-1392478051"},{"id":"4ce839ddf3bda143fd19b8e4","name":"Joury","contact":{"phone":"+442075891188","formattedPhone":"+44 20 7589 1188"},"location":{"address":"146 Brompton Rd.","lat":"51.498398","lng":"-0.165827","distance":"169","postalCode":"SW3 1HX","cc":"GB","city":"London","state":"Greater London","country":"United Kingdom"},"categories":[{"id":"4bf58dd8d48988d115941735","name":"Middle Eastern Restaurant","pluralName":"Middle Eastern Restaurants","shortName":"Middle Eastern","icon":{"prefix":"https:\/\/ss1.4sqi.net\/img\/categories_v2\/food\/default_","suffix":".png"},"primary":"true"}],"verified":"false","restricted":"true","stats":{"checkinsCount":"723","usersCount":"360","tipCount":"4"},"specials":{"count":"0"},"hereNow":{"count":"0"},"referralId":"v-1392478051"},{"id":"4ac518bcf964a52088a220e3","name":"The Bunch of Grapes","location":{"address":"207 Brompton Rd","lat":"51.497505","lng":"-0.16746","distance":"200","postalCode":"SW3 1LA","cc":"GB","city":"London","state":"Greater London","country":"United Kingdom"},"categories":[{"id":"4bf58dd8d48988d11b941735","name":"Pub","pluralName":"Pubs","shortName":"Pub","icon":{"prefix":"https:\/\/ss1.4sqi.net\/img\/categories_v2\/nightlife\/pub_","suffix":".png"},"primary":"true"}],"verified":"false","restricted":"true","stats":{"checkinsCount":"1057","usersCount":"925","tipCount":"20"},"specials":{"count":"0"},"hereNow":{"count":"0"},"referralId":"v-1392478051"},{"id":"4b912915f964a52041a733e3","name":"Area Cafe","contact":{"phone":"+442075897613","formattedPhone":"+44 20 7589 7613"},"location":{"address":"162 Brompton Rd","lat":"51.498180656018825","lng":"-0.16662139791596692","distance":"148","postalCode":"SW3 1HQ","cc":"GB","city":"London","state":"Greater London","country":"United Kingdom"},"categories":[{"id":"4bf58dd8d48988d110941735","name":"Italian Restaurant","pluralName":"Italian Restaurants","shortName":"Italian","icon":{"prefix":"https:\/\/ss1.4sqi.net\/img\/categories_v2\/food\/italian_","suffix":".png"},"primary":"true"}],"verified":"false","restricted":"true","stats":{"checkinsCount":"667","usersCount":"437","tipCount":"10"},"specials":{"count":"0"},"hereNow":{"count":"0"},"referralId":"v-1392478051"},{"id":"4b3f7d0cf964a520baa725e3","name":"Caff\u00e8 Nero","contact":{"phone":"+442031440133","formattedPhone":"+44 20 3144 0133"},"location":{"address":"124-126 Brompton Rd.","crossStreet":"Montpelier St.","lat":"51.498952624531626","lng":"-0.16502513155796958","distance":"196","postalCode":"SW3 1JD","cc":"GB","city":"London","state":"Greater London","country":"United Kingdom"},"categories":[{"id":"4bf58dd8d48988d1e0931735","name":"Coffee Shop","pluralName":"Coffee Shops","shortName":"Coffee Shop","icon":{"prefix":"https:\/\/ss1.4sqi.net\/img\/categories_v2\/food\/coffeeshop_","suffix":".png"},"primary":"true"}],"verified":"false","restricted":"true","stats":{"checkinsCount":"1099","usersCount":"840","tipCount":"13"},"url":"http:\/\/www.caffenero.com","specials":{"count":"0"},"hereNow":{"count":"0"},"referralId":"v-1392478051"},{"id":"4ac518e0f964a5202baa20e3","name":"Montpeliano","location":{"address":"13 Montpelier Street","lat":"51.49947475419609","lng":"-0.16590719073457513","distance":"132","postalCode":"SW7 1HQ","cc":"GB","city":"Knightsbridge","state":"Greater London","country":"United Kingdom"},"categories":[{"id":"4bf58dd8d48988d110941735","name":"Italian Restaurant","pluralName":"Italian Restaurants","shortName":"Italian","icon":{"prefix":"https:\/\/ss1.4sqi.net\/img\/categories_v2\/food\/italian_","suffix":".png"},"primary":"true"}],"verified":"false","restricted":"true","stats":{"checkinsCount":"414","usersCount":"294","tipCount":"10"},"menu":{"type":"Menu","label":"Menu","anchor":"View Menu","url":"https:\/\/foursquare.com\/v\/montpeliano-knightsbridge-london\/4ac518e0f964a5202baa20e3\/menu","mobileUrl":"https:\/\/foursquare.com\/v\/4ac518e0f964a5202baa20e3\/device_menu"},"specials":{"count":"0"},"hereNow":{"count":"0"},"referralId":"v-1392478051"},{"id":"4b460c69f964a520ec1426e3","name":"Holy Trinity Brompton","contact":{"twitter":"htbnews"},"location":{"address":"Brompton Rd.","lat":"51.49785763121086","lng":"-0.16981847219720322","distance":"211","postalCode":"SW7 1JA","cc":"GB","city":"London","state":"Greater London","country":"United Kingdom"},"categories":[{"id":"4bf58dd8d48988d132941735","name":"Church","pluralName":"Churches","shortName":"Church","icon":{"prefix":"https:\/\/ss1.4sqi.net\/img\/categories_v2\/building\/religious_church_","suffix":".png"},"primary":"true"}],"verified":"false","restricted":"true","stats":{"checkinsCount":"813","usersCount":"297","tipCount":"4"},"specials":{"count":"0"},"hereNow":{"count":"0"},"referralId":"v-1392478051"},{"id":"4b12ba65f964a520ec8c23e3","name":"Al Arez","contact":{"phone":"+442075840390","formattedPhone":"+44 20 7584 0390"},"location":{"address":"128 Brompton Rd","lat":"51.498855366816784","lng":"-0.1650180527426311","distance":"198","postalCode":"SW3 1JD","cc":"GB","city":"London","state":"Greater London","country":"United Kingdom"},"categories":[{"id":"4bf58dd8d48988d115941735","name":"Middle Eastern Restaurant","pluralName":"Middle Eastern Restaurants","shortName":"Middle Eastern","icon":{"prefix":"https:\/\/ss1.4sqi.net\/img\/categories_v2\/food\/default_","suffix":".png"},"primary":"true"}],"verified":"false","restricted":"true","stats":{"checkinsCount":"477","usersCount":"368","tipCount":"8"},"specials":{"count":"0"},"hereNow":{"count":"0"},"referralId":"v-1392478051"},{"id":"4d5406dea64560fc3d6cb53a","name":"Eqvvs Training","contact":{"phone":"+442078381138","formattedPhone":"+44 20 7838 1138","twitter":"eqvvs_training"},"location":{"address":"43a Cheval Place","lat":"51.498384717800626","lng":"-0.16703560395464423","distance":"113","postalCode":"SW7 1EW","cc":"GB","city":"London","state":"Greater London","country":"United Kingdom"},"categories":[{"id":"4bf58dd8d48988d175941735","name":"Gym \/ Fitness Center","pluralName":"Gyms or Fitness Centers","shortName":"Gym \/ Fitness","icon":{"prefix":"https:\/\/ss1.4sqi.net\/img\/categories_v2\/building\/gym_","suffix":".png"},"primary":"true"}],"verified":"false","restricted":"true","stats":{"checkinsCount":"440","usersCount":"20","tipCount":"3"},"specials":{"count":"0"},"hereNow":{"count":"0"},"referralId":"v-1392478051"},{"id":"4c63bc84e1621b8d24aa2653","name":"Turkish Consulate","contact":{"phone":"+442075916900","formattedPhone":"+44 20 7591 6900"},"location":{"address":"Rutland Gardens","lat":"51.50095978888889","lng":"-0.166728","distance":"200","postalCode":"SW7 1BW","cc":"GB","city":"City of Westminster","state":"Greater London","country":"United Kingdom"},"categories":[{"id":"4bf58dd8d48988d12c951735","name":"Embassy \/ Consulate","pluralName":"Embassies \/ Consulates","shortName":"Embassy","icon":{"prefix":"https:\/\/ss1.4sqi.net\/img\/categories_v2\/travel\/embassy_","suffix":".png"},"primary":"true"}],"verified":"false","restricted":"true","stats":{"checkinsCount":"316","usersCount":"234","tipCount":"8"},"specials":{"count":"0"},"hereNow":{"count":"0"},"referralId":"v-1392478051"},{"id":"4beaa54a246fb71393ebabdf","name":"Harrods Estates","contact":{"phone":"+442072256506","formattedPhone":"+44 20 7225 6506"},"location":{"address":"82, Brompton Road","lat":"51.49901234815903","lng":"-0.16480622722791363","distance":"209","postalCode":"SW3 1ER","cc":"GB","city":"Knightsbridge","state":"Greater London","country":"United Kingdom"},"categories":[{"id":"4bf58dd8d48988d1ff941735","name":"Miscellaneous Shop","pluralName":"Miscellaneous Shops","shortName":"Shop","icon":{"prefix":"https:\/\/ss1.4sqi.net\/img\/categories_v2\/shops\/default_","suffix":".png"},"primary":"true"}],"verified":"false","restricted":"true","stats":{"checkinsCount":"488","usersCount":"439","tipCount":"3"},"url":"http:\/\/www.harrodsestates.com","specials":{"count":"0"},"hereNow":{"count":"0"},"referralId":"v-1392478051"},{"id":"4bcef85029d4b713804da9dc","name":"M&S Simply food","contact":{"phone":"+442075897954","formattedPhone":"+44 20 7589 7954"},"location":{"address":"179-181 Brompton Road","lat":"51.498132","lng":"-0.166209","distance":"169","postalCode":"SW3 1NF","cc":"GB","city":"Kensington","state":"Greater London","country":"United Kingdom"},"categories":[{"id":"4bf58dd8d48988d1f9941735","name":"Food & Drink Shop","pluralName":"Food & Drink Shops","shortName":"Food & Drink","icon":{"prefix":"https:\/\/ss1.4sqi.net\/img\/categories_v2\/shops\/foodanddrink_","suffix":".png"},"primary":"true"}],"verified":"false","restricted":"true","stats":{"checkinsCount":"408","usersCount":"182","tipCount":"1"},"specials":{"count":"0"},"hereNow":{"count":"0"},"referralId":"v-1392478051"},{"id":"516eb418e4b05f6d87aec1af","name":"LayaLina","contact":{"twitter":"layalinasw3"},"location":{"address":"Beauchamp Pl","lat":"51.497946","lng":"-0.165614","distance":"212","postalCode":"SW3 1NG","cc":"GB","city":"London","state":"Greater London","country":"United Kingdom"},"categories":[{"id":"4bf58dd8d48988d119941735","name":"Hookah Bar","pluralName":"Hookah Bars","shortName":"Hookah Bar","icon":{"prefix":"https:\/\/ss1.4sqi.net\/img\/categories_v2\/nightlife\/hookahbar_","suffix":".png"},"primary":"true"}],"verified":"false","restricted":"true","stats":{"checkinsCount":"206","usersCount":"141","tipCount":"3"},"url":"http:\/\/www.layalina.co.uk","reservations":{"url":"http:\/\/www.toptable.co.uk\/single.aspx?rid=85033&ref=9601"},"menu":{"type":"Menu","label":"Menu","anchor":"View Menu","url":"https:\/\/foursquare.com\/v\/layalina\/516eb418e4b05f6d87aec1af\/menu","mobileUrl":"https:\/\/foursquare.com\/v\/516eb418e4b05f6d87aec1af\/device_menu"},"specials":{"count":"0"},"hereNow":{"count":"0"},"referralId":"v-1392478051"},{"id":"4bb79957314e9521ff60479d","name":"Sainsbury's Local","contact":{"phone":"+442075846939","formattedPhone":"+44 20 7584 6939"},"location":{"address":"Brompton Rd","lat":"51.498968840831644","lng":"-0.16448094507071406","distance":"232","cc":"GB","city":"London","state":"Greater London","country":"United Kingdom"},"categories":[{"id":"4bf58dd8d48988d118951735","name":"Grocery Store","pluralName":"Grocery Stores","shortName":"Grocery Store","icon":{"prefix":"https:\/\/ss1.4sqi.net\/img\/categories_v2\/shops\/food_grocery_","suffix":".png"},"primary":"true"}],"verified":"false","restricted":"true","stats":{"checkinsCount":"562","usersCount":"190","tipCount":"2"},"specials":{"count":"0"},"hereNow":{"count":"0"},"referralId":"v-1392478051"},{"id":"4ac518d9f964a5209da820e3","name":"Ciro's Pizza Pomodoro","location":{"address":"51 Beauchamp Place","lat":"51.4978305","lng":"-0.1653498","distance":"235","postalCode":"SW1 1NY","cc":"GB","city":"London","state":"Greater London","country":"United Kingdom"},"categories":[{"id":"4bf58dd8d48988d1ca941735","name":"Pizza Place","pluralName":"Pizza Places","shortName":"Pizza","icon":{"prefix":"https:\/\/ss1.4sqi.net\/img\/categories_v2\/food\/pizza_","suffix":".png"},"primary":"true"}],"verified":"false","restricted":"true","stats":{"checkinsCount":"536","usersCount":"423","tipCount":"19"},"specials":{"count":"0"},"hereNow":{"count":"0"},"referralId":"v-1392478051"}],"confident":"true"}}