{"meta":{"code":"200"},"response":{"venues":[{"id":"4e3b0d598877b00cfc2768ae","name":"Bunga Bunga","contact":{"phone":"+442070950360","formattedPhone":"+44 20 7095 0360","twitter":"bungabungalondn"},"location":{"address":"37 Battersea Bridge Rd","lat":"51.47895073416685","lng":"-0.17037391662597656","distance":"172","postalCode":"SW11 3BA","cc":"GB","city":"London","state":"Greater London","country":"United Kingdom"},"categories":[{"id":"4bf58dd8d48988d11e941735","name":"Cocktail Bar","pluralName":"Cocktail Bars","shortName":"Cocktail","icon":{"prefix":"https:\/\/ss1.4sqi.net\/img\/categories_v2\/nightlife\/cocktails_","suffix":".png"},"primary":"true"}],"verified":"false","restricted":"true","stats":{"checkinsCount":"909","usersCount":"638","tipCount":"18"},"url":"http:\/\/www.bungabunga-london.com","menu":{"type":"Menu","label":"Menu","anchor":"View Menu","url":"https:\/\/foursquare.com\/v\/bunga-bunga\/4e3b0d598877b00cfc2768ae\/menu","mobileUrl":"https:\/\/foursquare.com\/v\/4e3b0d598877b00cfc2768ae\/device_menu"},"specials":{"count":"0"},"hereNow":{"count":"1","groups":[{"type":"others","name":"Other people here","count":"1"}]},"referralId":"v-1392478102"},{"id":"4adcb02ff964a520c42e21e3","name":"Battersea Bridge","location":{"address":"Battersea Bridge Rd.","lat":"51.48087509278401","lng":"-0.17243385314941406","distance":"178","postalCode":"SW11 3BA","cc":"GB","city":"London","state":"Greater London","country":"United Kingdom"},"categories":[{"id":"4bf58dd8d48988d1df941735","name":"Bridge","pluralName":"Bridges","shortName":"Bridge","icon":{"prefix":"https:\/\/ss1.4sqi.net\/img\/categories_v2\/parks_outdoors\/bridge_","suffix":".png"},"primary":"true"}],"verified":"false","restricted":"true","stats":{"checkinsCount":"3155","usersCount":"1100","tipCount":"7"},"specials":{"count":"0"},"hereNow":{"count":"0"},"referralId":"v-1392478102"},{"id":"4ad465e6f964a520bee720e3","name":"Draft House Westbridge","contact":{"phone":"+442072286482","formattedPhone":"+44 20 7228 6482","twitter":"drafthouseuk"},"location":{"address":"74 - 76 Battersea Bridge Rd","crossStreet":"Westbridge Rd","lat":"51.47825580693405","lng":"-0.17041683197021484","distance":"201","postalCode":"SW11 3AG","cc":"GB","city":"Battersea","country":"United Kingdom"},"categories":[{"id":"4bf58dd8d48988d11b941735","name":"Pub","pluralName":"Pubs","shortName":"Pub","icon":{"prefix":"https:\/\/ss1.4sqi.net\/img\/categories_v2\/nightlife\/pub_","suffix":".png"},"primary":"true"}],"verified":"false","restricted":"true","stats":{"checkinsCount":"1849","usersCount":"559","tipCount":"18"},"url":"http:\/\/www.drafthouse.co.uk","specials":{"count":"0"},"hereNow":{"count":"1","groups":[{"type":"others","name":"Other people here","count":"1"}]},"referralId":"v-1392478102"},{"id":"4ae06c7cf964a5202f7f21e3","name":"Battersea Police Station","contact":{"phone":"+442073501122","formattedPhone":"+44 20 7350 1122","twitter":"metpoliceuk"},"location":{"address":"112-118 Battersea Bridge Rd.","lat":"51.47825844876619","lng":"-0.17131110074823402","distance":"154","postalCode":"SW11 3AF","cc":"GB","city":"London","state":"Greater London","country":"United Kingdom"},"categories":[{"id":"4bf58dd8d48988d12e941735","name":"Police Station","pluralName":"Police Stations","shortName":"Police Station","icon":{"prefix":"https:\/\/ss1.4sqi.net\/img\/categories_v2\/building\/government_policestation_","suffix":".png"},"primary":"true"}],"verified":"false","restricted":"true","stats":{"checkinsCount":"409","usersCount":"68","tipCount":"1"},"url":"http:\/\/content.met.police.uk\/Home","specials":{"count":"0"},"hereNow":{"count":"0"},"referralId":"v-1392478102"},{"id":"4c3df2436faac9b672850d76","name":"Battersea Bridge Bus Stop","location":{"lat":"51.479846","lng":"-0.171362","distance":"117","cc":"GB","country":"United Kingdom"},"categories":[{"id":"4bf58dd8d48988d1fe931735","name":"Bus Station","pluralName":"Bus Stations","shortName":"Bus Station","icon":{"prefix":"https:\/\/ss1.4sqi.net\/img\/categories_v2\/travel\/busstation_","suffix":".png"},"primary":"true"}],"verified":"false","restricted":"true","stats":{"checkinsCount":"655","usersCount":"131","tipCount":"0"},"specials":{"count":"0"},"hereNow":{"count":"0"},"referralId":"v-1392478102"},{"id":"4b883fe0f964a5205dea31e3","name":"Albion Riverside","location":{"address":"Hester Road","lat":"51.480647903717035","lng":"-0.16950845809193651","distance":"273","postalCode":"SW11 4AL","cc":"GB","city":"Wandsworth","state":"Greater London","country":"United Kingdom"},"categories":[{"id":"4bf58dd8d48988d130941735","name":"Building","pluralName":"Buildings","shortName":"Building","icon":{"prefix":"https:\/\/ss1.4sqi.net\/img\/categories_v2\/building\/default_","suffix":".png"},"primary":"true"}],"verified":"false","restricted":"true","stats":{"checkinsCount":"718","usersCount":"86","tipCount":"2"},"specials":{"count":"0"},"hereNow":{"count":"0"},"referralId":"v-1392478102"},{"id":"4adc60e0f964a520ef2b21e3","name":"Battersea Grill","contact":{"phone":"+442077389009","formattedPhone":"+44 20 7738 9009"},"location":{"address":"70 Battersea Bridge Rd.","crossStreet":"Parkgate Rd.","lat":"51.47842567744955","lng":"-0.17008078721564504","distance":"211","postalCode":"SW11 3AG","cc":"GB","city":"London","state":"Greater London","country":"United Kingdom"},"categories":[{"id":"4bf58dd8d48988d147941735","name":"Diner","pluralName":"Diners","shortName":"Diner","icon":{"prefix":"https:\/\/ss1.4sqi.net\/img\/categories_v2\/food\/diner_","suffix":".png"},"primary":"true"}],"verified":"false","restricted":"true","stats":{"checkinsCount":"671","usersCount":"198","tipCount":"15"},"url":"http:\/\/www.batterseagrill.co.uk","reservations":{"url":"http:\/\/www.toptable.co.uk\/single.aspx?rid=92649&ref=9601"},"menu":{"type":"Menu","label":"Menu","anchor":"View Menu","url":"https:\/\/foursquare.com\/v\/battersea-grill\/4adc60e0f964a520ef2b21e3\/menu","mobileUrl":"https:\/\/foursquare.com\/v\/4adc60e0f964a520ef2b21e3\/device_menu"},"specials":{"count":"0"},"hereNow":{"count":"0"},"referralId":"v-1392478102"},{"id":"5235d90a11d2240e53afb8c7","name":"RCA battersea","location":{"address":"Royal College of Art, Dyson Building, 1 Hester Road, Battersea, London, SW11 4AN\nNearest tube: Sloane Square","lat":"51.47932733898753","lng":"-0.1709356962097702","distance":"129","cc":"GB","country":"United Kingdom"},"categories":[{"id":"4bf58dd8d48988d199941735","name":"College Arts Building","pluralName":"College Arts Buildings","shortName":"Arts","icon":{"prefix":"https:\/\/ss1.4sqi.net\/img\/categories_v2\/arts_entertainment\/default_","suffix":".png"},"primary":"true"}],"verified":"false","restricted":"true","stats":{"checkinsCount":"11","usersCount":"7","tipCount":"0"},"specials":{"count":"0"},"hereNow":{"count":"0"},"referralId":"v-1392478102"},{"id":"4c260ac6f7ced13a088a256d","name":"Royal College of Art  Sackler Building","location":{"lat":"51.47884697453708","lng":"-0.16988312448024928","distance":"208","cc":"GB","country":"United Kingdom"},"verified":"false","restricted":"true","stats":{"checkinsCount":"81","usersCount":"36","tipCount":"0"},"specials":{"count":"0"},"hereNow":{"count":"0"},"referralId":"v-1392478102"},{"id":"4e82ee470aaf371d668080e1","name":"Royal College of Art - Dyson Building","location":{"lat":"51.479004189669254","lng":"-0.16977310180664062","distance":"212","cc":"GB","country":"United Kingdom"},"categories":[{"id":"4bf58dd8d48988d199941735","name":"College Arts Building","pluralName":"College Arts Buildings","shortName":"Arts","icon":{"prefix":"https:\/\/ss1.4sqi.net\/img\/categories_v2\/arts_entertainment\/default_","suffix":".png"},"primary":"true"}],"verified":"false","restricted":"true","stats":{"checkinsCount":"379","usersCount":"152","tipCount":"0"},"specials":{"count":"0"},"hereNow":{"count":"0"},"referralId":"v-1392478102"},{"id":"4acf1c17f964a5206ed220e3","name":"INQ HQ","location":{"address":"6 Hester Rd","lat":"51.48059102036955","lng":"-0.16982403927110246","distance":"252","postalCode":"Sw11 4an","cc":"GB","city":"London","state":"Greater London","country":"United Kingdom"},"categories":[{"id":"4bf58dd8d48988d125941735","name":"Tech Startup","pluralName":"Tech Startups","shortName":"Tech Startup","icon":{"prefix":"https:\/\/ss1.4sqi.net\/img\/categories_v2\/shops\/technology_","suffix":".png"},"primary":"true"}],"verified":"false","restricted":"true","stats":{"checkinsCount":"2345","usersCount":"92","tipCount":"3"},"specials":{"count":"0"},"hereNow":{"count":"0"},"referralId":"v-1392478102"},{"id":"4ae04c35f964a5208c7e21e3","name":"Bento","contact":{"phone":"+442072232071","formattedPhone":"+44 20 7223 2071"},"location":{"address":"53 Battersea Bridge Rd.","lat":"51.478335991385904","lng":"-0.1700305938720703","distance":"219","postalCode":"SW11 3AX","cc":"GB","city":"London","state":"Greater London","country":"United Kingdom"},"categories":[{"id":"4bf58dd8d48988d111941735","name":"Japanese Restaurant","pluralName":"Japanese Restaurants","shortName":"Japanese","icon":{"prefix":"https:\/\/ss1.4sqi.net\/img\/categories_v2\/food\/japanese_","suffix":".png"},"primary":"true"}],"verified":"false","restricted":"true","stats":{"checkinsCount":"385","usersCount":"75","tipCount":"4"},"specials":{"count":"0"},"hereNow":{"count":"0"},"referralId":"v-1392478102"},{"id":"51f11067498ebeae1e6d478e","name":"YossarianLives!","location":{"lat":"51.47896889237631","lng":"-0.17041174217566857","distance":"169","cc":"GB","country":"United Kingdom"},"categories":[{"id":"4bf58dd8d48988d125941735","name":"Tech Startup","pluralName":"Tech Startups","shortName":"Tech Startup","icon":{"prefix":"https:\/\/ss1.4sqi.net\/img\/categories_v2\/shops\/technology_","suffix":".png"},"primary":"true"}],"verified":"false","restricted":"true","stats":{"checkinsCount":"47","usersCount":"5","tipCount":"0"},"specials":{"count":"0"},"hereNow":{"count":"0"},"referralId":"v-1392478102"},{"id":"4f12efb8e4b0725fed5eb0d4","name":"The Co-operative Food","contact":{"phone":"+442079785091","formattedPhone":"+44 20 7978 5091","twitter":"cooperativefood","facebook":"10150110761225377"},"location":{"address":"27-37 Battersea Bridge Road,","lat":"51.479240113189235","lng":"-0.17045186267051626","distance":"163","postalCode":"SW11 3BA","cc":"GB","city":"London","state":"Greater London","country":"United Kingdom"},"categories":[{"id":"4bf58dd8d48988d118951735","name":"Grocery Store","pluralName":"Grocery Stores","shortName":"Grocery Store","icon":{"prefix":"https:\/\/ss1.4sqi.net\/img\/categories_v2\/shops\/food_grocery_","suffix":".png"},"primary":"true"}],"verified":"true","restricted":"true","stats":{"checkinsCount":"415","usersCount":"68","tipCount":"2"},"url":"http:\/\/co-operativefood.co.uk","specials":{"count":"0"},"hereNow":{"count":"0"},"storeId":"5000128567543","referralId":"v-1392478102"},{"id":"4eba454077c8bf33ea3e28a0","name":"Riverside walk Battersea Bridge westwards","location":{"lat":"51.479606212484434","lng":"-0.17319353951900107","distance":"44","cc":"GB","country":"United Kingdom"},"verified":"false","restricted":"true","stats":{"checkinsCount":"21","usersCount":"12","tipCount":"0"},"specials":{"count":"0"},"hereNow":{"count":"0"},"referralId":"v-1392478102"},{"id":"4b89680df964a520303332e3","name":"Bus Stop BL","location":{"address":"Battersea bridge road","crossStreet":"Hester road","lat":"51.47986020508901","lng":"-0.17140427467338712","distance":"115","cc":"GB","city":"Wandsworth","state":"Greater London","country":"United Kingdom"},"categories":[{"id":"4bf58dd8d48988d1fe931735","name":"Bus Station","pluralName":"Bus Stations","shortName":"Bus Station","icon":{"prefix":"https:\/\/ss1.4sqi.net\/img\/categories_v2\/travel\/busstation_","suffix":".png"},"primary":"true"}],"verified":"false","restricted":"true","stats":{"checkinsCount":"163","usersCount":"32","tipCount":"0"},"specials":{"count":"0"},"hereNow":{"count":"0"},"referralId":"v-1392478102"},{"id":"4acf1f77f964a52078d220e3","name":"Hutchison House","location":{"address":"5 Hester Rd.","lat":"51.480591550503206","lng":"-0.1695369432975594","distance":"268","postalCode":"SW11 4AN","cc":"GB","city":"London","state":"Greater London","country":"United Kingdom"},"categories":[{"id":"4bf58dd8d48988d124941735","name":"Office","pluralName":"Offices","shortName":"Office","icon":{"prefix":"https:\/\/ss1.4sqi.net\/img\/categories_v2\/building\/default_","suffix":".png"},"primary":"true"}],"verified":"false","restricted":"true","stats":{"checkinsCount":"798","usersCount":"56","tipCount":"0"},"specials":{"count":"0"},"hereNow":{"count":"0"},"referralId":"v-1392478102"},{"id":"4b448a00f964a52041f625e3","name":"PizzaExpress","contact":{"phone":"+442079242774","formattedPhone":"+44 20 7924 2774","twitter":"pizzaexpress"},"location":{"address":"46-54 Battersea Bridge Rd.","lat":"51.478777","lng":"-0.170331001","distance":"180","postalCode":"SW11 3AG","cc":"GB","city":"London","state":"Greater London","country":"United Kingdom"},"categories":[{"id":"4bf58dd8d48988d1ca941735","name":"Pizza Place","pluralName":"Pizza Places","shortName":"Pizza","icon":{"prefix":"https:\/\/ss1.4sqi.net\/img\/categories_v2\/food\/pizza_","suffix":".png"},"primary":"true"}],"verified":"true","restricted":"true","stats":{"checkinsCount":"286","usersCount":"148","tipCount":"6"},"url":"http:\/\/www.pizzaexpress.com","specials":{"count":"0"},"hereNow":{"count":"0"},"storeId":"","referralId":"v-1392478102"},{"id":"505cd397e4b0fa2eba4531e0","name":"Mantoos","contact":{"phone":"+442077381616","formattedPhone":"+44 20 7738 1616"},"location":{"address":"59 Battersea Bridge Rd","crossStreet":"at Parkgate Rd","lat":"51.47814","lng":"-0.169741","distance":"247","postalCode":"SW11 3AU","cc":"GB","city":"London","state":"Greater London","country":"United Kingdom"},"categories":[{"id":"503288ae91d4c4b30a586d67","name":"Afghan Restaurant","pluralName":"Afghan Restaurants","shortName":"Afghan","icon":{"prefix":"https:\/\/ss1.4sqi.net\/img\/categories_v2\/food\/default_","suffix":".png"},"primary":"true"}],"verified":"false","restricted":"true","stats":{"checkinsCount":"36","usersCount":"30","tipCount":"2"},"url":"http:\/\/www.mantoosrestaurant.com","reservations":{"url":"http:\/\/www.toptable.co.uk\/single.aspx?rid=92658&ref=9601"},"menu":{"type":"Menu","label":"Menu","anchor":"View Menu","url":"https:\/\/foursquare.com\/v\/mantoos\/505cd397e4b0fa2eba4531e0\/menu","mobileUrl":"https:\/\/foursquare.com\/v\/505cd397e4b0fa2eba4531e0\/device_menu"},"specials":{"count":"0"},"hereNow":{"count":"0"},"referralId":"v-1392478102"},{"id":"526114fa11d2bd27250522e7","name":"Isportconnect","location":{"lat":"51.480291543407596","lng":"-0.17116549201874803","distance":"159","cc":"GB","country":"United Kingdom"},"categories":[{"id":"4bf58dd8d48988d124941735","name":"Office","pluralName":"Offices","shortName":"Office","icon":{"prefix":"https:\/\/ss1.4sqi.net\/img\/categories_v2\/building\/default_","suffix":".png"},"primary":"true"}],"verified":"false","restricted":"true","stats":{"checkinsCount":"6","usersCount":"2","tipCount":"0"},"specials":{"count":"0"},"hereNow":{"count":"0"},"referralId":"v-1392478102"},{"id":"4b44576af964a52002f425e3","name":"The Glassmill","location":{"address":"1Battersea Bridge Road","lat":"51.479880911075085","lng":"-0.17140279423769808","distance":"117","postalCode":"Sw113bz","cc":"GB","city":"London","country":"United Kingdom"},"categories":[{"id":"4bf58dd8d48988d124941735","name":"Office","pluralName":"Offices","shortName":"Office","icon":{"prefix":"https:\/\/ss1.4sqi.net\/img\/categories_v2\/building\/default_","suffix":".png"},"primary":"true"}],"verified":"false","restricted":"true","stats":{"checkinsCount":"394","usersCount":"53","tipCount":"3"},"specials":{"count":"0"},"hereNow":{"count":"0"},"referralId":"v-1392478102"},{"id":"4e6a13dbb0fb8b8a8406e7fa","name":"SapientNitro","location":{"address":"The Glassmill","crossStreet":"1 battersea Bridge Road","lat":"51.480206921910444","lng":"-0.1712322235107422","distance":"149","postalCode":"SW11 3BZ","cc":"GB","city":"London","state":"Greater London","country":"United Kingdom"},"categories":[{"id":"4bf58dd8d48988d124941735","name":"Office","pluralName":"Offices","shortName":"Office","icon":{"prefix":"https:\/\/ss1.4sqi.net\/img\/categories_v2\/building\/default_","suffix":".png"},"primary":"true"}],"verified":"true","restricted":"true","stats":{"checkinsCount":"356","usersCount":"59","tipCount":"1"},"specials":{"count":"0"},"hereNow":{"count":"0"},"referralId":"v-1392478102"},{"id":"52e7ea8e498e2e9e3848e199","name":"Augustine Kitchen","contact":{"twitter":"augustinesw11"},"location":{"address":"63 Battersea Bridge Rd","lat":"51.478229","lng":"-0.169581","distance":"252","postalCode":"SW11 3AU","cc":"GB","city":"London","state":"Greater London","country":"United Kingdom"},"categories":[{"id":"4bf58dd8d48988d10c941735","name":"French Restaurant","pluralName":"French Restaurants","shortName":"French","icon":{"prefix":"https:\/\/ss1.4sqi.net\/img\/categories_v2\/food\/french_","suffix":".png"},"primary":"true"}],"verified":"false","restricted":"true","stats":{"checkinsCount":"3","usersCount":"3","tipCount":"0"},"reservations":{"url":"http:\/\/www.toptable.co.uk\/single.aspx?rid=100170&ref=9601"},"menu":{"type":"Menu","label":"Menu","anchor":"View Menu","url":"https:\/\/foursquare.com\/v\/augustine-kitchen\/52e7ea8e498e2e9e3848e199\/menu","mobileUrl":"https:\/\/foursquare.com\/v\/52e7ea8e498e2e9e3848e199\/device_menu"},"specials":{"count":"0"},"hereNow":{"count":"0"},"referralId":"v-1392478102"},{"id":"4c0019ba92a6c92888a643e2","name":"Bolingbroke Chateau","location":{"address":"5 Bolingbroke Walk","lat":"51.47713951861455","lng":"-0.17179377845144964","distance":"249","postalCode":"SW113NE","cc":"GB","city":"London","state":"Greater London","country":"United Kingdom"},"categories":[{"id":"4bf58dd8d48988d12d941735","name":"Monument \/ Landmark","pluralName":"Monuments \/ Landmarks","shortName":"Landmark","icon":{"prefix":"https:\/\/ss1.4sqi.net\/img\/categories_v2\/building\/government_monument_","suffix":".png"},"primary":"true"}],"verified":"false","restricted":"true","stats":{"checkinsCount":"15","usersCount":"4","tipCount":"0"},"specials":{"count":"0"},"hereNow":{"count":"0"},"referralId":"v-1392478102"},{"id":"4fca62abe4b0ca83a3a305b2","name":"Marco's","location":{"lat":"51.47983398293613","lng":"-0.17181139504036463","distance":"91","cc":"GB","city":"London","state":"Greater London","country":"United Kingdom"},"categories":[{"id":"4bf58dd8d48988d110941735","name":"Italian Restaurant","pluralName":"Italian Restaurants","shortName":"Italian","icon":{"prefix":"https:\/\/ss1.4sqi.net\/img\/categories_v2\/food\/italian_","suffix":".png"},"primary":"true"}],"verified":"false","restricted":"true","stats":{"checkinsCount":"2","usersCount":"2","tipCount":"0"},"specials":{"count":"0"},"hereNow":{"count":"0"},"referralId":"v-1392478102"},{"id":"4fbe65f26d86adf7813c1b33","name":"Battersea bridge gardens","location":{"address":"battersea bridge rd","crossStreet":"cheyne walk","lat":"51.48197087182523","lng":"-0.17388224601745605","distance":"307","cc":"GB","city":"London","state":"Greater London","country":"United Kingdom"},"categories":[{"id":"4deefb944765f83613cdba6e","name":"Historic Site","pluralName":"Historic Sites","shortName":"Historic Site","icon":{"prefix":"https:\/\/ss1.4sqi.net\/img\/categories_v2\/arts_entertainment\/historicsite_","suffix":".png"},"primary":"true"}],"verified":"false","restricted":"true","stats":{"checkinsCount":"45","usersCount":"34","tipCount":"1"},"specials":{"count":"0"},"hereNow":{"count":"0"},"referralId":"v-1392478102"},{"id":"52862f30498eebb9d063c097","name":"A large duplex apartment in need of modernisation - see SellMyHome.co.uk","location":{"address":"Battersea Bridge Road","lat":"51.47956546866215","lng":"-0.1711463928222656","distance":"118","postalCode":"SW11 3BZ","cc":"GB","city":"London","state":"Greater London","country":"United Kingdom"},"categories":[{"id":"4f2a210c4b9023bd5841ed28","name":"Housing Development","pluralName":"Housing Developments","shortName":"Housing Development","icon":{"prefix":"https:\/\/ss1.4sqi.net\/img\/categories_v2\/building\/housingdevelopment_","suffix":".png"},"primary":"true"}],"verified":"false","restricted":"true","stats":{"checkinsCount":"0","usersCount":"0","tipCount":"0"},"specials":{"count":"0"},"hereNow":{"count":"0"},"referralId":"v-1392478102"},{"id":"50b4c4fae4b047f57d7999a3","name":"Original Travel","contact":{"phone":"+442079787333","formattedPhone":"+44 20 7978 7333","twitter":"originaltravel"},"location":{"address":"21 Ransome's Dock","crossStreet":"35-37 Parkgate Road","lat":"51.479082","lng":"-0.168915","distance":"270","postalCode":"SW11 4NP","cc":"GB","city":"London","state":"Greater London","country":"United Kingdom"},"categories":[{"id":"4bf58dd8d48988d1f6931735","name":"General Travel","pluralName":"General Travel","shortName":"Travel","icon":{"prefix":"https:\/\/ss1.4sqi.net\/img\/categories_v2\/travel\/default_","suffix":".png"},"primary":"true"}],"verified":"false","restricted":"true","stats":{"checkinsCount":"13","usersCount":"4","tipCount":"0"},"specials":{"count":"0"},"hereNow":{"count":"0"},"referralId":"v-1392478102"},{"id":"4d9b179403d8721e4f65df24","name":"Chesney's","location":{"lat":"51.480146","lng":"-0.171611","distance":"126","cc":"GB","country":"United Kingdom"},"categories":[{"id":"4bf58dd8d48988d1f8941735","name":"Furniture \/ Home Store","pluralName":"Furniture \/ Home Stores","shortName":"Furniture \/ Home","icon":{"prefix":"https:\/\/ss1.4sqi.net\/img\/categories_v2\/shops\/furniture_","suffix":".png"},"primary":"true"}],"verified":"false","restricted":"true","stats":{"checkinsCount":"6","usersCount":"6","tipCount":"0"},"specials":{"count":"0"},"hereNow":{"count":"0"},"referralId":"v-1392478102"},{"id":"505c2491e4b0c1f8b5dd972d","name":"bus stop BK","location":{"address":"Battersea Church Rd","lat":"51.478695854996054","lng":"-0.17123607636836477","distance":"127","cc":"GB","country":"United Kingdom"},"categories":[{"id":"4bf58dd8d48988d12b951735","name":"Bus Line","pluralName":"Bus Lines","shortName":"Bus","icon":{"prefix":"https:\/\/ss1.4sqi.net\/img\/categories_v2\/travel\/busstation_","suffix":".png"},"primary":"true"}],"verified":"false","restricted":"true","stats":{"checkinsCount":"4","usersCount":"2","tipCount":"0"},"specials":{"count":"0"},"hereNow":{"count":"0"},"referralId":"v-1392478102"}],"confident":"false"}}