{"meta":{"code":"200"},"response":{"venues":[{"id":"4bae1d8df964a52012863be3","name":"Beaufort House","contact":{"phone":"+442073522828","formattedPhone":"+44 20 7352 2828"},"location":{"address":"345 Kings Rd","lat":"51.484162350922226","lng":"-0.17612457275390625","distance":"117","postalCode":"SW3 5UZ","cc":"GB","city":"London","state":"Greater London","country":"United Kingdom"},"categories":[{"id":"4bf58dd8d48988d143941735","name":"Breakfast Spot","pluralName":"Breakfast Spots","shortName":"Breakfast","icon":{"prefix":"https:\/\/ss1.4sqi.net\/img\/categories_v2\/food\/breakfast_","suffix":".png"},"primary":"true"}],"verified":"false","restricted":"true","stats":{"checkinsCount":"1200","usersCount":"815","tipCount":"18"},"url":"http:\/\/www.beauforthousechelsea.co.uk","menu":{"type":"Menu","label":"Menu","anchor":"View Menu","url":"https:\/\/foursquare.com\/v\/beaufort-house\/4bae1d8df964a52012863be3\/menu","mobileUrl":"https:\/\/foursquare.com\/v\/4bae1d8df964a52012863be3\/device_menu"},"specials":{"count":"0"},"hereNow":{"count":"0"},"referralId":"v-1392478089"},{"id":"4ac518e0f964a52026aa20e3","name":"Eight Over Eight","contact":{"phone":"+442073499934","formattedPhone":"+44 20 7349 9934"},"location":{"address":"392 Kings Rd","lat":"51.483775","lng":"-0.1769214","distance":"83","postalCode":"SW3 5UZ","cc":"GB","city":"Fulham","state":"Greater London","country":"United Kingdom"},"categories":[{"id":"4bf58dd8d48988d145941735","name":"Chinese Restaurant","pluralName":"Chinese Restaurants","shortName":"Chinese","icon":{"prefix":"https:\/\/ss1.4sqi.net\/img\/categories_v2\/food\/chinese_","suffix":".png"},"primary":"true"}],"verified":"false","restricted":"true","stats":{"checkinsCount":"569","usersCount":"423","tipCount":"18"},"url":"http:\/\/www.rickerrestaurants.com","menu":{"type":"Menu","label":"Menu","anchor":"View Menu","url":"https:\/\/foursquare.com\/v\/eight-over-eight\/4ac518e0f964a52026aa20e3\/menu","mobileUrl":"https:\/\/foursquare.com\/v\/4ac518e0f964a52026aa20e3\/device_menu"},"specials":{"count":"0"},"hereNow":{"count":"0"},"referralId":"v-1392478089"},{"id":"4ac518d6f964a52031a820e3","name":"Bluebird","contact":{"phone":"+442075591000","formattedPhone":"+44 20 7559 1000","twitter":"danddlondon"},"location":{"address":"350 King's Rd","lat":"51.48481119344555","lng":"-0.17518963813762262","distance":"190","postalCode":"SW3 5UU","cc":"GB","city":"London","state":"Greater London","country":"United Kingdom"},"categories":[{"id":"4bf58dd8d48988d1c4941735","name":"Restaurant","pluralName":"Restaurants","shortName":"Restaurant","icon":{"prefix":"https:\/\/ss1.4sqi.net\/img\/categories_v2\/food\/default_","suffix":".png"},"primary":"true"}],"verified":"true","restricted":"true","stats":{"checkinsCount":"3555","usersCount":"2487","tipCount":"49"},"url":"http:\/\/www.bluebird-restaurant.co.uk","reservations":{"url":"http:\/\/www.toptable.co.uk\/single.aspx?rid=80812&ref=9601"},"menu":{"type":"Menu","label":"Menu","anchor":"View Menu","url":"https:\/\/foursquare.com\/v\/bluebird-london-greater-london\/4ac518d6f964a52031a820e3\/menu","mobileUrl":"https:\/\/foursquare.com\/v\/4ac518d6f964a52031a820e3\/device_menu"},"specials":{"count":"0"},"hereNow":{"count":"1","groups":[{"type":"others","name":"Other people here","count":"1"}]},"storeId":"Bluebird","referralId":"v-1392478089"},{"id":"4ed13ab3d3e3521ce6a86573","name":"Busaba Eathai","location":{"address":"Kings Road","lat":"51.484369","lng":"-0.175993","distance":"125","postalCode":"SW3 5UZ","cc":"GB","city":"Chelsea","state":"Greater London","country":"United Kingdom"},"categories":[{"id":"4bf58dd8d48988d142941735","name":"Asian Restaurant","pluralName":"Asian Restaurants","shortName":"Asian","icon":{"prefix":"https:\/\/ss1.4sqi.net\/img\/categories_v2\/food\/asian_","suffix":".png"},"primary":"true"}],"verified":"false","restricted":"true","stats":{"checkinsCount":"715","usersCount":"459","tipCount":"13"},"url":"http:\/\/busaba.com\/#locations=\/locations\/kings-road\/","reservations":{"url":"http:\/\/www.toptable.co.uk\/single.aspx?rid=77059&ref=9601"},"menu":{"type":"Menu","label":"Menu","anchor":"View Menu","url":"https:\/\/foursquare.com\/v\/busaba-eathai-chelsea-greater-london\/4ed13ab3d3e3521ce6a86573\/menu","mobileUrl":"https:\/\/foursquare.com\/v\/4ed13ab3d3e3521ce6a86573\/device_menu"},"specials":{"count":"0"},"hereNow":{"count":"0"},"referralId":"v-1392478089"},{"id":"4badc6f8f964a52092683be3","name":"Starbucks","contact":{"twitter":"starbucksuk"},"location":{"address":"388-390 Kings Road, Chelsea","lat":"51.483762","lng":"-0.176774","distance":"92","postalCode":"SW3 5UZ","cc":"GB","city":"London","state":"Greater London","country":"United Kingdom"},"categories":[{"id":"4bf58dd8d48988d1e0931735","name":"Coffee Shop","pluralName":"Coffee Shops","shortName":"Coffee Shop","icon":{"prefix":"https:\/\/ss1.4sqi.net\/img\/categories_v2\/food\/coffeeshop_","suffix":".png"},"primary":"true"}],"verified":"true","restricted":"true","stats":{"checkinsCount":"482","usersCount":"255","tipCount":"2"},"url":"http:\/\/starbucks.co.uk","specials":{"count":"0"},"hereNow":{"count":"0"},"storeId":"12266","referralId":"v-1392478089"},{"id":"4ac518bdf964a520e0a220e3","name":"Sporting Page","location":{"address":"6 Camera Place","lat":"51.4845647","lng":"-0.1792662","distance":"105","postalCode":"SW10 0BH","cc":"GB","city":"London","state":"Greater London","country":"United Kingdom"},"categories":[{"id":"4bf58dd8d48988d11d941735","name":"Sports Bar","pluralName":"Sports Bars","shortName":"Sports Bar","icon":{"prefix":"https:\/\/ss1.4sqi.net\/img\/categories_v2\/nightlife\/sportsbar_","suffix":".png"},"primary":"true"}],"verified":"false","restricted":"true","stats":{"checkinsCount":"473","usersCount":"242","tipCount":"8"},"specials":{"count":"0"},"hereNow":{"count":"0"},"referralId":"v-1392478089"},{"id":"4e0f1f89ae603a50b5493d8f","name":"Triyoga","contact":{"phone":"+442074833344","formattedPhone":"+44 20 7483 3344","twitter":"triyoga"},"location":{"address":"372 King's Rd.","lat":"51.48453799876472","lng":"-0.17601461168380003","distance":"127","postalCode":"SW3 5UZ","cc":"GB","city":"Kensington","state":"Greater London","country":"United Kingdom"},"categories":[{"id":"4bf58dd8d48988d102941735","name":"Yoga Studio","pluralName":"Yoga Studios","shortName":"Yoga Studio","icon":{"prefix":"https:\/\/ss1.4sqi.net\/img\/categories_v2\/shops\/gym_yogastudio_","suffix":".png"},"primary":"true"}],"verified":"false","restricted":"true","stats":{"checkinsCount":"487","usersCount":"151","tipCount":"10"},"url":"http:\/\/www.triyoga.co.uk","specials":{"count":"0"},"hereNow":{"count":"0"},"referralId":"v-1392478089"},{"id":"4be5a0d5d4f7c9b63ea62520","name":"Azteca Latin Lounge","contact":{"phone":"+442073524087","formattedPhone":"+44 20 7352 4087"},"location":{"address":"329 Kings Rd.","crossStreet":"at Beaufort St.","lat":"51.48428623333333","lng":"-0.175988","distance":"125","postalCode":"SW3 5ES","cc":"GB","city":"London","state":"Greater London","country":"United Kingdom"},"categories":[{"id":"4bf58dd8d48988d121941735","name":"Lounge","pluralName":"Lounges","shortName":"Lounge","icon":{"prefix":"https:\/\/ss1.4sqi.net\/img\/categories_v2\/nightlife\/lounge_","suffix":".png"},"primary":"true"}],"verified":"false","restricted":"true","stats":{"checkinsCount":"259","usersCount":"218","tipCount":"9"},"specials":{"count":"0"},"hereNow":{"count":"0"},"referralId":"v-1392478089"},{"id":"4cb9f53c035d236af64fd74e","name":"Marco Pierre White Steakhouse & Grill","contact":{"phone":"+442073519997","formattedPhone":"+44 20 7351 9997","twitter":"kingsroadsteak"},"location":{"address":"386 King's Rd.","lat":"51.48374811599413","lng":"-0.1768326759338379","distance":"90","postalCode":"SW3 5UZ","cc":"GB","city":"London","state":"Greater London","country":"United Kingdom"},"categories":[{"id":"4bf58dd8d48988d1cc941735","name":"Steakhouse","pluralName":"Steakhouses","shortName":"Steakhouse","icon":{"prefix":"https:\/\/ss1.4sqi.net\/img\/categories_v2\/food\/steakhouse_","suffix":".png"},"primary":"true"}],"verified":"false","restricted":"true","stats":{"checkinsCount":"331","usersCount":"282","tipCount":"14"},"url":"http:\/\/www.kingsroadsteakhouseandgrill.org","reservations":{"url":"http:\/\/www.toptable.co.uk\/single.aspx?rid=20374&ref=9601"},"menu":{"type":"Menu","label":"Menu","anchor":"View Menu","url":"https:\/\/foursquare.com\/v\/marco-pierre-white-steakhouse--grill\/4cb9f53c035d236af64fd74e\/menu","mobileUrl":"https:\/\/foursquare.com\/v\/4cb9f53c035d236af64fd74e\/device_menu"},"specials":{"count":"0"},"hereNow":{"count":"0"},"referralId":"v-1392478089"},{"id":"4d932d5e52ed224bfbbb16ac","name":"Medlar Restaurant","location":{"address":"438 Kings Rd.","lat":"51.48305771722937","lng":"-0.177594854142741","distance":"137","postalCode":"SW10 0LJ","cc":"GB","city":"Kensington","state":"Greater London","country":"United Kingdom"},"categories":[{"id":"4bf58dd8d48988d1c4941735","name":"Restaurant","pluralName":"Restaurants","shortName":"Restaurant","icon":{"prefix":"https:\/\/ss1.4sqi.net\/img\/categories_v2\/food\/default_","suffix":".png"},"primary":"true"}],"verified":"false","restricted":"true","stats":{"checkinsCount":"240","usersCount":"209","tipCount":"12"},"url":"http:\/\/www.medlarrestaurant.co.uk","reservations":{"url":"http:\/\/www.toptable.co.uk\/single.aspx?rid=92952&ref=9601"},"menu":{"type":"Menu","label":"Menu","anchor":"View Menu","url":"https:\/\/foursquare.com\/v\/medlar-restaurant\/4d932d5e52ed224bfbbb16ac\/menu","mobileUrl":"https:\/\/foursquare.com\/v\/4d932d5e52ed224bfbbb16ac\/device_menu"},"specials":{"count":"0"},"hereNow":{"count":"0"},"referralId":"v-1392478089"},{"id":"4ae6ec71f964a52089a721e3","name":"New Culture Revolution, SW3","contact":{"phone":"+442073529281","formattedPhone":"+44 20 7352 9281"},"location":{"address":"305 Kings Road,","crossStreet":"Chelsea","lat":"51.484822475","lng":"-0.17518104","distance":"191","postalCode":"SW3 5EP","cc":"GB","city":"London","state":"Greater London","country":"United Kingdom"},"categories":[{"id":"4bf58dd8d48988d145941735","name":"Chinese Restaurant","pluralName":"Chinese Restaurants","shortName":"Chinese","icon":{"prefix":"https:\/\/ss1.4sqi.net\/img\/categories_v2\/food\/chinese_","suffix":".png"},"primary":"true"}],"verified":"false","restricted":"true","stats":{"checkinsCount":"348","usersCount":"229","tipCount":"10"},"specials":{"count":"0"},"hereNow":{"count":"1","groups":[{"type":"others","name":"Other people here","count":"1"}]},"referralId":"v-1392478089"},{"id":"4b813316f964a5202e9a30e3","name":"Lockonego","contact":{"phone":"+442077951798","formattedPhone":"+44 20 7795 1798"},"location":{"address":"394 King's Road, London SW10 0LN","lat":"51.483888","lng":"-0.177043","distance":"69","cc":"GB","city":"Kensington","state":"Greater London","country":"United Kingdom"},"categories":[{"id":"4bf58dd8d48988d10c951735","name":"Cosmetics Shop","pluralName":"Cosmetics Shops","shortName":"Cosmetics","icon":{"prefix":"https:\/\/ss1.4sqi.net\/img\/categories_v2\/shops\/beauty_cosmetic_","suffix":".png"},"primary":"true"}],"verified":"false","restricted":"true","stats":{"checkinsCount":"72","usersCount":"19","tipCount":"0"},"specials":{"count":"0"},"hereNow":{"count":"0"},"referralId":"v-1392478089"},{"id":"4ad71ddff964a520ba0821e3","name":"Chelsea Bun","location":{"address":"Limerston St","lat":"51.483179","lng":"-0.178018","distance":"124","postalCode":"SW10 0","cc":"GB","city":"Kensington","state":"Greater London","country":"United Kingdom"},"categories":[{"id":"4bf58dd8d48988d143941735","name":"Breakfast Spot","pluralName":"Breakfast Spots","shortName":"Breakfast","icon":{"prefix":"https:\/\/ss1.4sqi.net\/img\/categories_v2\/food\/breakfast_","suffix":".png"},"primary":"true"}],"verified":"false","restricted":"true","stats":{"checkinsCount":"308","usersCount":"161","tipCount":"5"},"specials":{"count":"0"},"hereNow":{"count":"0"},"referralId":"v-1392478089"},{"id":"5244a7b1498e1d7aee318c86","name":"\u0414\u043e\u043c\u0438\u043a \u041c\u0438\u0441\u0441\u0438\u0441 \u041a\u043e\u043d\u043d\u0435\u043b\u0438","location":{"address":"374 Kings Road","lat":"51.484114","lng":"-0.176841","distance":"69","postalCode":"SW3 5UW","cc":"GB","city":"London","state":"Greater London","country":"United Kingdom"},"categories":[{"id":"50aaa49e4b90af0d42d5de11","name":"Castle","pluralName":"Castles","shortName":"Castle","icon":{"prefix":"https:\/\/ss1.4sqi.net\/img\/categories_v2\/parks_outdoors\/default_","suffix":".png"},"primary":"true"}],"verified":"false","restricted":"true","stats":{"checkinsCount":"66","usersCount":"3","tipCount":"0"},"specials":{"count":"0"},"hereNow":{"count":"0"},"referralId":"v-1392478089"},{"id":"51fce886498ea6412a714234","name":"World's End","location":{"lat":"51.48424503409725","lng":"-0.17619096947131943","distance":"111","cc":"GB","country":"United Kingdom"},"categories":[{"id":"4bf58dd8d48988d11b941735","name":"Pub","pluralName":"Pubs","shortName":"Pub","icon":{"prefix":"https:\/\/ss1.4sqi.net\/img\/categories_v2\/nightlife\/pub_","suffix":".png"},"primary":"true"}],"verified":"false","restricted":"true","stats":{"checkinsCount":"7","usersCount":"5","tipCount":"0"},"specials":{"count":"0"},"hereNow":{"count":"0"},"referralId":"v-1392478089"},{"id":"50616c12e4b03f519a14b9a5","name":"park walk school pool","location":{"address":"park walk","lat":"51.48411398737326","lng":"-0.17772477931440225","distance":"20","cc":"GB","country":"United Kingdom"},"categories":[{"id":"4bf58dd8d48988d15e941735","name":"Pool","pluralName":"Pools","shortName":"Pool","icon":{"prefix":"https:\/\/ss1.4sqi.net\/img\/categories_v2\/parks_outdoors\/pool_","suffix":".png"},"primary":"true"}],"verified":"false","restricted":"true","stats":{"checkinsCount":"4","usersCount":"1","tipCount":"0"},"specials":{"count":"0"},"hereNow":{"count":"0"},"referralId":"v-1392478089"},{"id":"4cfab0767f2db1f7511b29d4","name":"The Henry Root","contact":{"phone":"+442073527040","formattedPhone":"+44 20 7352 7040"},"location":{"address":"9 Park Walk","lat":"51.4851645166356","lng":"-0.1793217658996582","distance":"143","postalCode":"SW10 0AJ","cc":"GB","city":"Kensington","state":"Greater London","country":"United Kingdom"},"categories":[{"id":"4bf58dd8d48988d155941735","name":"Gastropub","pluralName":"Gastropubs","shortName":"Gastropub","icon":{"prefix":"https:\/\/ss1.4sqi.net\/img\/categories_v2\/food\/gastropub_","suffix":".png"},"primary":"true"}],"verified":"false","restricted":"true","stats":{"checkinsCount":"136","usersCount":"97","tipCount":"8"},"url":"http:\/\/www.thehenryroot.com","reservations":{"url":"http:\/\/www.toptable.co.uk\/single.aspx?rid=56220&ref=9601"},"menu":{"type":"Menu","label":"Menu","anchor":"View Menu","url":"https:\/\/foursquare.com\/v\/the-henry-root\/4cfab0767f2db1f7511b29d4\/menu","mobileUrl":"https:\/\/foursquare.com\/v\/4cfab0767f2db1f7511b29d4\/device_menu"},"specials":{"count":"0"},"hereNow":{"count":"0"},"referralId":"v-1392478089"},{"id":"4cab334576d3a09370f5296b","name":"Park Walk School","location":{"address":"68 Park Walk","lat":"51.48403272776715","lng":"-0.17790259762645522","distance":"29","postalCode":"SW10 0","cc":"GB","city":"Chelsea","state":"Greater London","country":"United Kingdom"},"categories":[{"id":"4bf58dd8d48988d1a8941735","name":"General College & University","pluralName":"General Colleges & Universities","shortName":"Education","icon":{"prefix":"https:\/\/ss1.4sqi.net\/img\/categories_v2\/education\/other_","suffix":".png"},"primary":"true"}],"verified":"false","restricted":"true","stats":{"checkinsCount":"87","usersCount":"8","tipCount":"1"},"specials":{"count":"0"},"hereNow":{"count":"0"},"referralId":"v-1392478089"},{"id":"4cc850090fa2721eaa3763b1","name":"Vivienne Westwood Worlds End","contact":{"phone":"+442073526551","formattedPhone":"+44 20 7352 6551"},"location":{"address":"430 kings road","lat":"51.48301217296876","lng":"-0.1772915351214671","distance":"146","postalCode":"SW10 0LJ","cc":"GB","city":"London","state":"Greater London","country":"United Kingdom"},"categories":[{"id":"4bf58dd8d48988d1f4941735","name":"Design Studio","pluralName":"Design Studios","shortName":"Design","icon":{"prefix":"https:\/\/ss1.4sqi.net\/img\/categories_v2\/shops\/design_","suffix":".png"},"primary":"true"}],"verified":"false","restricted":"true","stats":{"checkinsCount":"200","usersCount":"171","tipCount":"7"},"url":"http:\/\/worldsendshop.co.uk","specials":{"count":"0"},"hereNow":{"count":"0"},"referralId":"v-1392478089"},{"id":"5103e590e4b02656bc4719a2","name":"The Shop At Bluebird","location":{"lat":"51.484712","lng":"-0.175145","distance":"190","cc":"GB","country":"United Kingdom"},"categories":[{"id":"4bf58dd8d48988d103951735","name":"Clothing Store","pluralName":"Clothing Stores","shortName":"Apparel","icon":{"prefix":"https:\/\/ss1.4sqi.net\/img\/categories_v2\/shops\/apparel_","suffix":".png"},"primary":"true"}],"verified":"false","restricted":"true","stats":{"checkinsCount":"49","usersCount":"49","tipCount":"1"},"specials":{"count":"0"},"hereNow":{"count":"0"},"referralId":"v-1392478089"},{"id":"4ac518baf964a520eda120e3","name":"Mona Lisa Cafe","location":{"address":"417 Kings Road","lat":"51.482699","lng":"-0.178222","distance":"179","postalCode":"SW10 0LR","cc":"GB","city":"London","state":"Greater London","country":"United Kingdom"},"categories":[{"id":"4bf58dd8d48988d16d941735","name":"Caf\u00e9","pluralName":"Caf\u00e9s","shortName":"Caf\u00e9","icon":{"prefix":"https:\/\/ss1.4sqi.net\/img\/categories_v2\/food\/cafe_","suffix":".png"},"primary":"true"}],"verified":"false","restricted":"true","stats":{"checkinsCount":"83","usersCount":"50","tipCount":"6"},"specials":{"count":"0"},"hereNow":{"count":"0"},"referralId":"v-1392478089"},{"id":"4ac518bdf964a520e4a220e3","name":"Man on the Moon","location":{"address":"392 King's Rd","lat":"51.484296","lng":"-0.177133","distance":"46","postalCode":"SW3 5UZ","cc":"GB","city":"London","state":"Greater London","country":"United Kingdom"},"categories":[{"id":"4bf58dd8d48988d11b941735","name":"Pub","pluralName":"Pubs","shortName":"Pub","icon":{"prefix":"https:\/\/ss1.4sqi.net\/img\/categories_v2\/nightlife\/pub_","suffix":".png"},"primary":"true"}],"verified":"false","restricted":"true","stats":{"checkinsCount":"5","usersCount":"4","tipCount":"0"},"specials":{"count":"0"},"hereNow":{"count":"0"},"referralId":"v-1392478089"},{"id":"4b9cf6d0f964a5202f8536e3","name":"Osteria Dell'Arancio","contact":{"phone":"+442073498111","formattedPhone":"+44 20 7349 8111"},"location":{"address":"383 King's Road","crossStreet":"Milman's Street","lat":"51.483366678061074","lng":"-0.1767601565724321","distance":"125","postalCode":"SW10 0LP","cc":"GB","city":"London","state":"Greater London","country":"United Kingdom"},"categories":[{"id":"4bf58dd8d48988d110941735","name":"Italian Restaurant","pluralName":"Italian Restaurants","shortName":"Italian","icon":{"prefix":"https:\/\/ss1.4sqi.net\/img\/categories_v2\/food\/italian_","suffix":".png"},"primary":"true"}],"verified":"false","restricted":"true","stats":{"checkinsCount":"149","usersCount":"125","tipCount":"7"},"url":"http:\/\/www.osteriadellarancio.co.uk","reservations":{"url":"http:\/\/www.toptable.co.uk\/single.aspx?rid=5729&ref=9601"},"menu":{"type":"Menu","label":"Menu","anchor":"View Menu","url":"https:\/\/foursquare.com\/v\/osteria-dellarancio\/4b9cf6d0f964a5202f8536e3\/menu","mobileUrl":"https:\/\/foursquare.com\/v\/4b9cf6d0f964a5202f8536e3\/device_menu"},"specials":{"count":"0"},"hereNow":{"count":"0"},"referralId":"v-1392478089"},{"id":"4ddb846645ddf752bfc292a2","name":"The Organic Pharmacy","location":{"lat":"51.483864051985144","lng":"-0.17705564006236874","distance":"70","cc":"GB","city":"Kensington","state":"Greater London","country":"United Kingdom"},"verified":"false","restricted":"true","stats":{"checkinsCount":"29","usersCount":"9","tipCount":"0"},"specials":{"count":"0"},"hereNow":{"count":"0"},"referralId":"v-1392478089"},{"id":"5264181d11d2caed0cb31958","name":"Beaufort Street\/ Kings Road Bus Stop QU","location":{"lat":"51.48406982421875","lng":"-0.17536039650440216","distance":"171","cc":"GB","country":"United Kingdom"},"categories":[{"id":"4bf58dd8d48988d1fe931735","name":"Bus Station","pluralName":"Bus Stations","shortName":"Bus Station","icon":{"prefix":"https:\/\/ss1.4sqi.net\/img\/categories_v2\/travel\/busstation_","suffix":".png"},"primary":"true"}],"verified":"false","restricted":"true","stats":{"checkinsCount":"3","usersCount":"3","tipCount":"0"},"specials":{"count":"0"},"hereNow":{"count":"0"},"referralId":"v-1392478089"},{"id":"4ac518c2f964a5200ba420e3","name":"Jimmy's","location":{"address":"386 Kings Road","lat":"51.484101","lng":"-0.176661","distance":"81","postalCode":"SW3 5UZ","cc":"GB","city":"London","state":"Greater London","country":"United Kingdom"},"categories":[{"id":"4bf58dd8d48988d1cc941735","name":"Steakhouse","pluralName":"Steakhouses","shortName":"Steakhouse","icon":{"prefix":"https:\/\/ss1.4sqi.net\/img\/categories_v2\/food\/steakhouse_","suffix":".png"},"primary":"true"}],"verified":"false","restricted":"true","stats":{"checkinsCount":"5","usersCount":"5","tipCount":"0"},"specials":{"count":"0"},"hereNow":{"count":"0"},"referralId":"v-1392478089"},{"id":"4d3ffe5746775481bd7053f4","name":"Tantrum","location":{"address":"398 Kings Rd","lat":"51.483787142014386","lng":"-0.17704376517409076","distance":"76","postalCode":"SW3 5","cc":"GB","city":"Kensington","state":"Greater London","country":"United Kingdom"},"categories":[{"id":"4bf58dd8d48988d10c951735","name":"Cosmetics Shop","pluralName":"Cosmetics Shops","shortName":"Cosmetics","icon":{"prefix":"https:\/\/ss1.4sqi.net\/img\/categories_v2\/shops\/beauty_cosmetic_","suffix":".png"},"primary":"true"}],"verified":"false","restricted":"true","stats":{"checkinsCount":"27","usersCount":"19","tipCount":"3"},"specials":{"count":"0"},"hereNow":{"count":"0"},"referralId":"v-1392478089"},{"id":"4b83cdebf964a5203f1131e3","name":"The Chelsea Teapot","location":{"address":"402 King's Rd","lat":"51.483838","lng":"-0.176699","distance":"91","postalCode":"SW10 0LJ","cc":"GB","city":"London","state":"Greater London","country":"United Kingdom"},"categories":[{"id":"4bf58dd8d48988d1bc941735","name":"Cupcake Shop","pluralName":"Cupcake Shops","shortName":"Cupcakes","icon":{"prefix":"https:\/\/ss1.4sqi.net\/img\/categories_v2\/food\/cupcakes_","suffix":".png"},"primary":"true"}],"verified":"false","restricted":"true","stats":{"checkinsCount":"89","usersCount":"76","tipCount":"5"},"menu":{"type":"Menu","label":"Menu","anchor":"View Menu","url":"https:\/\/foursquare.com\/v\/the-chelsea-teapot-london-greater-london\/4b83cdebf964a5203f1131e3\/menu","mobileUrl":"https:\/\/foursquare.com\/v\/4b83cdebf964a5203f1131e3\/device_menu"},"specials":{"count":"0"},"hereNow":{"count":"0"},"referralId":"v-1392478089"},{"id":"4cc6ef41c844721e767ef701","name":"Chelsea Health","contact":{"phone":"+442073524663","formattedPhone":"+44 20 7352 4663"},"location":{"address":"400 Kings Rd","lat":"51.483777338196205","lng":"-0.17747802166002968","distance":"61","postalCode":"SW10 0LJ","cc":"GB","city":"Kensington","state":"Greater London","country":"United Kingdom"},"categories":[{"id":"4bf58dd8d48988d10f951735","name":"Drugstore \/ Pharmacy","pluralName":"Drugstores \/ Pharmacies","shortName":"Pharmacy","icon":{"prefix":"https:\/\/ss1.4sqi.net\/img\/categories_v2\/shops\/pharmacy_","suffix":".png"},"primary":"true"}],"verified":"false","restricted":"true","stats":{"checkinsCount":"14","usersCount":"5","tipCount":"0"},"specials":{"count":"0"},"hereNow":{"count":"0"},"referralId":"v-1392478089"},{"id":"4c8a513d1eafb1f7de0c7935","name":"Limelight Movie Art","location":{"address":"313 Kings Road","lat":"51.484641","lng":"-0.175525","distance":"162","cc":"GB","city":"Kensington","state":"Greater London","country":"United Kingdom"},"categories":[{"id":"4bf58dd8d48988d127951735","name":"Arts & Crafts Store","pluralName":"Arts & Crafts Stores","shortName":"Arts & Crafts","icon":{"prefix":"https:\/\/ss1.4sqi.net\/img\/categories_v2\/shops\/artstore_","suffix":".png"},"primary":"true"}],"verified":"false","restricted":"true","stats":{"checkinsCount":"10","usersCount":"8","tipCount":"0"},"specials":{"count":"0"},"hereNow":{"count":"0"},"referralId":"v-1392478089"}],"confident":"false"}}