{"meta":{"code":"200"},"response":{"venues":[{"id":"4e91fa310aafb4070c82f04c","name":"Stormbird","contact":{"phone":"+442077084460","formattedPhone":"+44 20 7708 4460","twitter":"stormbirdse5"},"location":{"address":"25 Church St.","lat":"51.473963449024524","lng":"-0.0904455520998304","distance":"186","postalCode":"SE5 8TR","cc":"GB","city":"Camberwell","state":"Greater London","country":"United Kingdom"},"categories":[{"id":"4bf58dd8d48988d116941735","name":"Bar","pluralName":"Bars","shortName":"Bar","icon":{"prefix":"https:\/\/ss1.4sqi.net\/img\/categories_v2\/nightlife\/bar_","suffix":".png"},"primary":"true"}],"verified":"false","restricted":"true","stats":{"checkinsCount":"771","usersCount":"238","tipCount":"14"},"menu":{"type":"Menu","label":"Menu","anchor":"View Menu","url":"https:\/\/foursquare.com\/v\/stormbird\/4e91fa310aafb4070c82f04c\/menu","mobileUrl":"https:\/\/foursquare.com\/v\/4e91fa310aafb4070c82f04c\/device_menu"},"specials":{"count":"0"},"hereNow":{"count":"0"},"referralId":"v-1392478124"},{"id":"516426f3e4b030b094678b4c","name":"Maloko","location":{"lat":"51.473797","lng":"-0.088607","distance":"78","cc":"GB","country":"United Kingdom"},"categories":[{"id":"4bf58dd8d48988d16d941735","name":"Caf\u00e9","pluralName":"Caf\u00e9s","shortName":"Caf\u00e9","icon":{"prefix":"https:\/\/ss1.4sqi.net\/img\/categories_v2\/food\/cafe_","suffix":".png"},"primary":"true"}],"verified":"false","restricted":"true","stats":{"checkinsCount":"53","usersCount":"37","tipCount":"6"},"specials":{"count":"0"},"hereNow":{"count":"0"},"referralId":"v-1392478124"},{"id":"4dfceb0ad4c001cca36e27ab","name":"The Crooked Well","contact":{"phone":"+442072527798","formattedPhone":"+44 20 7252 7798","twitter":"crookedwell"},"location":{"address":"16 Grove Ln.","lat":"51.472896493194064","lng":"-0.08968234062194824","distance":"202","postalCode":"SE5 8SY","cc":"GB","city":"Camberwell","state":"Greater London","country":"United Kingdom"},"categories":[{"id":"4bf58dd8d48988d155941735","name":"Gastropub","pluralName":"Gastropubs","shortName":"Gastropub","icon":{"prefix":"https:\/\/ss1.4sqi.net\/img\/categories_v2\/food\/gastropub_","suffix":".png"},"primary":"true"}],"verified":"true","restricted":"true","stats":{"checkinsCount":"549","usersCount":"286","tipCount":"21"},"url":"http:\/\/www.thecrookedwell.com","reservations":{"url":"http:\/\/www.toptable.co.uk\/single.aspx?rid=72076&ref=9601"},"menu":{"type":"Menu","label":"Menu","anchor":"View Menu","url":"https:\/\/foursquare.com\/v\/the-crooked-well\/4dfceb0ad4c001cca36e27ab\/menu","mobileUrl":"https:\/\/foursquare.com\/v\/4dfceb0ad4c001cca36e27ab\/device_menu"},"specials":{"count":"0"},"hereNow":{"count":"0"},"storeId":"","referralId":"v-1392478124"},{"id":"4bedad6ae24d20a1ebd07114","name":"Silk Road","contact":{"phone":"+442077034832","formattedPhone":"+44 20 7703 4832"},"location":{"address":"49 Camberwell Church St","lat":"51.4738187142257","lng":"-0.08934974670410156","distance":"119","postalCode":"SE5 8TR","cc":"GB","city":"Camberwell","state":"Greater London","country":"United Kingdom"},"categories":[{"id":"4bf58dd8d48988d145941735","name":"Chinese Restaurant","pluralName":"Chinese Restaurants","shortName":"Chinese","icon":{"prefix":"https:\/\/ss1.4sqi.net\/img\/categories_v2\/food\/chinese_","suffix":".png"},"primary":"true"}],"verified":"false","restricted":"true","stats":{"checkinsCount":"326","usersCount":"200","tipCount":"18"},"specials":{"count":"0"},"hereNow":{"count":"0"},"referralId":"v-1392478124"},{"id":"4ac518faf964a5203ab020e3","name":"Camberwell Leisure Centre","location":{"address":"Artichoke Place","lat":"51.47438395563543","lng":"-0.09035938694201658","distance":"177","postalCode":"SE5 8TS","cc":"GB","city":"Camberwell","state":"Greater London","country":"United Kingdom"},"categories":[{"id":"4bf58dd8d48988d175941735","name":"Gym \/ Fitness Center","pluralName":"Gyms or Fitness Centers","shortName":"Gym \/ Fitness","icon":{"prefix":"https:\/\/ss1.4sqi.net\/img\/categories_v2\/building\/gym_","suffix":".png"},"primary":"true"}],"verified":"false","restricted":"true","stats":{"checkinsCount":"627","usersCount":"71","tipCount":"6"},"specials":{"count":"0"},"hereNow":{"count":"0"},"referralId":"v-1392478124"},{"id":"5298f50211d2801045c0dab3","name":"23rd Camberwell Scouts","location":{"lat":"51.4742","lng":"-0.0877","distance":"12","cc":"GB","country":"United Kingdom"},"verified":"false","restricted":"true","stats":{"checkinsCount":"1","usersCount":"1","tipCount":"0"},"specials":{"count":"0"},"hereNow":{"count":"0"},"referralId":"v-1392478124"},{"id":"4b643b46f964a52069a52ae3","name":"Caravaggio","contact":{"phone":"+448715270528","formattedPhone":"+44 871 527 0528"},"location":{"address":"47 Camberwell Church Street","crossStreet":"Opposite Camberwell Grove","lat":"51.4738989064778","lng":"-0.08934974670410156","distance":"115","postalCode":"SE5 8TR","cc":"GB","city":"Camberwell","state":"Greater London","country":"United Kingdom"},"categories":[{"id":"4bf58dd8d48988d110941735","name":"Italian Restaurant","pluralName":"Italian Restaurants","shortName":"Italian","icon":{"prefix":"https:\/\/ss1.4sqi.net\/img\/categories_v2\/food\/italian_","suffix":".png"},"primary":"true"}],"verified":"false","restricted":"true","stats":{"checkinsCount":"281","usersCount":"148","tipCount":"14"},"reservations":{"url":"http:\/\/www.toptable.co.uk\/single.aspx?rid=93027&ref=9601"},"specials":{"count":"0"},"hereNow":{"count":"0"},"referralId":"v-1392478124"},{"id":"4acf9693f964a520bcd420e3","name":"Hermit's Cave","contact":{"phone":"+442077033188","formattedPhone":"+44 20 7703 3188"},"location":{"address":"28 Church St","lat":"51.47390224781858","lng":"-0.0905996561050415","distance":"198","postalCode":"SE5 8QU","cc":"GB","city":"Camberwell","state":"Greater London","country":"United Kingdom"},"categories":[{"id":"4bf58dd8d48988d11b941735","name":"Pub","pluralName":"Pubs","shortName":"Pub","icon":{"prefix":"https:\/\/ss1.4sqi.net\/img\/categories_v2\/nightlife\/pub_","suffix":".png"},"primary":"true"}],"verified":"false","restricted":"true","stats":{"checkinsCount":"543","usersCount":"209","tipCount":"10"},"specials":{"count":"0"},"hereNow":{"count":"0"},"referralId":"v-1392478124"},{"id":"4e9af79cb8f7831366795e71","name":"St Giles Churchyard","location":{"lat":"51.473590431965086","lng":"-0.08691385408366141","distance":"99","cc":"GB","city":"Camberwell","state":"Greater London","country":"United Kingdom"},"categories":[{"id":"4bf58dd8d48988d15a941735","name":"Garden","pluralName":"Gardens","shortName":"Garden","icon":{"prefix":"https:\/\/ss1.4sqi.net\/img\/categories_v2\/parks_outdoors\/garden_","suffix":".png"},"primary":"true"}],"verified":"false","restricted":"true","stats":{"checkinsCount":"63","usersCount":"19","tipCount":"0"},"specials":{"count":"0"},"hereNow":{"count":"0"},"referralId":"v-1392478124"},{"id":"5124d1ffe4b0d33c3f0458f3","name":"UAL (University Of Arts London) Progression Centre","location":{"address":"Camberwell","lat":"51.47290500524904","lng":"-0.08589800944393022","distance":"202","cc":"GB","country":"United Kingdom"},"categories":[{"id":"4bf58dd8d48988d1ae941735","name":"University","pluralName":"Universities","shortName":"University","icon":{"prefix":"https:\/\/ss1.4sqi.net\/img\/categories_v2\/education\/default_","suffix":".png"},"primary":"true"}],"verified":"false","restricted":"true","stats":{"checkinsCount":"79","usersCount":"24","tipCount":"0"},"specials":{"count":"0"},"hereNow":{"count":"0"},"referralId":"v-1392478124"},{"id":"4b5ded2df964a5203e7429e3","name":"Grand Union Camberwell","contact":{"phone":"+442032471001","formattedPhone":"+44 20 3247 1001","twitter":"grandunionbars"},"location":{"address":"26 Camberwell Grove","lat":"51.47215803465172","lng":"-0.0881803035736084","distance":"238","postalCode":"SE5 8RE","cc":"GB","city":"Camberwell","state":"Greater London","country":"United Kingdom"},"categories":[{"id":"4bf58dd8d48988d11b941735","name":"Pub","pluralName":"Pubs","shortName":"Pub","icon":{"prefix":"https:\/\/ss1.4sqi.net\/img\/categories_v2\/nightlife\/pub_","suffix":".png"},"primary":"true"}],"verified":"true","restricted":"true","stats":{"checkinsCount":"529","usersCount":"250","tipCount":"3"},"url":"http:\/\/www.grandunionbars.com","menu":{"type":"Menu","label":"Menu","anchor":"View Menu","url":"https:\/\/foursquare.com\/v\/grand-union-camberwell\/4b5ded2df964a5203e7429e3\/menu","mobileUrl":"https:\/\/foursquare.com\/v\/4b5ded2df964a5203e7429e3\/device_menu"},"specials":{"count":"0"},"hereNow":{"count":"0"},"storeId":"CAMBERWELL","referralId":"v-1392478124"},{"id":"4b44dc1ef964a5207ffe25e3","name":"FM Mangal","contact":{"phone":"+442077016677","formattedPhone":"+44 20 7701 6677"},"location":{"address":"54 Camberwell Church St","lat":"51.47373518047983","lng":"-0.08960723876953125","distance":"139","postalCode":"SE5 8QZ","cc":"GB","city":"Camberwell","state":"Greater London","country":"United Kingdom"},"categories":[{"id":"4f04af1f2fb6e1c99f3db0bb","name":"Turkish Restaurant","pluralName":"Turkish Restaurants","shortName":"Turkish","icon":{"prefix":"https:\/\/ss1.4sqi.net\/img\/categories_v2\/food\/turkish_","suffix":".png"},"primary":"true"}],"verified":"false","restricted":"true","stats":{"checkinsCount":"322","usersCount":"168","tipCount":"17"},"url":"http:\/\/fmmangal.net","specials":{"count":"0"},"hereNow":{"count":"0"},"referralId":"v-1392478124"},{"id":"4b293610f964a520079b24e3","name":"Angels & Gypsies","contact":{"phone":"+442077035984","formattedPhone":"+44 20 7703 5984"},"location":{"address":"29-33 Camberwell Church St","lat":"51.47387217574276","lng":"-0.09012222290039062","distance":"167","postalCode":"SE5 8TR","cc":"GB","city":"Camberwell","state":"Greater London","country":"United Kingdom"},"categories":[{"id":"4bf58dd8d48988d1db931735","name":"Tapas Restaurant","pluralName":"Tapas Restaurants","shortName":"Tapas","icon":{"prefix":"https:\/\/ss1.4sqi.net\/img\/categories_v2\/food\/tapas_","suffix":".png"},"primary":"true"}],"verified":"false","restricted":"true","stats":{"checkinsCount":"372","usersCount":"256","tipCount":"18"},"url":"http:\/\/www.churchstreethotel.com","menu":{"type":"Menu","label":"Menu","anchor":"View Menu","url":"https:\/\/foursquare.com\/v\/angels--gypsies\/4b293610f964a520079b24e3\/menu","mobileUrl":"https:\/\/foursquare.com\/v\/4b293610f964a520079b24e3\/device_menu"},"specials":{"count":"0"},"hereNow":{"count":"0"},"referralId":"v-1392478124"},{"id":"50eecf17e4b09ea9a082a9cf","name":"Camberwell Green","location":{"address":"Everywhere!","lat":"51.47337765431923","lng":"-0.08698940277099608","distance":"116","cc":"GB","city":"Camberwell","state":"Greater London","country":"United Kingdom"},"categories":[{"id":"4f2a25ac4b909258e854f55f","name":"Neighborhood","pluralName":"Neighborhoods","shortName":"Neighborhood","icon":{"prefix":"https:\/\/ss1.4sqi.net\/img\/categories_v2\/parks_outdoors\/neighborhood_","suffix":".png"},"primary":"true"}],"verified":"false","restricted":"true","stats":{"checkinsCount":"63","usersCount":"34","tipCount":"0"},"specials":{"count":"0"},"hereNow":{"count":"0"},"referralId":"v-1392478124"},{"id":"516bf9e6e4b0a7336d9f4c83","name":"House Cafe & Gallery","contact":{"phone":"+442073584475","formattedPhone":"+44 20 7358 4475"},"location":{"lat":"51.473482757607485","lng":"-0.08829443150454308","distance":"96","cc":"GB","country":"United Kingdom"},"categories":[{"id":"4bf58dd8d48988d16d941735","name":"Caf\u00e9","pluralName":"Caf\u00e9s","shortName":"Caf\u00e9","icon":{"prefix":"https:\/\/ss1.4sqi.net\/img\/categories_v2\/food\/cafe_","suffix":".png"},"primary":"true"}],"verified":"false","restricted":"true","stats":{"checkinsCount":"37","usersCount":"29","tipCount":"1"},"specials":{"count":"0"},"hereNow":{"count":"0"},"referralId":"v-1392478124"},{"id":"4bf042253a002d7ff7e485a4","name":"Van Hing","location":{"address":"42 Camberwell Church St","lat":"51.47385","lng":"-0.08977826666666666","distance":"145","postalCode":"SE5 8QZ","cc":"GB","city":"Camberwell","state":"Greater London","country":"United Kingdom"},"categories":[{"id":"4bf58dd8d48988d14a941735","name":"Vietnamese Restaurant","pluralName":"Vietnamese Restaurants","shortName":"Vietnamese","icon":{"prefix":"https:\/\/ss1.4sqi.net\/img\/categories_v2\/food\/default_","suffix":".png"},"primary":"true"}],"verified":"false","restricted":"true","stats":{"checkinsCount":"97","usersCount":"46","tipCount":"6"},"specials":{"count":"0"},"hereNow":{"count":"0"},"referralId":"v-1392478124"},{"id":"4e046b48b3ad42ccd5ee4aff","name":"Brunswick Park","location":{"address":"Brunswick Pk.","lat":"51.475623005800976","lng":"-0.08600234985351562","distance":"194","postalCode":"SE5 7RH","cc":"GB","city":"Camberwell","state":"Greater London","country":"United Kingdom"},"categories":[{"id":"4bf58dd8d48988d163941735","name":"Park","pluralName":"Parks","shortName":"Park","icon":{"prefix":"https:\/\/ss1.4sqi.net\/img\/categories_v2\/parks_outdoors\/park_","suffix":".png"},"primary":"true"}],"verified":"false","restricted":"true","stats":{"checkinsCount":"253","usersCount":"47","tipCount":"3"},"specials":{"count":"0"},"hereNow":{"count":"0"},"referralId":"v-1392478124"},{"id":"52adc7af11d24f8213b2b6f2","name":"Seabass Cycles","contact":{"phone":"+442077033470","formattedPhone":"+44 20 7703 3470","twitter":"seabasscycles"},"location":{"address":"62 Camberwell Church St","lat":"51.473686","lng":"-0.088546","distance":"84","postalCode":"SE5 8QZ","cc":"GB","city":"Camberwell","state":"Greater London","country":"United Kingdom"},"categories":[{"id":"4bf58dd8d48988d115951735","name":"Bike Shop","pluralName":"Bike Shops","shortName":"Bike shop","icon":{"prefix":"https:\/\/ss1.4sqi.net\/img\/categories_v2\/shops\/bikeshop_","suffix":".png"},"primary":"true"}],"verified":"false","restricted":"true","stats":{"checkinsCount":"3","usersCount":"3","tipCount":"0"},"url":"http:\/\/www.seabasscycles.co.uk","specials":{"count":"0"},"hereNow":{"count":"0"},"referralId":"v-1392478124"},{"id":"52420a9b11d23be96355f59a","name":"Morley's Fried Chicken And Ribs","contact":{"phone":"+442072526592","formattedPhone":"+44 20 7252 6592"},"location":{"address":"56 Camberwell Church Street","lat":"51.47399505145824","lng":"-0.08920151126650822","distance":"102","postalCode":"SE5 8QZ","cc":"GB","city":"London","state":"Greater London","country":"United Kingdom"},"categories":[{"id":"4d4ae6fc7a7b7dea34424761","name":"Fried Chicken Joint","pluralName":"Fried Chicken Joints","shortName":"Fried Chicken","icon":{"prefix":"https:\/\/ss1.4sqi.net\/img\/categories_v2\/food\/friedchicken_","suffix":".png"},"primary":"true"}],"verified":"false","restricted":"true","stats":{"checkinsCount":"11","usersCount":"2","tipCount":"0"},"specials":{"count":"0"},"hereNow":{"count":"0"},"referralId":"v-1392478124"},{"id":"52e17052498e1737a2450122","name":"St Giles Centre","location":{"address":"Camberwell Church St.","lat":"51.473827","lng":"-0.087369","distance":"59","cc":"GB","city":"Camberwell","state":"Greater London","country":"United Kingdom"},"categories":[{"id":"4bf58dd8d48988d100941735","name":"Meeting Room","pluralName":"Meeting Rooms","shortName":"Meeting Room","icon":{"prefix":"https:\/\/ss1.4sqi.net\/img\/categories_v2\/building\/conventioncenter_meetingroom_","suffix":".png"},"primary":"true"}],"verified":"false","restricted":"true","stats":{"checkinsCount":"2","usersCount":"1","tipCount":"0"},"specials":{"count":"0"},"hereNow":{"count":"0"},"referralId":"v-1392478124"},{"id":"525fca9e11d21567f278585f","name":"Cafe Noir","location":{"address":"Camberwell Church Street","lat":"51.473929","lng":"-0.089932","distance":"152","postalCode":"SE5","cc":"GB","city":"London","state":"Greater London","country":"United Kingdom"},"categories":[{"id":"4bf58dd8d48988d1e0931735","name":"Coffee Shop","pluralName":"Coffee Shops","shortName":"Coffee Shop","icon":{"prefix":"https:\/\/ss1.4sqi.net\/img\/categories_v2\/food\/coffeeshop_","suffix":".png"},"primary":"true"}],"verified":"false","restricted":"true","stats":{"checkinsCount":"10","usersCount":"9","tipCount":"1"},"specials":{"count":"0"},"hereNow":{"count":"0"},"referralId":"v-1392478124"},{"id":"528e54bc11d20dfa4702fcff","name":"Oregano Leaf","location":{"lat":"51.473915","lng":"-0.089887","distance":"150","cc":"GB","country":"United Kingdom"},"categories":[{"id":"4bf58dd8d48988d1ca941735","name":"Pizza Place","pluralName":"Pizza Places","shortName":"Pizza","icon":{"prefix":"https:\/\/ss1.4sqi.net\/img\/categories_v2\/food\/pizza_","suffix":".png"},"primary":"true"}],"verified":"false","restricted":"true","stats":{"checkinsCount":"2","usersCount":"2","tipCount":"0"},"specials":{"count":"0"},"hereNow":{"count":"0"},"referralId":"v-1392478124"},{"id":"4f6dbbcfe4b08d8da60959cc","name":"Well Mix","location":{"lat":"51.47364688801006","lng":"-0.08830084248331549","distance":"79","cc":"GB","country":"United Kingdom"},"categories":[{"id":"4bf58dd8d48988d14a941735","name":"Vietnamese Restaurant","pluralName":"Vietnamese Restaurants","shortName":"Vietnamese","icon":{"prefix":"https:\/\/ss1.4sqi.net\/img\/categories_v2\/food\/default_","suffix":".png"},"primary":"true"}],"verified":"false","restricted":"true","stats":{"checkinsCount":"16","usersCount":"8","tipCount":"3"},"specials":{"count":"0"},"hereNow":{"count":"0"},"referralId":"v-1392478124"},{"id":"52890da011d283affd6a48ce","name":"Communion","location":{"address":"29-33 Camberwell Church Street","lat":"51.47412775136387","lng":"-0.0900957940651719","distance":"159","postalCode":"SE5 8TR","cc":"GB","country":"United Kingdom"},"categories":[{"id":"4bf58dd8d48988d121941735","name":"Lounge","pluralName":"Lounges","shortName":"Lounge","icon":{"prefix":"https:\/\/ss1.4sqi.net\/img\/categories_v2\/nightlife\/lounge_","suffix":".png"},"primary":"true"}],"verified":"false","restricted":"true","stats":{"checkinsCount":"9","usersCount":"7","tipCount":"0"},"specials":{"count":"0"},"hereNow":{"count":"0"},"referralId":"v-1392478124"},{"id":"4ea2bfc26c25b62f3d818338","name":"The New Dome Hotel","location":{"address":"51-53 Camberwell Church Street","lat":"51.4738521276812","lng":"-0.0891217589378357","distance":"103","postalCode":"SE5 8TR","cc":"GB","city":"London","state":"Greater London","country":"United Kingdom"},"categories":[{"id":"4bf58dd8d48988d1fa931735","name":"Hotel","pluralName":"Hotels","shortName":"Hotel","icon":{"prefix":"https:\/\/ss1.4sqi.net\/img\/categories_v2\/travel\/hotel_","suffix":".png"},"primary":"true"}],"verified":"false","restricted":"true","stats":{"checkinsCount":"16","usersCount":"9","tipCount":"0"},"specials":{"count":"0"},"hereNow":{"count":"0"},"referralId":"v-1392478124"},{"id":"52f00d60498ef67d0372db58","name":"grove lane 49b","location":{"lat":"51.471767","lng":"-0.088147","distance":"281","cc":"GB","country":"United Kingdom"},"categories":[{"id":"4d954b06a243a5684965b473","name":"Residential Building (Apartment \/ Condo)","pluralName":"Residential Buildings (Apartments \/ Condos)","shortName":"Residential","icon":{"prefix":"https:\/\/ss1.4sqi.net\/img\/categories_v2\/building\/apartment_","suffix":".png"},"primary":"true"}],"verified":"false","restricted":"true","stats":{"checkinsCount":"10","usersCount":"1","tipCount":"0"},"specials":{"count":"0"},"hereNow":{"count":"0"},"referralId":"v-1392478124"},{"id":"4ca4a6717f84224b0e1acf58","name":"The Flying Fish","contact":{"phone":"+442077017032","formattedPhone":"+44 20 7701 7032"},"location":{"address":"55 Camberwell Church St","lat":"51.473773606021936","lng":"-0.0889045000076294","distance":"95","postalCode":"SE5 8TR","cc":"GB","city":"Camberwell","state":"Greater London","country":"United Kingdom"},"categories":[{"id":"4edd64a0c7ddd24ca188df1a","name":"Fish & Chips Shop","pluralName":"Fish & Chips Shops","shortName":"Fish & Chips","icon":{"prefix":"https:\/\/ss1.4sqi.net\/img\/categories_v2\/food\/fishandchips_","suffix":".png"},"primary":"true"}],"verified":"false","restricted":"true","stats":{"checkinsCount":"107","usersCount":"53","tipCount":"4"},"specials":{"count":"0"},"hereNow":{"count":"0"},"referralId":"v-1392478124"},{"id":"52060e5b11d2af09e7f0299f","name":"Bus Stop K @ Camberwell Church St \/ Camberwell Green","location":{"lat":"51.47397748433454","lng":"-0.08752700000508928","distance":"39","cc":"GB","country":"United Kingdom"},"categories":[{"id":"4bf58dd8d48988d1fe931735","name":"Bus Station","pluralName":"Bus Stations","shortName":"Bus Station","icon":{"prefix":"https:\/\/ss1.4sqi.net\/img\/categories_v2\/travel\/busstation_","suffix":".png"},"primary":"true"}],"verified":"false","restricted":"true","stats":{"checkinsCount":"3","usersCount":"3","tipCount":"1"},"specials":{"count":"0"},"hereNow":{"count":"0"},"referralId":"v-1392478124"},{"id":"4c9e522346978cfa1691a07f","name":"Wuli Wuli","contact":{"phone":"+442077085024","formattedPhone":"+44 20 7708 5024"},"location":{"address":"Church St","lat":"51.474043","lng":"-0.091095","distance":"229","postalCode":"SE5 8TR","cc":"GB","city":"Camberwell","state":"Greater London","country":"United Kingdom"},"categories":[{"id":"4bf58dd8d48988d145941735","name":"Chinese Restaurant","pluralName":"Chinese Restaurants","shortName":"Chinese","icon":{"prefix":"https:\/\/ss1.4sqi.net\/img\/categories_v2\/food\/chinese_","suffix":".png"},"primary":"true"}],"verified":"false","restricted":"true","stats":{"checkinsCount":"99","usersCount":"47","tipCount":"3"},"specials":{"count":"0"},"hereNow":{"count":"0"},"referralId":"v-1392478124"},{"id":"4bed93fa3372c928d6d91114","name":"Falafel","location":{"address":"31 Camberwell Church Street","lat":"51.473892","lng":"-0.090214","distance":"172","postalCode":"SE5","cc":"GB","country":"United Kingdom"},"categories":[{"id":"4bf58dd8d48988d10b941735","name":"Falafel Restaurant","pluralName":"Falafel Restaurants","shortName":"Falafel","icon":{"prefix":"https:\/\/ss1.4sqi.net\/img\/categories_v2\/food\/falafel_","suffix":".png"},"primary":"true"}],"verified":"false","restricted":"true","stats":{"checkinsCount":"143","usersCount":"68","tipCount":"3"},"specials":{"count":"0"},"hereNow":{"count":"0"},"referralId":"v-1392478124"}],"confident":"false"}}