{"meta":{"code":"200"},"response":{"venues":[{"id":"4ac518c4f964a5207aa420e3","name":"The Pig's Ear","contact":{"phone":"+442073522908","formattedPhone":"+44 20 7352 2908"},"location":{"address":"35 Old Church St","lat":"51.484230472909395","lng":"-0.1722228975103383","distance":"40","postalCode":"SW3 5BR","cc":"GB","city":"London","state":"Greater London","country":"United Kingdom"},"categories":[{"id":"4bf58dd8d48988d11b941735","name":"Pub","pluralName":"Pubs","shortName":"Pub","icon":{"prefix":"https:\/\/ss1.4sqi.net\/img\/categories_v2\/nightlife\/pub_","suffix":".png"},"primary":"true"}],"verified":"false","restricted":"true","stats":{"checkinsCount":"625","usersCount":"455","tipCount":"20"},"url":"http:\/\/www.thepigsear.info","reservations":{"url":"http:\/\/www.toptable.co.uk\/single.aspx?rid=57940&ref=9601"},"menu":{"type":"Menu","label":"Menu","anchor":"View Menu","url":"https:\/\/foursquare.com\/v\/the-pigs-ear\/4ac518c4f964a5207aa420e3\/menu","mobileUrl":"https:\/\/foursquare.com\/v\/4ac518c4f964a5207aa420e3\/device_menu"},"specials":{"count":"0"},"hereNow":{"count":"0"},"referralId":"v-1392478089"},{"id":"4ac518b9f964a520b5a120e3","name":"Big Easy BBQ & Crabshack","contact":{"phone":"+442073524071","formattedPhone":"+44 20 7352 4071","twitter":"bigeasytweet"},"location":{"address":"332 King's Rd.","lat":"51.48526909545172","lng":"-0.1741329214906153","distance":"142","postalCode":"SW3 5UR","cc":"GB","city":"Chelsea","state":"Greater London","country":"United Kingdom"},"categories":[{"id":"4bf58dd8d48988d14e941735","name":"American Restaurant","pluralName":"American Restaurants","shortName":"American","icon":{"prefix":"https:\/\/ss1.4sqi.net\/img\/categories_v2\/food\/default_","suffix":".png"},"primary":"true"}],"verified":"true","restricted":"true","stats":{"checkinsCount":"2766","usersCount":"1874","tipCount":"72"},"url":"http:\/\/bigeasy.co.uk\/v1\/index.aspx","reservations":{"url":"http:\/\/www.toptable.co.uk\/single.aspx?rid=5591&ref=9601"},"menu":{"type":"Menu","label":"Menu","anchor":"View Menu","url":"https:\/\/foursquare.com\/v\/big-easy-bbq--crabshack\/4ac518b9f964a520b5a120e3\/menu","mobileUrl":"https:\/\/foursquare.com\/v\/4ac518b9f964a520b5a120e3\/device_menu"},"specials":{"count":"0"},"hereNow":{"count":"0"},"venuePage":{"id":"38145219"},"storeId":"","referralId":"v-1392478089"},{"id":"4ac518e9f964a520c2ab20e3","name":"Cineworld","contact":{"phone":"+448712002000","formattedPhone":"+44 871 200 2000"},"location":{"address":"279 Kings Rd.","lat":"51.4853","lng":"-0.1731","distance":"114","postalCode":"SW3 5EW","cc":"GB","city":"Chelsea","state":"Greater London","country":"United Kingdom"},"categories":[{"id":"4bf58dd8d48988d17f941735","name":"Movie Theater","pluralName":"Movie Theaters","shortName":"Movie Theater","icon":{"prefix":"https:\/\/ss1.4sqi.net\/img\/categories_v2\/arts_entertainment\/movietheater_","suffix":".png"},"primary":"true"}],"verified":"true","restricted":"true","stats":{"checkinsCount":"1692","usersCount":"834","tipCount":"7"},"url":"http:\/\/www.cineworld.co.uk\/cinemas\/10","specials":{"count":"0"},"events":{"count":"10","summary":"10 movies"},"hereNow":{"count":"0"},"storeId":"","referralId":"v-1392478089"},{"id":"4ac518d6f964a52031a820e3","name":"Bluebird","contact":{"phone":"+442075591000","formattedPhone":"+44 20 7559 1000","twitter":"danddlondon"},"location":{"address":"350 King's Rd","lat":"51.48481119344555","lng":"-0.17518963813762262","distance":"175","postalCode":"SW3 5UU","cc":"GB","city":"London","state":"Greater London","country":"United Kingdom"},"categories":[{"id":"4bf58dd8d48988d1c4941735","name":"Restaurant","pluralName":"Restaurants","shortName":"Restaurant","icon":{"prefix":"https:\/\/ss1.4sqi.net\/img\/categories_v2\/food\/default_","suffix":".png"},"primary":"true"}],"verified":"true","restricted":"true","stats":{"checkinsCount":"3555","usersCount":"2487","tipCount":"49"},"url":"http:\/\/www.bluebird-restaurant.co.uk","reservations":{"url":"http:\/\/www.toptable.co.uk\/single.aspx?rid=80812&ref=9601"},"menu":{"type":"Menu","label":"Menu","anchor":"View Menu","url":"https:\/\/foursquare.com\/v\/bluebird-london-greater-london\/4ac518d6f964a52031a820e3\/menu","mobileUrl":"https:\/\/foursquare.com\/v\/4ac518d6f964a52031a820e3\/device_menu"},"specials":{"count":"0"},"hereNow":{"count":"1","groups":[{"type":"others","name":"Other people here","count":"1"}]},"storeId":"Bluebird","referralId":"v-1392478089"},{"id":"4b52060ef964a520076227e3","name":"Byron","contact":{"phone":"+442073526040","formattedPhone":"+44 20 7352 6040","twitter":"byronhamburgers"},"location":{"address":"300 King's Rd","lat":"51.485851249999996","lng":"-0.173067","distance":"174","postalCode":"SW3 5UH","cc":"GB","city":"London","state":"Greater London","country":"United Kingdom"},"categories":[{"id":"4bf58dd8d48988d16c941735","name":"Burger Joint","pluralName":"Burger Joints","shortName":"Burgers","icon":{"prefix":"https:\/\/ss1.4sqi.net\/img\/categories_v2\/food\/burger_","suffix":".png"},"primary":"true"}],"verified":"true","restricted":"true","stats":{"checkinsCount":"1310","usersCount":"906","tipCount":"24"},"specials":{"count":"0"},"hereNow":{"count":"2","groups":[{"type":"others","name":"Other people here","count":"2"}]},"storeId":"","referralId":"v-1392478089"},{"id":"4ac518f4f964a520f5ae20e3","name":"Manolo Blahnik","location":{"address":"49-51 Old Church Street","lat":"51.484707313073","lng":"-0.17251435925078992","distance":"50","postalCode":"SW3 5BS","cc":"GB","city":"London","state":"Greater London","country":"United Kingdom"},"categories":[{"id":"4bf58dd8d48988d102951735","name":"Accessories Store","pluralName":"Accessories Stores","shortName":"Accessories","icon":{"prefix":"https:\/\/ss1.4sqi.net\/img\/categories_v2\/shops\/apparel_accessories_","suffix":".png"},"primary":"true"}],"verified":"false","restricted":"true","stats":{"checkinsCount":"73","usersCount":"39","tipCount":"2"},"specials":{"count":"0"},"hereNow":{"count":"0"},"referralId":"v-1392478089"},{"id":"4c46f30a89a6c9b646949888","name":"The Cadogan Arms","contact":{"phone":"+442073526500","formattedPhone":"+44 20 7352 6500","twitter":"thecadoganarms"},"location":{"address":"298 King's Rd.","crossStreet":"Old Church St.","lat":"51.485901","lng":"-0.173024","distance":"180","postalCode":"SW3 5UG","cc":"GB","city":"Kensington","state":"Greater London","country":"United Kingdom"},"categories":[{"id":"4bf58dd8d48988d11b941735","name":"Pub","pluralName":"Pubs","shortName":"Pub","icon":{"prefix":"https:\/\/ss1.4sqi.net\/img\/categories_v2\/nightlife\/pub_","suffix":".png"},"primary":"true"}],"verified":"true","restricted":"true","stats":{"checkinsCount":"1208","usersCount":"918","tipCount":"9"},"url":"http:\/\/www.thecadoganarmschelsea.com","reservations":{"url":"http:\/\/www.toptable.co.uk\/single.aspx?rid=31846&ref=9601"},"menu":{"type":"Menu","label":"Menu","anchor":"View Menu","url":"https:\/\/foursquare.com\/v\/the-cadogan-arms\/4c46f30a89a6c9b646949888\/menu","mobileUrl":"https:\/\/foursquare.com\/v\/4c46f30a89a6c9b646949888\/device_menu"},"specials":{"count":"2","items":[{"id":"511bce918055456084183693","type":"frequency","message":"Loyal customers can enjoy a drink on the house, every three times they check in. Choose from a draught beer, 175 ml of house wine or selected soft drinks.","description":"Unlocked every 3 check-ins","finePrint":"Not valid in conjunction with any other offer.","icon":"frequency","title":"Loyalty Special","provider":"foursquare","redemption":"standard","page":{"id":"39619701","firstName":"The Cadogan Arms","gender":"none","photo":{"prefix":"https:\/\/irs2.4sqi.net\/img\/user\/","suffix":"\/3PUQ50LEP2IIIGZ4.jpg"},"type":"venuePage","venue":{"id":"4c46f30a89a6c9b646949888"},"tips":{"count":"0"},"homeCity":"Kensington, Greater London","bio":"","contact":{"twitter":"thecadoganarms","facebook":"200982939915238"}}},{"id":"513df660ebcadd00276af763","type":"count","message":"Enjoy a complimentary bar snack up to the value of \u00a34.50 when you check in for the first time and purchase two drinks.","description":"Unlocked on your 1st check-in","finePrint":"Offer valid for one bar snack per person only. Not valid in conjunction with any other offer.","icon":"newbie","title":"Newbie Special","provider":"foursquare","redemption":"standard","page":{"id":"39619701","firstName":"The Cadogan Arms","gender":"none","photo":{"prefix":"https:\/\/irs2.4sqi.net\/img\/user\/","suffix":"\/3PUQ50LEP2IIIGZ4.jpg"},"type":"venuePage","venue":{"id":"4c46f30a89a6c9b646949888"},"tips":{"count":"0"},"homeCity":"Kensington, Greater London","bio":"","contact":{"twitter":"thecadoganarms","facebook":"200982939915238"}}}]},"hereNow":{"count":"0"},"venuePage":{"id":"39619701"},"storeId":"","referralId":"v-1392478089"},{"id":"4b92b344f964a520e41234e3","name":"Juju","location":{"address":"316 kings road","lat":"51.485545","lng":"-0.173666","distance":"152","postalCode":"Sw3","cc":"GB","city":"Kensington","state":"Greater London","country":"United Kingdom"},"categories":[{"id":"4bf58dd8d48988d11f941735","name":"Nightclub","pluralName":"Nightclubs","shortName":"Nightclub","icon":{"prefix":"https:\/\/ss1.4sqi.net\/img\/categories_v2\/nightlife\/nightclub_","suffix":".png"},"primary":"true"}],"verified":"false","restricted":"true","stats":{"checkinsCount":"625","usersCount":"481","tipCount":"13"},"url":"http:\/\/velvet-pr.com\/guestlists\/juju-chelsea\/","reservations":{"url":"http:\/\/www.toptable.co.uk\/single.aspx?rid=72151&ref=9601"},"specials":{"count":"0"},"hereNow":{"count":"0"},"referralId":"v-1392478089"},{"id":"4ae6ec71f964a52089a721e3","name":"New Culture Revolution, SW3","contact":{"phone":"+442073529281","formattedPhone":"+44 20 7352 9281"},"location":{"address":"305 Kings Road,","crossStreet":"Chelsea","lat":"51.484822475","lng":"-0.17518104","distance":"175","postalCode":"SW3 5EP","cc":"GB","city":"London","state":"Greater London","country":"United Kingdom"},"categories":[{"id":"4bf58dd8d48988d145941735","name":"Chinese Restaurant","pluralName":"Chinese Restaurants","shortName":"Chinese","icon":{"prefix":"https:\/\/ss1.4sqi.net\/img\/categories_v2\/food\/chinese_","suffix":".png"},"primary":"true"}],"verified":"false","restricted":"true","stats":{"checkinsCount":"348","usersCount":"229","tipCount":"10"},"specials":{"count":"0"},"hereNow":{"count":"1","groups":[{"type":"others","name":"Other people here","count":"1"}]},"referralId":"v-1392478089"},{"id":"4bc917380687ef3b086ad9cc","name":"Raffles","contact":{"phone":"+442073514964","formattedPhone":"+44 20 7351 4964"},"location":{"address":"287 King's Rd.","lat":"51.485449144648165","lng":"-0.17383922910632152","distance":"147","postalCode":"SW3 5EW","cc":"GB","city":"Chelsea","state":"Greater London","country":"United Kingdom"},"categories":[{"id":"4bf58dd8d48988d11f941735","name":"Nightclub","pluralName":"Nightclubs","shortName":"Nightclub","icon":{"prefix":"https:\/\/ss1.4sqi.net\/img\/categories_v2\/nightlife\/nightclub_","suffix":".png"},"primary":"true"}],"verified":"false","restricted":"true","stats":{"checkinsCount":"560","usersCount":"371","tipCount":"6"},"url":"http:\/\/www.raffleschelsea.com","specials":{"count":"0"},"hereNow":{"count":"0"},"referralId":"v-1392478089"},{"id":"4ed13ab3d3e3521ce6a86573","name":"Busaba Eathai","location":{"address":"Kings Road","lat":"51.484369","lng":"-0.175993","distance":"221","postalCode":"SW3 5UZ","cc":"GB","city":"Chelsea","state":"Greater London","country":"United Kingdom"},"categories":[{"id":"4bf58dd8d48988d142941735","name":"Asian Restaurant","pluralName":"Asian Restaurants","shortName":"Asian","icon":{"prefix":"https:\/\/ss1.4sqi.net\/img\/categories_v2\/food\/asian_","suffix":".png"},"primary":"true"}],"verified":"false","restricted":"true","stats":{"checkinsCount":"715","usersCount":"459","tipCount":"13"},"url":"http:\/\/busaba.com\/#locations=\/locations\/kings-road\/","reservations":{"url":"http:\/\/www.toptable.co.uk\/single.aspx?rid=77059&ref=9601"},"menu":{"type":"Menu","label":"Menu","anchor":"View Menu","url":"https:\/\/foursquare.com\/v\/busaba-eathai-chelsea-greater-london\/4ed13ab3d3e3521ce6a86573\/menu","mobileUrl":"https:\/\/foursquare.com\/v\/4ed13ab3d3e3521ce6a86573\/device_menu"},"specials":{"count":"0"},"hereNow":{"count":"0"},"referralId":"v-1392478089"},{"id":"506c5daf498e39eb821105e1","name":"Skye Norman Hair & Beauty","contact":{"phone":"+442077514527","formattedPhone":"+44 20 7751 4527","twitter":"skyenormansalon"},"location":{"address":"55 Old Church St","crossStreet":"Chelsea","lat":"51.484877","lng":"-0.172532","distance":"68","postalCode":"SW3 5BS","cc":"GB","city":"London","state":"Greater London","country":"United Kingdom"},"categories":[{"id":"4bf58dd8d48988d110951735","name":"Salon \/ Barbershop","pluralName":"Salons \/ Barbershops","shortName":"Salon \/ Barbershop","icon":{"prefix":"https:\/\/ss1.4sqi.net\/img\/categories_v2\/shops\/salon_barber_","suffix":".png"},"primary":"true"}],"verified":"true","restricted":"true","stats":{"checkinsCount":"25","usersCount":"4","tipCount":"1"},"url":"https:\/\/www.facebook.com\/skyenormanhairbeauty","specials":{"count":"0"},"hereNow":{"count":"0"},"venuePage":{"id":"44215519"},"storeId":"Chelsea SW3","referralId":"v-1392478089"},{"id":"4c1378291b5cef3b95f0edc4","name":"Paultons Square Gardens","location":{"address":"Paultons Square","lat":"51.48424860589078","lng":"-0.1737907928249148","distance":"68","postalCode":"SW3 5DP","cc":"GB","city":"London","state":"Greater London","country":"United Kingdom"},"categories":[{"id":"4bf58dd8d48988d130941735","name":"Building","pluralName":"Buildings","shortName":"Building","icon":{"prefix":"https:\/\/ss1.4sqi.net\/img\/categories_v2\/building\/default_","suffix":".png"},"primary":"true"}],"verified":"false","restricted":"true","stats":{"checkinsCount":"8","usersCount":"6","tipCount":"1"},"specials":{"count":"0"},"hereNow":{"count":"0"},"referralId":"v-1392478089"},{"id":"4ac518d9f964a520a5a820e3","name":"Buona Sera at the Jam","location":{"address":"289 King's Road","lat":"51.485308","lng":"-0.174091","distance":"144","postalCode":"SW3 5EW","cc":"GB","city":"London","state":"Greater London","country":"United Kingdom"},"categories":[{"id":"4bf58dd8d48988d110941735","name":"Italian Restaurant","pluralName":"Italian Restaurants","shortName":"Italian","icon":{"prefix":"https:\/\/ss1.4sqi.net\/img\/categories_v2\/food\/italian_","suffix":".png"},"primary":"true"}],"verified":"false","restricted":"true","stats":{"checkinsCount":"213","usersCount":"160","tipCount":"6"},"specials":{"count":"0"},"hereNow":{"count":"0"},"referralId":"v-1392478089"},{"id":"4b05a8b6f964a52067e022e3","name":"Stockpot","contact":{"phone":"+442078233175","formattedPhone":"+44 20 7823 3175"},"location":{"address":"273 King's Rd.","crossStreet":"Btw Old Church St. & Carlyle Sq.","lat":"51.485904","lng":"-0.17296","distance":"180","postalCode":"SW3 5EN","cc":"GB","city":"London","state":"Greater London","country":"United Kingdom"},"categories":[{"id":"4bf58dd8d48988d147941735","name":"Diner","pluralName":"Diners","shortName":"Diner","icon":{"prefix":"https:\/\/ss1.4sqi.net\/img\/categories_v2\/food\/diner_","suffix":".png"},"primary":"true"}],"verified":"false","restricted":"true","stats":{"checkinsCount":"330","usersCount":"165","tipCount":"12"},"specials":{"count":"0"},"hereNow":{"count":"0"},"referralId":"v-1392478089"},{"id":"4ac518dbf964a520e8a820e3","name":"Made in Italy","contact":{"phone":"+442073521880","formattedPhone":"+44 20 7352 1880"},"location":{"address":"249 King's Rd","lat":"51.486196","lng":"-0.172069","distance":"218","postalCode":"SW3 5EL","cc":"GB","city":"Chelsea","state":"Greater London","country":"United Kingdom"},"categories":[{"id":"4bf58dd8d48988d110941735","name":"Italian Restaurant","pluralName":"Italian Restaurants","shortName":"Italian","icon":{"prefix":"https:\/\/ss1.4sqi.net\/img\/categories_v2\/food\/italian_","suffix":".png"},"primary":"true"}],"verified":"false","restricted":"true","stats":{"checkinsCount":"582","usersCount":"437","tipCount":"21"},"menu":{"type":"Menu","label":"Menu","anchor":"View Menu","url":"https:\/\/foursquare.com\/v\/made-in-italy\/4ac518dbf964a520e8a820e3\/menu","mobileUrl":"https:\/\/foursquare.com\/v\/4ac518dbf964a520e8a820e3\/device_menu"},"specials":{"count":"0"},"hereNow":{"count":"0"},"referralId":"v-1392478089"},{"id":"4e0f1f89ae603a50b5493d8f","name":"Triyoga","contact":{"phone":"+442074833344","formattedPhone":"+44 20 7483 3344","twitter":"triyoga"},"location":{"address":"372 King's Rd.","lat":"51.48453799876472","lng":"-0.17601461168380003","distance":"224","postalCode":"SW3 5UZ","cc":"GB","city":"Kensington","state":"Greater London","country":"United Kingdom"},"categories":[{"id":"4bf58dd8d48988d102941735","name":"Yoga Studio","pluralName":"Yoga Studios","shortName":"Yoga Studio","icon":{"prefix":"https:\/\/ss1.4sqi.net\/img\/categories_v2\/shops\/gym_yogastudio_","suffix":".png"},"primary":"true"}],"verified":"false","restricted":"true","stats":{"checkinsCount":"487","usersCount":"151","tipCount":"10"},"url":"http:\/\/www.triyoga.co.uk","specials":{"count":"0"},"hereNow":{"count":"0"},"referralId":"v-1392478089"},{"id":"4be5a0d5d4f7c9b63ea62520","name":"Azteca Latin Lounge","contact":{"phone":"+442073524087","formattedPhone":"+44 20 7352 4087"},"location":{"address":"329 Kings Rd.","crossStreet":"at Beaufort St.","lat":"51.48428623333333","lng":"-0.175988","distance":"220","postalCode":"SW3 5ES","cc":"GB","city":"London","state":"Greater London","country":"United Kingdom"},"categories":[{"id":"4bf58dd8d48988d121941735","name":"Lounge","pluralName":"Lounges","shortName":"Lounge","icon":{"prefix":"https:\/\/ss1.4sqi.net\/img\/categories_v2\/nightlife\/lounge_","suffix":".png"},"primary":"true"}],"verified":"false","restricted":"true","stats":{"checkinsCount":"259","usersCount":"218","tipCount":"9"},"specials":{"count":"0"},"hereNow":{"count":"0"},"referralId":"v-1392478089"},{"id":"50bca0d8e4b05ed27f184ae7","name":"Beaufort Street","location":{"lat":"51.48345192905741","lng":"-0.17448505725516458","distance":"149","cc":"GB","country":"United Kingdom"},"categories":[{"id":"4f2a25ac4b909258e854f55f","name":"Neighborhood","pluralName":"Neighborhoods","shortName":"Neighborhood","icon":{"prefix":"https:\/\/ss1.4sqi.net\/img\/categories_v2\/parks_outdoors\/neighborhood_","suffix":".png"},"primary":"true"}],"verified":"false","restricted":"true","stats":{"checkinsCount":"140","usersCount":"29","tipCount":"0"},"reservations":{"url":"http:\/\/www.toptable.co.uk\/single.aspx?rid=47311&ref=9601"},"specials":{"count":"0"},"hereNow":{"count":"0"},"referralId":"v-1392478089"},{"id":"4b5884b4f964a520bf5b28e3","name":"Designers Guild","location":{"address":"Kings Road","crossStreet":"Old Church St","lat":"51.485944","lng":"-0.172963","distance":"184","cc":"GB","country":"United Kingdom"},"categories":[{"id":"4bf58dd8d48988d1f4941735","name":"Design Studio","pluralName":"Design Studios","shortName":"Design","icon":{"prefix":"https:\/\/ss1.4sqi.net\/img\/categories_v2\/shops\/design_","suffix":".png"},"primary":"true"}],"verified":"false","restricted":"true","stats":{"checkinsCount":"104","usersCount":"76","tipCount":"2"},"specials":{"count":"0"},"hereNow":{"count":"0"},"referralId":"v-1392478089"},{"id":"4acf3e7df964a520dfd220e3","name":"Ranoush King's Rd","contact":{"phone":"+442073520044","formattedPhone":"+44 20 7352 0044"},"location":{"address":"338 King's Rd","lat":"51.485197","lng":"-0.174331","distance":"146","postalCode":"SW3","cc":"GB","city":"London","state":"Greater London","country":"United Kingdom"},"categories":[{"id":"4bf58dd8d48988d10b941735","name":"Falafel Restaurant","pluralName":"Falafel Restaurants","shortName":"Falafel","icon":{"prefix":"https:\/\/ss1.4sqi.net\/img\/categories_v2\/food\/falafel_","suffix":".png"},"primary":"true"}],"verified":"true","restricted":"true","stats":{"checkinsCount":"156","usersCount":"83","tipCount":"4"},"specials":{"count":"0"},"hereNow":{"count":"0"},"referralId":"v-1392478089"},{"id":"4d32f0c46c7c721e0cdab456","name":"Buonasera","contact":{"phone":"+442073528827","formattedPhone":"+44 20 7352 8827"},"location":{"address":"289A King's Rd.","lat":"51.485416","lng":"-0.17386","distance":"145","postalCode":"SW3 5EW","cc":"GB","city":"Chelsea","state":"Greater London","country":"United Kingdom"},"categories":[{"id":"4bf58dd8d48988d110941735","name":"Italian Restaurant","pluralName":"Italian Restaurants","shortName":"Italian","icon":{"prefix":"https:\/\/ss1.4sqi.net\/img\/categories_v2\/food\/italian_","suffix":".png"},"primary":"true"}],"verified":"false","restricted":"true","stats":{"checkinsCount":"75","usersCount":"58","tipCount":"3"},"specials":{"count":"0"},"hereNow":{"count":"0"},"referralId":"v-1392478089"},{"id":"5103e590e4b02656bc4719a2","name":"The Shop At Bluebird","location":{"lat":"51.484712","lng":"-0.175145","distance":"169","cc":"GB","country":"United Kingdom"},"categories":[{"id":"4bf58dd8d48988d103951735","name":"Clothing Store","pluralName":"Clothing Stores","shortName":"Apparel","icon":{"prefix":"https:\/\/ss1.4sqi.net\/img\/categories_v2\/shops\/apparel_","suffix":".png"},"primary":"true"}],"verified":"false","restricted":"true","stats":{"checkinsCount":"49","usersCount":"49","tipCount":"1"},"specials":{"count":"0"},"hereNow":{"count":"0"},"referralId":"v-1392478089"},{"id":"4c7cfd1aad90224bad9e8b0c","name":"Julie Nails","location":{"address":"289","crossStreet":"King's Road","lat":"51.485431","lng":"-0.173862","distance":"146","postalCode":"SW3","cc":"GB","city":"Chelsea","state":"Greater London","country":"United Kingdom"},"categories":[{"id":"4bf58dd8d48988d10c951735","name":"Cosmetics Shop","pluralName":"Cosmetics Shops","shortName":"Cosmetics","icon":{"prefix":"https:\/\/ss1.4sqi.net\/img\/categories_v2\/shops\/beauty_cosmetic_","suffix":".png"},"primary":"true"}],"verified":"false","restricted":"true","stats":{"checkinsCount":"46","usersCount":"24","tipCount":"1"},"specials":{"count":"0"},"hereNow":{"count":"0"},"referralId":"v-1392478089"},{"id":"51168d55e4b063143df4a787","name":"Mozzarella & More","location":{"lat":"51.486190551970964","lng":"-0.17212614250712252","distance":"216","cc":"GB","country":"United Kingdom"},"categories":[{"id":"4bf58dd8d48988d110941735","name":"Italian Restaurant","pluralName":"Italian Restaurants","shortName":"Italian","icon":{"prefix":"https:\/\/ss1.4sqi.net\/img\/categories_v2\/food\/italian_","suffix":".png"},"primary":"true"}],"verified":"false","restricted":"true","stats":{"checkinsCount":"33","usersCount":"31","tipCount":"1"},"specials":{"count":"0"},"hereNow":{"count":"0"},"referralId":"v-1392478089"},{"id":"4c0d47017189c92843c2d6b6","name":"Pizza Express","contact":{"phone":"+442073515031","formattedPhone":"+44 20 7351 5031","twitter":"pizzaexpress"},"location":{"address":"152 Kings Rd.","lat":"51.485719","lng":"-0.173051","distance":"160","postalCode":"SW3 4UT","cc":"GB","city":"Kensington","state":"Greater London","country":"United Kingdom"},"categories":[{"id":"4bf58dd8d48988d1ca941735","name":"Pizza Place","pluralName":"Pizza Places","shortName":"Pizza","icon":{"prefix":"https:\/\/ss1.4sqi.net\/img\/categories_v2\/food\/pizza_","suffix":".png"},"primary":"true"}],"verified":"false","restricted":"true","stats":{"checkinsCount":"34","usersCount":"28","tipCount":"1"},"url":"http:\/\/www.pizzaexpress.com","menu":{"type":"Menu","label":"Menu","anchor":"View Menu","url":"https:\/\/foursquare.com\/v\/pizza-express-kensington-greater-london\/4c0d47017189c92843c2d6b6\/menu","mobileUrl":"https:\/\/foursquare.com\/v\/4c0d47017189c92843c2d6b6\/device_menu"},"specials":{"count":"0"},"hereNow":{"count":"0"},"referralId":"v-1392478089"},{"id":"4ca1a9a78afca09375071d16","name":"Chelsea Magazine Company","location":{"address":"26 old church st","lat":"51.48413748","lng":"-0.17219064","distance":"45","cc":"GB","city":"Kensington","state":"Greater London","country":"United Kingdom"},"verified":"false","restricted":"true","stats":{"checkinsCount":"1","usersCount":"1","tipCount":"0"},"specials":{"count":"0"},"hereNow":{"count":"0"},"referralId":"v-1392478089"},{"id":"52519ab37e48a74d3f22db33","name":"Red Studio Chelsea","contact":{"phone":"+442036020835","formattedPhone":"+44 20 3602 0835","twitter":"redstudiochelse"},"location":{"address":"50 Old Church Street","lat":"51.48453148452217","lng":"-0.1721709966659546","distance":"51","postalCode":"SW3 5DA","cc":"GB","city":"London","state":"Greater London","country":"United Kingdom"},"categories":[{"id":"4bf58dd8d48988d124941735","name":"Office","pluralName":"Offices","shortName":"Office","icon":{"prefix":"https:\/\/ss1.4sqi.net\/img\/categories_v2\/building\/default_","suffix":".png"},"primary":"true"}],"verified":"false","restricted":"true","stats":{"checkinsCount":"0","usersCount":"0","tipCount":"0"},"specials":{"count":"0"},"hereNow":{"count":"0"},"referralId":"v-1392478089"},{"id":"4de102eb7d8b84d5dc79fa86","name":"Lilly Hastedt","contact":{"phone":"+442030550166","formattedPhone":"+44 20 3055 0166"},"location":{"address":"30 Old Church St.","crossStreet":"near King's Rd.","lat":"51.48379","lng":"-0.172672","distance":"56","postalCode":"SW3 5BY","cc":"GB","city":"Kensington","state":"Greater London","country":"United Kingdom"},"categories":[{"id":"4bf58dd8d48988d111951735","name":"Jewelry Store","pluralName":"Jewelry Stores","shortName":"Jewelry","icon":{"prefix":"https:\/\/ss1.4sqi.net\/img\/categories_v2\/shops\/jewelry_","suffix":".png"},"primary":"true"}],"verified":"false","restricted":"true","stats":{"checkinsCount":"1","usersCount":"1","tipCount":"0"},"specials":{"count":"0"},"hereNow":{"count":"0"},"referralId":"v-1392478089"},{"id":"4db01aef1e729fcc56388fc5","name":"Maroush","location":{"lat":"51.485192","lng":"-0.174279","distance":"143","cc":"GB","city":"Kensington","state":"Greater London","country":"United Kingdom"},"categories":[{"id":"4bf58dd8d48988d115941735","name":"Middle Eastern Restaurant","pluralName":"Middle Eastern Restaurants","shortName":"Middle Eastern","icon":{"prefix":"https:\/\/ss1.4sqi.net\/img\/categories_v2\/food\/default_","suffix":".png"},"primary":"true"}],"verified":"false","restricted":"true","stats":{"checkinsCount":"105","usersCount":"61","tipCount":"2"},"specials":{"count":"0"},"hereNow":{"count":"0"},"referralId":"v-1392478089"}],"confident":"true"}}