{"meta":{"code":"200"},"response":{"venues":[{"id":"4ccb1efc566aa093cbcf18fd","name":"Old Red Lion","contact":{"phone":"+442077354312","formattedPhone":"+44 20 7735 4312","twitter":"oldredlionkenn"},"location":{"address":"42 Kennington Park Rd","lat":"51.489466343800935","lng":"-0.10501342692326765","distance":"194","postalCode":"SE11 4RS","cc":"GB","city":"Kennington","state":"Greater London","country":"United Kingdom"},"categories":[{"id":"4bf58dd8d48988d11b941735","name":"Pub","pluralName":"Pubs","shortName":"Pub","icon":{"prefix":"https:\/\/ss1.4sqi.net\/img\/categories_v2\/nightlife\/pub_","suffix":".png"},"primary":"true"}],"verified":"false","restricted":"true","stats":{"checkinsCount":"941","usersCount":"390","tipCount":"11"},"url":"http:\/\/www.theoldredlion.com","specials":{"count":"0"},"hereNow":{"count":"1","groups":[{"type":"others","name":"Other people here","count":"1"}]},"referralId":"v-1392478083"},{"id":"4b7744dbf964a520668d2ee3","name":"The Little Apple","contact":{"phone":"+442077352039","formattedPhone":"+44 20 7735 2039"},"location":{"address":"98 Kennington Ln","lat":"51.4898242","lng":"-0.1080772","distance":"62","postalCode":"SE11 4XD","cc":"GB","city":"Lambeth","state":"Greater London","country":"United Kingdom"},"categories":[{"id":"4bf58dd8d48988d1d8941735","name":"Gay Bar","pluralName":"Gay Bars","shortName":"Gay Bar","icon":{"prefix":"https:\/\/ss1.4sqi.net\/img\/categories_v2\/nightlife\/gaybar_","suffix":".png"},"primary":"true"}],"verified":"false","restricted":"true","stats":{"checkinsCount":"79","usersCount":"56","tipCount":"4"},"specials":{"count":"0"},"hereNow":{"count":"0"},"referralId":"v-1392478083"},{"id":"4d99c6e9647d8cfad52b0f3e","name":"Tesco Express","contact":{"phone":"+448456756885","formattedPhone":"+44 845 675 6885","twitter":"uktescooffers"},"location":{"address":"38-40 Kennington Park Road","lat":"51.489461","lng":"-0.105003","distance":"195","postalCode":"SE11 4RS","cc":"GB","city":"Kennington","state":"Greater London","country":"United Kingdom"},"categories":[{"id":"4bf58dd8d48988d118951735","name":"Grocery Store","pluralName":"Grocery Stores","shortName":"Grocery Store","icon":{"prefix":"https:\/\/ss1.4sqi.net\/img\/categories_v2\/shops\/food_grocery_","suffix":".png"},"primary":"true"}],"verified":"true","restricted":"true","stats":{"checkinsCount":"429","usersCount":"96","tipCount":"1"},"url":"http:\/\/www.tesco.com","specials":{"count":"0"},"hereNow":{"count":"0"},"storeId":"6231","referralId":"v-1392478083"},{"id":"4be06927652b0f47a8597211","name":"The Tommyfield","contact":{"phone":"+442077351061","formattedPhone":"+44 20 7735 1061","twitter":"tommyfieldpub"},"location":{"address":"185 Kennington Lane","lat":"51.48865188163204","lng":"-0.11059284210205078","distance":"205","postalCode":"SE11 4EZ","cc":"GB","city":"Lambeth","state":"Greater London","country":"United Kingdom"},"categories":[{"id":"4bf58dd8d48988d155941735","name":"Gastropub","pluralName":"Gastropubs","shortName":"Gastropub","icon":{"prefix":"https:\/\/ss1.4sqi.net\/img\/categories_v2\/food\/gastropub_","suffix":".png"},"primary":"true"}],"verified":"false","restricted":"true","stats":{"checkinsCount":"1099","usersCount":"541","tipCount":"26"},"url":"http:\/\/www.thetommyfield.com\/index.php","reservations":{"url":"http:\/\/www.toptable.co.uk\/single.aspx?rid=73279&ref=9601"},"menu":{"type":"Menu","label":"Menu","anchor":"View Menu","url":"https:\/\/foursquare.com\/v\/the-tommyfield-lambeth-greater-london\/4be06927652b0f47a8597211\/menu","mobileUrl":"https:\/\/foursquare.com\/v\/4be06927652b0f47a8597211\/device_menu"},"specials":{"count":"0"},"hereNow":{"count":"0"},"referralId":"v-1392478083"},{"id":"4b75d6a0f964a5206c282ee3","name":"The Dog House","contact":{"phone":"+442078209310","formattedPhone":"+44 20 7820 9310"},"location":{"address":"293 Kennington Rd","crossStreet":"at Kennington Ln","lat":"51.489047700745964","lng":"-0.11086106300354004","distance":"213","postalCode":"SE11 6BY","cc":"GB","city":"Kennington","state":"Greater London","country":"United Kingdom"},"categories":[{"id":"4bf58dd8d48988d11b941735","name":"Pub","pluralName":"Pubs","shortName":"Pub","icon":{"prefix":"https:\/\/ss1.4sqi.net\/img\/categories_v2\/nightlife\/pub_","suffix":".png"},"primary":"true"}],"verified":"false","restricted":"true","stats":{"checkinsCount":"1129","usersCount":"462","tipCount":"17"},"specials":{"count":"0"},"hereNow":{"count":"0"},"referralId":"v-1392478083"},{"id":"4c14c7f3a5eb76b08239c2b7","name":"Cleaver Square","location":{"address":"Kennington","lat":"51.48770323787028","lng":"-0.10866165161132812","distance":"186","postalCode":"SE11 4EA","cc":"GB","city":"London","state":"Greater London","country":"United Kingdom"},"categories":[{"id":"4bf58dd8d48988d164941735","name":"Plaza","pluralName":"Plazas","shortName":"Plaza","icon":{"prefix":"https:\/\/ss1.4sqi.net\/img\/categories_v2\/parks_outdoors\/plaza_","suffix":".png"},"primary":"true"}],"verified":"false","restricted":"true","stats":{"checkinsCount":"795","usersCount":"199","tipCount":"6"},"specials":{"count":"0"},"hereNow":{"count":"0"},"referralId":"v-1392478083"},{"id":"4add2c79f964a520726421e3","name":"The Prince Of Wales","contact":{"phone":"+442077359916","formattedPhone":"+44 20 7735 9916","facebook":"8029823489"},"location":{"address":"48 Cleaver Sq","lat":"51.48822432632349","lng":"-0.10909616947174072","distance":"148","postalCode":"SE11 4EA","cc":"GB","city":"Kennington","state":"Greater London","country":"United Kingdom"},"categories":[{"id":"4bf58dd8d48988d11b941735","name":"Pub","pluralName":"Pubs","shortName":"Pub","icon":{"prefix":"https:\/\/ss1.4sqi.net\/img\/categories_v2\/nightlife\/pub_","suffix":".png"},"primary":"true"}],"verified":"true","restricted":"true","stats":{"checkinsCount":"631","usersCount":"322","tipCount":"11"},"url":"http:\/\/www.princeofwaleskennington.co.uk","menu":{"type":"Menu","label":"Menu","anchor":"View Menu","url":"https:\/\/foursquare.com\/v\/the-prince-of-wales\/4add2c79f964a520726421e3\/menu","mobileUrl":"https:\/\/foursquare.com\/v\/4add2c79f964a520726421e3\/device_menu"},"specials":{"count":"0"},"hereNow":{"count":"0"},"storeId":"","referralId":"v-1392478083"},{"id":"4fb26a49e4b07eeb439ce063","name":"Ninja Tune HQ","location":{"address":"90 Kennington Lane","lat":"51.49014656502891","lng":"-0.10748784393833283","distance":"97","postalCode":"SE114XD","cc":"GB","country":"United Kingdom"},"categories":[{"id":"4bf58dd8d48988d124941735","name":"Office","pluralName":"Offices","shortName":"Office","icon":{"prefix":"https:\/\/ss1.4sqi.net\/img\/categories_v2\/building\/default_","suffix":".png"},"primary":"true"}],"verified":"false","restricted":"true","stats":{"checkinsCount":"18","usersCount":"17","tipCount":"1"},"specials":{"count":"0"},"hereNow":{"count":"0"},"referralId":"v-1392478083"},{"id":"4b7b29e0f964a52035552fe3","name":"Kennington Fish Bar","contact":{"phone":"+442077354235","formattedPhone":"+44 20 7735 4235"},"location":{"address":"56 Kennington Park Road","lat":"51.48882972306099","lng":"-0.10553335831887577","distance":"165","postalCode":"SE11 4RS","cc":"GB","city":"London","state":"Greater London","country":"United Kingdom"},"categories":[{"id":"4edd64a0c7ddd24ca188df1a","name":"Fish & Chips Shop","pluralName":"Fish & Chips Shops","shortName":"Fish & Chips","icon":{"prefix":"https:\/\/ss1.4sqi.net\/img\/categories_v2\/food\/fishandchips_","suffix":".png"},"primary":"true"}],"verified":"false","restricted":"true","stats":{"checkinsCount":"181","usersCount":"43","tipCount":"3"},"specials":{"count":"0"},"hereNow":{"count":"0"},"referralId":"v-1392478083"},{"id":"4c5820796418a5932bda800e","name":"Bus Stop KA, Kennington Road","location":{"lat":"51.48876830788779","lng":"-0.10549751472621359","distance":"169","cc":"GB","country":"United Kingdom"},"categories":[{"id":"4bf58dd8d48988d12b951735","name":"Bus Line","pluralName":"Bus Lines","shortName":"Bus","icon":{"prefix":"https:\/\/ss1.4sqi.net\/img\/categories_v2\/travel\/busstation_","suffix":".png"},"primary":"true"}],"verified":"false","restricted":"true","stats":{"checkinsCount":"103","usersCount":"39","tipCount":"1"},"specials":{"count":"0"},"hereNow":{"count":"0"},"referralId":"v-1392478083"},{"id":"4c0fe321b93cc9b6f7de55e0","name":"Durning Library","location":{"address":"Kennington Cross","lat":"51.489035454826144","lng":"-0.11002298480588422","distance":"156","postalCode":"SE11","cc":"GB","city":"Lambeth","state":"Greater London","country":"United Kingdom"},"categories":[{"id":"4bf58dd8d48988d1a7941735","name":"College Library","pluralName":"College Libraries","shortName":"Library","icon":{"prefix":"https:\/\/ss1.4sqi.net\/img\/categories_v2\/building\/library_","suffix":".png"},"primary":"true"}],"verified":"false","restricted":"true","stats":{"checkinsCount":"104","usersCount":"29","tipCount":"0"},"specials":{"count":"0"},"hereNow":{"count":"0"},"referralId":"v-1392478083"},{"id":"4b5d8f4af964a5207e6129e3","name":"Madeira Star","contact":{"phone":"+442075828778","formattedPhone":"+44 20 7582 8778"},"location":{"address":"337 Kennington Road","lat":"51.487443953636955","lng":"-0.11129689105734811","distance":"317","postalCode":"SE11 4QE","cc":"GB","city":"London","state":"Greater London","country":"United Kingdom"},"categories":[{"id":"4bf58dd8d48988d16d941735","name":"Caf\u00e9","pluralName":"Caf\u00e9s","shortName":"Caf\u00e9","icon":{"prefix":"https:\/\/ss1.4sqi.net\/img\/categories_v2\/food\/cafe_","suffix":".png"},"primary":"true"}],"verified":"false","restricted":"true","stats":{"checkinsCount":"499","usersCount":"59","tipCount":"3"},"specials":{"count":"0"},"hereNow":{"count":"0"},"referralId":"v-1392478083"},{"id":"505c3998e4b0ddb6e7cf98f6","name":"Kennington Osteopaths","location":{"lat":"51.488491132648555","lng":"-0.11073902224681414","distance":"222","cc":"GB","country":"United Kingdom"},"categories":[{"id":"4bf58dd8d48988d175941735","name":"Gym \/ Fitness Center","pluralName":"Gyms or Fitness Centers","shortName":"Gym \/ Fitness","icon":{"prefix":"https:\/\/ss1.4sqi.net\/img\/categories_v2\/building\/gym_","suffix":".png"},"primary":"true"}],"verified":"false","restricted":"true","stats":{"checkinsCount":"21","usersCount":"2","tipCount":"0"},"specials":{"count":"0"},"hereNow":{"count":"0"},"referralId":"v-1392478083"},{"id":"4ecd1d498b81fbfbab0a5f92","name":"Drive Productions","location":{"lat":"51.487801","lng":"-0.110557","distance":"252","cc":"GB","city":"London","state":"Greater London","country":"United Kingdom"},"categories":[{"id":"4bf58dd8d48988d124941735","name":"Office","pluralName":"Offices","shortName":"Office","icon":{"prefix":"https:\/\/ss1.4sqi.net\/img\/categories_v2\/building\/default_","suffix":".png"},"primary":"true"}],"verified":"false","restricted":"true","stats":{"checkinsCount":"130","usersCount":"12","tipCount":"0"},"specials":{"count":"0"},"hereNow":{"count":"0"},"referralId":"v-1392478083"},{"id":"51313191e4b0dc200472f083","name":"Oaka","contact":{"phone":"+442075825599","formattedPhone":"+44 20 7582 5599","twitter":"oakalondon"},"location":{"address":"46 Kennington Park Rd","lat":"51.48926110437753","lng":"-0.10499546980138214","distance":"194","postalCode":"SE11 4RS","cc":"GB","city":"London","state":"Greater London","country":"United Kingdom"},"categories":[{"id":"4bf58dd8d48988d142941735","name":"Asian Restaurant","pluralName":"Asian Restaurants","shortName":"Asian","icon":{"prefix":"https:\/\/ss1.4sqi.net\/img\/categories_v2\/food\/asian_","suffix":".png"},"primary":"true"}],"verified":"false","restricted":"true","stats":{"checkinsCount":"117","usersCount":"88","tipCount":"11"},"url":"http:\/\/www.oakalondon.com","specials":{"count":"0"},"hereNow":{"count":"0"},"referralId":"v-1392478083"},{"id":"52d7e316498e14acfd4c51e5","name":"Maximo Italian Bistrot","contact":{"phone":"+442078208030","formattedPhone":"+44 20 7820 8030"},"location":{"address":"58 Kennington Park Road","crossStreet":"Othello Close","lat":"51.48905939155363","lng":"-0.10537326335906982","distance":"170","postalCode":"SE11 4RS","cc":"GB","city":"London","state":"Greater London","country":"United Kingdom"},"categories":[{"id":"4bf58dd8d48988d110941735","name":"Italian Restaurant","pluralName":"Italian Restaurants","shortName":"Italian","icon":{"prefix":"https:\/\/ss1.4sqi.net\/img\/categories_v2\/food\/italian_","suffix":".png"},"primary":"true"}],"verified":"false","restricted":"true","stats":{"checkinsCount":"2","usersCount":"2","tipCount":"1"},"reservations":{"url":"http:\/\/www.toptable.co.uk\/single.aspx?rid=100176&ref=9601"},"menu":{"type":"Menu","label":"Menu","anchor":"View Menu","url":"https:\/\/foursquare.com\/v\/maximo-italian-bistrot\/52d7e316498e14acfd4c51e5\/menu","mobileUrl":"https:\/\/foursquare.com\/v\/52d7e316498e14acfd4c51e5\/device_menu"},"specials":{"count":"0"},"hereNow":{"count":"0"},"referralId":"v-1392478083"},{"id":"4c737c5c376da093d033a9c6","name":"Brittany Tower","location":{"address":"Hotspur st","crossStreet":"Ethelred","lat":"51.49108709070049","lng":"-0.11140321171054786","distance":"319","cc":"GB","city":"London","state":"Greater London","country":"United Kingdom"},"categories":[{"id":"4bf58dd8d48988d130941735","name":"Building","pluralName":"Buildings","shortName":"Building","icon":{"prefix":"https:\/\/ss1.4sqi.net\/img\/categories_v2\/building\/default_","suffix":".png"},"primary":"true"}],"verified":"false","restricted":"true","stats":{"checkinsCount":"15","usersCount":"2","tipCount":"0"},"specials":{"count":"0"},"hereNow":{"count":"0"},"referralId":"v-1392478083"},{"id":"50e410cce4b0bc86c4adc013","name":"Vanbrugh Court","location":{"lat":"51.491529","lng":"-0.108086","distance":"250","cc":"GB","country":"United Kingdom"},"categories":[{"id":"4d954b06a243a5684965b473","name":"Residential Building (Apartment \/ Condo)","pluralName":"Residential Buildings (Apartments \/ Condos)","shortName":"Residential","icon":{"prefix":"https:\/\/ss1.4sqi.net\/img\/categories_v2\/building\/apartment_","suffix":".png"},"primary":"true"}],"verified":"false","restricted":"true","stats":{"checkinsCount":"31","usersCount":"3","tipCount":"0"},"specials":{"count":"0"},"hereNow":{"count":"0"},"referralId":"v-1392478083"},{"id":"4de48c65e4cd056f747567a1","name":"Neverland","location":{"lat":"51.49047210281003","lng":"-0.10886020937270677","distance":"150","cc":"GB","city":"Lambeth","state":"Greater London","country":"United Kingdom"},"verified":"false","restricted":"true","stats":{"checkinsCount":"17","usersCount":"6","tipCount":"0"},"specials":{"count":"0"},"hereNow":{"count":"0"},"referralId":"v-1392478083"},{"id":"4bb870e9314e9521f171489d","name":"Kennington Tandoori","location":{"address":"313 Kennington Rd.","lat":"51.488064975929746","lng":"-0.11132238930610518","distance":"279","postalCode":"SE11 4QE","cc":"GB","city":"London","state":"Greater London","country":"United Kingdom"},"categories":[{"id":"4bf58dd8d48988d10f941735","name":"Indian Restaurant","pluralName":"Indian Restaurants","shortName":"Indian","icon":{"prefix":"https:\/\/ss1.4sqi.net\/img\/categories_v2\/food\/indian_","suffix":".png"},"primary":"true"}],"verified":"false","restricted":"true","stats":{"checkinsCount":"219","usersCount":"146","tipCount":"8"},"url":"http:\/\/www.kenningtontandoori.com","reservations":{"url":"http:\/\/www.toptable.co.uk\/single.aspx?rid=46177&ref=9601"},"menu":{"type":"Menu","label":"Menu","anchor":"View Menu","url":"https:\/\/foursquare.com\/v\/kennington-tandoori-london-greater-london\/4bb870e9314e9521f171489d\/menu","mobileUrl":"https:\/\/foursquare.com\/v\/4bb870e9314e9521f171489d\/device_menu"},"specials":{"count":"0"},"hereNow":{"count":"0"},"referralId":"v-1392478083"},{"id":"4e25ff06227118eebfc8923e","name":"Cotton Garden Estate","location":{"address":"Kennington Lane","lat":"51.489883","lng":"-0.107527","distance":"68","postalCode":"SE11","cc":"GB","city":"Lambeth","state":"Greater London","country":"United Kingdom"},"categories":[{"id":"4d954b06a243a5684965b473","name":"Residential Building (Apartment \/ Condo)","pluralName":"Residential Buildings (Apartments \/ Condos)","shortName":"Residential","icon":{"prefix":"https:\/\/ss1.4sqi.net\/img\/categories_v2\/building\/apartment_","suffix":".png"},"primary":"true"}],"verified":"false","restricted":"true","stats":{"checkinsCount":"43","usersCount":"7","tipCount":"0"},"specials":{"count":"0"},"hereNow":{"count":"0"},"referralId":"v-1392478083"},{"id":"4c21b7829390c9b6f674c9cd","name":"Hurley Clinic","location":{"lat":"51.490843039660376","lng":"-0.10685920715332031","distance":"184","cc":"GB","country":"United Kingdom"},"categories":[{"id":"4bf58dd8d48988d104941735","name":"Medical Center","pluralName":"Medical Centers","shortName":"Medical","icon":{"prefix":"https:\/\/ss1.4sqi.net\/img\/categories_v2\/building\/medical_","suffix":".png"},"primary":"true"}],"verified":"false","restricted":"true","stats":{"checkinsCount":"113","usersCount":"26","tipCount":"2"},"specials":{"count":"0"},"hereNow":{"count":"0"},"referralId":"v-1392478083"},{"id":"4bdb204963c5c9b64f762668","name":"Kennington Lane Bus Stop KH","location":{"address":"Kennington Rd.","lat":"51.48981964258862","lng":"-0.11132332447646885","distance":"251","cc":"GB","city":"London","state":"Greater London","country":"United Kingdom"},"categories":[{"id":"4bf58dd8d48988d1fe931735","name":"Bus Station","pluralName":"Bus Stations","shortName":"Bus Station","icon":{"prefix":"https:\/\/ss1.4sqi.net\/img\/categories_v2\/travel\/busstation_","suffix":".png"},"primary":"true"}],"verified":"false","restricted":"true","stats":{"checkinsCount":"111","usersCount":"27","tipCount":"1"},"specials":{"count":"0"},"hereNow":{"count":"0"},"referralId":"v-1392478083"},{"id":"4b7b29b6f964a52029552fe3","name":"Payless Food and Wine","contact":{"phone":"+442077930155","formattedPhone":"+44 20 7793 0155"},"location":{"address":"62 Kennington Park Road","lat":"51.48846482667788","lng":"-0.1062154769897461","distance":"143","postalCode":"SE11 4RS","cc":"GB","city":"London","state":"Greater London","country":"United Kingdom"},"categories":[{"id":"4bf58dd8d48988d118951735","name":"Grocery Store","pluralName":"Grocery Stores","shortName":"Grocery Store","icon":{"prefix":"https:\/\/ss1.4sqi.net\/img\/categories_v2\/shops\/food_grocery_","suffix":".png"},"primary":"true"}],"verified":"false","restricted":"true","stats":{"checkinsCount":"141","usersCount":"30","tipCount":"1"},"specials":{"count":"0"},"hereNow":{"count":"0"},"referralId":"v-1392478083"},{"id":"5272ac67498e31f14a951916","name":"Artslav","location":{"lat":"51.489008","lng":"-0.110528","distance":"191","cc":"GB","country":"United Kingdom"},"categories":[{"id":"4bf58dd8d48988d1e2931735","name":"Art Gallery","pluralName":"Art Galleries","shortName":"Art Gallery","icon":{"prefix":"https:\/\/ss1.4sqi.net\/img\/categories_v2\/arts_entertainment\/artgallery_","suffix":".png"},"primary":"true"}],"verified":"false","restricted":"true","stats":{"checkinsCount":"3","usersCount":"2","tipCount":"0"},"specials":{"count":"0"},"hereNow":{"count":"0"},"referralId":"v-1392478083"},{"id":"4d516160dcce224b8571e11b","name":"North Lambeth Housing Office","location":{"address":"Kennington Lane","lat":"51.49033177847994","lng":"-0.10695517620142617","distance":"130","postalCode":"Se11","cc":"GB","city":"Lambeth","state":"Greater London","country":"United Kingdom"},"categories":[{"id":"4bf58dd8d48988d126941735","name":"Government Building","pluralName":"Government Buildings","shortName":"Government","icon":{"prefix":"https:\/\/ss1.4sqi.net\/img\/categories_v2\/building\/government_","suffix":".png"},"primary":"true"}],"verified":"false","restricted":"true","stats":{"checkinsCount":"6","usersCount":"3","tipCount":"0"},"specials":{"count":"0"},"hereNow":{"count":"0"},"referralId":"v-1392478083"},{"id":"4bb11e60f964a520e27b3ce3","name":"Vergies Cafe","contact":{"phone":"+442073321208","formattedPhone":"+44 20 7332 1208"},"location":{"address":"303 Kennington La.","lat":"51.487663153896456","lng":"-0.1114511489868164","distance":"310","postalCode":"SE11 4QE","cc":"GB","city":"Lambeth","state":"Greater London","country":"United Kingdom"},"categories":[{"id":"4bf58dd8d48988d16d941735","name":"Caf\u00e9","pluralName":"Caf\u00e9s","shortName":"Caf\u00e9","icon":{"prefix":"https:\/\/ss1.4sqi.net\/img\/categories_v2\/food\/cafe_","suffix":".png"},"primary":"true"}],"verified":"false","restricted":"true","stats":{"checkinsCount":"69","usersCount":"34","tipCount":"6"},"specials":{"count":"0"},"hereNow":{"count":"0"},"referralId":"v-1392478083"},{"id":"4f188056e4b0259edeef0d55","name":"Happy Family","location":{"address":"Kennington Road","crossStreet":"Kennington Lane","lat":"51.487977529491474","lng":"-0.11129442886991522","distance":"282","cc":"GB","country":"United Kingdom"},"categories":[{"id":"4bf58dd8d48988d145941735","name":"Chinese Restaurant","pluralName":"Chinese Restaurants","shortName":"Chinese","icon":{"prefix":"https:\/\/ss1.4sqi.net\/img\/categories_v2\/food\/chinese_","suffix":".png"},"primary":"true"}],"verified":"false","restricted":"true","stats":{"checkinsCount":"17","usersCount":"7","tipCount":"2"},"specials":{"count":"0"},"hereNow":{"count":"0"},"referralId":"v-1392478083"},{"id":"4d9d9115a1ec8cfa51cb054a","name":"No. 1 Off Licence B.D.Wines","location":{"address":"Braganza Street","lat":"51.487757562469845","lng":"-0.10549346210572333","distance":"233","postalCode":"SE17","cc":"GB","city":"Camberwell","state":"Greater London","country":"United Kingdom"},"categories":[{"id":"4bf58dd8d48988d186941735","name":"Liquor Store","pluralName":"Liquor Stores","shortName":"Liquor Store","icon":{"prefix":"https:\/\/ss1.4sqi.net\/img\/categories_v2\/shops\/food_liquor_","suffix":".png"},"primary":"true"}],"verified":"false","restricted":"true","stats":{"checkinsCount":"20","usersCount":"7","tipCount":"0"},"specials":{"count":"0"},"hereNow":{"count":"0"},"referralId":"v-1392478083"},{"id":"4dbeeb4993a08f9274f70735","name":"Pizza Hut Delivery","contact":{"phone":"+442077938866","formattedPhone":"+44 20 7793 8866"},"location":{"address":"343 Kennington Road","lat":"51.490135","lng":"-0.107256","distance":"101","cc":"GB","city":"London","state":"Greater London","country":"United Kingdom"},"categories":[{"id":"4bf58dd8d48988d1ca941735","name":"Pizza Place","pluralName":"Pizza Places","shortName":"Pizza","icon":{"prefix":"https:\/\/ss1.4sqi.net\/img\/categories_v2\/food\/pizza_","suffix":".png"},"primary":"true"}],"verified":"false","restricted":"true","stats":{"checkinsCount":"2","usersCount":"2","tipCount":"0"},"specials":{"count":"0"},"hereNow":{"count":"0"},"referralId":"v-1392478083"}],"confident":"false"}}