{"meta":{"code":"200"},"response":{"venues":[{"id":"4b1e80d6f964a520ab1a24e3","name":"David Lloyd Health & Fitness Clubs","location":{"address":"116 Cromwell Road","crossStreet":"Point West","lat":"51.495011293466746","lng":"-0.18822669982910156","distance":"85","postalCode":"SW7 4XR","cc":"GB","city":"Kensington","state":"Greater London","country":"United Kingdom"},"categories":[{"id":"4bf58dd8d48988d176941735","name":"Gym","pluralName":"Gyms","shortName":"Gym","icon":{"prefix":"https:\/\/ss1.4sqi.net\/img\/categories_v2\/building\/gym_","suffix":".png"},"primary":"true"}],"verified":"false","restricted":"true","stats":{"checkinsCount":"2140","usersCount":"194","tipCount":"6"},"specials":{"count":"0"},"hereNow":{"count":"0"},"referralId":"v-1392478062"},{"id":"4b9d47b7f964a520af9f36e3","name":"The Ambassadors Hotel","location":{"address":"16 Collingham Road","lat":"51.49398254","lng":"-0.188319","distance":"49","postalCode":"SW5","cc":"GB","city":"Kensington","state":"Greater London","country":"United Kingdom"},"categories":[{"id":"4bf58dd8d48988d1fa931735","name":"Hotel","pluralName":"Hotels","shortName":"Hotel","icon":{"prefix":"https:\/\/ss1.4sqi.net\/img\/categories_v2\/travel\/hotel_","suffix":".png"},"primary":"true"}],"verified":"false","restricted":"true","stats":{"checkinsCount":"406","usersCount":"206","tipCount":"13"},"specials":{"count":"0"},"hereNow":{"count":"0"},"referralId":"v-1392478062"},{"id":"4b82cfe5f964a520a7e630e3","name":"Sainsbury's","contact":{"phone":"+442073738313","formattedPhone":"+44 20 7373 8313","twitter":"sainsburys"},"location":{"address":"Cromwell Rd.","lat":"51.49511816675797","lng":"-0.1874542236328125","distance":"95","postalCode":"SW7 4EJ","cc":"GB","city":"Kensington","state":"Greater London","country":"United Kingdom"},"categories":[{"id":"4bf58dd8d48988d118951735","name":"Grocery Store","pluralName":"Grocery Stores","shortName":"Grocery Store","icon":{"prefix":"https:\/\/ss1.4sqi.net\/img\/categories_v2\/shops\/food_grocery_","suffix":".png"},"primary":"true"}],"verified":"false","restricted":"true","stats":{"checkinsCount":"2561","usersCount":"920","tipCount":"13"},"specials":{"count":"0"},"hereNow":{"count":"0"},"referralId":"v-1392478062"},{"id":"4c744316ff1fb60ccd0af3a7","name":"Cromwell Crown Hotel","contact":{"phone":"+442073701222","formattedPhone":"+44 20 7370 1222"},"location":{"address":"141 Cromwell Road","lat":"51.494646","lng":"-0.187693","distance":"40","postalCode":"SW7 4DX","cc":"GB","city":"London","state":"Greater London","country":"United Kingdom"},"categories":[{"id":"4bf58dd8d48988d1fa931735","name":"Hotel","pluralName":"Hotels","shortName":"Hotel","icon":{"prefix":"https:\/\/ss1.4sqi.net\/img\/categories_v2\/travel\/hotel_","suffix":".png"},"primary":"true"}],"verified":"false","restricted":"true","stats":{"checkinsCount":"353","usersCount":"175","tipCount":"3"},"specials":{"count":"0"},"hereNow":{"count":"0"},"referralId":"v-1392478062"},{"id":"4b747003f964a5208fdc2de3","name":"The Park International Hotel","contact":{"phone":"+442073705711","formattedPhone":"+44 20 7370 5711"},"location":{"address":"117-125 Cromwell Rd.","lat":"51.494657273899875","lng":"-0.18681585788726807","distance":"79","postalCode":"SW7 4DS","cc":"GB","city":"Kensington","state":"Greater London","country":"United Kingdom"},"categories":[{"id":"4bf58dd8d48988d1fa931735","name":"Hotel","pluralName":"Hotels","shortName":"Hotel","icon":{"prefix":"https:\/\/ss1.4sqi.net\/img\/categories_v2\/travel\/hotel_","suffix":".png"},"primary":"true"}],"verified":"false","restricted":"true","stats":{"checkinsCount":"841","usersCount":"340","tipCount":"18"},"url":"http:\/\/www.parkinternationalhotel.com","specials":{"count":"0"},"hereNow":{"count":"0"},"referralId":"v-1392478062"},{"id":"4dca1b83ae607b31c0b9a7b6","name":"Checkmate Bar","contact":{"phone":"+442073705711","formattedPhone":"+44 20 7370 5711","twitter":"parkinthotel"},"location":{"address":"117-129 Cromwell Rd","crossStreet":"at the Park International Hotel","lat":"51.494747","lng":"-0.186991","distance":"75","postalCode":"SW7 4DS","cc":"GB","city":"Kensington","state":"Greater London","country":"United Kingdom"},"categories":[{"id":"4bf58dd8d48988d11e941735","name":"Cocktail Bar","pluralName":"Cocktail Bars","shortName":"Cocktail","icon":{"prefix":"https:\/\/ss1.4sqi.net\/img\/categories_v2\/nightlife\/cocktails_","suffix":".png"},"primary":"true"}],"verified":"true","restricted":"true","stats":{"checkinsCount":"464","usersCount":"180","tipCount":"9"},"url":"http:\/\/www.parkinternationalhotel.com","specials":{"count":"1","items":[{"id":"52f0b49711d25da04b771fde","type":"frequency","message":"Receive 50% off a sharing platter when ordering 4 pints or more!!","photo":{"id":"520120d5498e33a329e4cc6d","createdAt":"1375805653","prefix":"https:\/\/irs0.4sqi.net\/img\/general\/","suffix":"\/40935295_WhZ5lCXo-fabAh6alJN6vUqd1uuG6g7tZi17OA6mIEI.jpg","width":"960","height":"640"},"description":"Unlocked every check-in","icon":"check-in","title":"Check-in Special","provider":"foursquare","redemption":"standard","page":{"id":"60143909","firstName":"Checkmate Bar","gender":"none","photo":{"prefix":"https:\/\/irs3.4sqi.net\/img\/user\/","suffix":"\/60143909-0GPKXO44MXQHBTD4.png"},"type":"venuePage","venue":{"id":"4dca1b83ae607b31c0b9a7b6"},"tips":{"count":"0"},"homeCity":"Kensington, England","bio":"","contact":{"twitter":"parkinthotel","facebook":"181879721861877"}}}]},"hereNow":{"count":"0"},"venuePage":{"id":"60143909"},"referralId":"v-1392478062"},{"id":"4ffd2b8ee4b0308ece1e27fd","name":"Kensingtonrooms","contact":{"phone":"+442075987979","formattedPhone":"+44 20 7598 7979"},"location":{"address":"131-137 Cromwell Road","lat":"51.494371695244844","lng":"-0.18752294464778108","distance":"21","postalCode":"SW7 4DU","cc":"GB","city":"London","state":"Greater London","country":"United Kingdom"},"categories":[{"id":"4bf58dd8d48988d1fa931735","name":"Hotel","pluralName":"Hotels","shortName":"Hotel","icon":{"prefix":"https:\/\/ss1.4sqi.net\/img\/categories_v2\/travel\/hotel_","suffix":".png"},"primary":"true"}],"verified":"false","restricted":"true","stats":{"checkinsCount":"22","usersCount":"9","tipCount":"2"},"specials":{"count":"0"},"hereNow":{"count":"0"},"referralId":"v-1392478062"},{"id":"4b73175df964a520e39a2de3","name":"Point West","location":{"address":"116 Cromwell Road","lat":"51.49511816675797","lng":"-0.18693923950195312","distance":"110","cc":"GB","city":"Kensington","state":"Greater London","country":"United Kingdom"},"categories":[{"id":"4bf58dd8d48988d130941735","name":"Building","pluralName":"Buildings","shortName":"Building","icon":{"prefix":"https:\/\/ss1.4sqi.net\/img\/categories_v2\/building\/default_","suffix":".png"},"primary":"true"}],"verified":"false","restricted":"true","stats":{"checkinsCount":"3871","usersCount":"315","tipCount":"2"},"specials":{"count":"0"},"hereNow":{"count":"0"},"referralId":"v-1392478062"},{"id":"51c319a1498e7ba2bd027e6b","name":"\u0633\u0648\u0628\u0631 \u0634\u0645\u0627\u063a","location":{"lat":"51.494466","lng":"-0.187597","distance":"24","cc":"GB","country":"United Kingdom"},"categories":[{"id":"4bf58dd8d48988d103951735","name":"Clothing Store","pluralName":"Clothing Stores","shortName":"Apparel","icon":{"prefix":"https:\/\/ss1.4sqi.net\/img\/categories_v2\/shops\/apparel_","suffix":".png"},"primary":"true"}],"verified":"false","restricted":"true","stats":{"checkinsCount":"2","usersCount":"2","tipCount":"0"},"specials":{"count":"0"},"hereNow":{"count":"0"},"referralId":"v-1392478062"},{"id":"4ac518e5f964a520f2aa20e3","name":"Thai Taste","location":{"address":"130 Cromwell Road","lat":"51.49477317907722","lng":"-0.186657448828226","distance":"95","postalCode":"SW7 4ET","cc":"GB","city":"London","state":"Greater London","country":"United Kingdom"},"categories":[{"id":"4bf58dd8d48988d149941735","name":"Thai Restaurant","pluralName":"Thai Restaurants","shortName":"Thai","icon":{"prefix":"https:\/\/ss1.4sqi.net\/img\/categories_v2\/food\/thai_","suffix":".png"},"primary":"true"}],"verified":"false","restricted":"true","stats":{"checkinsCount":"742","usersCount":"364","tipCount":"6"},"specials":{"count":"0"},"hereNow":{"count":"0"},"referralId":"v-1392478062"},{"id":"4b898d6df964a520234132e3","name":"London Marriott Hotel Kensington","contact":{"phone":"+442079731000","formattedPhone":"+44 20 7973 1000"},"location":{"address":"147 Cromwell Rd.","crossStreet":"btwn Knaresborough & Collingham","lat":"51.49424991215494","lng":"-0.18998440843664224","distance":"151","postalCode":"SW5 0TH","cc":"GB","city":"Kensington","state":"Greater London","country":"United Kingdom"},"categories":[{"id":"4bf58dd8d48988d1fa931735","name":"Hotel","pluralName":"Hotels","shortName":"Hotel","icon":{"prefix":"https:\/\/ss1.4sqi.net\/img\/categories_v2\/travel\/hotel_","suffix":".png"},"primary":"true"}],"verified":"false","restricted":"true","stats":{"checkinsCount":"2320","usersCount":"812","tipCount":"8"},"url":"http:\/\/www.marriott.co.uk\/hotels\/travel\/lonlm-london-marriott-hotel-kensington\/","menu":{"type":"Menu","label":"Menu","anchor":"View Menu","url":"https:\/\/foursquare.com\/v\/london-marriott-hotel-kensington\/4b898d6df964a520234132e3\/menu","mobileUrl":"https:\/\/foursquare.com\/v\/4b898d6df964a520234132e3\/device_menu"},"specials":{"count":"0"},"hereNow":{"count":"0"},"referralId":"v-1392478062"},{"id":"4c7e11f0d598a09391b4c462","name":"Starbucks","contact":{"twitter":"starbucksuk"},"location":{"address":"Coffe Shop Unit Sainsbury's, 158 Cromwell Road","crossStreet":"In Sainsbury's","lat":"51.49535863074706","lng":"-0.1872771978378296","distance":"124","postalCode":"SW7 4EJ","cc":"GB","city":"London","state":"Greater London","country":"United Kingdom"},"categories":[{"id":"4bf58dd8d48988d1e0931735","name":"Coffee Shop","pluralName":"Coffee Shops","shortName":"Coffee Shop","icon":{"prefix":"https:\/\/ss1.4sqi.net\/img\/categories_v2\/food\/coffeeshop_","suffix":".png"},"primary":"true"}],"verified":"true","restricted":"true","stats":{"checkinsCount":"425","usersCount":"250","tipCount":"2"},"url":"http:\/\/starbucks.co.uk","specials":{"count":"0"},"hereNow":{"count":"0"},"storeId":"12177","referralId":"v-1392478062"},{"id":"4be18a498dd062b5964e3e3c","name":"Curzon House Hotel London","location":{"address":"58 Courtfield Gardens","lat":"51.49383968412366","lng":"-0.1866090990444903","distance":"96","cc":"GB","city":"London","state":"Greater London","country":"United Kingdom"},"categories":[{"id":"4bf58dd8d48988d1fa931735","name":"Hotel","pluralName":"Hotels","shortName":"Hotel","icon":{"prefix":"https:\/\/ss1.4sqi.net\/img\/categories_v2\/travel\/hotel_","suffix":".png"},"primary":"true"}],"verified":"false","restricted":"true","stats":{"checkinsCount":"128","usersCount":"59","tipCount":"2"},"specials":{"count":"0"},"hereNow":{"count":"0"},"referralId":"v-1392478062"},{"id":"4bc8f133762beee10cba3d38","name":"Kensington Rooms Hotel London","location":{"address":"131-137 Cromwell Road","lat":"51.494679","lng":"-0.187304","distance":"55","cc":"GB","city":"London","state":"Greater London","country":"United Kingdom"},"categories":[{"id":"4bf58dd8d48988d1fa931735","name":"Hotel","pluralName":"Hotels","shortName":"Hotel","icon":{"prefix":"https:\/\/ss1.4sqi.net\/img\/categories_v2\/travel\/hotel_","suffix":".png"},"primary":"true"}],"verified":"false","restricted":"true","stats":{"checkinsCount":"371","usersCount":"184","tipCount":"10"},"specials":{"count":"0"},"hereNow":{"count":"0"},"referralId":"v-1392478062"},{"id":"4d8c94ddc1b1721e0fca0346","name":"Bellavista Restaurant","location":{"address":"132 cromwell road","lat":"51.49467513861739","lng":"-0.18700422104864928","distance":"70","cc":"GB","city":"Kensington","state":"Greater London","country":"United Kingdom"},"categories":[{"id":"4bf58dd8d48988d110941735","name":"Italian Restaurant","pluralName":"Italian Restaurants","shortName":"Italian","icon":{"prefix":"https:\/\/ss1.4sqi.net\/img\/categories_v2\/food\/italian_","suffix":".png"},"primary":"true"}],"verified":"false","restricted":"true","stats":{"checkinsCount":"41","usersCount":"38","tipCount":"1"},"specials":{"count":"0"},"hereNow":{"count":"0"},"referralId":"v-1392478062"},{"id":"50eacb86e4b092493aefa001","name":"St. Mellitus College","contact":{"phone":"+442070520573","formattedPhone":"+44 20 7052 0573","twitter":"stmellitus"},"location":{"address":"Collingham Road","lat":"51.49342284076215","lng":"-0.1874167927305978","distance":"100","postalCode":"SW5 0LX","cc":"GB","city":"London","state":"Greater London","country":"United Kingdom"},"categories":[{"id":"4bf58dd8d48988d1a8941735","name":"General College & University","pluralName":"General Colleges & Universities","shortName":"Education","icon":{"prefix":"https:\/\/ss1.4sqi.net\/img\/categories_v2\/education\/other_","suffix":".png"},"primary":"true"}],"verified":"false","restricted":"true","stats":{"checkinsCount":"57","usersCount":"18","tipCount":"1"},"specials":{"count":"0"},"hereNow":{"count":"0"},"referralId":"v-1392478062"},{"id":"4bd1ec41caff952130a6d1f0","name":"The Delhi Brasserie","contact":{"phone":"+442073707617","formattedPhone":"+44 20 7370 7617"},"location":{"address":"134 Cromwell Rd.","lat":"51.494797","lng":"-0.18681","distance":"89","postalCode":"SW7 4HA","cc":"GB","city":"Kensington","state":"Greater London","country":"United Kingdom"},"categories":[{"id":"4bf58dd8d48988d10f941735","name":"Indian Restaurant","pluralName":"Indian Restaurants","shortName":"Indian","icon":{"prefix":"https:\/\/ss1.4sqi.net\/img\/categories_v2\/food\/indian_","suffix":".png"},"primary":"true"}],"verified":"false","restricted":"true","stats":{"checkinsCount":"119","usersCount":"90","tipCount":"4"},"url":"http:\/\/www.delhibrasserie.com","reservations":{"url":"http:\/\/www.toptable.co.uk\/single.aspx?rid=27108&ref=9601"},"menu":{"type":"Menu","label":"Menu","anchor":"View Menu","url":"https:\/\/foursquare.com\/v\/the-delhi-brasserie\/4bd1ec41caff952130a6d1f0\/menu","mobileUrl":"https:\/\/foursquare.com\/v\/4bd1ec41caff952130a6d1f0\/device_menu"},"specials":{"count":"0"},"hereNow":{"count":"0"},"referralId":"v-1392478062"},{"id":"52303d5111d20aee0b846c02","name":"RR Properties","location":{"lat":"51.49474684416378","lng":"-0.18739120772134857","distance":"58","cc":"GB","country":"United Kingdom"},"categories":[{"id":"5032885091d4c4b30a586d66","name":"Real Estate Office","pluralName":"Real Estate Offices","shortName":"Real Estate","icon":{"prefix":"https:\/\/ss1.4sqi.net\/img\/categories_v2\/shops\/default_","suffix":".png"},"primary":"true"}],"verified":"false","restricted":"true","stats":{"checkinsCount":"3","usersCount":"1","tipCount":"0"},"specials":{"count":"0"},"hereNow":{"count":"0"},"referralId":"v-1392478062"},{"id":"51134fbee4b0138636c1aa0f","name":"St Jude's Church","location":{"address":"Collingham Road, SW5 0LX","lat":"51.49323448828923","lng":"-0.18803358078002927","distance":"118","cc":"GB","city":"London","state":"Greater London","country":"United Kingdom"},"categories":[{"id":"4bf58dd8d48988d132941735","name":"Church","pluralName":"Churches","shortName":"Church","icon":{"prefix":"https:\/\/ss1.4sqi.net\/img\/categories_v2\/building\/religious_church_","suffix":".png"},"primary":"true"}],"verified":"false","restricted":"true","stats":{"checkinsCount":"49","usersCount":"20","tipCount":"0"},"specials":{"count":"0"},"hereNow":{"count":"0"},"referralId":"v-1392478062"},{"id":"519cab96498e0a7d3849c648","name":"Courtfield Gardens","location":{"address":"74-76 Courtfield Gardens","lat":"51.49271145281676","lng":"-0.18754393816958212","distance":"176","cc":"GB","city":"Kensington","state":"Greater London","country":"United Kingdom"},"categories":[{"id":"4d954b06a243a5684965b473","name":"Residential Building (Apartment \/ Condo)","pluralName":"Residential Buildings (Apartments \/ Condos)","shortName":"Residential","icon":{"prefix":"https:\/\/ss1.4sqi.net\/img\/categories_v2\/building\/apartment_","suffix":".png"},"primary":"true"}],"verified":"false","restricted":"true","stats":{"checkinsCount":"197","usersCount":"48","tipCount":"0"},"specials":{"count":"0"},"hereNow":{"count":"0"},"referralId":"v-1392478062"},{"id":"50a2ab40498ea793e4f746e5","name":"Lorenzo","location":{"lat":"51.494555","lng":"-0.187641","distance":"31","cc":"GB","country":"United Kingdom"},"categories":[{"id":"4bf58dd8d48988d110941735","name":"Italian Restaurant","pluralName":"Italian Restaurants","shortName":"Italian","icon":{"prefix":"https:\/\/ss1.4sqi.net\/img\/categories_v2\/food\/italian_","suffix":".png"},"primary":"true"}],"verified":"false","restricted":"true","stats":{"checkinsCount":"3","usersCount":"3","tipCount":"0"},"specials":{"count":"0"},"hereNow":{"count":"0"},"referralId":"v-1392478062"},{"id":"4f5489e7e4b0d3a8f6fb5c51","name":"The Atrium Restaurant","location":{"address":"Marriott London Kensington","lat":"51.494466","lng":"-0.189781","distance":"138","postalCode":"SW5 0TH","cc":"GB","city":"London","state":"Greater London","country":"United Kingdom"},"categories":[{"id":"4bf58dd8d48988d1c4941735","name":"Restaurant","pluralName":"Restaurants","shortName":"Restaurant","icon":{"prefix":"https:\/\/ss1.4sqi.net\/img\/categories_v2\/food\/default_","suffix":".png"},"primary":"true"}],"verified":"false","restricted":"true","stats":{"checkinsCount":"194","usersCount":"54","tipCount":"1"},"specials":{"count":"0"},"hereNow":{"count":"0"},"referralId":"v-1392478062"},{"id":"50e4ff11e4b09225224c2fdb","name":"Londres","location":{"lat":"51.4939894163317","lng":"-0.18932834080852076","distance":"110","cc":"GB","country":"United Kingdom"},"categories":[{"id":"4bf58dd8d48988d1f6931735","name":"General Travel","pluralName":"General Travel","shortName":"Travel","icon":{"prefix":"https:\/\/ss1.4sqi.net\/img\/categories_v2\/travel\/default_","suffix":".png"},"primary":"true"}],"verified":"false","restricted":"true","stats":{"checkinsCount":"94","usersCount":"84","tipCount":"0"},"specials":{"count":"0"},"hereNow":{"count":"0"},"referralId":"v-1392478062"},{"id":"4c1f0780b4e62d7fee21df93","name":"Collingham Gardens","location":{"address":"Collingham Rd","lat":"51.49304333834854","lng":"-0.18804036393300352","distance":"139","postalCode":"Sw5 0hs","cc":"GB","city":"Kensington","state":"Greater London","country":"United Kingdom"},"categories":[{"id":"4bf58dd8d48988d15a941735","name":"Garden","pluralName":"Gardens","shortName":"Garden","icon":{"prefix":"https:\/\/ss1.4sqi.net\/img\/categories_v2\/parks_outdoors\/garden_","suffix":".png"},"primary":"true"}],"verified":"false","restricted":"true","stats":{"checkinsCount":"284","usersCount":"103","tipCount":"0"},"specials":{"count":"0"},"hereNow":{"count":"0"},"referralId":"v-1392478062"},{"id":"4da4027a9aa4721e42f12e1a","name":"Golden Tours","contact":{"phone":"+448448805050","formattedPhone":"+44 844 880 5050","twitter":"goldentours","facebook":"47746355180"},"location":{"address":"156 Cromwell Rd","lat":"51.49474503506568","lng":"-0.1885629919761396","distance":"73","postalCode":"SW7 4EF","cc":"GB","city":"Kensington","state":"Greater London","country":"United Kingdom"},"categories":[{"id":"4bf58dd8d48988d1f6931735","name":"General Travel","pluralName":"General Travel","shortName":"Travel","icon":{"prefix":"https:\/\/ss1.4sqi.net\/img\/categories_v2\/travel\/default_","suffix":".png"},"primary":"true"}],"verified":"true","restricted":"true","stats":{"checkinsCount":"30","usersCount":"22","tipCount":"2"},"specials":{"count":"1","items":[{"id":"4d04d70292288eecb7779be0","type":"frequency","message":"Buy the London Pass - and get Free entrance to more than 50 top London attractions. http:\/\/www.goldentours.com\/london_pass\/","description":"Unlocked every 3 check-ins","icon":"frequency","title":"Loyalty Special","provider":"foursquare","redemption":"standard"}]},"hereNow":{"count":"0"},"referralId":"v-1392478062"},{"id":"4c51fa8a7f6e20a1adb7f7ea","name":"Nabuco Bar at Marriott Kensington","location":{"lat":"51.494373","lng":"-0.189878","distance":"144","cc":"GB","country":"United Kingdom"},"categories":[{"id":"4bf58dd8d48988d1d5941735","name":"Hotel Bar","pluralName":"Hotel Bars","shortName":"Hotel Bar","icon":{"prefix":"https:\/\/ss1.4sqi.net\/img\/categories_v2\/travel\/hotel_bar_","suffix":".png"},"primary":"true"}],"verified":"false","restricted":"true","stats":{"checkinsCount":"206","usersCount":"89","tipCount":"2"},"specials":{"count":"0"},"hereNow":{"count":"0"},"referralId":"v-1392478062"},{"id":"4be170de8dd062b5b2493e3c","name":"Exhibition Court 4 Hotel London","location":{"address":"25 Collingham Place","lat":"51.4938577","lng":"-0.1897097","distance":"140","cc":"GB","city":"London","state":"Greater London","country":"United Kingdom"},"categories":[{"id":"4bf58dd8d48988d1fa931735","name":"Hotel","pluralName":"Hotels","shortName":"Hotel","icon":{"prefix":"https:\/\/ss1.4sqi.net\/img\/categories_v2\/travel\/hotel_","suffix":".png"},"primary":"true"}],"verified":"false","restricted":"true","stats":{"checkinsCount":"140","usersCount":"74","tipCount":"1"},"specials":{"count":"0"},"hereNow":{"count":"0"},"referralId":"v-1392478062"},{"id":"50a08ee9e4b029db3ecd6680","name":"One Direction","location":{"lat":"51.494011813562615","lng":"-0.18814469615527982","distance":"38","cc":"GB","city":"London","state":"Greater London","country":"United Kingdom"},"categories":[{"id":"4bf58dd8d48988d1f6931735","name":"General Travel","pluralName":"General Travel","shortName":"Travel","icon":{"prefix":"https:\/\/ss1.4sqi.net\/img\/categories_v2\/travel\/default_","suffix":".png"},"primary":"true"}],"verified":"false","restricted":"true","stats":{"checkinsCount":"1","usersCount":"1","tipCount":"0"},"specials":{"count":"0"},"hereNow":{"count":"0"},"referralId":"v-1392478062"},{"id":"4e67dc7dd4c0d52246480a4a","name":"Vecchiomondo Lorenzo's Restaurant","location":{"lat":"51.49463640998833","lng":"-0.18572065582744504","distance":"149","cc":"GB","city":"Kensington","state":"Greater London","country":"United Kingdom"},"categories":[{"id":"4bf58dd8d48988d110941735","name":"Italian Restaurant","pluralName":"Italian Restaurants","shortName":"Italian","icon":{"prefix":"https:\/\/ss1.4sqi.net\/img\/categories_v2\/food\/italian_","suffix":".png"},"primary":"true"}],"verified":"false","restricted":"true","stats":{"checkinsCount":"50","usersCount":"40","tipCount":"3"},"specials":{"count":"0"},"hereNow":{"count":"0"},"referralId":"v-1392478062"},{"id":"4be2bf5e1dd22d7fc0ae94bd","name":"Excell exhibition center","location":{"lat":"51.50810177817918","lng":"-0.1876954876776466","distance":"1537","cc":"GB","city":"Ilford","state":"Greater London","country":"United Kingdom"},"verified":"false","restricted":"true","stats":{"checkinsCount":"31","usersCount":"27","tipCount":"0"},"specials":{"count":"0"},"hereNow":{"count":"0"},"referralId":"v-1392478062"}],"confident":"true"}}