{"meta":{"code":"200"},"response":{"venues":[{"id":"4ae09d26f964a520f08021e3","name":"The Rose","contact":{"phone":"+442077353723","formattedPhone":"+44 20 7735 3723"},"location":{"address":"35 Albert Embankment","lat":"51.48975169790656","lng":"-0.12280833708244099","distance":"51","postalCode":"SE1 7TL","cc":"GB","city":"Vauxhall","state":"Greater London","country":"United Kingdom"},"categories":[{"id":"4bf58dd8d48988d11b941735","name":"Pub","pluralName":"Pubs","shortName":"Pub","icon":{"prefix":"https:\/\/ss1.4sqi.net\/img\/categories_v2\/nightlife\/pub_","suffix":".png"},"primary":"true"}],"verified":"false","restricted":"true","stats":{"checkinsCount":"717","usersCount":"472","tipCount":"19"},"url":"http:\/\/www.therosepublondon.co.uk","menu":{"type":"Menu","label":"Menu","anchor":"View Menu","url":"https:\/\/foursquare.com\/v\/the-rose\/4ae09d26f964a520f08021e3\/menu","mobileUrl":"https:\/\/foursquare.com\/v\/4ae09d26f964a520f08021e3\/device_menu"},"specials":{"count":"0"},"hereNow":{"count":"0"},"referralId":"v-1392478081"},{"id":"4ad71b60f964a520b30821e3","name":"Casa Madeira","contact":{"phone":"+442078201117","formattedPhone":"+44 20 7820 1117"},"location":{"address":"46 Albert Embankment","lat":"51.488679","lng":"-0.122934","distance":"68","postalCode":"SE1 7TN","cc":"GB","city":"London","state":"Greater London","country":"United Kingdom"},"categories":[{"id":"4def73e84765ae376e57713a","name":"Portuguese Restaurant","pluralName":"Portuguese Restaurants","shortName":"Portuguese","icon":{"prefix":"https:\/\/ss1.4sqi.net\/img\/categories_v2\/food\/default_","suffix":".png"},"primary":"true"}],"verified":"false","restricted":"true","stats":{"checkinsCount":"276","usersCount":"222","tipCount":"16"},"specials":{"count":"0"},"hereNow":{"count":"0"},"referralId":"v-1392478081"},{"id":"4adf8698f964a520767b21e3","name":"Paris Gym","contact":{"phone":"+442077358989","formattedPhone":"+44 20 7735 8989"},"location":{"address":"73 Goding St.","lat":"51.48743858210345","lng":"-0.12309121998406995","distance":"206","postalCode":"SE11 5AW","cc":"GB","city":"London","state":"Greater London","country":"United Kingdom"},"categories":[{"id":"4bf58dd8d48988d176941735","name":"Gym","pluralName":"Gyms","shortName":"Gym","icon":{"prefix":"https:\/\/ss1.4sqi.net\/img\/categories_v2\/building\/gym_","suffix":".png"},"primary":"true"}],"verified":"false","restricted":"true","stats":{"checkinsCount":"935","usersCount":"91","tipCount":"6"},"specials":{"count":"0"},"hereNow":{"count":"0"},"referralId":"v-1392478081"},{"id":"4be1afaba145c92884374e80","name":"Texaco","contact":{"phone":"+442078405960","formattedPhone":"+44 20 7840 5960"},"location":{"address":"38-46 Albert Embankment","crossStreet":"Tinworth Street","lat":"51.48906396161162","lng":"-0.12292425066033794","distance":"26","postalCode":"SE1 7TL","cc":"GB","city":"London","state":"Greater London","country":"United Kingdom"},"categories":[{"id":"4bf58dd8d48988d113951735","name":"Gas Station \/ Garage","pluralName":"Gas Stations \/ Garages","shortName":"Gas Station \/ Garage","icon":{"prefix":"https:\/\/ss1.4sqi.net\/img\/categories_v2\/shops\/gas_","suffix":".png"},"primary":"true"}],"verified":"false","restricted":"true","stats":{"checkinsCount":"35","usersCount":"23","tipCount":"0"},"specials":{"count":"0"},"hereNow":{"count":"0"},"referralId":"v-1392478081"},{"id":"4e2eb0d61495329632fc4cd4","name":"Tea House Theatre","contact":{"phone":"+442072074585","formattedPhone":"+44 20 7207 4585"},"location":{"address":"Vauxhall Walk, Lambeth,","lat":"51.488197","lng":"-0.120692","distance":"190","postalCode":"SE11 5HL","cc":"GB","city":"London","state":"Greater London","country":"United Kingdom"},"categories":[{"id":"4bf58dd8d48988d1dc931735","name":"Tea Room","pluralName":"Tea Rooms","shortName":"Tea Room","icon":{"prefix":"https:\/\/ss1.4sqi.net\/img\/categories_v2\/food\/tearoom_","suffix":".png"},"primary":"true"}],"verified":"false","restricted":"true","stats":{"checkinsCount":"500","usersCount":"272","tipCount":"19"},"url":"http:\/\/www.teahousetheatre.com","menu":{"type":"Menu","label":"Menu","anchor":"View Menu","url":"https:\/\/foursquare.com\/v\/tea-house-theatre\/4e2eb0d61495329632fc4cd4\/menu","mobileUrl":"https:\/\/foursquare.com\/v\/4e2eb0d61495329632fc4cd4\/device_menu"},"specials":{"count":"0"},"hereNow":{"count":"0"},"referralId":"v-1392478081"},{"id":"4e7b3b308231310500cfe1c9","name":"Ambassador Theatre Group Ticket Centre","location":{"lat":"51.49031661274423","lng":"-0.12250013711032971","distance":"116","cc":"GB","city":"Lambeth","state":"Greater London","country":"United Kingdom"},"categories":[{"id":"4bf58dd8d48988d124941735","name":"Office","pluralName":"Offices","shortName":"Office","icon":{"prefix":"https:\/\/ss1.4sqi.net\/img\/categories_v2\/building\/default_","suffix":".png"},"primary":"true"}],"verified":"false","restricted":"true","stats":{"checkinsCount":"120","usersCount":"14","tipCount":"0"},"specials":{"count":"0"},"hereNow":{"count":"0"},"referralId":"v-1392478081"},{"id":"51d7e938498eea58fa20b281","name":"Crossfit SE11","location":{"address":"103 Tinworth St","lat":"51.49022994698568","lng":"-0.12204083726542257","distance":"117","postalCode":"SE11 5EQ","cc":"GB","city":"London","state":"Greater London","country":"United Kingdom"},"categories":[{"id":"4bf58dd8d48988d175941735","name":"Gym \/ Fitness Center","pluralName":"Gyms or Fitness Centers","shortName":"Gym \/ Fitness","icon":{"prefix":"https:\/\/ss1.4sqi.net\/img\/categories_v2\/building\/gym_","suffix":".png"},"primary":"true"}],"verified":"false","restricted":"true","stats":{"checkinsCount":"71","usersCount":"12","tipCount":"0"},"specials":{"count":"0"},"hereNow":{"count":"0"},"referralId":"v-1392478081"},{"id":"4be7f1dd88ed2d7f1e39cb1d","name":"The Black Dog","location":{"address":"Glasshouse Walk","lat":"51.488618","lng":"-0.12080622","distance":"157","postalCode":"SE11","cc":"GB","city":"Lambeth","state":"Greater London","country":"United Kingdom"},"categories":[{"id":"4bf58dd8d48988d11b941735","name":"Pub","pluralName":"Pubs","shortName":"Pub","icon":{"prefix":"https:\/\/ss1.4sqi.net\/img\/categories_v2\/nightlife\/pub_","suffix":".png"},"primary":"true"}],"verified":"false","restricted":"true","stats":{"checkinsCount":"869","usersCount":"375","tipCount":"13"},"menu":{"type":"Menu","label":"Menu","anchor":"View Menu","url":"https:\/\/foursquare.com\/v\/the-black-dog\/4be7f1dd88ed2d7f1e39cb1d\/menu","mobileUrl":"https:\/\/foursquare.com\/v\/4be7f1dd88ed2d7f1e39cb1d\/device_menu"},"specials":{"count":"0"},"hereNow":{"count":"0"},"referralId":"v-1392478081"},{"id":"4ac518cdf964a520d2a520e3","name":"Hidden","contact":{"phone":"0208206613","formattedPhone":"0208206613","twitter":"hiddennightclub"},"location":{"address":"100 Tinworth Street","crossStreet":"Albert Embankment","lat":"51.489967","lng":"-0.122408","distance":"80","postalCode":"SE11 5EQ","cc":"GB","city":"London","state":"Greater London","country":"United Kingdom"},"categories":[{"id":"4bf58dd8d48988d11f941735","name":"Nightclub","pluralName":"Nightclubs","shortName":"Nightclub","icon":{"prefix":"https:\/\/ss1.4sqi.net\/img\/categories_v2\/nightlife\/nightclub_","suffix":".png"},"primary":"true"}],"verified":"false","restricted":"true","stats":{"checkinsCount":"393","usersCount":"221","tipCount":"5"},"specials":{"count":"0"},"hereNow":{"count":"0"},"referralId":"v-1392478081"},{"id":"4d4d4f67d6f3224b187c9aa6","name":"Luis Deli","location":{"address":"47 Albert Embankment","lat":"51.48956191999999","lng":"-0.12292801666666665","distance":"31","postalCode":"SE1 7","cc":"GB","city":"Lambeth","state":"Greater London","country":"United Kingdom"},"categories":[{"id":"4bf58dd8d48988d146941735","name":"Deli \/ Bodega","pluralName":"Delis \/ Bodegas","shortName":"Deli \/ Bodega","icon":{"prefix":"https:\/\/ss1.4sqi.net\/img\/categories_v2\/food\/deli_","suffix":".png"},"primary":"true"}],"verified":"false","restricted":"true","stats":{"checkinsCount":"36","usersCount":"16","tipCount":"0"},"specials":{"count":"0"},"hereNow":{"count":"0"},"referralId":"v-1392478081"},{"id":"4d012313f1605481acf9a1ea","name":"Madeira Cafe Vauxhall","location":{"address":"46A Albert Embankment","lat":"51.48865352580708","lng":"-0.12303119270355992","distance":"72","postalCode":"SE1 7TL","cc":"GB","city":"Lambeth","state":"Greater London","country":"United Kingdom"},"categories":[{"id":"4bf58dd8d48988d1e0931735","name":"Coffee Shop","pluralName":"Coffee Shops","shortName":"Coffee Shop","icon":{"prefix":"https:\/\/ss1.4sqi.net\/img\/categories_v2\/food\/coffeeshop_","suffix":".png"},"primary":"true"}],"verified":"false","restricted":"true","stats":{"checkinsCount":"176","usersCount":"120","tipCount":"4"},"specials":{"count":"0"},"hereNow":{"count":"0"},"referralId":"v-1392478081"},{"id":"51f9650a498e0b4a4627398a","name":"Londis","location":{"lat":"51.48918733885068","lng":"-0.1228738162113875","distance":"12","cc":"GB","country":"United Kingdom"},"categories":[{"id":"4d954b0ea243a5684a65b473","name":"Convenience Store","pluralName":"Convenience Stores","shortName":"Convenience Stores","icon":{"prefix":"https:\/\/ss1.4sqi.net\/img\/categories_v2\/shops\/conveniencestore_","suffix":".png"},"primary":"true"}],"verified":"false","restricted":"true","stats":{"checkinsCount":"6","usersCount":"5","tipCount":"0"},"specials":{"count":"0"},"hereNow":{"count":"0"},"referralId":"v-1392478081"},{"id":"4c3350e909a99c74dcd00b2a","name":"89 Albert Embankment","contact":{"twitter":"sammyps"},"location":{"address":"89 Albert Embankment","lat":"51.489319928775075","lng":"-0.12295246124267578","distance":"10","postalCode":"SE1 7UQ","cc":"GB","city":"Vauxhall","state":"Greater London","country":"United Kingdom"},"categories":[{"id":"4bf58dd8d48988d124941735","name":"Office","pluralName":"Offices","shortName":"Office","icon":{"prefix":"https:\/\/ss1.4sqi.net\/img\/categories_v2\/building\/default_","suffix":".png"},"primary":"true"}],"verified":"false","restricted":"true","stats":{"checkinsCount":"92","usersCount":"32","tipCount":"3"},"specials":{"count":"0"},"hereNow":{"count":"0"},"referralId":"v-1392478081"},{"id":"4acda9e3f964a52091cc20e3","name":"Charity Towers","contact":{"twitter":"mariecurieuk"},"location":{"address":"89 Albert Embankment","lat":"51.487816950224065","lng":"-0.12351545879320061","distance":"171","postalCode":"SE1 7TP","cc":"GB","city":"Lambeth","state":"Greater London","country":"United Kingdom"},"categories":[{"id":"4bf58dd8d48988d124941735","name":"Office","pluralName":"Offices","shortName":"Office","icon":{"prefix":"https:\/\/ss1.4sqi.net\/img\/categories_v2\/building\/default_","suffix":".png"},"primary":"true"}],"verified":"false","restricted":"true","stats":{"checkinsCount":"598","usersCount":"116","tipCount":"2"},"url":"http:\/\/www.mariecurie.org.uk","specials":{"count":"0"},"hereNow":{"count":"0"},"referralId":"v-1392478081"},{"id":"4be1af2dae55a593ed2f5b62","name":"Texico Embankment","location":{"lat":"51.489079667136515","lng":"-0.12279302594998472","distance":"23","cc":"GB","country":"United Kingdom"},"categories":[{"id":"4bf58dd8d48988d113951735","name":"Gas Station \/ Garage","pluralName":"Gas Stations \/ Garages","shortName":"Gas Station \/ Garage","icon":{"prefix":"https:\/\/ss1.4sqi.net\/img\/categories_v2\/shops\/gas_","suffix":".png"},"primary":"true"}],"verified":"false","restricted":"true","stats":{"checkinsCount":"2","usersCount":"2","tipCount":"0"},"specials":{"count":"0"},"hereNow":{"count":"0"},"referralId":"v-1392478081"},{"id":"4c434a5dcc410f472300ae61","name":"Pico Bar & Grill","location":{"address":"74 Albert Embankment","lat":"51.48765247186292","lng":"-0.1232564266511216","distance":"184","postalCode":"SE1 7TL","cc":"GB","city":"Vauxhall","state":"Greater London","country":"United Kingdom"},"categories":[{"id":"4def73e84765ae376e57713a","name":"Portuguese Restaurant","pluralName":"Portuguese Restaurants","shortName":"Portuguese","icon":{"prefix":"https:\/\/ss1.4sqi.net\/img\/categories_v2\/food\/default_","suffix":".png"},"primary":"true"}],"verified":"false","restricted":"true","stats":{"checkinsCount":"260","usersCount":"192","tipCount":"10"},"specials":{"count":"0"},"hereNow":{"count":"0"},"referralId":"v-1392478081"},{"id":"51a91fe9498e00f3851d3fd7","name":"ashtar","location":{"lat":"51.48829466773514","lng":"-0.12308252937025072","distance":"112","cc":"GB","country":"United Kingdom"},"categories":[{"id":"4bf58dd8d48988d116941735","name":"Bar","pluralName":"Bars","shortName":"Bar","icon":{"prefix":"https:\/\/ss1.4sqi.net\/img\/categories_v2\/nightlife\/bar_","suffix":".png"},"primary":"true"}],"verified":"false","restricted":"true","stats":{"checkinsCount":"31","usersCount":"26","tipCount":"0"},"specials":{"count":"0"},"hereNow":{"count":"0"},"referralId":"v-1392478081"},{"id":"4f0c2b7ce4b097d4a2f5a5a9","name":"Londis Albert Embankment","location":{"address":"Albert Embankment","lat":"51.48901764251331","lng":"-0.12299088248481073","distance":"32","cc":"GB","country":"United Kingdom"},"categories":[{"id":"4d954b0ea243a5684a65b473","name":"Convenience Store","pluralName":"Convenience Stores","shortName":"Convenience Stores","icon":{"prefix":"https:\/\/ss1.4sqi.net\/img\/categories_v2\/shops\/conveniencestore_","suffix":".png"},"primary":"true"}],"verified":"false","restricted":"true","stats":{"checkinsCount":"9","usersCount":"5","tipCount":"0"},"specials":{"count":"0"},"hereNow":{"count":"0"},"referralId":"v-1392478081"},{"id":"4c767b3b3adda143cb1d0aaf","name":"Citywire","location":{"address":"87 Vauxhall Walk","lat":"51.489323","lng":"-0.12044155","distance":"163","postalCode":"SE11 5HJ","cc":"GB","city":"London","state":"Greater London","country":"United Kingdom"},"categories":[{"id":"4bf58dd8d48988d124941735","name":"Office","pluralName":"Offices","shortName":"Office","icon":{"prefix":"https:\/\/ss1.4sqi.net\/img\/categories_v2\/building\/default_","suffix":".png"},"primary":"true"}],"verified":"false","restricted":"true","stats":{"checkinsCount":"27","usersCount":"9","tipCount":"0"},"specials":{"count":"0"},"hereNow":{"count":"0"},"referralId":"v-1392478081"},{"id":"5208acdd11d2e037b38d416d","name":"MoPowered","location":{"address":"Vintage House, 36-37 Albert Embankment","lat":"51.489633","lng":"-0.122683","distance":"39","postalCode":"SE1 7TL","cc":"GB","city":"London","state":"Greater London","country":"United Kingdom"},"categories":[{"id":"4bf58dd8d48988d125941735","name":"Tech Startup","pluralName":"Tech Startups","shortName":"Tech Startup","icon":{"prefix":"https:\/\/ss1.4sqi.net\/img\/categories_v2\/shops\/technology_","suffix":".png"},"primary":"true"}],"verified":"false","restricted":"true","stats":{"checkinsCount":"5","usersCount":"1","tipCount":"0"},"specials":{"count":"0"},"hereNow":{"count":"0"},"referralId":"v-1392478081"},{"id":"507d8817e4b0ee8339e20f32","name":"Raleigh International","location":{"address":"Prince Consort House","crossStreet":"Albert embankment","lat":"51.49","lng":"-0.122963","distance":"79","cc":"GB","city":"London","state":"Greater London","country":"United Kingdom"},"categories":[{"id":"50328a8e91d4c4b30a586d6c","name":"Non-Profit","pluralName":"Non-Profits","shortName":"Non-Profit","icon":{"prefix":"https:\/\/ss1.4sqi.net\/img\/categories_v2\/building\/default_","suffix":".png"},"primary":"true"}],"verified":"false","restricted":"true","stats":{"checkinsCount":"3","usersCount":"3","tipCount":"0"},"specials":{"count":"0"},"hereNow":{"count":"0"},"referralId":"v-1392478081"},{"id":"4b7a7bb4f964a520382e2fe3","name":"Macmillan Cancer Support","location":{"address":"Albert Embankment","lat":"51.48771362880783","lng":"-0.1228691863610533","distance":"175","cc":"GB","city":"Lambeth","state":"Greater London","country":"United Kingdom"},"categories":[{"id":"4bf58dd8d48988d124941735","name":"Office","pluralName":"Offices","shortName":"Office","icon":{"prefix":"https:\/\/ss1.4sqi.net\/img\/categories_v2\/building\/default_","suffix":".png"},"primary":"true"}],"verified":"false","restricted":"true","stats":{"checkinsCount":"289","usersCount":"40","tipCount":"3"},"specials":{"count":"0"},"hereNow":{"count":"0"},"referralId":"v-1392478081"},{"id":"4eca83b20aaf9c3ccfd92ce7","name":"ShelterBox - London Office","contact":{"twitter":"shelterbox"},"location":{"address":"Vintage House 37 Albert Embankment","lat":"51.48959753192833","lng":"-0.12281852433555178","distance":"34","postalCode":"SE1 7TL","cc":"GB","city":"London","state":"Greater London","country":"United Kingdom"},"categories":[{"id":"4bf58dd8d48988d124941735","name":"Office","pluralName":"Offices","shortName":"Office","icon":{"prefix":"https:\/\/ss1.4sqi.net\/img\/categories_v2\/building\/default_","suffix":".png"},"primary":"true"}],"verified":"false","restricted":"true","stats":{"checkinsCount":"180","usersCount":"6","tipCount":"0"},"specials":{"count":"0"},"hereNow":{"count":"0"},"referralId":"v-1392478081"},{"id":"5253908211d295de94afff1a","name":"Chariots","location":{"lat":"51.48955754702651","lng":"-0.1221468542033251","distance":"54","cc":"GB","country":"United Kingdom"},"categories":[{"id":"4bf58dd8d48988d1ed941735","name":"Spa","pluralName":"Spas","shortName":"Spa","icon":{"prefix":"https:\/\/ss1.4sqi.net\/img\/categories_v2\/shops\/spa_","suffix":".png"},"primary":"true"}],"verified":"false","restricted":"true","stats":{"checkinsCount":"1","usersCount":"1","tipCount":"0"},"specials":{"count":"0"},"hereNow":{"count":"0"},"referralId":"v-1392478081"},{"id":"5082e1c9e4b0f99e5b4fa254","name":"Haus Of Hair","location":{"address":"Black Prince Road","lat":"51.48917942229896","lng":"-0.12180556903877345","distance":"70","cc":"GB","country":"United Kingdom"},"categories":[{"id":"4bf58dd8d48988d110951735","name":"Salon \/ Barbershop","pluralName":"Salons \/ Barbershops","shortName":"Salon \/ Barbershop","icon":{"prefix":"https:\/\/ss1.4sqi.net\/img\/categories_v2\/shops\/salon_barber_","suffix":".png"},"primary":"true"}],"verified":"false","restricted":"true","stats":{"checkinsCount":"6","usersCount":"2","tipCount":"0"},"specials":{"count":"0"},"hereNow":{"count":"0"},"referralId":"v-1392478081"},{"id":"4cc18dd2d363721eefb45ac9","name":"Martinspeed","location":{"lat":"51.488914","lng":"-0.122176","distance":"60","cc":"GB","country":"United Kingdom"},"categories":[{"id":"4bf58dd8d48988d1e2931735","name":"Art Gallery","pluralName":"Art Galleries","shortName":"Art Gallery","icon":{"prefix":"https:\/\/ss1.4sqi.net\/img\/categories_v2\/arts_entertainment\/artgallery_","suffix":".png"},"primary":"true"}],"verified":"false","restricted":"true","stats":{"checkinsCount":"5","usersCount":"3","tipCount":"0"},"specials":{"count":"0"},"hereNow":{"count":"0"},"referralId":"v-1392478081"},{"id":"4caf6271cbab236af1b29773","name":"St John At Hackney Church","location":{"address":"Lower Clapton Road","lat":"51.489860112725985","lng":"-0.12232028719697054","distance":"71","postalCode":"E5 0PD","cc":"GB","city":"London","state":"Greater London","country":"United Kingdom"},"categories":[{"id":"4bf58dd8d48988d132941735","name":"Church","pluralName":"Churches","shortName":"Church","icon":{"prefix":"https:\/\/ss1.4sqi.net\/img\/categories_v2\/building\/religious_church_","suffix":".png"},"primary":"true"}],"verified":"false","restricted":"true","stats":{"checkinsCount":"8","usersCount":"6","tipCount":"1"},"specials":{"count":"0"},"hereNow":{"count":"0"},"referralId":"v-1392478081"},{"id":"4c0fd4fd81e976b0482c0eeb","name":"Kallkwik St James","location":{"address":"61 Pall Mall","lat":"51.489718","lng":"-0.122231","distance":"62","postalCode":"SW1Y 5HZ","cc":"GB","city":"London","state":"Greater London","country":"United Kingdom"},"categories":[{"id":"4bf58dd8d48988d121951735","name":"Paper \/ Office Supplies Store","pluralName":"Paper \/ Office Supplies Stores","shortName":"Office Supplies","icon":{"prefix":"https:\/\/ss1.4sqi.net\/img\/categories_v2\/shops\/papergoods_","suffix":".png"},"primary":"true"}],"verified":"false","restricted":"true","stats":{"checkinsCount":"1","usersCount":"1","tipCount":"0"},"specials":{"count":"0"},"hereNow":{"count":"0"},"referralId":"v-1392478081"},{"id":"4c7bb1263badb1f75d865554","name":"S55 ADD","location":{"lat":"51.489847","lng":"-0.122903","distance":"62","cc":"GB","country":"United Kingdom"},"categories":[{"id":"4f2a23984b9023bd5841ed2c","name":"Moving Target","pluralName":"Moving Targets","shortName":"Moving Target","icon":{"prefix":"https:\/\/ss1.4sqi.net\/img\/categories_v2\/travel\/movingtarget_","suffix":".png"},"primary":"true"}],"verified":"false","restricted":"true","stats":{"checkinsCount":"5","usersCount":"2","tipCount":"1"},"specials":{"count":"0"},"hereNow":{"count":"0"},"referralId":"v-1392478081"},{"id":"4b92a302f964a520560c34e3","name":"MegaWoof","location":{"address":"100 Tinworth Street","lat":"51.489774195241196","lng":"-0.122222900390625","distance":"67","postalCode":"SE11 5EQ","cc":"GB","city":"London","state":"Greater London","country":"United Kingdom"},"categories":[{"id":"4bf58dd8d48988d11f941735","name":"Nightclub","pluralName":"Nightclubs","shortName":"Nightclub","icon":{"prefix":"https:\/\/ss1.4sqi.net\/img\/categories_v2\/nightlife\/nightclub_","suffix":".png"},"primary":"true"}],"verified":"false","restricted":"true","stats":{"checkinsCount":"16","usersCount":"11","tipCount":"0"},"specials":{"count":"0"},"hereNow":{"count":"0"},"referralId":"v-1392478081"}],"confident":"true"}}