{"meta":{"code":"200"},"response":{"venues":[{"id":"4c536236b3b09c741ee910b4","name":"Gloucester Arcade","contact":{"phone":"+442072446888","formattedPhone":"+44 20 7244 6888"},"location":{"address":"128 Gloucester Rd.","lat":"51.49436670861605","lng":"-0.18287837505340576","distance":"10","postalCode":"SW7","cc":"GB","city":"Kensington and Chelsea","state":"Greater London","country":"United Kingdom"},"categories":[{"id":"4bf58dd8d48988d1fd941735","name":"Mall","pluralName":"Malls","shortName":"Mall","icon":{"prefix":"https:\/\/ss1.4sqi.net\/img\/categories_v2\/shops\/mall_","suffix":".png"},"primary":"true"}],"verified":"false","restricted":"true","stats":{"checkinsCount":"1428","usersCount":"467","tipCount":"2"},"specials":{"count":"0"},"hereNow":{"count":"0"},"referralId":"v-1392478063"},{"id":"4bd200289854d13ae1b8fa4d","name":"Tesco Express","contact":{"phone":"+448450269300","formattedPhone":"+44 845 026 9300","twitter":"uktescooffers"},"location":{"address":"87\/93 Gloucester Road","lat":"51.49426673535267","lng":"-0.1826882857927575","distance":"8","postalCode":"SW7 4SS","cc":"GB","city":"London","state":"Greater London","country":"United Kingdom"},"categories":[{"id":"4bf58dd8d48988d118951735","name":"Grocery Store","pluralName":"Grocery Stores","shortName":"Grocery Store","icon":{"prefix":"https:\/\/ss1.4sqi.net\/img\/categories_v2\/shops\/food_grocery_","suffix":".png"},"primary":"true"}],"verified":"true","restricted":"true","stats":{"checkinsCount":"1119","usersCount":"584","tipCount":"8"},"url":"http:\/\/www.tesco.com","specials":{"count":"0"},"hereNow":{"count":"0"},"storeId":"2745","referralId":"v-1392478063"},{"id":"4b0936c8f964a520bc1423e3","name":"Starbucks","contact":{"twitter":"starbucksuk"},"location":{"address":"83 Gloucester Rd","crossStreet":"Cromwell Rd","lat":"51.494551","lng":"-0.182671","distance":"30","postalCode":"SW7 4SS","cc":"GB","city":"London","state":"Greater London","country":"United Kingdom"},"categories":[{"id":"4bf58dd8d48988d1e0931735","name":"Coffee Shop","pluralName":"Coffee Shops","shortName":"Coffee Shop","icon":{"prefix":"https:\/\/ss1.4sqi.net\/img\/categories_v2\/food\/coffeeshop_","suffix":".png"},"primary":"true"}],"verified":"true","restricted":"true","stats":{"checkinsCount":"3661","usersCount":"2037","tipCount":"13"},"url":"http:\/\/starbucks.co.uk","specials":{"count":"0"},"hereNow":{"count":"0"},"storeId":"12204","referralId":"v-1392478063"},{"id":"4ac518bdf964a520cfa220e3","name":"The Stanhope Arms","contact":{"phone":"+442073734192","formattedPhone":"+44 20 7373 4192","twitter":"taylorwalkerpub"},"location":{"address":"97 Gloucester Rd","lat":"51.49411","lng":"-0.182336","distance":"38","postalCode":"SW7 4SS","cc":"GB","city":"Kensington","state":"Greater London","country":"United Kingdom"},"categories":[{"id":"4bf58dd8d48988d11b941735","name":"Pub","pluralName":"Pubs","shortName":"Pub","icon":{"prefix":"https:\/\/ss1.4sqi.net\/img\/categories_v2\/nightlife\/pub_","suffix":".png"},"primary":"true"}],"verified":"false","restricted":"true","stats":{"checkinsCount":"1518","usersCount":"1118","tipCount":"16"},"url":"http:\/\/www.taylor-walker.co.uk","specials":{"count":"0"},"hereNow":{"count":"0"},"referralId":"v-1392478063"},{"id":"4c212c6d99282d7fbe2e65b0","name":"Burger King","contact":{"phone":"+442073702447","formattedPhone":"+44 20 7370 2447"},"location":{"address":"85 Gloucester Rd","crossStreet":"Kensington","lat":"51.4944153","lng":"-0.1824894","distance":"25","postalCode":"SW7 4SS","cc":"GB","city":"Kensington","state":"Greater London","country":"United Kingdom"},"categories":[{"id":"4bf58dd8d48988d16e941735","name":"Fast Food Restaurant","pluralName":"Fast Food Restaurants","shortName":"Fast Food","icon":{"prefix":"https:\/\/ss1.4sqi.net\/img\/categories_v2\/food\/fastfood_","suffix":".png"},"primary":"true"}],"verified":"true","restricted":"true","stats":{"checkinsCount":"833","usersCount":"617","tipCount":"3"},"url":"http:\/\/www.burgerking.co.uk","specials":{"count":"0"},"hereNow":{"count":"0"},"referralId":"v-1392478063"},{"id":"4c24796bf7ced13aa5db226d","name":"Pret A Manger","contact":{"phone":"+442079325214","formattedPhone":"+44 20 7932 5214","twitter":"pret","facebook":"162638680417951"},"location":{"address":"99 Gloucester Rd.","lat":"51.49416965754207","lng":"-0.1823258399963379","distance":"35","postalCode":"SW7 4SS","cc":"GB","city":"Kensington","state":"Greater London","country":"United Kingdom"},"categories":[{"id":"4bf58dd8d48988d1c5941735","name":"Sandwich Place","pluralName":"Sandwich Places","shortName":"Sandwiches","icon":{"prefix":"https:\/\/ss1.4sqi.net\/img\/categories_v2\/food\/sandwiches_","suffix":".png"},"primary":"true"}],"verified":"true","restricted":"true","stats":{"checkinsCount":"897","usersCount":"558","tipCount":"4"},"url":"http:\/\/www.pret.com","specials":{"count":"0"},"hereNow":{"count":"0"},"storeId":"214","referralId":"v-1392478063"},{"id":"4ba64941f964a520894239e3","name":"Waitrose","contact":{"phone":"+442073702424","formattedPhone":"+44 20 7370 2424","twitter":"waitroseuk"},"location":{"address":"128 Gloucester Rd.","lat":"51.49453036055544","lng":"-0.18367767333984375","distance":"66","postalCode":"SW7 4SF","cc":"GB","city":"Kensington","state":"Greater London","country":"United Kingdom"},"categories":[{"id":"4bf58dd8d48988d118951735","name":"Grocery Store","pluralName":"Grocery Stores","shortName":"Grocery Store","icon":{"prefix":"https:\/\/ss1.4sqi.net\/img\/categories_v2\/shops\/food_grocery_","suffix":".png"},"primary":"true"}],"verified":"false","restricted":"true","stats":{"checkinsCount":"3086","usersCount":"1126","tipCount":"12"},"url":"http:\/\/www.waitrose.com","specials":{"count":"0"},"hereNow":{"count":"0"},"referralId":"v-1392478063"},{"id":"4ac518b5f964a520c1a020e3","name":"Millennium Gloucester Hotel London Kensington","contact":{"phone":"+442073736030","formattedPhone":"+44 20 7373 6030","twitter":"millenniumeu","facebook":"456685494411593"},"location":{"address":"4-18 Harrington Gardens","lat":"51.493501255568944","lng":"-0.1830340646298513","distance":"89","postalCode":"SW7 4LH","cc":"GB","city":"Kensington","state":"Greater London","country":"United Kingdom"},"categories":[{"id":"4bf58dd8d48988d1fa931735","name":"Hotel","pluralName":"Hotels","shortName":"Hotel","icon":{"prefix":"https:\/\/ss1.4sqi.net\/img\/categories_v2\/travel\/hotel_","suffix":".png"},"primary":"true"}],"verified":"true","restricted":"true","stats":{"checkinsCount":"5319","usersCount":"2114","tipCount":"30"},"url":"http:\/\/millenniumhotels.co.uk","specials":{"count":"0"},"hereNow":{"count":"2","groups":[{"type":"others","name":"Other people here","count":"2"}]},"storeId":"","referralId":"v-1392478063"},{"id":"4a5f9446f964a520e0bf1fe3","name":"Byron","contact":{"phone":"+442072440700","formattedPhone":"+44 20 7244 0700","twitter":"byronhamburgers"},"location":{"address":"75 Gloucester Rd","lat":"51.49474391332022","lng":"-0.18276088808547408","distance":"50","postalCode":"SW7 4SS","cc":"GB","city":"London","state":"Greater London","country":"United Kingdom"},"categories":[{"id":"4bf58dd8d48988d16c941735","name":"Burger Joint","pluralName":"Burger Joints","shortName":"Burgers","icon":{"prefix":"https:\/\/ss1.4sqi.net\/img\/categories_v2\/food\/burger_","suffix":".png"},"primary":"true"}],"verified":"true","restricted":"true","stats":{"checkinsCount":"1506","usersCount":"1085","tipCount":"49"},"specials":{"count":"0"},"hereNow":{"count":"0"},"storeId":"","referralId":"v-1392478063"},{"id":"4befda6fd4e4d13aba9c15a7","name":"Paul","contact":{"phone":"+442073731232","formattedPhone":"+44 20 7373 1232","twitter":"paul_bakery"},"location":{"address":"73 Gloucester Rd.","crossStreet":"Cromwell Rd.","lat":"51.49472801806192","lng":"-0.18296106021730205","distance":"50","postalCode":"SW7 4SS","cc":"GB","city":"Kensington","state":"Greater London","country":"United Kingdom"},"categories":[{"id":"4bf58dd8d48988d16a941735","name":"Bakery","pluralName":"Bakeries","shortName":"Bakery","icon":{"prefix":"https:\/\/ss1.4sqi.net\/img\/categories_v2\/food\/bakery_","suffix":".png"},"primary":"true"}],"verified":"false","restricted":"true","stats":{"checkinsCount":"1295","usersCount":"768","tipCount":"14"},"url":"http:\/\/www.paul-uk.com","specials":{"count":"0"},"hereNow":{"count":"0"},"referralId":"v-1392478063"},{"id":"4d8761455091370483c8be5b","name":"Frances King School of English","location":{"address":"77 Gloucester Road","lat":"51.494605332504555","lng":"-0.18274234250380364","distance":"35","postalCode":"SW7 5","cc":"GB","city":"Kensington","state":"Greater London","country":"United Kingdom"},"categories":[{"id":"4bf58dd8d48988d13b941735","name":"School","pluralName":"Schools","shortName":"School","icon":{"prefix":"https:\/\/ss1.4sqi.net\/img\/categories_v2\/building\/school_","suffix":".png"},"primary":"true"}],"verified":"false","restricted":"true","stats":{"checkinsCount":"1112","usersCount":"244","tipCount":"6"},"specials":{"count":"0"},"hereNow":{"count":"0"},"referralId":"v-1392478063"},{"id":"4ac518b5f964a52088a020e3","name":"Millennium Bailey's Hotel London Kensington","contact":{"phone":"+442073736000","formattedPhone":"+44 20 7373 6000","twitter":"millenniumeu","facebook":"456685494411593"},"location":{"address":"140 Gloucester Rd.","lat":"51.493902","lng":"-0.182304","distance":"55","postalCode":"SW7 4QH","cc":"GB","city":"Kensington","state":"Greater London","country":"United Kingdom"},"categories":[{"id":"4bf58dd8d48988d1fa931735","name":"Hotel","pluralName":"Hotels","shortName":"Hotel","icon":{"prefix":"https:\/\/ss1.4sqi.net\/img\/categories_v2\/travel\/hotel_","suffix":".png"},"primary":"true"}],"verified":"true","restricted":"true","stats":{"checkinsCount":"1157","usersCount":"499","tipCount":"13"},"url":"http:\/\/www.millenniumhotels.co.uk","specials":{"count":"0"},"hereNow":{"count":"0"},"storeId":"","referralId":"v-1392478063"},{"id":"4b313550f964a520ad0225e3","name":"KFC","contact":{"phone":"+442072449642","formattedPhone":"+44 20 7244 9642"},"location":{"address":"81 Gloucester Rd.","lat":"51.494504","lng":"-0.1827742333333333","distance":"24","postalCode":"SW7 4SS","cc":"GB","city":"Kensington","state":"Greater London","country":"United Kingdom"},"categories":[{"id":"4d4ae6fc7a7b7dea34424761","name":"Fried Chicken Joint","pluralName":"Fried Chicken Joints","shortName":"Fried Chicken","icon":{"prefix":"https:\/\/ss1.4sqi.net\/img\/categories_v2\/food\/friedchicken_","suffix":".png"},"primary":"true"}],"verified":"false","restricted":"true","stats":{"checkinsCount":"600","usersCount":"457","tipCount":"6"},"url":"http:\/\/kfc.co.uk","specials":{"count":"0"},"hereNow":{"count":"0"},"referralId":"v-1392478063"},{"id":"4bd1d591caff9521066dd1f0","name":"Olives Restaurant and Bar","location":{"address":"Courtfield Rd","lat":"51.494047","lng":"-0.182446","distance":"36","postalCode":"SW7 4QH","cc":"GB","city":"Kensington","state":"Greater London","country":"United Kingdom"},"categories":[{"id":"4bf58dd8d48988d1c4941735","name":"Restaurant","pluralName":"Restaurants","shortName":"Restaurant","icon":{"prefix":"https:\/\/ss1.4sqi.net\/img\/categories_v2\/food\/default_","suffix":".png"},"primary":"true"}],"verified":"false","restricted":"true","stats":{"checkinsCount":"446","usersCount":"322","tipCount":"9"},"url":"http:\/\/www.olivesrestaurant.co.uk\/default.aspx","reservations":{"url":"http:\/\/www.toptable.co.uk\/single.aspx?rid=70285&ref=9601"},"menu":{"type":"Menu","label":"Menu","anchor":"View Menu","url":"https:\/\/foursquare.com\/v\/olives-restaurant-and-bar\/4bd1d591caff9521066dd1f0\/menu","mobileUrl":"https:\/\/foursquare.com\/v\/4bd1d591caff9521066dd1f0\/device_menu"},"specials":{"count":"0"},"hereNow":{"count":"0"},"referralId":"v-1392478063"},{"id":"4bdd6f84f219c9b6ee911210","name":"Garfunkel's","contact":{"phone":"+442078351064","formattedPhone":"+44 20 7835 1064"},"location":{"address":"Gloucester Arcade","crossStreet":"79 Gloucester Rd.","lat":"51.49480507","lng":"-0.18329944","distance":"66","postalCode":"SW7 4SF","cc":"GB","city":"Kensington","state":"Greater London","country":"United Kingdom"},"categories":[{"id":"4bf58dd8d48988d147941735","name":"Diner","pluralName":"Diners","shortName":"Diner","icon":{"prefix":"https:\/\/ss1.4sqi.net\/img\/categories_v2\/food\/diner_","suffix":".png"},"primary":"true"}],"verified":"false","restricted":"true","stats":{"checkinsCount":"754","usersCount":"608","tipCount":"19"},"url":"http:\/\/www.garfunkels.co.uk","specials":{"count":"0"},"hereNow":{"count":"0"},"referralId":"v-1392478063"},{"id":"4bc72562af07a593a8927e2d","name":"HSBC Bank plc","location":{"address":"95 Gloucester Rd.","lat":"51.49408287130018","lng":"-0.1824409489275675","distance":"34","postalCode":"SW7 4SS","cc":"GB","city":"London","state":"Greater London","country":"United Kingdom"},"categories":[{"id":"4bf58dd8d48988d10a951735","name":"Bank","pluralName":"Banks","shortName":"Bank","icon":{"prefix":"https:\/\/ss1.4sqi.net\/img\/categories_v2\/shops\/financial_","suffix":".png"},"primary":"true"}],"verified":"false","restricted":"true","stats":{"checkinsCount":"454","usersCount":"105","tipCount":"3"},"specials":{"count":"0"},"hereNow":{"count":"0"},"referralId":"v-1392478063"},{"id":"4ac518b9f964a520aea120e3","name":"The Bombay Brasserie","contact":{"phone":"+442073704040","formattedPhone":"+44 20 7370 4040"},"location":{"address":"140 Courtfield Rd","crossStreet":"near Cromwell Rd.","lat":"51.493941","lng":"-0.183004","distance":"41","postalCode":"SW7 4QH","cc":"GB","city":"London","state":"Greater London","country":"United Kingdom"},"categories":[{"id":"4bf58dd8d48988d10f941735","name":"Indian Restaurant","pluralName":"Indian Restaurants","shortName":"Indian","icon":{"prefix":"https:\/\/ss1.4sqi.net\/img\/categories_v2\/food\/indian_","suffix":".png"},"primary":"true"}],"verified":"false","restricted":"true","stats":{"checkinsCount":"498","usersCount":"421","tipCount":"14"},"url":"http:\/\/www.bombaybrasserielondon.com","reservations":{"url":"http:\/\/www.toptable.co.uk\/single.aspx?rid=24082&ref=9601"},"menu":{"type":"Menu","label":"Menu","anchor":"View Menu","url":"https:\/\/foursquare.com\/v\/the-bombay-brasserie\/4ac518b9f964a520aea120e3\/menu","mobileUrl":"https:\/\/foursquare.com\/v\/4ac518b9f964a520aea120e3\/device_menu"},"specials":{"count":"0"},"hereNow":{"count":"0"},"referralId":"v-1392478063"},{"id":"4bb22934f964a520ccbe3ce3","name":"Boots","location":{"address":"Gloucester Arcade","crossStreet":"128 Gloucester Rd.","lat":"51.49475746839587","lng":"-0.1830124855041504","distance":"54","postalCode":"SW7","cc":"GB","city":"Kensington","state":"Greater London","country":"United Kingdom"},"categories":[{"id":"4bf58dd8d48988d10f951735","name":"Drugstore \/ Pharmacy","pluralName":"Drugstores \/ Pharmacies","shortName":"Pharmacy","icon":{"prefix":"https:\/\/ss1.4sqi.net\/img\/categories_v2\/shops\/pharmacy_","suffix":".png"},"primary":"true"}],"verified":"false","restricted":"true","stats":{"checkinsCount":"535","usersCount":"276","tipCount":"2"},"specials":{"count":"0"},"hereNow":{"count":"0"},"referralId":"v-1392478063"},{"id":"4b251e16f964a5207b6c24e3","name":"Crowne Plaza","contact":{"phone":"+448719429022","formattedPhone":"+44 871 942 9022","twitter":"crowneplaza"},"location":{"address":"100 Cromwell Rd","lat":"51.494995","lng":"-0.18361193333333334","distance":"96","postalCode":"SW7 4ER","cc":"GB","city":"London","state":"Greater London","country":"United Kingdom"},"categories":[{"id":"4bf58dd8d48988d1fa931735","name":"Hotel","pluralName":"Hotels","shortName":"Hotel","icon":{"prefix":"https:\/\/ss1.4sqi.net\/img\/categories_v2\/travel\/hotel_","suffix":".png"},"primary":"true"}],"verified":"true","restricted":"true","stats":{"checkinsCount":"1462","usersCount":"589","tipCount":"22"},"url":"http:\/\/www.crowneplaza.com\/redirect?path=hd&brandCode=cp&hotelCode=lonke&regionCode=1&localeCode=en","specials":{"count":"0"},"hereNow":{"count":"0"},"storeId":"LONKE","referralId":"v-1392478063"},{"id":"4f735ef7e4b017b4495b8cbf","name":"The Nail Bar","location":{"address":"14 Gloucestor Park Arcade","crossStreet":"128 Gloucester Road","lat":"51.494477068773804","lng":"-0.18314473649962654","distance":"31","postalCode":"SW7 45F","cc":"GB","city":"London","state":"Greater London","country":"United Kingdom"},"categories":[{"id":"4f04aa0c2fb6e1c99f3db0b8","name":"Nail Salon","pluralName":"Nail Salons","shortName":"Nail Salon","icon":{"prefix":"https:\/\/ss1.4sqi.net\/img\/categories_v2\/shops\/nailsalon_","suffix":".png"},"primary":"true"}],"verified":"false","restricted":"true","stats":{"checkinsCount":"56","usersCount":"16","tipCount":"1"},"specials":{"count":"0"},"hereNow":{"count":"0"},"referralId":"v-1392478063"},{"id":"4b956227f964a520b59f34e3","name":"Radisson Blu Edwardian Vanderbilt Hotel","contact":{"phone":"+442077619000","formattedPhone":"+44 20 7761 9000","twitter":"rbehotels"},"location":{"address":"68-86 Cromwell Rd","lat":"51.495171603309615","lng":"-0.18208980560302734","distance":"109","postalCode":"SW7 5BT","cc":"GB","city":"South Kensington","state":"Greater London","country":"United Kingdom"},"categories":[{"id":"4bf58dd8d48988d1fa931735","name":"Hotel","pluralName":"Hotels","shortName":"Hotel","icon":{"prefix":"https:\/\/ss1.4sqi.net\/img\/categories_v2\/travel\/hotel_","suffix":".png"},"primary":"true"}],"verified":"true","restricted":"true","stats":{"checkinsCount":"1657","usersCount":"769","tipCount":"23"},"url":"http:\/\/www.radissonedwardian.com","specials":{"count":"0"},"hereNow":{"count":"0"},"storeId":"","referralId":"v-1392478063"},{"id":"5193754de4b0c6f1aa813775","name":"The Diner","contact":{"phone":"+442072447666","formattedPhone":"+44 20 7244 7666"},"location":{"address":"105 Gloucester Rd","lat":"51.49374930131646","lng":"-0.18213345277431026","distance":"75","postalCode":"SW7 4SS","cc":"GB","city":"London","state":"Greater London","country":"United Kingdom"},"categories":[{"id":"4bf58dd8d48988d14e941735","name":"American Restaurant","pluralName":"American Restaurants","shortName":"American","icon":{"prefix":"https:\/\/ss1.4sqi.net\/img\/categories_v2\/food\/default_","suffix":".png"},"primary":"true"}],"verified":"false","restricted":"true","stats":{"checkinsCount":"329","usersCount":"237","tipCount":"6"},"menu":{"type":"Menu","label":"Menu","anchor":"View Menu","url":"https:\/\/foursquare.com\/v\/the-diner\/5193754de4b0c6f1aa813775\/menu","mobileUrl":"https:\/\/foursquare.com\/v\/5193754de4b0c6f1aa813775\/device_menu"},"specials":{"count":"0"},"hereNow":{"count":"0"},"referralId":"v-1392478063"},{"id":"52639d1b498e1970cdf2b2ac","name":"Patisserie","location":{"address":"Gloucester Road","lat":"51.49470800972947","lng":"-0.182869070932431","distance":"46","cc":"GB","city":"London","state":"Greater London","country":"United Kingdom"},"categories":[{"id":"4bf58dd8d48988d128941735","name":"Cafeteria","pluralName":"Cafeterias","shortName":"Cafeteria","icon":{"prefix":"https:\/\/ss1.4sqi.net\/img\/categories_v2\/food\/cafeteria_","suffix":".png"},"primary":"true"}],"verified":"false","restricted":"true","stats":{"checkinsCount":"28","usersCount":"26","tipCount":"0"},"specials":{"count":"0"},"hereNow":{"count":"0"},"referralId":"v-1392478063"},{"id":"4bb9d09498c7ef3b45543202","name":"Caff\u00e8 Nero","contact":{"phone":"+442072448578","formattedPhone":"+44 20 7244 8578"},"location":{"address":"119 Gloucester Rd.","lat":"51.49338126182556","lng":"-0.181828","distance":"121","postalCode":"SW7 4TE","cc":"GB","city":"Kensington","state":"Greater London","country":"United Kingdom"},"categories":[{"id":"4bf58dd8d48988d1e0931735","name":"Coffee Shop","pluralName":"Coffee Shops","shortName":"Coffee Shop","icon":{"prefix":"https:\/\/ss1.4sqi.net\/img\/categories_v2\/food\/coffeeshop_","suffix":".png"},"primary":"true"}],"verified":"false","restricted":"true","stats":{"checkinsCount":"1067","usersCount":"525","tipCount":"7"},"url":"http:\/\/caffenero.com","specials":{"count":"0"},"hereNow":{"count":"1","groups":[{"type":"others","name":"Other people here","count":"1"}]},"referralId":"v-1392478063"},{"id":"4bc721f18b7c9c74f2d135cf","name":"Post Office","location":{"address":"138 Gloucester Rd.","lat":"51.49514488504164","lng":"-0.18313050270080566","distance":"97","postalCode":"SW7 4","cc":"GB","city":"Kensington","state":"Greater London","country":"United Kingdom"},"categories":[{"id":"4bf58dd8d48988d172941735","name":"Post Office","pluralName":"Post Offices","shortName":"Post Office","icon":{"prefix":"https:\/\/ss1.4sqi.net\/img\/categories_v2\/building\/postoffice_","suffix":".png"},"primary":"true"}],"verified":"false","restricted":"true","stats":{"checkinsCount":"468","usersCount":"182","tipCount":"1"},"specials":{"count":"0"},"hereNow":{"count":"0"},"referralId":"v-1392478063"},{"id":"4bca19823740b713e10b6065","name":"ASK Italian","contact":{"phone":"+442078350840","formattedPhone":"+44 20 7835 0840","twitter":"askitalian"},"location":{"address":"23\/24, Gloucester Arcade","crossStreet":"128 Gloucester Rd.","lat":"51.49477750726864","lng":"-0.18316268920898438","distance":"59","postalCode":"SW7 4SF","cc":"GB","city":"London","state":"Greater London","country":"United Kingdom"},"categories":[{"id":"4bf58dd8d48988d110941735","name":"Italian Restaurant","pluralName":"Italian Restaurants","shortName":"Italian","icon":{"prefix":"https:\/\/ss1.4sqi.net\/img\/categories_v2\/food\/italian_","suffix":".png"},"primary":"true"}],"verified":"true","restricted":"true","stats":{"checkinsCount":"427","usersCount":"319","tipCount":"12"},"url":"http:\/\/www.askitalian.co.uk","specials":{"count":"0"},"hereNow":{"count":"0"},"storeId":"","referralId":"v-1392478063"},{"id":"4b8ef0adf964a520f53f33e3","name":"Green Door Steakhouse","contact":{"phone":"+442073732010","formattedPhone":"+44 20 7373 2010"},"location":{"address":"152 Gloucester Road","lat":"51.493512","lng":"-0.1819477","distance":"104","postalCode":"SW7","cc":"GB","city":"Kensington","state":"Greater London","country":"United Kingdom"},"categories":[{"id":"4bf58dd8d48988d1cc941735","name":"Steakhouse","pluralName":"Steakhouses","shortName":"Steakhouse","icon":{"prefix":"https:\/\/ss1.4sqi.net\/img\/categories_v2\/food\/steakhouse_","suffix":".png"},"primary":"true"}],"verified":"false","restricted":"true","stats":{"checkinsCount":"624","usersCount":"473","tipCount":"17"},"url":"http:\/\/www.greendoorsteakhouse.co.uk","menu":{"type":"Menu","label":"Menu","anchor":"View Menu","url":"https:\/\/foursquare.com\/v\/green-door-steakhouse\/4b8ef0adf964a520f53f33e3\/menu","mobileUrl":"https:\/\/foursquare.com\/v\/4b8ef0adf964a520f53f33e3\/device_menu"},"specials":{"count":"0"},"hereNow":{"count":"1","groups":[{"type":"others","name":"Other people here","count":"1"}]},"referralId":"v-1392478063"},{"id":"4bc220d84cdfc9b6e49a9521","name":"Nando's","contact":{"phone":"+442073734446","formattedPhone":"+44 20 7373 4446","twitter":"nandosuk"},"location":{"address":"117 Gloucester Road","lat":"51.493408164029645","lng":"-0.18191814422607422","distance":"115","postalCode":"SW7 4ST","cc":"GB","city":"London","state":"Greater London","country":"United Kingdom"},"categories":[{"id":"4def73e84765ae376e57713a","name":"Portuguese Restaurant","pluralName":"Portuguese Restaurants","shortName":"Portuguese","icon":{"prefix":"https:\/\/ss1.4sqi.net\/img\/categories_v2\/food\/default_","suffix":".png"},"primary":"true"}],"verified":"true","restricted":"true","stats":{"checkinsCount":"1508","usersCount":"1005","tipCount":"12"},"url":"http:\/\/www.nandos.co.uk","specials":{"count":"0"},"hereNow":{"count":"0"},"storeId":"N155","referralId":"v-1392478063"},{"id":"50607d88e4b08a8b4632c471","name":"Gloucester","location":{"lat":"51.494410937451036","lng":"-0.18372640029990414","distance":"65","cc":"GB","country":"United Kingdom"},"categories":[{"id":"4bf58dd8d48988d1fa931735","name":"Hotel","pluralName":"Hotels","shortName":"Hotel","icon":{"prefix":"https:\/\/ss1.4sqi.net\/img\/categories_v2\/travel\/hotel_","suffix":".png"},"primary":"true"}],"verified":"false","restricted":"true","stats":{"checkinsCount":"91","usersCount":"72","tipCount":"1"},"specials":{"count":"0"},"hereNow":{"count":"0"},"referralId":"v-1392478063"},{"id":"4ff81316e4b0d615847515e1","name":"Flowers Inc","location":{"lat":"51.494174607495324","lng":"-0.1818287429449196","distance":"68","cc":"GB","country":"United Kingdom"},"categories":[{"id":"4bf58dd8d48988d11b951735","name":"Flower Shop","pluralName":"Flower Shops","shortName":"Flower Shop","icon":{"prefix":"https:\/\/ss1.4sqi.net\/img\/categories_v2\/shops\/flowershop_","suffix":".png"},"primary":"true"}],"verified":"false","restricted":"true","stats":{"checkinsCount":"14","usersCount":"7","tipCount":"1"},"specials":{"count":"0"},"hereNow":{"count":"0"},"referralId":"v-1392478063"}],"confident":"true"}}