{"meta":{"code":"200"},"response":{"venues":[{"id":"4b486a69f964a520f94c26e3","name":"Starbucks","contact":{"twitter":"starbucksuk"},"location":{"address":"128 Kings Road","lat":"51.489769","lng":"-0.163327","distance":"64","postalCode":"SW3 4TR","cc":"GB","city":"Chelsea","state":"Greater London","country":"United Kingdom"},"categories":[{"id":"4bf58dd8d48988d16d941735","name":"Caf\u00e9","pluralName":"Caf\u00e9s","shortName":"Caf\u00e9","icon":{"prefix":"https:\/\/ss1.4sqi.net\/img\/categories_v2\/food\/cafe_","suffix":".png"},"primary":"true"}],"verified":"true","restricted":"true","stats":{"checkinsCount":"1102","usersCount":"706","tipCount":"4"},"url":"http:\/\/starbucks.co.uk","specials":{"count":"0"},"hereNow":{"count":"1","groups":[{"type":"others","name":"Other people here","count":"1"}]},"storeId":"12185","referralId":"v-1392478077"},{"id":"4f04597be5faf0bb0bdcfcc6","name":"Joe & The Juice","contact":{"twitter":"joeandthejuice"},"location":{"address":"65 King's Rd","lat":"51.48956371199875","lng":"-0.16346985007043874","distance":"55","postalCode":"SW3 4NT","cc":"GB","city":"Chelsea","state":"Greater London","country":"United Kingdom"},"categories":[{"id":"4bf58dd8d48988d112941735","name":"Juice Bar","pluralName":"Juice Bars","shortName":"Juice Bar","icon":{"prefix":"https:\/\/ss1.4sqi.net\/img\/categories_v2\/food\/juicebar_","suffix":".png"},"primary":"true"}],"verified":"false","restricted":"true","stats":{"checkinsCount":"789","usersCount":"420","tipCount":"17"},"url":"http:\/\/www.joejuice.com","specials":{"count":"0"},"hereNow":{"count":"0"},"referralId":"v-1392478077"},{"id":"4b3b5363f964a5207e7225e3","name":"The Phoenix","location":{"address":"Smith Street","lat":"51.48855835425089","lng":"-0.16263842582702637","distance":"82","cc":"GB","city":"London","state":"Greater London","country":"United Kingdom"},"categories":[{"id":"4bf58dd8d48988d11b941735","name":"Pub","pluralName":"Pubs","shortName":"Pub","icon":{"prefix":"https:\/\/ss1.4sqi.net\/img\/categories_v2\/nightlife\/pub_","suffix":".png"},"primary":"true"}],"verified":"true","restricted":"true","stats":{"checkinsCount":"884","usersCount":"427","tipCount":"7"},"specials":{"count":"0"},"hereNow":{"count":"1","groups":[{"type":"others","name":"Other people here","count":"1"}]},"referralId":"v-1392478077"},{"id":"4e22ff65628469a574257f90","name":"Ca'puccino","contact":{"phone":"+442070360555","formattedPhone":"+44 20 7036 0555"},"location":{"address":"138A King's Rd","lat":"51.489473","lng":"-0.163997","distance":"85","postalCode":"SW3 4XB","cc":"GB","city":"Chelsea","state":"Greater London","country":"United Kingdom"},"categories":[{"id":"4bf58dd8d48988d16d941735","name":"Caf\u00e9","pluralName":"Caf\u00e9s","shortName":"Caf\u00e9","icon":{"prefix":"https:\/\/ss1.4sqi.net\/img\/categories_v2\/food\/cafe_","suffix":".png"},"primary":"true"}],"verified":"false","restricted":"true","stats":{"checkinsCount":"755","usersCount":"537","tipCount":"18"},"specials":{"count":"0"},"hereNow":{"count":"1","groups":[{"type":"others","name":"Other people here","count":"1"}]},"referralId":"v-1392478077"},{"id":"4adc3b30f964a520a02b21e3","name":"Paul","contact":{"phone":"+442075819611","formattedPhone":"+44 20 7581 9611"},"location":{"address":"134 Kings Rd.","lat":"51.48981523906659","lng":"-0.16378344466148198","distance":"89","postalCode":"SW3 4XB","cc":"GB","city":"London","state":"Greater London","country":"United Kingdom"},"categories":[{"id":"4bf58dd8d48988d10c941735","name":"French Restaurant","pluralName":"French Restaurants","shortName":"French","icon":{"prefix":"https:\/\/ss1.4sqi.net\/img\/categories_v2\/food\/french_","suffix":".png"},"primary":"true"}],"verified":"false","restricted":"true","stats":{"checkinsCount":"756","usersCount":"395","tipCount":"4"},"specials":{"count":"0"},"hereNow":{"count":"0"},"referralId":"v-1392478077"},{"id":"4eda4d650e011b46ee424798","name":"Amorino","contact":{"phone":"+442077303591","formattedPhone":"+44 20 7730 3591","facebook":"139681666076928"},"location":{"address":"67a King's Rd","lat":"51.48934665045721","lng":"-0.16372203826904297","distance":"64","postalCode":"SW3 4NT","cc":"GB","city":"Chelsea","state":"Greater London","country":"United Kingdom"},"categories":[{"id":"4bf58dd8d48988d1c9941735","name":"Ice Cream Shop","pluralName":"Ice Cream Shops","shortName":"Ice Cream","icon":{"prefix":"https:\/\/ss1.4sqi.net\/img\/categories_v2\/food\/icecream_","suffix":".png"},"primary":"true"}],"verified":"true","restricted":"true","stats":{"checkinsCount":"397","usersCount":"270","tipCount":"10"},"url":"http:\/\/www.amorino.com","specials":{"count":"0"},"hereNow":{"count":"0"},"storeId":"2","referralId":"v-1392478077"},{"id":"4b9f9fbdf964a520ab2f37e3","name":"McDonald's","contact":{"phone":"+442078248133","formattedPhone":"+44 20 7824 8133"},"location":{"address":"49 King's Rd.","lat":"51.489974","lng":"-0.162701","distance":"76","postalCode":"SW3 4ND","cc":"GB","city":"Chelsea","state":"Greater London","country":"United Kingdom"},"categories":[{"id":"4bf58dd8d48988d16e941735","name":"Fast Food Restaurant","pluralName":"Fast Food Restaurants","shortName":"Fast Food","icon":{"prefix":"https:\/\/ss1.4sqi.net\/img\/categories_v2\/food\/fastfood_","suffix":".png"},"primary":"true"}],"verified":"false","restricted":"true","stats":{"checkinsCount":"600","usersCount":"348","tipCount":"1"},"url":"http:\/\/www.mcdonalds.co.uk","specials":{"count":"0"},"hereNow":{"count":"0"},"referralId":"v-1392478077"},{"id":"4c25e3de905a0f470c3f6260","name":"Gap","contact":{"phone":"+442078237272","formattedPhone":"+44 20 7823 7272","twitter":"ukgap"},"location":{"address":"122 Kings Road, London SW3 4TR","lat":"51.49007776245186","lng":"-0.16267447309516245","distance":"88","postalCode":"SW3 4TR","cc":"GB","city":"London","state":"Greater London","country":"United Kingdom"},"categories":[{"id":"4bf58dd8d48988d103951735","name":"Clothing Store","pluralName":"Clothing Stores","shortName":"Apparel","icon":{"prefix":"https:\/\/ss1.4sqi.net\/img\/categories_v2\/shops\/apparel_","suffix":".png"},"primary":"true"}],"verified":"true","restricted":"true","stats":{"checkinsCount":"371","usersCount":"245","tipCount":"0"},"url":"http:\/\/www.gap.eu","specials":{"count":"0"},"hereNow":{"count":"0"},"storeId":"980","referralId":"v-1392478077"},{"id":"5162b47fe4b0e85bc0a28aea","name":"Artist Preserve HQ","location":{"address":"2nd Floor 110-112 Kings Road","lat":"51.490343","lng":"-0.162287","distance":"122","postalCode":"SW3 4TY","cc":"GB","city":"London","state":"Greater London","country":"United Kingdom"},"categories":[{"id":"4bf58dd8d48988d124941735","name":"Office","pluralName":"Offices","shortName":"Office","icon":{"prefix":"https:\/\/ss1.4sqi.net\/img\/categories_v2\/building\/default_","suffix":".png"},"primary":"true"}],"verified":"false","restricted":"true","stats":{"checkinsCount":"200","usersCount":"4","tipCount":"0"},"specials":{"count":"0"},"hereNow":{"count":"0"},"referralId":"v-1392478077"},{"id":"4b69bff6f964a520bfb12be3","name":"Muji","location":{"address":"King's Rd","lat":"51.490310200139824","lng":"-0.162153913038292","distance":"122","cc":"GB","city":"London","state":"Greater London","country":"United Kingdom"},"categories":[{"id":"4bf58dd8d48988d1f4941735","name":"Design Studio","pluralName":"Design Studios","shortName":"Design","icon":{"prefix":"https:\/\/ss1.4sqi.net\/img\/categories_v2\/shops\/design_","suffix":".png"},"primary":"true"}],"verified":"false","restricted":"true","stats":{"checkinsCount":"417","usersCount":"214","tipCount":"1"},"specials":{"count":"0"},"hereNow":{"count":"0"},"referralId":"v-1392478077"},{"id":"50f02c84e4b09f38ec264967","name":"Jacuzzi Films HQ","contact":{"twitter":"jacuzzifilms"},"location":{"address":"2nd Floor 110-112 Kings Road","lat":"51.490427500193015","lng":"-0.16229249128067447","distance":"131","postalCode":"SW3 4TY","cc":"GB","city":"London","state":"Greater London","country":"United Kingdom"},"categories":[{"id":"4bf58dd8d48988d124941735","name":"Office","pluralName":"Offices","shortName":"Office","icon":{"prefix":"https:\/\/ss1.4sqi.net\/img\/categories_v2\/building\/default_","suffix":".png"},"primary":"true"}],"verified":"false","restricted":"true","stats":{"checkinsCount":"255","usersCount":"9","tipCount":"0"},"specials":{"count":"0"},"hereNow":{"count":"0"},"referralId":"v-1392478077"},{"id":"4df8c69db61ce821ebac8bb4","name":"Chloe's Nail Spa","location":{"address":"Kings Road","crossStreet":"Kings Walk","lat":"51.490112","lng":"-0.163185","distance":"95","cc":"GB","city":"Kensington","state":"Greater London","country":"United Kingdom"},"categories":[{"id":"4bf58dd8d48988d1ed941735","name":"Spa","pluralName":"Spas","shortName":"Spa","icon":{"prefix":"https:\/\/ss1.4sqi.net\/img\/categories_v2\/shops\/spa_","suffix":".png"},"primary":"true"}],"verified":"false","restricted":"true","stats":{"checkinsCount":"103","usersCount":"20","tipCount":"0"},"specials":{"count":"0"},"hereNow":{"count":"0"},"referralId":"v-1392478077"},{"id":"4cb4f5279c7ba35d88188706","name":"Vidal Sassoon","contact":{"phone":"+442077307288","formattedPhone":"+44 20 7730 7288"},"location":{"address":"124C Kings Rd.","lat":"51.489840998751525","lng":"-0.16318559646606445","distance":"66","postalCode":"SW3 4TR","cc":"GB","city":"Chelsea","state":"Greater London","country":"United Kingdom"},"categories":[{"id":"4bf58dd8d48988d110951735","name":"Salon \/ Barbershop","pluralName":"Salons \/ Barbershops","shortName":"Salon \/ Barbershop","icon":{"prefix":"https:\/\/ss1.4sqi.net\/img\/categories_v2\/shops\/salon_barber_","suffix":".png"},"primary":"true"}],"verified":"false","restricted":"true","stats":{"checkinsCount":"53","usersCount":"35","tipCount":"0"},"specials":{"count":"0"},"hereNow":{"count":"0"},"referralId":"v-1392478077"},{"id":"4b8001fff964a520554a30e3","name":"Marks and Spencer","contact":{"phone":"+442073765634","formattedPhone":"+44 20 7376 5634"},"location":{"address":"85 King's Road","lat":"51.489094644908725","lng":"-0.1648221369225955","distance":"141","postalCode":"SW3 4NX","cc":"GB","city":"Chelsea","state":"Greater London","country":"United Kingdom"},"categories":[{"id":"4bf58dd8d48988d103951735","name":"Clothing Store","pluralName":"Clothing Stores","shortName":"Apparel","icon":{"prefix":"https:\/\/ss1.4sqi.net\/img\/categories_v2\/shops\/apparel_","suffix":".png"},"primary":"true"}],"verified":"true","restricted":"true","stats":{"checkinsCount":"716","usersCount":"335","tipCount":"3"},"specials":{"count":"0"},"hereNow":{"count":"0"},"storeId":"Kings Road","referralId":"v-1392478077"},{"id":"4b9abefff964a52004d235e3","name":"Benihana","location":{"address":"77 kings road","lat":"51.489191","lng":"-0.164573","distance":"123","postalCode":"SW3 4NX","cc":"GB","city":"Kensington","state":"Greater London","country":"United Kingdom"},"categories":[{"id":"4bf58dd8d48988d111941735","name":"Japanese Restaurant","pluralName":"Japanese Restaurants","shortName":"Japanese","icon":{"prefix":"https:\/\/ss1.4sqi.net\/img\/categories_v2\/food\/japanese_","suffix":".png"},"primary":"true"}],"verified":"false","restricted":"true","stats":{"checkinsCount":"343","usersCount":"261","tipCount":"14"},"url":"http:\/\/www.benihana.co.uk\/chelsea_benihana.html?p=chelsea","menu":{"type":"Menu","label":"Menu","anchor":"View Menu","url":"https:\/\/foursquare.com\/v\/benihana\/4b9abefff964a52004d235e3\/menu","mobileUrl":"https:\/\/foursquare.com\/v\/4b9abefff964a52004d235e3\/device_menu"},"specials":{"count":"0"},"hereNow":{"count":"0"},"referralId":"v-1392478077"},{"id":"4fd8faead065f365d67e108c","name":"Folli Follie Store","contact":{"phone":"+442078234556","formattedPhone":"+44 20 7823 4556","twitter":"_follifollie"},"location":{"address":"61 Kings Road, London","lat":"51.48969216076256","lng":"-0.16341934575103131","distance":"61","cc":"GB","city":"London","state":"Greater London","country":"United Kingdom"},"categories":[{"id":"4bf58dd8d48988d111951735","name":"Jewelry Store","pluralName":"Jewelry Stores","shortName":"Jewelry","icon":{"prefix":"https:\/\/ss1.4sqi.net\/img\/categories_v2\/shops\/jewelry_","suffix":".png"},"primary":"true"}],"verified":"true","restricted":"true","stats":{"checkinsCount":"4","usersCount":"3","tipCount":"0"},"url":"http:\/\/www.follifollie.com","specials":{"count":"0"},"hereNow":{"count":"0"},"storeId":"FFS359","referralId":"v-1392478077"},{"id":"4ec10158b6341cd41f3fc690","name":"barrecore studio","contact":{"phone":"+442073492500","formattedPhone":"+44 20 7349 2500","twitter":"barrecore"},"location":{"address":"1st Floor, Atlantic Court, 77 King's Rd, London SW3 4NX","lat":"51.48900594783701","lng":"-0.1644730567932129","distance":"119","postalCode":"SW3 4NX","cc":"GB","city":"London","state":"Greater London","country":"United Kingdom"},"categories":[{"id":"4bf58dd8d48988d175941735","name":"Gym \/ Fitness Center","pluralName":"Gyms or Fitness Centers","shortName":"Gym \/ Fitness","icon":{"prefix":"https:\/\/ss1.4sqi.net\/img\/categories_v2\/building\/gym_","suffix":".png"},"primary":"true"}],"verified":"true","restricted":"true","stats":{"checkinsCount":"246","usersCount":"34","tipCount":"2"},"url":"http:\/\/barrecore.co.uk","specials":{"count":"0"},"hereNow":{"count":"0"},"storeId":"","referralId":"v-1392478077"},{"id":"4fc4a2f3e4b035d6cb1a9c26","name":"Markham Square","location":{"lat":"51.49038803499857","lng":"-0.1646688119038666","distance":"178","cc":"GB","country":"United Kingdom"},"categories":[{"id":"4bf58dd8d48988d163941735","name":"Park","pluralName":"Parks","shortName":"Park","icon":{"prefix":"https:\/\/ss1.4sqi.net\/img\/categories_v2\/parks_outdoors\/park_","suffix":".png"},"primary":"true"}],"verified":"false","restricted":"true","stats":{"checkinsCount":"169","usersCount":"20","tipCount":"0"},"specials":{"count":"0"},"hereNow":{"count":"0"},"referralId":"v-1392478077"},{"id":"52b4886b498e7f922067b77e","name":"Pandora","location":{"lat":"51.48988321897474","lng":"-0.16255344807503275","distance":"68","cc":"GB","country":"United Kingdom"},"categories":[{"id":"4bf58dd8d48988d111951735","name":"Jewelry Store","pluralName":"Jewelry Stores","shortName":"Jewelry","icon":{"prefix":"https:\/\/ss1.4sqi.net\/img\/categories_v2\/shops\/jewelry_","suffix":".png"},"primary":"true"}],"verified":"false","restricted":"true","stats":{"checkinsCount":"2","usersCount":"2","tipCount":"0"},"specials":{"count":"0"},"hereNow":{"count":"0"},"referralId":"v-1392478077"},{"id":"4cf7a7d4dc40a35db77a4e54","name":"Timpson","location":{"lat":"51.48999593223795","lng":"-0.16311608099367605","distance":"81","cc":"GB","country":"United Kingdom"},"categories":[{"id":"4bf58dd8d48988d107951735","name":"Shoe Store","pluralName":"Shoe Stores","shortName":"Shoes","icon":{"prefix":"https:\/\/ss1.4sqi.net\/img\/categories_v2\/shops\/apparel_shoestore_","suffix":".png"},"primary":"true"}],"verified":"false","restricted":"true","stats":{"checkinsCount":"23","usersCount":"13","tipCount":"0"},"specials":{"count":"0"},"hereNow":{"count":"0"},"referralId":"v-1392478077"},{"id":"4cb0e226db32f04df8d1c34d","name":"The Queens Head","contact":{"phone":"+442075890262","formattedPhone":"+44 20 7589 0262"},"location":{"address":"25-27 Tryon Street","lat":"51.49080584296544","lng":"-0.1630014358017792","distance":"169","postalCode":"SW3 3LG","cc":"GB","city":"London","state":"Greater London","country":"United Kingdom"},"categories":[{"id":"4bf58dd8d48988d116941735","name":"Bar","pluralName":"Bars","shortName":"Bar","icon":{"prefix":"https:\/\/ss1.4sqi.net\/img\/categories_v2\/nightlife\/bar_","suffix":".png"},"primary":"true"}],"verified":"false","restricted":"true","stats":{"checkinsCount":"235","usersCount":"166","tipCount":"3"},"specials":{"count":"0"},"hereNow":{"count":"0"},"referralId":"v-1392478077"},{"id":"4bcb055f511f952127a3b0c7","name":"The Chelsea Day Spa","location":{"address":"2nd Floor, 69A King's Road","lat":"51.490218766560076","lng":"-0.16481856020974467","distance":"173","cc":"GB","city":"Kensington","state":"Greater London","country":"United Kingdom"},"categories":[{"id":"4bf58dd8d48988d1ed941735","name":"Spa","pluralName":"Spas","shortName":"Spa","icon":{"prefix":"https:\/\/ss1.4sqi.net\/img\/categories_v2\/shops\/spa_","suffix":".png"},"primary":"true"}],"verified":"false","restricted":"true","stats":{"checkinsCount":"373","usersCount":"66","tipCount":"1"},"specials":{"count":"0"},"hereNow":{"count":"0"},"referralId":"v-1392478077"},{"id":"4bf7c826508c0f4771f93d31","name":"Scribbler","location":{"lat":"51.48980598796646","lng":"-0.16293072666487413","distance":"58","cc":"GB","country":"United Kingdom"},"categories":[{"id":"4bf58dd8d48988d1ff941735","name":"Miscellaneous Shop","pluralName":"Miscellaneous Shops","shortName":"Shop","icon":{"prefix":"https:\/\/ss1.4sqi.net\/img\/categories_v2\/shops\/default_","suffix":".png"},"primary":"true"}],"verified":"false","restricted":"true","stats":{"checkinsCount":"52","usersCount":"47","tipCount":"0"},"specials":{"count":"0"},"hereNow":{"count":"0"},"referralId":"v-1392478077"},{"id":"51e589f5498e6dfbda4e48a3","name":"Coffee Concerto","location":{"lat":"51.48973559188977","lng":"-0.16094010767330563","distance":"138","cc":"GB","country":"United Kingdom"},"categories":[{"id":"4bf58dd8d48988d16d941735","name":"Caf\u00e9","pluralName":"Caf\u00e9s","shortName":"Caf\u00e9","icon":{"prefix":"https:\/\/ss1.4sqi.net\/img\/categories_v2\/food\/cafe_","suffix":".png"},"primary":"true"}],"verified":"false","restricted":"true","stats":{"checkinsCount":"11","usersCount":"11","tipCount":"0"},"specials":{"count":"0"},"hereNow":{"count":"0"},"referralId":"v-1392478077"},{"id":"4dfdd7d5aeb7594e8624d86a","name":"Fat Face","location":{"address":"King's Road","crossStreet":"Chelsea","lat":"51.489265172577305","lng":"-0.16329906838177674","distance":"34","cc":"GB","city":"London","state":"Greater London","country":"United Kingdom"},"categories":[{"id":"4bf58dd8d48988d103951735","name":"Clothing Store","pluralName":"Clothing Stores","shortName":"Apparel","icon":{"prefix":"https:\/\/ss1.4sqi.net\/img\/categories_v2\/shops\/apparel_","suffix":".png"},"primary":"true"}],"verified":"false","restricted":"true","stats":{"checkinsCount":"21","usersCount":"20","tipCount":"0"},"specials":{"count":"0"},"hereNow":{"count":"0"},"referralId":"v-1392478077"},{"id":"4c79487a566db60c4752440e","name":"Reiss","location":{"address":"King's Rd","lat":"51.490297","lng":"-0.162452","distance":"114","cc":"GB","city":"Kensington","state":"Greater London","country":"United Kingdom"},"categories":[{"id":"4bf58dd8d48988d103951735","name":"Clothing Store","pluralName":"Clothing Stores","shortName":"Apparel","icon":{"prefix":"https:\/\/ss1.4sqi.net\/img\/categories_v2\/shops\/apparel_","suffix":".png"},"primary":"true"}],"verified":"true","restricted":"true","stats":{"checkinsCount":"61","usersCount":"60","tipCount":"0"},"url":"http:\/\/www.reiss.com","specials":{"count":"0"},"hereNow":{"count":"0"},"referralId":"v-1392478077"},{"id":"504f1f60e4b07043a48a4ba6","name":"Ranelagh House","location":{"address":"3-5 Elystan Place","lat":"51.4902521148617","lng":"-0.16341558643456117","distance":"115","postalCode":"SW3 3LD","cc":"GB","city":"Lonson","country":"United Kingdom"},"categories":[{"id":"4d954b06a243a5684965b473","name":"Residential Building (Apartment \/ Condo)","pluralName":"Residential Buildings (Apartments \/ Condos)","shortName":"Residential","icon":{"prefix":"https:\/\/ss1.4sqi.net\/img\/categories_v2\/building\/apartment_","suffix":".png"},"primary":"true"}],"verified":"false","restricted":"true","stats":{"checkinsCount":"103","usersCount":"4","tipCount":"0"},"specials":{"count":"0"},"hereNow":{"count":"0"},"referralId":"v-1392478077"},{"id":"4ad7416cf964a520200921e3","name":"Subway","contact":{"phone":"+442075893366","formattedPhone":"+44 20 7589 3366","twitter":"subwayukireland"},"location":{"address":"122 King's Road","crossStreet":"Near Sloane Ave.","lat":"51.490107","lng":"-0.162822","distance":"91","postalCode":"SW3 4TR","cc":"GB","city":"Chelsea","state":"Greater London","country":"United Kingdom"},"categories":[{"id":"4bf58dd8d48988d1c5941735","name":"Sandwich Place","pluralName":"Sandwich Places","shortName":"Sandwiches","icon":{"prefix":"https:\/\/ss1.4sqi.net\/img\/categories_v2\/food\/sandwiches_","suffix":".png"},"primary":"true"}],"verified":"true","restricted":"true","stats":{"checkinsCount":"50","usersCount":"29","tipCount":"1"},"url":"http:\/\/www.subway.co.uk","specials":{"count":"0"},"hereNow":{"count":"0"},"storeId":"33895","referralId":"v-1392478077"},{"id":"4c2b04a177cfe21e9dd7b3f1","name":"TMW","contact":{"phone":"+442073494000","formattedPhone":"+44 20 7349 4000","twitter":"tmwagency"},"location":{"address":"81 Kings Rd","lat":"51.48903851579358","lng":"-0.16483374175989987","distance":"143","postalCode":"SW3 4NX","cc":"GB","city":"Chelsea","state":"Greater London","country":"United Kingdom"},"categories":[{"id":"4bf58dd8d48988d124941735","name":"Office","pluralName":"Offices","shortName":"Office","icon":{"prefix":"https:\/\/ss1.4sqi.net\/img\/categories_v2\/building\/default_","suffix":".png"},"primary":"true"}],"verified":"false","restricted":"true","stats":{"checkinsCount":"545","usersCount":"86","tipCount":"2"},"url":"http:\/\/www.tmw.co.uk","specials":{"count":"0"},"hereNow":{"count":"0"},"referralId":"v-1392478077"},{"id":"4e39002f14959f8577a48955","name":"The Wellington Clinic","location":{"address":"63A King's Road","lat":"51.489463806152344","lng":"-0.16337500512599945","distance":"44","cc":"GB","country":"United Kingdom"},"categories":[{"id":"4bf58dd8d48988d178941735","name":"Dentist's Office","pluralName":"Dentist's Offices","shortName":"Dentist's Office","icon":{"prefix":"https:\/\/ss1.4sqi.net\/img\/categories_v2\/building\/medical_dentist_","suffix":".png"},"primary":"true"}],"verified":"false","restricted":"true","stats":{"checkinsCount":"32","usersCount":"13","tipCount":"0"},"specials":{"count":"0"},"hereNow":{"count":"0"},"referralId":"v-1392478077"}],"confident":"false"}}