{"meta":{"code":"200"},"response":{"venues":[{"id":"4c94c8636b35a14354621edc","name":"Battersea Square","location":{"address":"Battersea Church Rd.","lat":"51.47388594397289","lng":"-0.17455564978640056","distance":"129","cc":"GB","city":"London","state":"Greater London","country":"United Kingdom"},"categories":[{"id":"4bf58dd8d48988d162941735","name":"Other Great Outdoors","pluralName":"Other Great Outdoors","shortName":"Other Outdoors","icon":{"prefix":"https:\/\/ss1.4sqi.net\/img\/categories_v2\/parks_outdoors\/outdoors_","suffix":".png"},"primary":"true"}],"verified":"false","restricted":"true","stats":{"checkinsCount":"1036","usersCount":"226","tipCount":"3"},"specials":{"count":"0"},"hereNow":{"count":"0"},"referralId":"v-1392478115"},{"id":"4e6df577483bf105214984c1","name":"The Square Sandwich","contact":{"phone":"+442079242428","formattedPhone":"+44 20 7924 2428"},"location":{"address":"20 Battersea Square","lat":"51.474191964088526","lng":"-0.17423248391169704","distance":"99","postalCode":"SW11 3RA","cc":"GB","city":"Wandsworth","state":"Greater London","country":"United Kingdom"},"categories":[{"id":"4bf58dd8d48988d1c5941735","name":"Sandwich Place","pluralName":"Sandwich Places","shortName":"Sandwiches","icon":{"prefix":"https:\/\/ss1.4sqi.net\/img\/categories_v2\/food\/sandwiches_","suffix":".png"},"primary":"true"}],"verified":"false","restricted":"true","stats":{"checkinsCount":"200","usersCount":"30","tipCount":"2"},"specials":{"count":"0"},"hereNow":{"count":"0"},"referralId":"v-1392478115"},{"id":"4c814756e602b1f7d046917a","name":"Le QuecumBar","location":{"address":"42-44 Battersea High St.","lat":"51.47400582926133","lng":"-0.17380714416503906","distance":"76","postalCode":"SW11 3HX","cc":"GB","city":"London","state":"Greater London","country":"United Kingdom"},"categories":[{"id":"4bf58dd8d48988d116941735","name":"Bar","pluralName":"Bars","shortName":"Bar","icon":{"prefix":"https:\/\/ss1.4sqi.net\/img\/categories_v2\/nightlife\/bar_","suffix":".png"},"primary":"true"}],"verified":"false","restricted":"true","stats":{"checkinsCount":"309","usersCount":"117","tipCount":"13"},"menu":{"type":"Menu","label":"Menu","anchor":"View Menu","url":"https:\/\/foursquare.com\/v\/le-quecumbar\/4c814756e602b1f7d046917a\/menu","mobileUrl":"https:\/\/foursquare.com\/v\/4c814756e602b1f7d046917a\/device_menu"},"specials":{"count":"0"},"hereNow":{"count":"0"},"referralId":"v-1392478115"},{"id":"4b6728c9f964a520823e2be3","name":"The Woodman","location":{"address":"60-68 Battersea High St","lat":"51.4735980541767","lng":"-0.17373473936113934","distance":"100","postalCode":"SW11 3","cc":"GB","city":"Wandsworth","state":"Greater London","country":"United Kingdom"},"categories":[{"id":"4bf58dd8d48988d11b941735","name":"Pub","pluralName":"Pubs","shortName":"Pub","icon":{"prefix":"https:\/\/ss1.4sqi.net\/img\/categories_v2\/nightlife\/pub_","suffix":".png"},"primary":"true"}],"verified":"false","restricted":"true","stats":{"checkinsCount":"434","usersCount":"127","tipCount":"10"},"menu":{"type":"Menu","label":"Menu","anchor":"View Menu","url":"https:\/\/foursquare.com\/v\/the-woodman\/4b6728c9f964a520823e2be3\/menu","mobileUrl":"https:\/\/foursquare.com\/v\/4b6728c9f964a520823e2be3\/device_menu"},"specials":{"count":"0"},"hereNow":{"count":"0"},"referralId":"v-1392478115"},{"id":"4b77c204f964a5206da92ee3","name":"Sacred Heart Church Battersea","location":{"address":"Trott St","lat":"51.474026","lng":"-0.17287","distance":"29","postalCode":"SW11","cc":"GB","city":"London","state":"Greater London","country":"United Kingdom"},"categories":[{"id":"4bf58dd8d48988d132941735","name":"Church","pluralName":"Churches","shortName":"Church","icon":{"prefix":"https:\/\/ss1.4sqi.net\/img\/categories_v2\/building\/religious_church_","suffix":".png"},"primary":"true"}],"verified":"false","restricted":"true","stats":{"checkinsCount":"9","usersCount":"4","tipCount":"0"},"specials":{"count":"0"},"hereNow":{"count":"0"},"referralId":"v-1392478115"},{"id":"52eb78ae11d2c981bc33680a","name":"London House","contact":{"phone":"+442075928545","formattedPhone":"+44 20 7592 8545"},"location":{"address":"7-9 Battersea Square","lat":"51.47527324253835","lng":"-0.17519294117055412","distance":"198","postalCode":"SW11 3RA","cc":"GB","city":"London","state":"Greater London","country":"United Kingdom"},"categories":[{"id":"4bf58dd8d48988d1c4941735","name":"Restaurant","pluralName":"Restaurants","shortName":"Restaurant","icon":{"prefix":"https:\/\/ss1.4sqi.net\/img\/categories_v2\/food\/default_","suffix":".png"},"primary":"true"}],"verified":"false","restricted":"true","stats":{"checkinsCount":"14","usersCount":"14","tipCount":"0"},"url":"http:\/\/gordonramsay.com\/londonhouse","specials":{"count":"0"},"hereNow":{"count":"1","groups":[{"type":"others","name":"Other people here","count":"1"}]},"referralId":"v-1392478115"},{"id":"4d47cc6a0bfd54819ec73600","name":"Riverside Walk (Battersea)","location":{"address":"York road","lat":"51.47276229695544","lng":"-0.17701137700516506","distance":"337","cc":"GB","city":"Wandsworth","state":"Greater London","country":"United Kingdom"},"categories":[{"id":"4bf58dd8d48988d159941735","name":"Trail","pluralName":"Trails","shortName":"Trail","icon":{"prefix":"https:\/\/ss1.4sqi.net\/img\/categories_v2\/parks_outdoors\/hikingtrail_","suffix":".png"},"primary":"true"}],"verified":"false","restricted":"true","stats":{"checkinsCount":"733","usersCount":"139","tipCount":"0"},"specials":{"count":"0"},"hereNow":{"count":"0"},"referralId":"v-1392478115"},{"id":"4b6aef7df964a520a4e72be3","name":"Royal Academy of Dance","location":{"address":"36 Battersea Square","lat":"51.474356142631656","lng":"-0.1752375836972574","distance":"168","postalCode":"SW11 3RA\u200e","cc":"GB","city":"London","state":"Greater London","country":"United Kingdom"},"categories":[{"id":"4bf58dd8d48988d1a8941735","name":"General College & University","pluralName":"General Colleges & Universities","shortName":"Education","icon":{"prefix":"https:\/\/ss1.4sqi.net\/img\/categories_v2\/education\/other_","suffix":".png"},"primary":"true"}],"verified":"false","restricted":"true","stats":{"checkinsCount":"510","usersCount":"115","tipCount":"1"},"url":"http:\/\/www.rad.org.uk","specials":{"count":"0"},"hereNow":{"count":"0"},"referralId":"v-1392478115"},{"id":"4b6d3b9cf964a520b76c2ce3","name":"mazar","contact":{"phone":"+442079785374","formattedPhone":"+44 20 7978 5374"},"location":{"address":"11-12 Battersea Square","lat":"51.47502158320545","lng":"-0.17468690872192383","distance":"153","postalCode":"SW11 3RA","cc":"GB","city":"London","state":"Greater London","country":"United Kingdom"},"categories":[{"id":"4bf58dd8d48988d115941735","name":"Middle Eastern Restaurant","pluralName":"Middle Eastern Restaurants","shortName":"Middle Eastern","icon":{"prefix":"https:\/\/ss1.4sqi.net\/img\/categories_v2\/food\/default_","suffix":".png"},"primary":"true"}],"verified":"false","restricted":"true","stats":{"checkinsCount":"214","usersCount":"75","tipCount":"6"},"url":"http:\/\/mazarrestaurant.com","menu":{"type":"Menu","label":"Menu","anchor":"View Menu","url":"https:\/\/foursquare.com\/v\/mazar\/4b6d3b9cf964a520b76c2ce3\/menu","mobileUrl":"https:\/\/foursquare.com\/v\/4b6d3b9cf964a520b76c2ce3\/device_menu"},"specials":{"count":"0"},"hereNow":{"count":"0"},"referralId":"v-1392478115"},{"id":"50b69780e4b060c7925d10c4","name":"Bowstead Court","location":{"address":"Parkham Street","lat":"51.475124","lng":"-0.172563","distance":"94","cc":"GB","country":"United Kingdom"},"categories":[{"id":"4f2a210c4b9023bd5841ed28","name":"Housing Development","pluralName":"Housing Developments","shortName":"Housing Development","icon":{"prefix":"https:\/\/ss1.4sqi.net\/img\/categories_v2\/building\/housingdevelopment_","suffix":".png"},"primary":"true"}],"verified":"false","restricted":"true","stats":{"checkinsCount":"101","usersCount":"3","tipCount":"2"},"specials":{"count":"0"},"hereNow":{"count":"0"},"referralId":"v-1392478115"},{"id":"508c7870e4b0d2cf8b63a852","name":"croom","location":{"address":"surrey lane","crossStreet":"battersea","lat":"51.47449791098023","lng":"-0.17241630497607768","distance":"35","postalCode":"sw11 3pb","cc":"GB","country":"United Kingdom"},"categories":[{"id":"4bf58dd8d48988d174941735","name":"Coworking Space","pluralName":"Coworking Spaces","shortName":"Coworking Space","icon":{"prefix":"https:\/\/ss1.4sqi.net\/img\/categories_v2\/building\/office_coworkingspace_","suffix":".png"},"primary":"true"}],"verified":"false","restricted":"true","stats":{"checkinsCount":"5","usersCount":"1","tipCount":"0"},"specials":{"count":"0"},"hereNow":{"count":"0"},"referralId":"v-1392478115"},{"id":"4f1662f9e4b0804e8f4e73ca","name":"River Side","location":{"lat":"51.4736506765394","lng":"-0.17621012518511303","distance":"246","cc":"GB","country":"United Kingdom"},"verified":"false","restricted":"true","stats":{"checkinsCount":"46","usersCount":"13","tipCount":"0"},"specials":{"count":"0"},"hereNow":{"count":"0"},"referralId":"v-1392478115"},{"id":"4d6d5b62fbf0a093ccebfe8c","name":"Bar RIO","location":{"lat":"51.47496574347688","lng":"-0.1749843639597992","distance":"168","postalCode":"SW11 3","cc":"GB","city":"Wandsworth","state":"Greater London","country":"United Kingdom"},"categories":[{"id":"4bf58dd8d48988d116941735","name":"Bar","pluralName":"Bars","shortName":"Bar","icon":{"prefix":"https:\/\/ss1.4sqi.net\/img\/categories_v2\/nightlife\/bar_","suffix":".png"},"primary":"true"}],"verified":"false","restricted":"true","stats":{"checkinsCount":"6","usersCount":"5","tipCount":"0"},"specials":{"count":"0"},"hereNow":{"count":"0"},"referralId":"v-1392478115"},{"id":"4b8a5683f964a5201c6932e3","name":"Melanzana","contact":{"phone":"+442072285420","formattedPhone":"+44 20 7228 5420"},"location":{"address":"Westbridge Rd.","crossStreet":"Battersea Church Rd.","lat":"51.475255","lng":"-0.175091","distance":"191","postalCode":"SW11 3PF","cc":"GB","city":"London","state":"Greater London","country":"United Kingdom"},"categories":[{"id":"4bf58dd8d48988d110941735","name":"Italian Restaurant","pluralName":"Italian Restaurants","shortName":"Italian","icon":{"prefix":"https:\/\/ss1.4sqi.net\/img\/categories_v2\/food\/italian_","suffix":".png"},"primary":"true"}],"verified":"false","restricted":"true","stats":{"checkinsCount":"291","usersCount":"119","tipCount":"7"},"menu":{"type":"Menu","label":"Menu","anchor":"View Menu","url":"https:\/\/foursquare.com\/v\/melanzana\/4b8a5683f964a5201c6932e3\/menu","mobileUrl":"https:\/\/foursquare.com\/v\/4b8a5683f964a5201c6932e3\/device_menu"},"specials":{"count":"0"},"hereNow":{"count":"0"},"referralId":"v-1392478115"},{"id":"4f06b20ae4b0e53f58206a8a","name":"Youth Music Theatre (Salesian College)","location":{"lat":"51.47479051861219","lng":"-0.1729662261278143","distance":"56","cc":"GB","country":"United Kingdom"},"categories":[{"id":"4bf58dd8d48988d1f1931735","name":"General Entertainment","pluralName":"General Entertainment","shortName":"Entertainment","icon":{"prefix":"https:\/\/ss1.4sqi.net\/img\/categories_v2\/arts_entertainment\/default_","suffix":".png"},"primary":"true"}],"verified":"false","restricted":"true","stats":{"checkinsCount":"13","usersCount":"2","tipCount":"0"},"specials":{"count":"0"},"hereNow":{"count":"0"},"referralId":"v-1392478115"},{"id":"51efec1b498e665983e398d6","name":"Youth Music Theatre UK","location":{"lat":"51.4747892556508","lng":"-0.17291110307514299","distance":"56","cc":"GB","country":"United Kingdom"},"categories":[{"id":"4bf58dd8d48988d124941735","name":"Office","pluralName":"Offices","shortName":"Office","icon":{"prefix":"https:\/\/ss1.4sqi.net\/img\/categories_v2\/building\/default_","suffix":".png"},"primary":"true"}],"verified":"false","restricted":"true","stats":{"checkinsCount":"19","usersCount":"1","tipCount":"0"},"specials":{"count":"0"},"hereNow":{"count":"0"},"referralId":"v-1392478115"},{"id":"4beea1e12c082d7f879e3042","name":"Barrio","location":{"address":"Battersea Square","lat":"51.47493977671434","lng":"-0.17503644342421507","distance":"170","postalCode":"SW11","cc":"GB","city":"London","state":"Greater London","country":"United Kingdom"},"categories":[{"id":"4bf58dd8d48988d116941735","name":"Bar","pluralName":"Bars","shortName":"Bar","icon":{"prefix":"https:\/\/ss1.4sqi.net\/img\/categories_v2\/nightlife\/bar_","suffix":".png"},"primary":"true"}],"verified":"false","restricted":"true","stats":{"checkinsCount":"107","usersCount":"68","tipCount":"4"},"specials":{"count":"0"},"hereNow":{"count":"0"},"referralId":"v-1392478115"},{"id":"50955321498e4ddf6826dede","name":"The Candlemaker","location":{"lat":"51.47046512116418","lng":"-0.17245995718263443","distance":"426","cc":"GB","country":"United Kingdom"},"categories":[{"id":"4bf58dd8d48988d11b941735","name":"Pub","pluralName":"Pubs","shortName":"Pub","icon":{"prefix":"https:\/\/ss1.4sqi.net\/img\/categories_v2\/nightlife\/pub_","suffix":".png"},"primary":"true"}],"verified":"false","restricted":"true","stats":{"checkinsCount":"183","usersCount":"83","tipCount":"1"},"specials":{"count":"0"},"hereNow":{"count":"0"},"referralId":"v-1392478115"},{"id":"4c63136579d1e21e04b3d715","name":"St. Mary's Church Battersea","location":{"address":"Battersea church street","lat":"51.476554877976916","lng":"-0.17518347817251567","distance":"301","postalCode":"Sw11","cc":"GB","city":"London","state":"Greater London","country":"United Kingdom"},"categories":[{"id":"4bf58dd8d48988d132941735","name":"Church","pluralName":"Churches","shortName":"Church","icon":{"prefix":"https:\/\/ss1.4sqi.net\/img\/categories_v2\/building\/religious_church_","suffix":".png"},"primary":"true"}],"verified":"false","restricted":"true","stats":{"checkinsCount":"157","usersCount":"57","tipCount":"4"},"specials":{"count":"0"},"hereNow":{"count":"0"},"referralId":"v-1392478115"},{"id":"4ac518d9f964a520bca820e3","name":"Cantinetta Venegazz\u00fa","location":{"address":"31 Battersea Square","lat":"51.474267","lng":"-0.173917","distance":"77","postalCode":"SW11 3RA","cc":"GB","city":"London","state":"Greater London","country":"United Kingdom"},"categories":[{"id":"4bf58dd8d48988d10f941735","name":"Indian Restaurant","pluralName":"Indian Restaurants","shortName":"Indian","icon":{"prefix":"https:\/\/ss1.4sqi.net\/img\/categories_v2\/food\/indian_","suffix":".png"},"primary":"true"}],"verified":"false","restricted":"true","stats":{"checkinsCount":"5","usersCount":"4","tipCount":"0"},"specials":{"count":"0"},"hereNow":{"count":"0"},"referralId":"v-1392478115"},{"id":"4d728364d145a1cd9ad7b5f3","name":"Bennett Oyster Bar & Brasserie","contact":{"phone":"+442072235545","formattedPhone":"+44 20 7223 5545"},"location":{"address":"4-9 Battersea Sq.","lat":"51.47439756588268","lng":"-0.17395881105295422","distance":"81","postalCode":"SW11 3RA","cc":"GB","city":"London","state":"Greater London","country":"United Kingdom"},"categories":[{"id":"4bf58dd8d48988d123941735","name":"Wine Bar","pluralName":"Wine Bars","shortName":"Wine Bar","icon":{"prefix":"https:\/\/ss1.4sqi.net\/img\/categories_v2\/nightlife\/wine_","suffix":".png"},"primary":"true"}],"verified":"false","restricted":"true","stats":{"checkinsCount":"248","usersCount":"59","tipCount":"1"},"menu":{"type":"Menu","label":"Menu","anchor":"View Menu","url":"https:\/\/foursquare.com\/v\/bennett-oyster-bar--brasserie\/4d728364d145a1cd9ad7b5f3\/menu","mobileUrl":"https:\/\/foursquare.com\/v\/4d728364d145a1cd9ad7b5f3\/device_menu"},"specials":{"count":"0"},"hereNow":{"count":"0"},"referralId":"v-1392478115"},{"id":"4d02023357e2a093be83d336","name":"Powertone","location":{"lat":"51.474573","lng":"-0.174036","distance":"91","cc":"GB","country":"United Kingdom"},"verified":"false","restricted":"true","stats":{"checkinsCount":"2","usersCount":"2","tipCount":"0"},"specials":{"count":"0"},"hereNow":{"count":"0"},"referralId":"v-1392478115"},{"id":"4bee85a1e24d20a12ffe7214","name":"Riviera","location":{"address":"31-32 Battersea Square","lat":"51.475011752044196","lng":"-0.17515869288668265","distance":"182","postalCode":"SW11 3RA","cc":"GB","city":"Wandsworth","state":"Greater London","country":"United Kingdom"},"categories":[{"id":"4bf58dd8d48988d110941735","name":"Italian Restaurant","pluralName":"Italian Restaurants","shortName":"Italian","icon":{"prefix":"https:\/\/ss1.4sqi.net\/img\/categories_v2\/food\/italian_","suffix":".png"},"primary":"true"}],"verified":"false","restricted":"true","stats":{"checkinsCount":"42","usersCount":"32","tipCount":"2"},"url":"http:\/\/rivierarestaurant-bar.com\/index.html","menu":{"type":"Menu","label":"Menu","anchor":"View Menu","url":"https:\/\/foursquare.com\/v\/riviera\/4bee85a1e24d20a12ffe7214\/menu","mobileUrl":"https:\/\/foursquare.com\/v\/4bee85a1e24d20a12ffe7214\/device_menu"},"specials":{"count":"0"},"hereNow":{"count":"0"},"referralId":"v-1392478115"},{"id":"515f0ee0e0e2bcd49a0afa40","name":"THE NATICAN","contact":{"twitter":"naticus88"},"location":{"address":"24 Granfield Street","lat":"51.475168598349946","lng":"-0.1735979318618774","distance":"112","postalCode":"SW11 3JH","cc":"GB","city":"London","state":"Greater London","country":"United Kingdom"},"categories":[{"id":"4d954b06a243a5684965b473","name":"Residential Building (Apartment \/ Condo)","pluralName":"Residential Buildings (Apartments \/ Condos)","shortName":"Residential","icon":{"prefix":"https:\/\/ss1.4sqi.net\/img\/categories_v2\/building\/apartment_","suffix":".png"},"primary":"true"}],"verified":"false","restricted":"true","stats":{"checkinsCount":"3","usersCount":"1","tipCount":"0"},"specials":{"count":"0"},"hereNow":{"count":"0"},"referralId":"v-1392478115"},{"id":"4c0019ba92a6c92888a643e2","name":"Bolingbroke Chateau","location":{"address":"5 Bolingbroke Walk","lat":"51.47713951861455","lng":"-0.17179377845144964","distance":"324","postalCode":"SW113NE","cc":"GB","city":"London","state":"Greater London","country":"United Kingdom"},"categories":[{"id":"4bf58dd8d48988d12d941735","name":"Monument \/ Landmark","pluralName":"Monuments \/ Landmarks","shortName":"Landmark","icon":{"prefix":"https:\/\/ss1.4sqi.net\/img\/categories_v2\/building\/government_monument_","suffix":".png"},"primary":"true"}],"verified":"false","restricted":"true","stats":{"checkinsCount":"15","usersCount":"4","tipCount":"0"},"specials":{"count":"0"},"hereNow":{"count":"0"},"referralId":"v-1392478115"},{"id":"4bfa6c2a508c0f47af0c4031","name":"Thomas's london day schools","location":{"lat":"51.474257","lng":"-0.174759","distance":"135","cc":"GB","country":"United Kingdom"},"categories":[{"id":"4bf58dd8d48988d1a8941735","name":"General College & University","pluralName":"General Colleges & Universities","shortName":"Education","icon":{"prefix":"https:\/\/ss1.4sqi.net\/img\/categories_v2\/education\/other_","suffix":".png"},"primary":"true"}],"verified":"false","restricted":"true","stats":{"checkinsCount":"49","usersCount":"11","tipCount":"0"},"specials":{"count":"0"},"hereNow":{"count":"0"},"referralId":"v-1392478115"},{"id":"4dd3120c52b1f20e680826d3","name":"Slightly nervous in a cab that loves backroads","location":{"lat":"51.473733","lng":"-0.174638","distance":"141","postalCode":"SW11 3LN","cc":"GB","city":"London","state":"Greater London","country":"United Kingdom"},"verified":"false","restricted":"true","stats":{"checkinsCount":"1","usersCount":"1","tipCount":"0"},"specials":{"count":"0"},"hereNow":{"count":"0"},"referralId":"v-1392478115"},{"id":"52d87197498ec600d986aeca","name":"zafer palace","location":{"lat":"51.47649488583588","lng":"-0.16770978519761015","distance":"430","cc":"GB","country":"United Kingdom"},"categories":[{"id":"4d954b06a243a5684965b473","name":"Residential Building (Apartment \/ Condo)","pluralName":"Residential Buildings (Apartments \/ Condos)","shortName":"Residential","icon":{"prefix":"https:\/\/ss1.4sqi.net\/img\/categories_v2\/building\/apartment_","suffix":".png"},"primary":"true"}],"verified":"false","restricted":"true","stats":{"checkinsCount":"3","usersCount":"1","tipCount":"0"},"specials":{"count":"0"},"hereNow":{"count":"0"},"referralId":"v-1392478115"},{"id":"4be5d8a0d4f7c9b6ac052620","name":"Rickshaw","location":{"address":"Battersea Square","lat":"51.47519133158968","lng":"-0.17489461056846822","distance":"176","cc":"GB","city":"Wandsworth","state":"Greater London","country":"United Kingdom"},"verified":"false","restricted":"true","stats":{"checkinsCount":"23","usersCount":"11","tipCount":"0"},"specials":{"count":"0"},"hereNow":{"count":"0"},"referralId":"v-1392478115"},{"id":"4bc9ec22937ca593129ca692","name":"The Stag","contact":{"phone":"+442072237516","formattedPhone":"+44 20 7223 7516"},"location":{"address":"96 Westbridge Road","lat":"51.47574305534363","lng":"-0.17283618450164795","distance":"161","postalCode":"SW11 3PH","cc":"GB","city":"London","state":"Greater London","country":"United Kingdom"},"categories":[{"id":"4bf58dd8d48988d10f941735","name":"Indian Restaurant","pluralName":"Indian Restaurants","shortName":"Indian","icon":{"prefix":"https:\/\/ss1.4sqi.net\/img\/categories_v2\/food\/indian_","suffix":".png"},"primary":"true"}],"verified":"false","restricted":"true","stats":{"checkinsCount":"16","usersCount":"9","tipCount":"0"},"specials":{"count":"0"},"hereNow":{"count":"0"},"referralId":"v-1392478115"}],"confident":"true"}}