{"meta":{"code":"200"},"response":{"venues":[{"id":"4ac518cef964a52014a620e3","name":"Battersea Power Station","contact":{"phone":"+442075010688","formattedPhone":"+44 20 7501 0688","twitter":"batterseapwrstn"},"location":{"address":"188 Kirtling St","lat":"51.48175706334808","lng":"-0.1446676254272461","distance":"310","postalCode":"SW8 5BP","cc":"GB","city":"London","state":"Greater London","country":"United Kingdom"},"categories":[{"id":"4deefb944765f83613cdba6e","name":"Historic Site","pluralName":"Historic Sites","shortName":"Historic Site","icon":{"prefix":"https:\/\/ss1.4sqi.net\/img\/categories_v2\/arts_entertainment\/historicsite_","suffix":".png"},"primary":"true"}],"verified":"false","restricted":"true","stats":{"checkinsCount":"5078","usersCount":"2759","tipCount":"28"},"url":"http:\/\/www.batterseapowerstation.co.uk","specials":{"count":"0"},"hereNow":{"count":"0"},"referralId":"v-1392478092"},{"id":"4be957e288ed2d7fabd5cc1d","name":"Battersea Dogs And Cats Home","contact":{"phone":"+442076223626","formattedPhone":"+44 20 7622 3626"},"location":{"address":"4 Battersea Park Rd.","lat":"51.478556435091406","lng":"-0.14580847378629003","distance":"671","postalCode":"SW8 4AA","cc":"GB","city":"London","state":"Greater London","country":"United Kingdom"},"categories":[{"id":"4e52d2d203646f7c19daa8ae","name":"Animal Shelter","pluralName":"Animal Shelters","shortName":"Animal Shelter","icon":{"prefix":"https:\/\/ss1.4sqi.net\/img\/categories_v2\/building\/animalshelter_","suffix":".png"},"primary":"true"}],"verified":"true","restricted":"true","stats":{"checkinsCount":"1320","usersCount":"685","tipCount":"15"},"url":"http:\/\/www.battersea.org.uk","specials":{"count":"0"},"hereNow":{"count":"3","groups":[{"type":"others","name":"Other people here","count":"3"}]},"venuePage":{"id":"44042487"},"storeId":"","referralId":"v-1392478092"},{"id":"50868a0ce4b0192cfde695d9","name":"Pimlico","location":{"address":"Everywhere!","lat":"51.490163111266796","lng":"-0.13874516618104762","distance":"711","postalCode":"SW1","cc":"GB","city":"London","state":"Greater London","country":"United Kingdom"},"categories":[{"id":"4f2a25ac4b909258e854f55f","name":"Neighborhood","pluralName":"Neighborhoods","shortName":"Neighborhood","icon":{"prefix":"https:\/\/ss1.4sqi.net\/img\/categories_v2\/parks_outdoors\/neighborhood_","suffix":".png"},"primary":"true"}],"verified":"false","restricted":"true","stats":{"checkinsCount":"2775","usersCount":"756","tipCount":"6"},"url":"http:\/\/thewarwickpimlico.co.uk","menu":{"type":"Menu","label":"Menu","anchor":"View Menu","url":"https:\/\/foursquare.com\/v\/pimlico\/50868a0ce4b0192cfde695d9\/menu","mobileUrl":"https:\/\/foursquare.com\/v\/50868a0ce4b0192cfde695d9\/device_menu"},"specials":{"count":"0"},"hereNow":{"count":"0"},"referralId":"v-1392478092"},{"id":"50253de1e4b0b95e9867cc66","name":"Chelsea Bridge","location":{"address":"Chelsea Bridge Rd","lat":"51.484362785826875","lng":"-0.14983892440795898","distance":"487","cc":"GB","city":"Chelsea","state":"Greater London","country":"United Kingdom"},"categories":[{"id":"4bf58dd8d48988d1df941735","name":"Bridge","pluralName":"Bridges","shortName":"Bridge","icon":{"prefix":"https:\/\/ss1.4sqi.net\/img\/categories_v2\/parks_outdoors\/bridge_","suffix":".png"},"primary":"true"}],"verified":"false","restricted":"true","stats":{"checkinsCount":"2135","usersCount":"987","tipCount":"8"},"specials":{"count":"0"},"hereNow":{"count":"0"},"referralId":"v-1392478092"},{"id":"4bb9069a7421a593f766c240","name":"Travel Joy Hostels","contact":{"phone":"+442078349689","formattedPhone":"+44 20 7834 9689"},"location":{"address":"111 Grosvenor Rd, Pimlico","lat":"51.485304383333336","lng":"-0.1419973","distance":"126","postalCode":"SW1V 3LG","cc":"GB","city":"London","state":"Greater London","country":"United Kingdom"},"categories":[{"id":"4bf58dd8d48988d1ee931735","name":"Hostel","pluralName":"Hostels","shortName":"Hostel","icon":{"prefix":"https:\/\/ss1.4sqi.net\/img\/categories_v2\/travel\/hostel_","suffix":".png"},"primary":"true"}],"verified":"false","restricted":"true","stats":{"checkinsCount":"459","usersCount":"236","tipCount":"7"},"url":"http:\/\/www.traveljoyhostels.com","menu":{"type":"Menu","label":"Menu","anchor":"View Menu","url":"https:\/\/foursquare.com\/v\/travel-joy-hostels\/4bb9069a7421a593f766c240\/menu","mobileUrl":"https:\/\/foursquare.com\/v\/4bb9069a7421a593f766c240\/device_menu"},"specials":{"count":"0"},"hereNow":{"count":"0"},"referralId":"v-1392478092"},{"id":"4d511ca0529dcbff7fd9dcc4","name":"Grosvenor Bridge","location":{"address":"Grosvenor Rd.","lat":"51.484456321814235","lng":"-0.14750003814697266","distance":"326","cc":"GB","city":"London","state":"Greater London","country":"United Kingdom"},"categories":[{"id":"4bf58dd8d48988d1df941735","name":"Bridge","pluralName":"Bridges","shortName":"Bridge","icon":{"prefix":"https:\/\/ss1.4sqi.net\/img\/categories_v2\/parks_outdoors\/bridge_","suffix":".png"},"primary":"true"}],"verified":"false","restricted":"true","stats":{"checkinsCount":"1197","usersCount":"207","tipCount":"2"},"specials":{"count":"0"},"hereNow":{"count":"0"},"referralId":"v-1392478092"},{"id":"4b8c276bf964a52006c132e3","name":"Dolphin Square","contact":{"phone":"+442077988000","formattedPhone":"+44 20 7798 8000"},"location":{"address":"Chichester St.","lat":"51.48728903510795","lng":"-0.13666391372680664","distance":"540","postalCode":"SW1V 3LX","cc":"GB","city":"London","state":"Greater London","country":"United Kingdom"},"categories":[{"id":"4bf58dd8d48988d164941735","name":"Plaza","pluralName":"Plazas","shortName":"Plaza","icon":{"prefix":"https:\/\/ss1.4sqi.net\/img\/categories_v2\/parks_outdoors\/plaza_","suffix":".png"},"primary":"true"}],"verified":"false","restricted":"true","stats":{"checkinsCount":"1351","usersCount":"388","tipCount":"4"},"specials":{"count":"0"},"hereNow":{"count":"0"},"referralId":"v-1392478092"},{"id":"4c850e35d92ea093b0156272","name":"Chelsea Bridge Wharf","contact":{"phone":"+442077202600","formattedPhone":"+44 20 7720 2600"},"location":{"address":"380 Queenstown Rd","lat":"51.48221140516388","lng":"-0.1485729217529297","distance":"462","postalCode":"SW8 4PE","cc":"GB","city":"London","state":"Greater London","country":"United Kingdom"},"categories":[{"id":"4d954b06a243a5684965b473","name":"Residential Building (Apartment \/ Condo)","pluralName":"Residential Buildings (Apartments \/ Condos)","shortName":"Residential","icon":{"prefix":"https:\/\/ss1.4sqi.net\/img\/categories_v2\/building\/apartment_","suffix":".png"},"primary":"true"}],"verified":"false","restricted":"true","stats":{"checkinsCount":"3689","usersCount":"852","tipCount":"6"},"specials":{"count":"0"},"hereNow":{"count":"0"},"referralId":"v-1392478092"},{"id":"4ac518f6f964a5207aaf20e3","name":"Dolphin Square Sports Club","location":{"address":"Dolphin Sq.","lat":"51.48740776010332","lng":"-0.136836511342898","distance":"539","postalCode":"SW1V 3PP","cc":"GB","city":"London","state":"Greater London","country":"United Kingdom"},"categories":[{"id":"4bf58dd8d48988d105941735","name":"Gym Pool","pluralName":"Gym Pools","shortName":"Pool","icon":{"prefix":"https:\/\/ss1.4sqi.net\/img\/categories_v2\/shops\/gym_pool_","suffix":".png"},"primary":"true"}],"verified":"false","restricted":"true","stats":{"checkinsCount":"1056","usersCount":"173","tipCount":"2"},"specials":{"count":"0"},"hereNow":{"count":"0"},"referralId":"v-1392478092"},{"id":"4bd72189304fce72ce1e33ab","name":"King William IV","location":{"address":"111 Grosvenor Rd.","lat":"51.485320625","lng":"-0.141833","distance":"133","postalCode":"SW1V 4","cc":"GB","city":"London","state":"Greater London","country":"United Kingdom"},"categories":[{"id":"4bf58dd8d48988d11b941735","name":"Pub","pluralName":"Pubs","shortName":"Pub","icon":{"prefix":"https:\/\/ss1.4sqi.net\/img\/categories_v2\/nightlife\/pub_","suffix":".png"},"primary":"true"}],"verified":"false","restricted":"true","stats":{"checkinsCount":"328","usersCount":"200","tipCount":"4"},"menu":{"type":"Menu","label":"Menu","anchor":"View Menu","url":"https:\/\/foursquare.com\/v\/king-william-iv-london-greater-london\/4bd72189304fce72ce1e33ab\/menu","mobileUrl":"https:\/\/foursquare.com\/v\/4bd72189304fce72ce1e33ab\/device_menu"},"specials":{"count":"0"},"hereNow":{"count":"0"},"referralId":"v-1392478092"},{"id":"4d8b2dbe7139b1f74b57d9d4","name":"Tesco Express","contact":{"phone":"+448456719316","formattedPhone":"+44 845 671 9316","twitter":"uktescooffers"},"location":{"address":"89-95 Lupus Street","lat":"51.487776725064144","lng":"-0.14080524444580078","distance":"412","postalCode":"SW1V 3EN","cc":"GB","city":"London","state":"Greater London","country":"United Kingdom"},"categories":[{"id":"4bf58dd8d48988d118951735","name":"Grocery Store","pluralName":"Grocery Stores","shortName":"Grocery Store","icon":{"prefix":"https:\/\/ss1.4sqi.net\/img\/categories_v2\/shops\/food_grocery_","suffix":".png"},"primary":"true"}],"verified":"true","restricted":"true","stats":{"checkinsCount":"371","usersCount":"132","tipCount":"1"},"url":"http:\/\/www.tesco.com","specials":{"count":"0"},"hereNow":{"count":"0"},"storeId":"5714","referralId":"v-1392478092"},{"id":"4cbf1b041c6c6dcbdf926c5e","name":"Shelley House","location":{"address":"lupus street","lat":"51.486037373542786","lng":"-0.13992547988891602","distance":"278","postalCode":"SW1V 3","cc":"GB","city":"London","state":"Greater London","country":"United Kingdom"},"categories":[{"id":"4bf58dd8d48988d130941735","name":"Building","pluralName":"Buildings","shortName":"Building","icon":{"prefix":"https:\/\/ss1.4sqi.net\/img\/categories_v2\/building\/default_","suffix":".png"},"primary":"true"}],"verified":"false","restricted":"true","stats":{"checkinsCount":"7","usersCount":"4","tipCount":"0"},"specials":{"count":"0"},"hereNow":{"count":"1","groups":[{"type":"others","name":"Other people here","count":"1"}]},"referralId":"v-1392478092"},{"id":"4e75d3a41838f9188a02b5ad","name":"Western Pumping Station Thames Water","location":{"lat":"51.48487325180682","lng":"-0.14761865577639843","distance":"340","cc":"GB","city":"London","state":"Greater London","country":"United Kingdom"},"categories":[{"id":"4d4b7105d754a06375d81259","name":"Professional & Other Places","pluralName":"Professional & Other Places","shortName":"Professional","icon":{"prefix":"https:\/\/ss1.4sqi.net\/img\/categories_v2\/building\/default_","suffix":".png"},"primary":"true"}],"verified":"false","restricted":"true","stats":{"checkinsCount":"760","usersCount":"51","tipCount":"1"},"specials":{"count":"0"},"hereNow":{"count":"0"},"referralId":"v-1392478092"},{"id":"52f32bcd498e27143f8c545c","name":"\ub7f0\ub358 \ube0c\ub7f0\uce58 \ubbfc\ubc15","location":{"lat":"51.485856","lng":"-0.142917","distance":"174","cc":"GB","country":"United Kingdom"},"categories":[{"id":"4bf58dd8d48988d1f8931735","name":"Bed & Breakfast","pluralName":"Bed & Breakfasts","shortName":"B & B","icon":{"prefix":"https:\/\/ss1.4sqi.net\/img\/categories_v2\/travel\/bedandbreakfast_","suffix":".png"},"primary":"true"}],"verified":"false","restricted":"true","stats":{"checkinsCount":"1","usersCount":"1","tipCount":"0"},"specials":{"count":"0"},"hereNow":{"count":"0"},"referralId":"v-1392478092"},{"id":"4d63606179deb1f795d51911","name":"Grosvenor Waterside","location":{"address":"Gatliff road","lat":"51.487315757980376","lng":"-0.14960289001464844","distance":"579","postalCode":"SW1W","cc":"GB","city":"London","state":"Greater London","country":"United Kingdom"},"categories":[{"id":"4d954b06a243a5684965b473","name":"Residential Building (Apartment \/ Condo)","pluralName":"Residential Buildings (Apartments \/ Condos)","shortName":"Residential","icon":{"prefix":"https:\/\/ss1.4sqi.net\/img\/categories_v2\/building\/apartment_","suffix":".png"},"primary":"true"}],"verified":"false","restricted":"true","stats":{"checkinsCount":"671","usersCount":"51","tipCount":"0"},"specials":{"count":"0"},"hereNow":{"count":"1","groups":[{"type":"others","name":"Other people here","count":"1"}]},"referralId":"v-1392478092"},{"id":"4adf75b6f964a520c97a21e3","name":"St Georges Square","location":{"address":"St Georges Square","lat":"51.48835829929586","lng":"-0.13504858782006174","distance":"702","cc":"GB","city":"London","state":"Greater London","country":"United Kingdom"},"categories":[{"id":"4bf58dd8d48988d164941735","name":"Plaza","pluralName":"Plazas","shortName":"Plaza","icon":{"prefix":"https:\/\/ss1.4sqi.net\/img\/categories_v2\/parks_outdoors\/plaza_","suffix":".png"},"primary":"true"}],"verified":"false","restricted":"true","stats":{"checkinsCount":"652","usersCount":"264","tipCount":"4"},"specials":{"count":"0"},"hereNow":{"count":"0"},"referralId":"v-1392478092"},{"id":"4c19037a9990d13a24277c17","name":"Pestana Chelsea Bridge Hotel & Spa","contact":{"phone":"+442070628000","formattedPhone":"+44 20 7062 8000","twitter":"pestanahotels"},"location":{"address":"354 Queenstown Road","lat":"51.481403","lng":"-0.148676","distance":"518","cc":"GB","city":"SW8 4AE","country":"United Kingdom"},"categories":[{"id":"4bf58dd8d48988d1fa931735","name":"Hotel","pluralName":"Hotels","shortName":"Hotel","icon":{"prefix":"https:\/\/ss1.4sqi.net\/img\/categories_v2\/travel\/hotel_","suffix":".png"},"primary":"true"}],"verified":"true","restricted":"true","stats":{"checkinsCount":"2133","usersCount":"826","tipCount":"16"},"url":"http:\/\/www.pestana-chelseabridge.co.uk","specials":{"count":"1","items":[{"id":"51bae3dd8bbdaf7fa0479f24","type":"frequency","message":"10% off food at the Atlantico Restaurant & Bar!","description":"Unlocked every check-in","finePrint":"Offer valid on food bill only, not valid in conjunction with any other offers, not valid on room service orders. Terms & conditions apply.","icon":"check-in","title":"Check-in Special","provider":"foursquare","redemption":"standard","page":{"id":"10362133","firstName":"Pestana Hotels","gender":"none","photo":{"prefix":"https:\/\/irs3.4sqi.net\/img\/user\/","suffix":"\/YON23J3NOJ0WKBBU.png"},"type":"chain","followers":{"count":"1988"},"tips":{"count":"9"},"homeCity":"S\u00e3o Paulo, Brasil","bio":"","contact":{"twitter":"pestanahotels"}}}]},"hereNow":{"count":"0"},"storeId":"","referralId":"v-1392478092"},{"id":"4cdf280cf8cdb1f728ef8f12","name":"Pimlico Academy","contact":{"phone":"+442078280881","formattedPhone":"+44 20 7828 0881","twitter":"pimlicoacademy"},"location":{"address":"Lupus St.","lat":"51.48795710221961","lng":"-0.1371145248413086","distance":"567","postalCode":"SW1V 3AT","cc":"GB","city":"London","state":"Greater London","country":"United Kingdom"},"categories":[{"id":"4bf58dd8d48988d13d941735","name":"High School","pluralName":"High Schools","shortName":"High School","icon":{"prefix":"https:\/\/ss1.4sqi.net\/img\/categories_v2\/building\/school_","suffix":".png"},"primary":"true"}],"verified":"false","restricted":"true","stats":{"checkinsCount":"531","usersCount":"194","tipCount":"4"},"url":"http:\/\/www.pimlicoacademy.org","specials":{"count":"0"},"hereNow":{"count":"0"},"referralId":"v-1392478092"},{"id":"4e42469e1f6ec93e9252a059","name":"Red Power Station","contact":{"phone":"+447971195363","formattedPhone":"+44 7971 195363","twitter":"redpowerstation"},"location":{"address":"38 Wilkins House","crossStreet":"Churchill Gardens","lat":"51.485479843873684","lng":"-0.14347185794066647","distance":"140","postalCode":"SW1V 3BY","cc":"GB","city":"London","state":"Greater London","country":"United Kingdom"},"categories":[{"id":"4bf58dd8d48988d124941735","name":"Office","pluralName":"Offices","shortName":"Office","icon":{"prefix":"https:\/\/ss1.4sqi.net\/img\/categories_v2\/building\/default_","suffix":".png"},"primary":"true"}],"verified":"true","restricted":"true","stats":{"checkinsCount":"79","usersCount":"26","tipCount":"0"},"specials":{"count":"0"},"hereNow":{"count":"0"},"referralId":"v-1392478092"},{"id":"51fd205f498e27af177c2c73","name":"St Georges Drive","location":{"lat":"51.489008","lng":"-0.140613","distance":"546","cc":"GB","country":"United Kingdom"},"categories":[{"id":"4d954b06a243a5684965b473","name":"Residential Building (Apartment \/ Condo)","pluralName":"Residential Buildings (Apartments \/ Condos)","shortName":"Residential","icon":{"prefix":"https:\/\/ss1.4sqi.net\/img\/categories_v2\/building\/apartment_","suffix":".png"},"primary":"true"}],"verified":"false","restricted":"true","stats":{"checkinsCount":"114","usersCount":"12","tipCount":"0"},"specials":{"count":"0"},"hereNow":{"count":"0"},"referralId":"v-1392478092"},{"id":"4fbe05bfe4b099768600bc22","name":"Churchill Gardens","location":{"lat":"51.485439238979104","lng":"-0.1390364823987965","distance":"290","cc":"GB","country":"United Kingdom"},"categories":[{"id":"4f2a25ac4b909258e854f55f","name":"Neighborhood","pluralName":"Neighborhoods","shortName":"Neighborhood","icon":{"prefix":"https:\/\/ss1.4sqi.net\/img\/categories_v2\/parks_outdoors\/neighborhood_","suffix":".png"},"primary":"true"}],"verified":"false","restricted":"true","stats":{"checkinsCount":"122","usersCount":"38","tipCount":"0"},"specials":{"count":"0"},"hereNow":{"count":"0"},"referralId":"v-1392478092"},{"id":"4bbf6849ba9776b05c11ffc8","name":"Dolphin Bar & Grill","location":{"address":"Dolphin Square","lat":"51.48693511054458","lng":"-0.13663429438832503","distance":"519","postalCode":"Sw1v 3nu","cc":"GB","city":"London","state":"Greater London","country":"United Kingdom"},"categories":[{"id":"4bf58dd8d48988d1c4941735","name":"Restaurant","pluralName":"Restaurants","shortName":"Restaurant","icon":{"prefix":"https:\/\/ss1.4sqi.net\/img\/categories_v2\/food\/default_","suffix":".png"},"primary":"true"}],"verified":"false","restricted":"true","stats":{"checkinsCount":"108","usersCount":"70","tipCount":"4"},"menu":{"type":"Menu","label":"Menu","anchor":"View Menu","url":"https:\/\/foursquare.com\/v\/dolphin-bar--grill\/4bbf6849ba9776b05c11ffc8\/menu","mobileUrl":"https:\/\/foursquare.com\/v\/4bbf6849ba9776b05c11ffc8\/device_menu"},"specials":{"count":"0"},"hereNow":{"count":"1","groups":[{"type":"others","name":"Other people here","count":"1"}]},"referralId":"v-1392478092"},{"id":"4df8c215d22dca97c59928a9","name":"St. Gabriel's Church Halls","location":{"lat":"51.48757899379776","lng":"-0.14252843393975034","distance":"366","cc":"GB","city":"London","state":"Greater London","country":"United Kingdom"},"categories":[{"id":"4bf58dd8d48988d1f2931735","name":"Performing Arts Venue","pluralName":"Performing Arts Venues","shortName":"Performing Arts","icon":{"prefix":"https:\/\/ss1.4sqi.net\/img\/categories_v2\/arts_entertainment\/default_","suffix":".png"},"primary":"true"}],"verified":"false","restricted":"true","stats":{"checkinsCount":"99","usersCount":"22","tipCount":"0"},"specials":{"count":"0"},"hereNow":{"count":"0"},"referralId":"v-1392478092"},{"id":"4c0fd3f381e976b0612a0eeb","name":"Dolphin Gym","location":{"lat":"51.48713490152536","lng":"-0.13697780072196034","distance":"513","cc":"GB","country":"United Kingdom"},"categories":[{"id":"4bf58dd8d48988d176941735","name":"Gym","pluralName":"Gyms","shortName":"Gym","icon":{"prefix":"https:\/\/ss1.4sqi.net\/img\/categories_v2\/building\/gym_","suffix":".png"},"primary":"true"}],"verified":"false","restricted":"true","stats":{"checkinsCount":"226","usersCount":"41","tipCount":"1"},"specials":{"count":"0"},"hereNow":{"count":"0"},"referralId":"v-1392478092"},{"id":"4c4ce21c4237be9a86bc0a13","name":"Chelsea Bridge Burger","location":{"address":"Chelsea Bridge","lat":"51.483482","lng":"-0.149542","distance":"475","cc":"GB","city":"London","state":"Greater London","country":"United Kingdom"},"categories":[{"id":"4bf58dd8d48988d16c941735","name":"Burger Joint","pluralName":"Burger Joints","shortName":"Burgers","icon":{"prefix":"https:\/\/ss1.4sqi.net\/img\/categories_v2\/food\/burger_","suffix":".png"},"primary":"true"}],"verified":"false","restricted":"true","stats":{"checkinsCount":"886","usersCount":"485","tipCount":"25"},"specials":{"count":"0"},"hereNow":{"count":"0"},"referralId":"v-1392478092"},{"id":"4b863018f964a520228231e3","name":"Airways Hotel Victoria","location":{"address":"29 Saint Georges Drive","lat":"51.490895","lng":"-0.143883","distance":"739","postalCode":"SW1V4DG","cc":"GB","city":"London","state":"Greater London","country":"United Kingdom"},"categories":[{"id":"4bf58dd8d48988d1fa931735","name":"Hotel","pluralName":"Hotels","shortName":"Hotel","icon":{"prefix":"https:\/\/ss1.4sqi.net\/img\/categories_v2\/travel\/hotel_","suffix":".png"},"primary":"true"}],"verified":"false","restricted":"true","stats":{"checkinsCount":"227","usersCount":"122","tipCount":"7"},"specials":{"count":"0"},"hereNow":{"count":"0"},"referralId":"v-1392478092"},{"id":"4eaae701e3000d1f05a5d53b","name":"The Market","location":{"address":"Chelsea Bridge Wharf","lat":"51.48183090298698","lng":"-0.148670787249324","distance":"490","cc":"GB","city":"Wandsworth","state":"Greater London","country":"United Kingdom"},"categories":[{"id":"4bf58dd8d48988d118951735","name":"Grocery Store","pluralName":"Grocery Stores","shortName":"Grocery Store","icon":{"prefix":"https:\/\/ss1.4sqi.net\/img\/categories_v2\/shops\/food_grocery_","suffix":".png"},"primary":"true"}],"verified":"false","restricted":"true","stats":{"checkinsCount":"162","usersCount":"53","tipCount":"3"},"specials":{"count":"0"},"hereNow":{"count":"0"},"referralId":"v-1392478092"},{"id":"4d543f995b3f6dcbce44ddcc","name":"Dolphin House - Serviced Apartments","location":{"address":"Chichester St Westminster","lat":"51.48721188749616","lng":"-0.13632629255246687","distance":"554","postalCode":"Chichester S","cc":"GB","city":"London","state":"Greater London","country":"United Kingdom"},"categories":[{"id":"4bf58dd8d48988d1fa931735","name":"Hotel","pluralName":"Hotels","shortName":"Hotel","icon":{"prefix":"https:\/\/ss1.4sqi.net\/img\/categories_v2\/travel\/hotel_","suffix":".png"},"primary":"true"}],"verified":"false","restricted":"true","stats":{"checkinsCount":"289","usersCount":"140","tipCount":"1"},"specials":{"count":"0"},"hereNow":{"count":"0"},"referralId":"v-1392478092"},{"id":"50f401efe4b07c5039b9b929","name":"The Industrial Wastelands Of Commuterworld","location":{"lat":"51.482677","lng":"-0.147059","distance":"345","cc":"GB","country":"United Kingdom"},"categories":[{"id":"4f2a23984b9023bd5841ed2c","name":"Moving Target","pluralName":"Moving Targets","shortName":"Moving Target","icon":{"prefix":"https:\/\/ss1.4sqi.net\/img\/categories_v2\/travel\/movingtarget_","suffix":".png"},"primary":"true"}],"verified":"false","restricted":"true","stats":{"checkinsCount":"20","usersCount":"15","tipCount":"1"},"specials":{"count":"0"},"hereNow":{"count":"0"},"referralId":"v-1392478092"},{"id":"4b226f98f964a520c84624e3","name":"Sidney Hotel","location":{"address":"68-76 Belgrave Road, Victoria","lat":"51.490628","lng":"-0.138691","distance":"761","cc":"GB","city":"London","state":"Greater London","country":"United Kingdom"},"categories":[{"id":"4bf58dd8d48988d1fa931735","name":"Hotel","pluralName":"Hotels","shortName":"Hotel","icon":{"prefix":"https:\/\/ss1.4sqi.net\/img\/categories_v2\/travel\/hotel_","suffix":".png"},"primary":"true"}],"verified":"false","restricted":"true","stats":{"checkinsCount":"183","usersCount":"112","tipCount":"4"},"specials":{"count":"0"},"hereNow":{"count":"0"},"referralId":"v-1392478092"}],"confident":"true"}}