{"meta":{"code":"200"},"response":{"venues":[{"id":"4ac518cef964a52015a620e3","name":"Battersea Park","contact":{"twitter":"batterseapksw11"},"location":{"address":"Albert Bridge Rd.","lat":"51.479512013817555","lng":"-0.1569843292236328","distance":"404","postalCode":"SW11 4NJ","cc":"GB","city":"London","state":"Greater London","country":"United Kingdom"},"categories":[{"id":"4bf58dd8d48988d163941735","name":"Park","pluralName":"Parks","shortName":"Park","icon":{"prefix":"https:\/\/ss1.4sqi.net\/img\/categories_v2\/parks_outdoors\/park_","suffix":".png"},"primary":"true"}],"verified":"false","restricted":"true","stats":{"checkinsCount":"6816","usersCount":"3344","tipCount":"30"},"specials":{"count":"0"},"hereNow":{"count":"1","groups":[{"type":"others","name":"Other people here","count":"1"}]},"referralId":"v-1392478103"},{"id":"4ae19d90f964a5206c8621e3","name":"The Butcher & Grill","location":{"address":"39-41 Parkgate Rd","lat":"51.479275451409045","lng":"-0.16777815120145576","distance":"344","postalCode":"SW11 4NP","cc":"GB","city":"London","state":"Greater London","country":"United Kingdom"},"categories":[{"id":"4bf58dd8d48988d11d951735","name":"Butcher","pluralName":"Butchers","shortName":"Butcher","icon":{"prefix":"https:\/\/ss1.4sqi.net\/img\/categories_v2\/shops\/food_butcher_","suffix":".png"},"primary":"true"}],"verified":"false","restricted":"true","stats":{"checkinsCount":"928","usersCount":"328","tipCount":"11"},"url":"http:\/\/www.thebutcherandgrill.com","reservations":{"url":"http:\/\/www.toptable.co.uk\/single.aspx?rid=7141&ref=9601"},"menu":{"type":"Menu","label":"Menu","anchor":"View Menu","url":"https:\/\/foursquare.com\/v\/the-butcher--grill\/4ae19d90f964a5206c8621e3\/menu","mobileUrl":"https:\/\/foursquare.com\/v\/4ae19d90f964a5206c8621e3\/device_menu"},"specials":{"count":"0"},"hereNow":{"count":"2","groups":[{"type":"others","name":"Other people here","count":"2"}]},"referralId":"v-1392478103"},{"id":"4b191af6f964a5200dd823e3","name":"The Prince Albert Battersea","location":{"address":"Albert Bridge rd","lat":"51.47952798753977","lng":"-0.165759","distance":"206","cc":"GB","city":"London","state":"Greater London","country":"United Kingdom"},"categories":[{"id":"4bf58dd8d48988d11b941735","name":"Pub","pluralName":"Pubs","shortName":"Pub","icon":{"prefix":"https:\/\/ss1.4sqi.net\/img\/categories_v2\/nightlife\/pub_","suffix":".png"},"primary":"true"}],"verified":"false","restricted":"true","stats":{"checkinsCount":"1190","usersCount":"615","tipCount":"15"},"menu":{"type":"Menu","label":"Menu","anchor":"View Menu","url":"https:\/\/foursquare.com\/v\/the-prince-albert-battersea\/4b191af6f964a5200dd823e3\/menu","mobileUrl":"https:\/\/foursquare.com\/v\/4b191af6f964a5200dd823e3\/device_menu"},"specials":{"count":"0"},"hereNow":{"count":"0"},"referralId":"v-1392478103"},{"id":"4ac518cff964a5206da620e3","name":"The Peace Pagoda","location":{"address":"Battersea Park","lat":"51.48203100527882","lng":"-0.15903353691101074","distance":"401","postalCode":"SW11 4NJ","cc":"GB","city":"London","state":"Greater London","country":"United Kingdom"},"categories":[{"id":"4bf58dd8d48988d12d941735","name":"Monument \/ Landmark","pluralName":"Monuments \/ Landmarks","shortName":"Landmark","icon":{"prefix":"https:\/\/ss1.4sqi.net\/img\/categories_v2\/building\/government_monument_","suffix":".png"},"primary":"true"}],"verified":"false","restricted":"true","stats":{"checkinsCount":"668","usersCount":"398","tipCount":"5"},"specials":{"count":"0"},"hereNow":{"count":"0"},"referralId":"v-1392478103"},{"id":"4bfff884369476b0f89d8e1f","name":"Albert Bridge","location":{"address":"Albert Bridge","crossStreet":"River Thames","lat":"51.48226485684464","lng":"-0.16670465469360352","distance":"427","cc":"GB","city":"Chelsea","state":"Greater London","country":"United Kingdom"},"categories":[{"id":"4bf58dd8d48988d1df941735","name":"Bridge","pluralName":"Bridges","shortName":"Bridge","icon":{"prefix":"https:\/\/ss1.4sqi.net\/img\/categories_v2\/parks_outdoors\/bridge_","suffix":".png"},"primary":"true"}],"verified":"false","restricted":"true","stats":{"checkinsCount":"2775","usersCount":"933","tipCount":"5"},"specials":{"count":"0"},"hereNow":{"count":"0"},"referralId":"v-1392478103"},{"id":"504a1aaa067d881c9acd5ebb","name":"The London Distillery Company","contact":{"twitter":"londonwhisky"},"location":{"address":"The Cold Room, 33 Parkgate Road","crossStreet":"Elcho Street","lat":"51.47923137485561","lng":"-0.1679706573486328","distance":"358","postalCode":"SW11 4NP","cc":"GB","city":"London","state":"Greater London","country":"United Kingdom"},"categories":[{"id":"4e0e22f5a56208c4ea9a85a0","name":"Distillery","pluralName":"Distillery","shortName":"Distillery","icon":{"prefix":"https:\/\/ss1.4sqi.net\/img\/categories_v2\/food\/brewery_","suffix":".png"},"primary":"true"}],"verified":"true","restricted":"true","stats":{"checkinsCount":"50","usersCount":"21","tipCount":"0"},"url":"http:\/\/www.londondistillery.com","specials":{"count":"0"},"hereNow":{"count":"2","groups":[{"type":"others","name":"Other people here","count":"2"}]},"venuePage":{"id":"45220333"},"storeId":"","referralId":"v-1392478103"},{"id":"52aa179d11d2aa69031034a6","name":"Source Battersea","contact":{"phone":"+442073500555","formattedPhone":"+44 20 7350 0555","twitter":"sourcebattersea"},"location":{"address":"33 - 35 Parkgate Road","lat":"51.479475","lng":"-0.167966","distance":"358","postalCode":"SW11 4NP","cc":"GB","city":"London","state":"Greater London","country":"United Kingdom"},"categories":[{"id":"4bf58dd8d48988d1c4941735","name":"Restaurant","pluralName":"Restaurants","shortName":"Restaurant","icon":{"prefix":"https:\/\/ss1.4sqi.net\/img\/categories_v2\/food\/default_","suffix":".png"},"primary":"true"}],"verified":"false","restricted":"true","stats":{"checkinsCount":"1","usersCount":"1","tipCount":"0"},"specials":{"count":"0"},"hereNow":{"count":"2","groups":[{"type":"others","name":"Other people here","count":"2"}]},"referralId":"v-1392478103"},{"id":"4b9e26d4f964a520e3cd36e3","name":"Foster + Partners","location":{"address":"22 Hester Road","lat":"51.48013144443531","lng":"-0.1686123659244164","distance":"413","postalCode":"SW11 4AN","cc":"GB","city":"London","state":"Greater London","country":"United Kingdom"},"categories":[{"id":"4bf58dd8d48988d124941735","name":"Office","pluralName":"Offices","shortName":"Office","icon":{"prefix":"https:\/\/ss1.4sqi.net\/img\/categories_v2\/building\/default_","suffix":".png"},"primary":"true"}],"verified":"false","restricted":"true","stats":{"checkinsCount":"769","usersCount":"162","tipCount":"2"},"specials":{"count":"0"},"hereNow":{"count":"0"},"referralId":"v-1392478103"},{"id":"4dfded1dae6033b2a4798161","name":"Iglesia Ni Cristo","location":{"lat":"51.47904034271256","lng":"-0.1665273291745769","distance":"259","cc":"GB","city":"Wandsworth","state":"Greater London","country":"United Kingdom"},"categories":[{"id":"4bf58dd8d48988d132941735","name":"Church","pluralName":"Churches","shortName":"Church","icon":{"prefix":"https:\/\/ss1.4sqi.net\/img\/categories_v2\/building\/religious_church_","suffix":".png"},"primary":"true"}],"verified":"false","restricted":"true","stats":{"checkinsCount":"157","usersCount":"18","tipCount":"0"},"specials":{"count":"0"},"hereNow":{"count":"0"},"referralId":"v-1392478103"},{"id":"4adc60e0f964a520ef2b21e3","name":"Battersea Grill","contact":{"phone":"+442077389009","formattedPhone":"+44 20 7738 9009"},"location":{"address":"70 Battersea Bridge Rd.","crossStreet":"Parkgate Rd.","lat":"51.47842567744955","lng":"-0.17008078721564504","distance":"513","postalCode":"SW11 3AG","cc":"GB","city":"London","state":"Greater London","country":"United Kingdom"},"categories":[{"id":"4bf58dd8d48988d147941735","name":"Diner","pluralName":"Diners","shortName":"Diner","icon":{"prefix":"https:\/\/ss1.4sqi.net\/img\/categories_v2\/food\/diner_","suffix":".png"},"primary":"true"}],"verified":"false","restricted":"true","stats":{"checkinsCount":"671","usersCount":"198","tipCount":"15"},"url":"http:\/\/www.batterseagrill.co.uk","reservations":{"url":"http:\/\/www.toptable.co.uk\/single.aspx?rid=92649&ref=9601"},"menu":{"type":"Menu","label":"Menu","anchor":"View Menu","url":"https:\/\/foursquare.com\/v\/battersea-grill\/4adc60e0f964a520ef2b21e3\/menu","mobileUrl":"https:\/\/foursquare.com\/v\/4adc60e0f964a520ef2b21e3\/device_menu"},"specials":{"count":"0"},"hereNow":{"count":"0"},"referralId":"v-1392478103"},{"id":"4d5574b2fb65236aaab7f9b3","name":"Prince of Wales Drive","location":{"address":"Battersea Park","lat":"51.47503451477104","lng":"-0.16499658634537123","distance":"497","postalCode":"SW11","cc":"GB","city":"London","state":"Greater London","country":"United Kingdom"},"categories":[{"id":"4bf58dd8d48988d162941735","name":"Other Great Outdoors","pluralName":"Other Great Outdoors","shortName":"Other Outdoors","icon":{"prefix":"https:\/\/ss1.4sqi.net\/img\/categories_v2\/parks_outdoors\/outdoors_","suffix":".png"},"primary":"true"}],"verified":"false","restricted":"true","stats":{"checkinsCount":"963","usersCount":"128","tipCount":"2"},"specials":{"count":"0"},"hereNow":{"count":"0"},"referralId":"v-1392478103"},{"id":"4b883fe0f964a5205dea31e3","name":"Albion Riverside","location":{"address":"Hester Road","lat":"51.480647903717035","lng":"-0.16950845809193651","distance":"488","postalCode":"SW11 4AL","cc":"GB","city":"Wandsworth","state":"Greater London","country":"United Kingdom"},"categories":[{"id":"4bf58dd8d48988d130941735","name":"Building","pluralName":"Buildings","shortName":"Building","icon":{"prefix":"https:\/\/ss1.4sqi.net\/img\/categories_v2\/building\/default_","suffix":".png"},"primary":"true"}],"verified":"false","restricted":"true","stats":{"checkinsCount":"718","usersCount":"86","tipCount":"2"},"specials":{"count":"0"},"hereNow":{"count":"0"},"referralId":"v-1392478103"},{"id":"4e8e033d46907a17cbefd0a3","name":"Worfield Street","location":{"lat":"51.4769808082452","lng":"-0.16511767995016882","distance":"302","cc":"GB","city":"Wandsworth","state":"Greater London","country":"United Kingdom"},"categories":[{"id":"4d954b16a243a5684b65b473","name":"Rest Area","pluralName":"Rest Areas","shortName":"Rest Areas","icon":{"prefix":"https:\/\/ss1.4sqi.net\/img\/categories_v2\/travel\/restarea_","suffix":".png"},"primary":"true"}],"verified":"false","restricted":"true","stats":{"checkinsCount":"155","usersCount":"11","tipCount":"0"},"specials":{"count":"0"},"hereNow":{"count":"0"},"referralId":"v-1392478103"},{"id":"4ea99eccdab4888811454825","name":"The Doodle Bar","contact":{"phone":"+442072237115","formattedPhone":"+44 20 7223 7115","twitter":"thedoodlebar"},"location":{"address":"33 Parkgate Rd","lat":"51.47960820070535","lng":"-0.16844109273125424","distance":"392","postalCode":"SW11 4NP","cc":"GB","city":"London","state":"Greater London","country":"United Kingdom"},"categories":[{"id":"4bf58dd8d48988d116941735","name":"Bar","pluralName":"Bars","shortName":"Bar","icon":{"prefix":"https:\/\/ss1.4sqi.net\/img\/categories_v2\/nightlife\/bar_","suffix":".png"},"primary":"true"}],"verified":"false","restricted":"true","stats":{"checkinsCount":"599","usersCount":"384","tipCount":"10"},"url":"http:\/\/www.thedoodlebar.com","menu":{"type":"Menu","label":"Menu","anchor":"View Menu","url":"https:\/\/foursquare.com\/v\/the-doodle-bar\/4ea99eccdab4888811454825\/menu","mobileUrl":"https:\/\/foursquare.com\/v\/4ea99eccdab4888811454825\/device_menu"},"specials":{"count":"0"},"hereNow":{"count":"0"},"referralId":"v-1392478103"},{"id":"520b354e11d2190dd1cc9aab","name":"Petworth Street (BF)","location":{"lat":"51.47691415517471","lng":"-0.1651186508806205","distance":"309","cc":"GB","country":"United Kingdom"},"categories":[{"id":"4bf58dd8d48988d1fe931735","name":"Bus Station","pluralName":"Bus Stations","shortName":"Bus Station","icon":{"prefix":"https:\/\/ss1.4sqi.net\/img\/categories_v2\/travel\/busstation_","suffix":".png"},"primary":"true"}],"verified":"false","restricted":"true","stats":{"checkinsCount":"37","usersCount":"1","tipCount":"0"},"specials":{"count":"0"},"hereNow":{"count":"0"},"referralId":"v-1392478103"},{"id":"51e593d9498efac3f51f7bf0","name":"Stafford Mansions","location":{"address":"Stafford Mansions\nAlbert Bridge Road\nLondon\nSW11 4QG","lat":"51.47805861479216","lng":"-0.16490685714211156","distance":"200","cc":"GB","country":"United Kingdom"},"categories":[{"id":"4d954b06a243a5684965b473","name":"Residential Building (Apartment \/ Condo)","pluralName":"Residential Buildings (Apartments \/ Condos)","shortName":"Residential","icon":{"prefix":"https:\/\/ss1.4sqi.net\/img\/categories_v2\/building\/apartment_","suffix":".png"},"primary":"true"}],"verified":"false","restricted":"true","stats":{"checkinsCount":"6","usersCount":"2","tipCount":"0"},"specials":{"count":"0"},"hereNow":{"count":"0"},"referralId":"v-1392478103"},{"id":"4e6b068f18a83989ecba2f24","name":"Ethelburga Street","location":{"address":"Ethelburgastreet","lat":"51.4769808082452","lng":"-0.16512931040023243","distance":"303","cc":"GB","city":"London","state":"Greater London","country":"United Kingdom"},"categories":[{"id":"4d954b06a243a5684965b473","name":"Residential Building (Apartment \/ Condo)","pluralName":"Residential Buildings (Apartments \/ Condos)","shortName":"Residential","icon":{"prefix":"https:\/\/ss1.4sqi.net\/img\/categories_v2\/building\/apartment_","suffix":".png"},"primary":"true"}],"verified":"false","restricted":"true","stats":{"checkinsCount":"164","usersCount":"13","tipCount":"0"},"specials":{"count":"0"},"hereNow":{"count":"0"},"referralId":"v-1392478103"},{"id":"4ac518cef964a5202aa620e3","name":"Chelsea Physic Garden","contact":{"phone":"+442073525646","formattedPhone":"+44 20 7352 5646"},"location":{"address":"66 Royal Hospital Road","crossStreet":"Chelsea","lat":"51.48441623498601","lng":"-0.16219854354858398","distance":"572","postalCode":"SW3 4HS","cc":"GB","city":"London","state":"Greater London","country":"United Kingdom"},"categories":[{"id":"4bf58dd8d48988d15a941735","name":"Garden","pluralName":"Gardens","shortName":"Garden","icon":{"prefix":"https:\/\/ss1.4sqi.net\/img\/categories_v2\/parks_outdoors\/garden_","suffix":".png"},"primary":"true"}],"verified":"false","restricted":"true","stats":{"checkinsCount":"488","usersCount":"354","tipCount":"10"},"specials":{"count":"0"},"hereNow":{"count":"0"},"referralId":"v-1392478103"},{"id":"4c20bf434d4a20a1872d9b70","name":"Albany Mansions","location":{"address":"Albert Bridge Road","lat":"51.47839172578739","lng":"-0.16531348707015645","distance":"200","postalCode":"SW11","cc":"GB","city":"Wandsworth","state":"Greater London","country":"United Kingdom"},"categories":[{"id":"4d954b06a243a5684965b473","name":"Residential Building (Apartment \/ Condo)","pluralName":"Residential Buildings (Apartments \/ Condos)","shortName":"Residential","icon":{"prefix":"https:\/\/ss1.4sqi.net\/img\/categories_v2\/building\/apartment_","suffix":".png"},"primary":"true"}],"verified":"false","restricted":"true","stats":{"checkinsCount":"156","usersCount":"10","tipCount":"0"},"specials":{"count":"0"},"hereNow":{"count":"0"},"referralId":"v-1392478103"},{"id":"4acf1c17f964a5206ed220e3","name":"INQ HQ","location":{"address":"6 Hester Rd","lat":"51.48059102036955","lng":"-0.16982403927110246","distance":"507","postalCode":"Sw11 4an","cc":"GB","city":"London","state":"Greater London","country":"United Kingdom"},"categories":[{"id":"4bf58dd8d48988d125941735","name":"Tech Startup","pluralName":"Tech Startups","shortName":"Tech Startup","icon":{"prefix":"https:\/\/ss1.4sqi.net\/img\/categories_v2\/shops\/technology_","suffix":".png"},"primary":"true"}],"verified":"false","restricted":"true","stats":{"checkinsCount":"2345","usersCount":"92","tipCount":"3"},"specials":{"count":"0"},"hereNow":{"count":"0"},"referralId":"v-1392478103"},{"id":"4c260ac6f7ced13a088a256d","name":"Royal College of Art  Sackler Building","location":{"lat":"51.47884697453708","lng":"-0.16988312448024928","distance":"493","cc":"GB","country":"United Kingdom"},"verified":"false","restricted":"true","stats":{"checkinsCount":"81","usersCount":"36","tipCount":"0"},"specials":{"count":"0"},"hereNow":{"count":"0"},"referralId":"v-1392478103"},{"id":"4ef585ea30f894d866ddaa77","name":"Church If Christ, Battersea","location":{"lat":"51.478621","lng":"-0.162384","distance":"79","cc":"GB","country":"United Kingdom"},"verified":"false","restricted":"true","stats":{"checkinsCount":"0","usersCount":"0","tipCount":"0"},"specials":{"count":"0"},"hereNow":{"count":"0"},"referralId":"v-1392478103"},{"id":"4e82ee470aaf371d668080e1","name":"Royal College of Art - Dyson Building","location":{"lat":"51.479004189669254","lng":"-0.16977310180664062","distance":"484","cc":"GB","country":"United Kingdom"},"categories":[{"id":"4bf58dd8d48988d199941735","name":"College Arts Building","pluralName":"College Arts Buildings","shortName":"Arts","icon":{"prefix":"https:\/\/ss1.4sqi.net\/img\/categories_v2\/arts_entertainment\/default_","suffix":".png"},"primary":"true"}],"verified":"false","restricted":"true","stats":{"checkinsCount":"379","usersCount":"152","tipCount":"0"},"specials":{"count":"0"},"hereNow":{"count":"0"},"referralId":"v-1392478103"},{"id":"4ae04c35f964a5208c7e21e3","name":"Bento","contact":{"phone":"+442072232071","formattedPhone":"+44 20 7223 2071"},"location":{"address":"53 Battersea Bridge Rd.","lat":"51.478335991385904","lng":"-0.1700305938720703","distance":"512","postalCode":"SW11 3AX","cc":"GB","city":"London","state":"Greater London","country":"United Kingdom"},"categories":[{"id":"4bf58dd8d48988d111941735","name":"Japanese Restaurant","pluralName":"Japanese Restaurants","shortName":"Japanese","icon":{"prefix":"https:\/\/ss1.4sqi.net\/img\/categories_v2\/food\/japanese_","suffix":".png"},"primary":"true"}],"verified":"false","restricted":"true","stats":{"checkinsCount":"385","usersCount":"75","tipCount":"4"},"specials":{"count":"0"},"hereNow":{"count":"0"},"referralId":"v-1392478103"},{"id":"4bb077fff964a520f4463ce3","name":"Prince Albert Pub (Geronimo)","contact":{"twitter":"mylocalsagpub"},"location":{"address":"Albert Bridge Road","lat":"51.47955552312205","lng":"-0.16532943651971546","distance":"177","cc":"GB","city":"London","country":"United Kingdom"},"categories":[{"id":"4bf58dd8d48988d11b941735","name":"Pub","pluralName":"Pubs","shortName":"Pub","icon":{"prefix":"https:\/\/ss1.4sqi.net\/img\/categories_v2\/nightlife\/pub_","suffix":".png"},"primary":"true"}],"verified":"true","restricted":"true","stats":{"checkinsCount":"32","usersCount":"29","tipCount":"1"},"specials":{"count":"0"},"hereNow":{"count":"0"},"referralId":"v-1392478103"},{"id":"4adf74faf964a520bc7a21e3","name":"St Mary Le Park Court","location":{"address":"Parkgate Road","lat":"51.47926862184603","lng":"-0.16561360521995203","distance":"194","postalCode":"SW11 4PJ","cc":"GB","city":"Kensington","state":"Greater London","country":"United Kingdom"},"verified":"false","restricted":"true","stats":{"checkinsCount":"15","usersCount":"6","tipCount":"0"},"specials":{"count":"0"},"hereNow":{"count":"0"},"referralId":"v-1392478103"},{"id":"4c502642da159c747e8bfd4a","name":"Dolph Lundgren Decathlon","contact":{"twitter":"decathlon2010"},"location":{"address":"SW11 4NJ","crossStreet":"Battersea Park","lat":"51.479026079177856","lng":"-0.16146284","distance":"97","cc":"GB","city":"London","state":"Greater London","country":"United Kingdom"},"categories":[{"id":"4bf58dd8d48988d1f4931735","name":"Racetrack","pluralName":"Racetracks","shortName":"Racetrack","icon":{"prefix":"https:\/\/ss1.4sqi.net\/img\/categories_v2\/arts_entertainment\/racetrack_","suffix":".png"},"primary":"true"}],"verified":"false","restricted":"true","stats":{"checkinsCount":"5","usersCount":"4","tipCount":"1"},"specials":{"count":"0"},"hereNow":{"count":"0"},"referralId":"v-1392478103"},{"id":"4ca6e67cd971b1f765f304e1","name":"Battersea Park All Weather Pitches","location":{"address":"Battersea Park","lat":"51.47625114982365","lng":"-0.15964508056640625","distance":"402","postalCode":"SW11 4NJ","cc":"GB","city":"London","state":"Greater London","country":"United Kingdom"},"categories":[{"id":"4cce455aebf7b749d5e191f5","name":"Soccer Field","pluralName":"Soccer Fields","shortName":"Soccer Field","icon":{"prefix":"https:\/\/ss1.4sqi.net\/img\/categories_v2\/arts_entertainment\/stadium_soccer_","suffix":".png"},"primary":"true"}],"verified":"false","restricted":"true","stats":{"checkinsCount":"192","usersCount":"93","tipCount":"1"},"specials":{"count":"0"},"hereNow":{"count":"0"},"referralId":"v-1392478103"},{"id":"51960b68498efc8c329a2311","name":"Battersea Park Old English Garden","location":{"address":"Battersea Parks","lat":"51.48130485569877","lng":"-0.16447440647566405","distance":"252","cc":"GB","city":"London","state":"Greater London","country":"United Kingdom"},"categories":[{"id":"4bf58dd8d48988d15a941735","name":"Garden","pluralName":"Gardens","shortName":"Garden","icon":{"prefix":"https:\/\/ss1.4sqi.net\/img\/categories_v2\/parks_outdoors\/garden_","suffix":".png"},"primary":"true"}],"verified":"false","restricted":"true","stats":{"checkinsCount":"18","usersCount":"18","tipCount":"1"},"specials":{"count":"0"},"hereNow":{"count":"0"},"referralId":"v-1392478103"},{"id":"52f790ff498e272413ac3b67","name":"The Tea Terrace (Battersea Park)","location":{"address":"Battersea Park","lat":"51.480665","lng":"-0.158686","distance":"323","cc":"GB","city":"London","state":"Greater London","country":"United Kingdom"},"categories":[{"id":"4bf58dd8d48988d1e0931735","name":"Coffee Shop","pluralName":"Coffee Shops","shortName":"Coffee Shop","icon":{"prefix":"https:\/\/ss1.4sqi.net\/img\/categories_v2\/food\/coffeeshop_","suffix":".png"},"primary":"true"}],"verified":"false","restricted":"true","stats":{"checkinsCount":"1","usersCount":"1","tipCount":"0"},"specials":{"count":"0"},"hereNow":{"count":"0"},"referralId":"v-1392478103"}],"confident":"true"}}