{"meta":{"code":"200"},"response":{"venues":[{"id":"50b63873e4b0bc146b94908a","name":"InterContinental London Westminster","contact":{"phone":"+442033018080","formattedPhone":"+44 20 3301 8080","twitter":"interconhotels","facebook":"90015535776"},"location":{"address":"22-28 Broadway","lat":"51.4993629878306","lng":"-0.13246886878245892","distance":"24","postalCode":"SW1H 9JS","cc":"GB","city":"London","state":"Greater London","country":"United Kingdom"},"categories":[{"id":"4bf58dd8d48988d1fa931735","name":"Hotel","pluralName":"Hotels","shortName":"Hotel","icon":{"prefix":"https:\/\/ss1.4sqi.net\/img\/categories_v2\/travel\/hotel_","suffix":".png"},"primary":"true"}],"verified":"true","restricted":"true","stats":{"checkinsCount":"1114","usersCount":"544","tipCount":"18"},"specials":{"count":"0"},"hereNow":{"count":"0"},"referralId":"v-1392478054"},{"id":"4b4e0847f964a520f2de26e3","name":"The Feathers","contact":{"phone":"+442072270921","formattedPhone":"+44 20 7227 0921"},"location":{"address":"18-20 Broadway","lat":"51.499204","lng":"-0.1331888","distance":"28","postalCode":"SW1H 0BH","cc":"GB","city":"London","state":"Greater London","country":"United Kingdom"},"categories":[{"id":"4bf58dd8d48988d11b941735","name":"Pub","pluralName":"Pubs","shortName":"Pub","icon":{"prefix":"https:\/\/ss1.4sqi.net\/img\/categories_v2\/nightlife\/pub_","suffix":".png"},"primary":"true"}],"verified":"false","restricted":"true","stats":{"checkinsCount":"873","usersCount":"575","tipCount":"13"},"specials":{"count":"0"},"hereNow":{"count":"0"},"referralId":"v-1392478054"},{"id":"51894707498e25c7c31e8139","name":"Nicholson's Pub","location":{"lat":"51.49938827829029","lng":"-0.13304928180665712","distance":"20","cc":"GB","country":"United Kingdom"},"categories":[{"id":"4bf58dd8d48988d11b941735","name":"Pub","pluralName":"Pubs","shortName":"Pub","icon":{"prefix":"https:\/\/ss1.4sqi.net\/img\/categories_v2\/nightlife\/pub_","suffix":".png"},"primary":"true"}],"verified":"false","restricted":"true","stats":{"checkinsCount":"50","usersCount":"50","tipCount":"0"},"specials":{"count":"0"},"hereNow":{"count":"0"},"referralId":"v-1392478054"},{"id":"4ad35de4f964a520fee320e3","name":"New Scotland Yard","contact":{"twitter":"metpoliceuk"},"location":{"address":"8-10 Broadway","crossStreet":"Caxton St","lat":"51.49894159320401","lng":"-0.13313230060955844","distance":"44","postalCode":"SW1H 0BG","cc":"GB","city":"London","state":"Greater London","country":"United Kingdom"},"categories":[{"id":"4bf58dd8d48988d12e941735","name":"Police Station","pluralName":"Police Stations","shortName":"Police Station","icon":{"prefix":"https:\/\/ss1.4sqi.net\/img\/categories_v2\/building\/government_policestation_","suffix":".png"},"primary":"true"}],"verified":"true","restricted":"true","stats":{"checkinsCount":"2025","usersCount":"1266","tipCount":"7"},"url":"http:\/\/www.met.police.uk","specials":{"count":"0"},"hereNow":{"count":"0"},"storeId":"","referralId":"v-1392478054"},{"id":"5036b367cc6417d4bcd9a0e9","name":"55 Broadway (London Underground)","contact":{"phone":"+448432221234","formattedPhone":"+44 843 222 1234","twitter":"tflofficial","facebook":"212038972186253"},"location":{"address":"100 Petty France, Wing-Over-Station","lat":"51.49931274551157","lng":"-0.13434648513793945","distance":"106","postalCode":"SW1H 0BD","cc":"GB","city":"City of Westminster","state":"Greater London","country":"United Kingdom"},"categories":[{"id":"4bf58dd8d48988d124941735","name":"Office","pluralName":"Offices","shortName":"Office","icon":{"prefix":"https:\/\/ss1.4sqi.net\/img\/categories_v2\/building\/default_","suffix":".png"},"primary":"true"}],"verified":"true","restricted":"true","stats":{"checkinsCount":"1053","usersCount":"389","tipCount":"6"},"url":"http:\/\/www.tfl.gov.uk","specials":{"count":"0"},"hereNow":{"count":"1","groups":[{"type":"others","name":"Other people here","count":"1"}]},"storeId":"","referralId":"v-1392478054"},{"id":"4b6044cbf964a520d5dc29e3","name":"Caffe Grana","contact":{"phone":"+442072331201","formattedPhone":"+44 20 7233 1201"},"location":{"address":"St James Park Tube Station","crossStreet":"55 Broadway","lat":"51.4992792","lng":"-0.133182","distance":"26","postalCode":"SW1H 0BB","cc":"GB","city":"London","state":"Greater London","country":"United Kingdom"},"categories":[{"id":"4bf58dd8d48988d16d941735","name":"Caf\u00e9","pluralName":"Caf\u00e9s","shortName":"Caf\u00e9","icon":{"prefix":"https:\/\/ss1.4sqi.net\/img\/categories_v2\/food\/cafe_","suffix":".png"},"primary":"true"}],"verified":"false","restricted":"true","stats":{"checkinsCount":"243","usersCount":"85","tipCount":"7"},"specials":{"count":"0"},"hereNow":{"count":"0"},"referralId":"v-1392478054"},{"id":"4e2e60a41838f1c552b9ef8d","name":"Starbucks","contact":{"twitter":"starbucksuk"},"location":{"address":"17 Broadway,","crossStreet":"Near Dacre St.","lat":"51.498951596904746","lng":"-0.13316666756052523","distance":"45","postalCode":"SW1H 0AZ","cc":"GB","city":"London","state":"Greater London","country":"United Kingdom"},"categories":[{"id":"4bf58dd8d48988d1e0931735","name":"Coffee Shop","pluralName":"Coffee Shops","shortName":"Coffee Shop","icon":{"prefix":"https:\/\/ss1.4sqi.net\/img\/categories_v2\/food\/coffeeshop_","suffix":".png"},"primary":"true"}],"verified":"true","restricted":"true","stats":{"checkinsCount":"972","usersCount":"471","tipCount":"6"},"url":"http:\/\/starbucks.co.uk","specials":{"count":"0"},"hereNow":{"count":"0"},"storeId":"15640","referralId":"v-1392478054"},{"id":"4b66c34df964a520f7292be3","name":"EAT.","contact":{"phone":"+442076368412","formattedPhone":"+44 20 7636 8412","twitter":"eat_news"},"location":{"address":"16 Broadway","lat":"51.49933112335685","lng":"-0.1333937923641396","distance":"41","postalCode":"SW1H 0BH","cc":"GB","city":"London","state":"Greater London","country":"United Kingdom"},"categories":[{"id":"4bf58dd8d48988d1c5941735","name":"Sandwich Place","pluralName":"Sandwich Places","shortName":"Sandwiches","icon":{"prefix":"https:\/\/ss1.4sqi.net\/img\/categories_v2\/food\/sandwiches_","suffix":".png"},"primary":"true"}],"verified":"true","restricted":"true","stats":{"checkinsCount":"831","usersCount":"312","tipCount":"7"},"url":"http:\/\/www.eat.co.uk","menu":{"type":"Menu","label":"Menu","anchor":"View Menu","url":"https:\/\/foursquare.com\/v\/eat\/4b66c34df964a520f7292be3\/menu","mobileUrl":"https:\/\/foursquare.com\/v\/4b66c34df964a520f7292be3\/device_menu"},"specials":{"count":"0"},"hereNow":{"count":"0"},"storeId":"EAT - Broadway","referralId":"v-1392478054"},{"id":"50b7a83ae4b060c792e46c79","name":"Blue Boar Bar @ Intercontinental","location":{"address":"45 Tothill Street Westminster","lat":"51.49971263759624","lng":"-0.13224726697612524","distance":"60","postalCode":"SW1H 9LQ","cc":"GB","city":"City of Westminster","state":"Greater London","country":"United Kingdom"},"categories":[{"id":"4bf58dd8d48988d1d5941735","name":"Hotel Bar","pluralName":"Hotel Bars","shortName":"Hotel Bar","icon":{"prefix":"https:\/\/ss1.4sqi.net\/img\/categories_v2\/travel\/hotel_bar_","suffix":".png"},"primary":"true"}],"verified":"true","restricted":"true","stats":{"checkinsCount":"487","usersCount":"315","tipCount":"9"},"specials":{"count":"0"},"hereNow":{"count":"0"},"venuePage":{"id":"52198178"},"referralId":"v-1392478054"},{"id":"4c486bde1ddec928c06ba032","name":"BIS 1 Victoria Street","location":{"lat":"51.498956735396675","lng":"-0.13296308129190523","distance":"38","cc":"GB","city":"London","state":"Greater London","country":"United Kingdom"},"categories":[{"id":"4bf58dd8d48988d126941735","name":"Government Building","pluralName":"Government Buildings","shortName":"Government","icon":{"prefix":"https:\/\/ss1.4sqi.net\/img\/categories_v2\/building\/government_","suffix":".png"},"primary":"true"}],"verified":"false","restricted":"true","stats":{"checkinsCount":"311","usersCount":"54","tipCount":"0"},"specials":{"count":"0"},"hereNow":{"count":"0"},"referralId":"v-1392478054"},{"id":"50e5e9fce4b072806c6dfcd2","name":"Club InterContinental","location":{"address":"22-28 Broadway","lat":"51.49944990143414","lng":"-0.13267561003727452","distance":"19","postalCode":"SW1H 0BH","cc":"GB","city":"City of Westminster","state":"Greater London","country":"United Kingdom"},"categories":[{"id":"4f04b25d2fb6e1c99f3db0c0","name":"Travel Lounge","pluralName":"Travel Lounges","shortName":"Lounge","icon":{"prefix":"https:\/\/ss1.4sqi.net\/img\/categories_v2\/travel\/lounge_","suffix":".png"},"primary":"true"}],"verified":"false","restricted":"true","stats":{"checkinsCount":"52","usersCount":"18","tipCount":"1"},"specials":{"count":"0"},"hereNow":{"count":"0"},"referralId":"v-1392478054"},{"id":"4bf40516e5eba593f3211f90","name":"St Ermin's Hotel","location":{"address":"2 Caxton Street","lat":"51.498848","lng":"-0.134302","distance":"114","postalCode":"SW1H 0QW","cc":"GB","city":"London","state":"Greater London","country":"United Kingdom"},"categories":[{"id":"4bf58dd8d48988d1fa931735","name":"Hotel","pluralName":"Hotels","shortName":"Hotel","icon":{"prefix":"https:\/\/ss1.4sqi.net\/img\/categories_v2\/travel\/hotel_","suffix":".png"},"primary":"true"}],"verified":"false","restricted":"true","stats":{"checkinsCount":"2042","usersCount":"917","tipCount":"21"},"menu":{"type":"Menu","label":"Menu","anchor":"View Menu","url":"https:\/\/foursquare.com\/v\/st-ermins-hotel-london-greater-london\/4bf40516e5eba593f3211f90\/menu","mobileUrl":"https:\/\/foursquare.com\/v\/4bf40516e5eba593f3211f90\/device_menu"},"specials":{"count":"0"},"hereNow":{"count":"0"},"referralId":"v-1392478054"},{"id":"4bcd792efb84c9b67b0b223e","name":"Department for Business, Innovation & Skills","contact":{"twitter":"bisgovuk"},"location":{"address":"1 Victoria Street","lat":"51.49862146809597","lng":"-0.13133704662322998","distance":"125","postalCode":"SW1H 0ET","cc":"GB","city":"London","state":"Greater London","country":"United Kingdom"},"categories":[{"id":"4bf58dd8d48988d126941735","name":"Government Building","pluralName":"Government Buildings","shortName":"Government","icon":{"prefix":"https:\/\/ss1.4sqi.net\/img\/categories_v2\/building\/government_","suffix":".png"},"primary":"true"}],"verified":"false","restricted":"true","stats":{"checkinsCount":"2394","usersCount":"516","tipCount":"6"},"url":"https:\/\/www.gov.uk\/government\/organisations\/department-for-business-innovation-skills","specials":{"count":"0"},"hereNow":{"count":"0"},"referralId":"v-1392478054"},{"id":"4aeae4a0f964a52073bc21e3","name":"The Sanctuary House Hotel","contact":{"phone":"+442077994044","formattedPhone":"+44 20 7799 4044","twitter":"sanctuarysw1"},"location":{"address":"33 Tothill St.","lat":"51.49966532969037","lng":"-0.13197723747955453","distance":"70","postalCode":"SW1H 9LA","cc":"GB","city":"City of Westminster","state":"Greater London","country":"United Kingdom"},"categories":[{"id":"4bf58dd8d48988d11b941735","name":"Pub","pluralName":"Pubs","shortName":"Pub","icon":{"prefix":"https:\/\/ss1.4sqi.net\/img\/categories_v2\/nightlife\/pub_","suffix":".png"},"primary":"true"}],"verified":"false","restricted":"true","stats":{"checkinsCount":"1186","usersCount":"786","tipCount":"12"},"specials":{"count":"0"},"hereNow":{"count":"0"},"referralId":"v-1392478054"},{"id":"526662c5498ebda21c22fc21","name":"MOJ Digital Services","contact":{"twitter":"mojdigital"},"location":{"address":"10T & 11T, 102 Petty France","lat":"51.50000272042929","lng":"-0.13421182386215888","distance":"125","postalCode":"SW1H 9AJ","cc":"GB","city":"London","state":"Greater London","country":"United Kingdom"},"categories":[{"id":"4bf58dd8d48988d126941735","name":"Government Building","pluralName":"Government Buildings","shortName":"Government","icon":{"prefix":"https:\/\/ss1.4sqi.net\/img\/categories_v2\/building\/government_","suffix":".png"},"primary":"true"}],"verified":"false","restricted":"true","stats":{"checkinsCount":"301","usersCount":"13","tipCount":"1"},"specials":{"count":"0"},"hereNow":{"count":"0"},"referralId":"v-1392478054"},{"id":"527e871b11d2a61a888f9712","name":"The Sanctuary Pub","location":{"lat":"51.499692","lng":"-0.131963","distance":"73","cc":"GB","country":"United Kingdom"},"categories":[{"id":"4bf58dd8d48988d116941735","name":"Bar","pluralName":"Bars","shortName":"Bar","icon":{"prefix":"https:\/\/ss1.4sqi.net\/img\/categories_v2\/nightlife\/bar_","suffix":".png"},"primary":"true"}],"verified":"false","restricted":"true","stats":{"checkinsCount":"51","usersCount":"46","tipCount":"0"},"specials":{"count":"0"},"hereNow":{"count":"0"},"referralId":"v-1392478054"},{"id":"4f0a9cf1e4b0596c90de8d8b","name":"Intu Group","location":{"address":"40 Broadway","lat":"51.49952172376935","lng":"-0.13301484069542024","distance":"29","postalCode":"SW1H 0BT","cc":"GB","city":"London","state":"Greater London","country":"United Kingdom"},"categories":[{"id":"4bf58dd8d48988d124941735","name":"Office","pluralName":"Offices","shortName":"Office","icon":{"prefix":"https:\/\/ss1.4sqi.net\/img\/categories_v2\/building\/default_","suffix":".png"},"primary":"true"}],"verified":"false","restricted":"true","stats":{"checkinsCount":"236","usersCount":"23","tipCount":"0"},"specials":{"count":"0"},"hereNow":{"count":"0"},"referralId":"v-1392478054"},{"id":"4e315aeb18a837634f31e85b","name":"Faith lawson house","location":{"address":"Dacre Street","lat":"51.49899716364425","lng":"-0.13272911310195923","distance":"32","cc":"GB","city":"London","state":"Greater London","country":"United Kingdom"},"categories":[{"id":"4bf58dd8d48988d124941735","name":"Office","pluralName":"Offices","shortName":"Office","icon":{"prefix":"https:\/\/ss1.4sqi.net\/img\/categories_v2\/building\/default_","suffix":".png"},"primary":"true"}],"verified":"false","restricted":"true","stats":{"checkinsCount":"182","usersCount":"22","tipCount":"0"},"specials":{"count":"0"},"hereNow":{"count":"0"},"referralId":"v-1392478054"},{"id":"4b1e910df964a520bd1b24e3","name":"The Old Star","contact":{"phone":"+442072228755","formattedPhone":"+44 20 7222 8755"},"location":{"address":"66 Broadway","crossStreet":"near Queen Anne's Gate","lat":"51.49987377454688","lng":"-0.13374567031860352","distance":"92","postalCode":"SW1H 0DB","cc":"GB","city":"City of Westminster","state":"Greater London","country":"United Kingdom"},"categories":[{"id":"4bf58dd8d48988d11b941735","name":"Pub","pluralName":"Pubs","shortName":"Pub","icon":{"prefix":"https:\/\/ss1.4sqi.net\/img\/categories_v2\/nightlife\/pub_","suffix":".png"},"primary":"true"}],"verified":"false","restricted":"true","stats":{"checkinsCount":"1089","usersCount":"650","tipCount":"12"},"specials":{"count":"0"},"hereNow":{"count":"0"},"referralId":"v-1392478054"},{"id":"4c4ec752ea24c9b654163916","name":"Koko","location":{"address":"55 Broadway","lat":"51.49905466576828","lng":"-0.1330418049482615","distance":"30","cc":"GB","city":"London","state":"Greater London","country":"United Kingdom"},"categories":[{"id":"4bf58dd8d48988d1c5941735","name":"Sandwich Place","pluralName":"Sandwich Places","shortName":"Sandwiches","icon":{"prefix":"https:\/\/ss1.4sqi.net\/img\/categories_v2\/food\/sandwiches_","suffix":".png"},"primary":"true"}],"verified":"false","restricted":"true","stats":{"checkinsCount":"95","usersCount":"33","tipCount":"1"},"specials":{"count":"0"},"hereNow":{"count":"0"},"referralId":"v-1392478054"},{"id":"51a9e7f0498eb1a55e90a26b","name":"Blue Boar Smokehouse","location":{"address":"45 Tothill St.","lat":"51.49979464063261","lng":"-0.13219003551860845","distance":"70","postalCode":"SW1H 9LQ","cc":"GB","city":"London","country":"United Kingdom"},"categories":[{"id":"4bf58dd8d48988d1df931735","name":"BBQ Joint","pluralName":"BBQ Joints","shortName":"BBQ","icon":{"prefix":"https:\/\/ss1.4sqi.net\/img\/categories_v2\/food\/bbq_","suffix":".png"},"primary":"true"}],"verified":"false","restricted":"true","stats":{"checkinsCount":"86","usersCount":"77","tipCount":"6"},"url":"http:\/\/blueboarlondon.com","reservations":{"url":"http:\/\/www.toptable.co.uk\/single.aspx?rid=92739&ref=9601"},"menu":{"type":"Menu","label":"Menu","anchor":"View Menu","url":"https:\/\/foursquare.com\/v\/blue-boar-smokehouse\/51a9e7f0498eb1a55e90a26b\/menu","mobileUrl":"https:\/\/foursquare.com\/v\/51a9e7f0498eb1a55e90a26b\/device_menu"},"specials":{"count":"0"},"hereNow":{"count":"0"},"referralId":"v-1392478054"},{"id":"4b7310cdf964a52030992de3","name":"Pret A Manger","contact":{"phone":"+442079325328","formattedPhone":"+44 20 7932 5328","twitter":"pret","facebook":"162638680417951"},"location":{"address":"49 Tothill St","lat":"51.499712263185515","lng":"-0.13253945564558856","distance":"50","postalCode":"SW1H 9LQ","cc":"GB","city":"Tothill Street, London","country":"United Kingdom"},"categories":[{"id":"4bf58dd8d48988d1c5941735","name":"Sandwich Place","pluralName":"Sandwich Places","shortName":"Sandwiches","icon":{"prefix":"https:\/\/ss1.4sqi.net\/img\/categories_v2\/food\/sandwiches_","suffix":".png"},"primary":"true"}],"verified":"true","restricted":"true","stats":{"checkinsCount":"496","usersCount":"167","tipCount":"1"},"url":"http:\/\/www.pret.com","specials":{"count":"0"},"hereNow":{"count":"0"},"storeId":"128","referralId":"v-1392478054"},{"id":"4b975ecaf964a5203e0135e3","name":"Broadway House Conference Centre","contact":{"phone":"+442072227777","formattedPhone":"+44 20 7222 7777"},"location":{"address":"Tothill Street","lat":"51.499812","lng":"-0.13260304927825928","distance":"59","postalCode":"SW1H 9NQ","cc":"GB","city":"London","state":"Greater London","country":"United Kingdom"},"categories":[{"id":"4bf58dd8d48988d171941735","name":"Event Space","pluralName":"Event Spaces","shortName":"Event Space","icon":{"prefix":"https:\/\/ss1.4sqi.net\/img\/categories_v2\/building\/eventspace_","suffix":".png"},"primary":"true"}],"verified":"false","restricted":"true","stats":{"checkinsCount":"95","usersCount":"85","tipCount":"0"},"specials":{"count":"0"},"hereNow":{"count":"0"},"referralId":"v-1392478054"},{"id":"4bd9c3162e6f0f4707dd0b08","name":"The Abbey","contact":{"phone":"+442072225084","formattedPhone":"+44 20 7222 5084"},"location":{"address":"1 Abbey Orchard St.","crossStreet":"at Victoria St.","lat":"51.498396","lng":"-0.132493","distance":"101","postalCode":"SW1P 2LU","cc":"GB","city":"City of Westminster","state":"Greater London","country":"United Kingdom"},"categories":[{"id":"4bf58dd8d48988d116941735","name":"Bar","pluralName":"Bars","shortName":"Bar","icon":{"prefix":"https:\/\/ss1.4sqi.net\/img\/categories_v2\/nightlife\/bar_","suffix":".png"},"primary":"true"}],"verified":"false","restricted":"true","stats":{"checkinsCount":"366","usersCount":"271","tipCount":"6"},"specials":{"count":"0"},"hereNow":{"count":"0"},"referralId":"v-1392478054"},{"id":"4f328d82e4b015f62c6a4194","name":"EEF","location":{"address":"Tothill Street","lat":"51.49962518007577","lng":"-0.13232120795670832","distance":"50","postalCode":"SW1V 9NQ","cc":"GB","city":"London","state":"Greater London","country":"United Kingdom"},"categories":[{"id":"4bf58dd8d48988d124941735","name":"Office","pluralName":"Offices","shortName":"Office","icon":{"prefix":"https:\/\/ss1.4sqi.net\/img\/categories_v2\/building\/default_","suffix":".png"},"primary":"true"}],"verified":"false","restricted":"true","stats":{"checkinsCount":"52","usersCount":"8","tipCount":"0"},"specials":{"count":"0"},"hereNow":{"count":"0"},"referralId":"v-1392478054"},{"id":"51b75f4d698f079c0c16bb17","name":"The Lounge at the InterContinental London Westminster Hotel","location":{"address":"22-28 Broadway","lat":"51.499487","lng":"-0.132844","distance":"22","postalCode":"SW1H 9JS","cc":"GB","city":"London","state":"Greater London","country":"United Kingdom"},"categories":[{"id":"4bf58dd8d48988d1c4941735","name":"Restaurant","pluralName":"Restaurants","shortName":"Restaurant","icon":{"prefix":"https:\/\/ss1.4sqi.net\/img\/categories_v2\/food\/default_","suffix":".png"},"primary":"true"}],"verified":"false","restricted":"true","stats":{"checkinsCount":"7","usersCount":"5","tipCount":"0"},"url":"http:\/\/www.ichotelsgroup.com\/intercontinental\/en\/gb\/locations\/hotel-features\/dining\/bars\/westminster","reservations":{"url":"http:\/\/www.toptable.co.uk\/single.aspx?rid=92742&ref=9601"},"menu":{"type":"Menu","label":"Menu","anchor":"View Menu","url":"https:\/\/foursquare.com\/v\/the-lounge-at-the-intercontinental-london-westminster-hotel\/51b75f4d698f079c0c16bb17\/menu","mobileUrl":"https:\/\/foursquare.com\/v\/51b75f4d698f079c0c16bb17\/device_menu"},"specials":{"count":"0"},"hereNow":{"count":"0"},"referralId":"v-1392478054"},{"id":"4fbcb5d7e4b00b8de0c54372","name":"Ciber","location":{"address":"10 Dean Farrar Street","lat":"51.499326103426","lng":"-0.13198614120483398","distance":"56","postalCode":"SW1H 0DX","cc":"GB","city":"London","state":"Greater London","country":"United Kingdom"},"categories":[{"id":"4bf58dd8d48988d124941735","name":"Office","pluralName":"Offices","shortName":"Office","icon":{"prefix":"https:\/\/ss1.4sqi.net\/img\/categories_v2\/building\/default_","suffix":".png"},"primary":"true"}],"verified":"false","restricted":"true","stats":{"checkinsCount":"62","usersCount":"6","tipCount":"0"},"specials":{"count":"0"},"hereNow":{"count":"0"},"referralId":"v-1392478054"},{"id":"4ee080c9b8f741383055ed5b","name":"Gym@102","location":{"address":"102 Petty France","lat":"51.49987410415896","lng":"-0.13164341618897746","distance":"103","postalCode":"SW1","cc":"GB","city":"London","state":"Greater London","country":"United Kingdom"},"categories":[{"id":"4bf58dd8d48988d176941735","name":"Gym","pluralName":"Gyms","shortName":"Gym","icon":{"prefix":"https:\/\/ss1.4sqi.net\/img\/categories_v2\/building\/gym_","suffix":".png"},"primary":"true"}],"verified":"false","restricted":"true","stats":{"checkinsCount":"47","usersCount":"4","tipCount":"0"},"specials":{"count":"0"},"hereNow":{"count":"0"},"referralId":"v-1392478054"},{"id":"4f02d63aa69d4546205f3086","name":"Caxton Bar & Grill","location":{"address":"St. Ermin's Hotel","lat":"51.49869525216659","lng":"-0.13413071221754605","distance":"113","cc":"GB","city":"London","state":"Greater London","country":"United Kingdom"},"categories":[{"id":"4bf58dd8d48988d1d5941735","name":"Hotel Bar","pluralName":"Hotel Bars","shortName":"Hotel Bar","icon":{"prefix":"https:\/\/ss1.4sqi.net\/img\/categories_v2\/travel\/hotel_bar_","suffix":".png"},"primary":"true"}],"verified":"false","restricted":"true","stats":{"checkinsCount":"313","usersCount":"191","tipCount":"8"},"menu":{"type":"Menu","label":"Menu","anchor":"View Menu","url":"https:\/\/foursquare.com\/v\/caxton-bar--grill\/4f02d63aa69d4546205f3086\/menu","mobileUrl":"https:\/\/foursquare.com\/v\/4f02d63aa69d4546205f3086\/device_menu"},"specials":{"count":"0"},"hereNow":{"count":"0"},"referralId":"v-1392478054"},{"id":"4d91d713d7b1236a31d63838","name":"Abokado","contact":{"phone":"+442077992935","formattedPhone":"+44 20 7799 2935"},"location":{"address":"3 Broadway","lat":"51.49847503911532","lng":"-0.1336936995288362","distance":"109","postalCode":"SW1H 0AZ","cc":"GB","city":"London","state":"Greater London","country":"United Kingdom"},"categories":[{"id":"4bf58dd8d48988d146941735","name":"Deli \/ Bodega","pluralName":"Delis \/ Bodegas","shortName":"Deli \/ Bodega","icon":{"prefix":"https:\/\/ss1.4sqi.net\/img\/categories_v2\/food\/deli_","suffix":".png"},"primary":"true"}],"verified":"false","restricted":"true","stats":{"checkinsCount":"604","usersCount":"116","tipCount":"5"},"url":"http:\/\/www.abokado.com","menu":{"type":"Menu","label":"Menu","anchor":"View Menu","url":"https:\/\/foursquare.com\/v\/abokado\/4d91d713d7b1236a31d63838\/menu","mobileUrl":"https:\/\/foursquare.com\/v\/4d91d713d7b1236a31d63838\/device_menu"},"specials":{"count":"0"},"hereNow":{"count":"0"},"referralId":"v-1392478054"}],"confident":"true"}}