{"meta":{"code":"200"},"response":{"venues":[{"id":"4d5574b2fb65236aaab7f9b3","name":"Prince of Wales Drive","location":{"address":"Battersea Park","lat":"51.47503451477104","lng":"-0.16499658634537123","distance":"211","postalCode":"SW11","cc":"GB","city":"London","state":"Greater London","country":"United Kingdom"},"categories":[{"id":"4bf58dd8d48988d162941735","name":"Other Great Outdoors","pluralName":"Other Great Outdoors","shortName":"Other Outdoors","icon":{"prefix":"https:\/\/ss1.4sqi.net\/img\/categories_v2\/parks_outdoors\/outdoors_","suffix":".png"},"primary":"true"}],"verified":"false","restricted":"true","stats":{"checkinsCount":"963","usersCount":"128","tipCount":"2"},"specials":{"count":"0"},"hereNow":{"count":"0"},"referralId":"v-1392478116"},{"id":"4aeae6d6f964a52086bc21e3","name":"Prince of Wales","contact":{"phone":"+442072280395","formattedPhone":"+44 20 7228 0395"},"location":{"address":"186 Battersea Bridge Rd.","lat":"51.474694","lng":"-0.166508","distance":"100","postalCode":"SW11 3AE","cc":"GB","city":"London","state":"Greater London","country":"United Kingdom"},"categories":[{"id":"4bf58dd8d48988d11b941735","name":"Pub","pluralName":"Pubs","shortName":"Pub","icon":{"prefix":"https:\/\/ss1.4sqi.net\/img\/categories_v2\/nightlife\/pub_","suffix":".png"},"primary":"true"}],"verified":"false","restricted":"true","stats":{"checkinsCount":"736","usersCount":"252","tipCount":"11"},"menu":{"type":"Menu","label":"Menu","anchor":"View Menu","url":"https:\/\/foursquare.com\/v\/prince-of-wales\/4aeae6d6f964a52086bc21e3\/menu","mobileUrl":"https:\/\/foursquare.com\/v\/4aeae6d6f964a52086bc21e3\/device_menu"},"specials":{"count":"0"},"hereNow":{"count":"0"},"referralId":"v-1392478116"},{"id":"4bb4f358c29a95219dffa735","name":"Duke Of Cambridge","contact":{"phone":"+442072235662","formattedPhone":"+44 20 7223 5662"},"location":{"address":"228 Battersea Bridge Rd.","crossStreet":"corner of Banbury St.","lat":"51.47292990732509","lng":"-0.16596436500549316","distance":"197","postalCode":"SW11 3AA","cc":"GB","city":"London","state":"Greater London","country":"United Kingdom"},"categories":[{"id":"4bf58dd8d48988d11b941735","name":"Pub","pluralName":"Pubs","shortName":"Pub","icon":{"prefix":"https:\/\/ss1.4sqi.net\/img\/categories_v2\/nightlife\/pub_","suffix":".png"},"primary":"true"}],"verified":"false","restricted":"true","stats":{"checkinsCount":"720","usersCount":"298","tipCount":"10"},"menu":{"type":"Menu","label":"Menu","anchor":"View Menu","url":"https:\/\/foursquare.com\/v\/duke-of-cambridge\/4bb4f358c29a95219dffa735\/menu","mobileUrl":"https:\/\/foursquare.com\/v\/4bb4f358c29a95219dffa735\/device_menu"},"specials":{"count":"0"},"hereNow":{"count":"0"},"referralId":"v-1392478116"},{"id":"4bc592295935c9b6bc0ea6d2","name":"The Lanterns Studios","location":{"lat":"51.47434549671295","lng":"-0.1675821520830991","distance":"16","cc":"GB","country":"United Kingdom"},"categories":[{"id":"4bf58dd8d48988d171941735","name":"Event Space","pluralName":"Event Spaces","shortName":"Event Space","icon":{"prefix":"https:\/\/ss1.4sqi.net\/img\/categories_v2\/building\/eventspace_","suffix":".png"},"primary":"true"}],"verified":"false","restricted":"true","stats":{"checkinsCount":"22","usersCount":"20","tipCount":"0"},"specials":{"count":"0"},"hereNow":{"count":"0"},"referralId":"v-1392478116"},{"id":"4fed68abe4b00a5fd3941c76","name":"Battersea","location":{"address":"Everywhere!","lat":"51.472457398597605","lng":"-0.16534436247885426","distance":"265","cc":"GB","city":"London","state":"Greater London","country":"United Kingdom"},"categories":[{"id":"4f2a25ac4b909258e854f55f","name":"Neighborhood","pluralName":"Neighborhoods","shortName":"Neighborhood","icon":{"prefix":"https:\/\/ss1.4sqi.net\/img\/categories_v2\/parks_outdoors\/neighborhood_","suffix":".png"},"primary":"true"}],"verified":"false","restricted":"true","stats":{"checkinsCount":"809","usersCount":"332","tipCount":"2"},"specials":{"count":"0"},"hereNow":{"count":"0"},"referralId":"v-1392478116"},{"id":"4db41c1781543d71da3e7b0c","name":"M&S","location":{"lat":"51.47362109585309","lng":"-0.16738882283819242","distance":"79","cc":"GB","city":"Wandsworth","state":"Greater London","country":"United Kingdom"},"categories":[{"id":"4d954b0ea243a5684a65b473","name":"Convenience Store","pluralName":"Convenience Stores","shortName":"Convenience Stores","icon":{"prefix":"https:\/\/ss1.4sqi.net\/img\/categories_v2\/shops\/conveniencestore_","suffix":".png"},"primary":"true"}],"verified":"false","restricted":"true","stats":{"checkinsCount":"10","usersCount":"8","tipCount":"0"},"specials":{"count":"0"},"hereNow":{"count":"0"},"referralId":"v-1392478116"},{"id":"4e0e05d462843e04afa7207e","name":"TfL Bus 319","location":{"address":"Moving Target!","lat":"51.47191463844573","lng":"-0.16513556563284917","distance":"322","cc":"GB","city":"London","state":"Greater London","country":"United Kingdom"},"categories":[{"id":"4bf58dd8d48988d12b951735","name":"Bus Line","pluralName":"Bus Lines","shortName":"Bus","icon":{"prefix":"https:\/\/ss1.4sqi.net\/img\/categories_v2\/travel\/busstation_","suffix":".png"},"primary":"true"}],"verified":"false","restricted":"true","stats":{"checkinsCount":"502","usersCount":"99","tipCount":"3"},"specials":{"count":"0"},"hereNow":{"count":"0"},"referralId":"v-1392478116"},{"id":"51c0c6f1498ef7e444655dca","name":"Sushi Cafe","contact":{"phone":"+442072287011","formattedPhone":"+44 20 7228 7011"},"location":{"address":"555 BatterSea Park Road","lat":"51.471528861826386","lng":"-0.16778899133981773","distance":"307","postalCode":"SW11 3BL","cc":"GB","city":"London","state":"Greater London","country":"United Kingdom"},"categories":[{"id":"4bf58dd8d48988d111941735","name":"Japanese Restaurant","pluralName":"Japanese Restaurants","shortName":"Japanese","icon":{"prefix":"https:\/\/ss1.4sqi.net\/img\/categories_v2\/food\/japanese_","suffix":".png"},"primary":"true"}],"verified":"false","restricted":"true","stats":{"checkinsCount":"37","usersCount":"32","tipCount":"0"},"url":"http:\/\/www.sushicafe.co.uk","specials":{"count":"0"},"hereNow":{"count":"0"},"referralId":"v-1392478116"},{"id":"4c44662ff97fbe9a9313bb30","name":"Sainsbury's","contact":{"phone":"+442072236763","formattedPhone":"+44 20 7223 6763"},"location":{"address":"326 Battersea Park Rd.","lat":"51.470593116221075","lng":"-0.17010240538368188","distance":"441","postalCode":"SW11 3BX","cc":"GB","city":"Wandsworth","state":"Greater London","country":"United Kingdom"},"categories":[{"id":"4bf58dd8d48988d118951735","name":"Grocery Store","pluralName":"Grocery Stores","shortName":"Grocery Store","icon":{"prefix":"https:\/\/ss1.4sqi.net\/img\/categories_v2\/shops\/food_grocery_","suffix":".png"},"primary":"true"}],"verified":"false","restricted":"true","stats":{"checkinsCount":"431","usersCount":"140","tipCount":"2"},"specials":{"count":"0"},"hereNow":{"count":"0"},"referralId":"v-1392478116"},{"id":"4ac518e8f964a52086ab20e3","name":"Theatre 503","contact":{"phone":"+442079787040","formattedPhone":"+44 20 7978 7040","twitter":"theatre503"},"location":{"address":"503 Battersea Park Rd.","lat":"51.472095251083374","lng":"-0.165463","distance":"293","postalCode":"SW11 3BW","cc":"GB","city":"London","state":"Greater London","country":"United Kingdom"},"categories":[{"id":"4bf58dd8d48988d137941735","name":"Theater","pluralName":"Theaters","shortName":"Theater","icon":{"prefix":"https:\/\/ss1.4sqi.net\/img\/categories_v2\/arts_entertainment\/performingarts_theater_","suffix":".png"},"primary":"true"}],"verified":"false","restricted":"true","stats":{"checkinsCount":"253","usersCount":"142","tipCount":"3"},"url":"http:\/\/www.theatre503.com","specials":{"count":"0"},"hereNow":{"count":"0"},"referralId":"v-1392478116"},{"id":"4e8e033d46907a17cbefd0a3","name":"Worfield Street","location":{"lat":"51.4769808082452","lng":"-0.16511767995016882","distance":"352","cc":"GB","city":"Wandsworth","state":"Greater London","country":"United Kingdom"},"categories":[{"id":"4d954b16a243a5684b65b473","name":"Rest Area","pluralName":"Rest Areas","shortName":"Rest Areas","icon":{"prefix":"https:\/\/ss1.4sqi.net\/img\/categories_v2\/travel\/restarea_","suffix":".png"},"primary":"true"}],"verified":"false","restricted":"true","stats":{"checkinsCount":"155","usersCount":"11","tipCount":"0"},"specials":{"count":"0"},"hereNow":{"count":"0"},"referralId":"v-1392478116"},{"id":"4edb7a2029c2b91229b21f76","name":"Latchmere Bus Stop LB","location":{"lat":"51.47469758313296","lng":"-0.16519764048993818","distance":"186","cc":"GB","country":"United Kingdom"},"categories":[{"id":"4bf58dd8d48988d12b951735","name":"Bus Line","pluralName":"Bus Lines","shortName":"Bus","icon":{"prefix":"https:\/\/ss1.4sqi.net\/img\/categories_v2\/travel\/busstation_","suffix":".png"},"primary":"true"}],"verified":"false","restricted":"true","stats":{"checkinsCount":"55","usersCount":"11","tipCount":"0"},"specials":{"count":"0"},"hereNow":{"count":"0"},"referralId":"v-1392478116"},{"id":"4cadf9692a55224b34e67269","name":"Microsolv","location":{"address":"Bridge lane","lat":"51.473811","lng":"-0.167578","distance":"55","cc":"GB","city":"London","state":"Greater London","country":"United Kingdom"},"categories":[{"id":"4bf58dd8d48988d125941735","name":"Tech Startup","pluralName":"Tech Startups","shortName":"Tech Startup","icon":{"prefix":"https:\/\/ss1.4sqi.net\/img\/categories_v2\/shops\/technology_","suffix":".png"},"primary":"true"}],"verified":"false","restricted":"true","stats":{"checkinsCount":"10","usersCount":"3","tipCount":"0"},"specials":{"count":"0"},"hereNow":{"count":"0"},"referralId":"v-1392478116"},{"id":"4b2a4474f964a520aea624e3","name":"Antipasto & Pasta","contact":{"phone":"+442072239765","formattedPhone":"+44 20 7223 9765"},"location":{"address":"511 Battersea Park Road","lat":"51.471964","lng":"-0.165915","distance":"290","postalCode":"SW11 3BW","cc":"GB","city":"London","state":"Greater London","country":"United Kingdom"},"categories":[{"id":"4bf58dd8d48988d110941735","name":"Italian Restaurant","pluralName":"Italian Restaurants","shortName":"Italian","icon":{"prefix":"https:\/\/ss1.4sqi.net\/img\/categories_v2\/food\/italian_","suffix":".png"},"primary":"true"}],"verified":"false","restricted":"true","stats":{"checkinsCount":"330","usersCount":"101","tipCount":"11"},"specials":{"count":"0"},"hereNow":{"count":"0"},"referralId":"v-1392478116"},{"id":"4ad06911f964a520fcd720e3","name":"The Latchmere","location":{"address":"503 Battersea Park Road","crossStreet":"Latchmere Road","lat":"51.472138","lng":"-0.165415","distance":"291","postalCode":"SW11 3BW","cc":"GB","city":"London","state":"Greater London","country":"United Kingdom"},"categories":[{"id":"4bf58dd8d48988d11b941735","name":"Pub","pluralName":"Pubs","shortName":"Pub","icon":{"prefix":"https:\/\/ss1.4sqi.net\/img\/categories_v2\/nightlife\/pub_","suffix":".png"},"primary":"true"}],"verified":"false","restricted":"true","stats":{"checkinsCount":"480","usersCount":"258","tipCount":"3"},"specials":{"count":"0"},"hereNow":{"count":"0"},"referralId":"v-1392478116"},{"id":"4acddb7cf964a52049cd20e3","name":"3B Digital headquarters","contact":{"phone":"+448444140906","formattedPhone":"+44 844 414 0906"},"location":{"address":"Unit 5 Dovedale Studios, 465 Battersea Park Road","lat":"51.472301514304284","lng":"-0.1634779682312245","distance":"372","postalCode":"SW11 4LR","cc":"GB","city":"London","state":"Greater London","country":"United Kingdom"},"categories":[{"id":"4bf58dd8d48988d124941735","name":"Office","pluralName":"Offices","shortName":"Office","icon":{"prefix":"https:\/\/ss1.4sqi.net\/img\/categories_v2\/building\/default_","suffix":".png"},"primary":"true"}],"verified":"true","restricted":"true","stats":{"checkinsCount":"1198","usersCount":"42","tipCount":"9"},"url":"http:\/\/www.3bweb.com","specials":{"count":"0"},"hereNow":{"count":"0"},"venuePage":{"id":"58382332"},"storeId":"","referralId":"v-1392478116"},{"id":"520b354e11d2190dd1cc9aab","name":"Petworth Street (BF)","location":{"lat":"51.47691415517471","lng":"-0.1651186508806205","distance":"346","cc":"GB","country":"United Kingdom"},"categories":[{"id":"4bf58dd8d48988d1fe931735","name":"Bus Station","pluralName":"Bus Stations","shortName":"Bus Station","icon":{"prefix":"https:\/\/ss1.4sqi.net\/img\/categories_v2\/travel\/busstation_","suffix":".png"},"primary":"true"}],"verified":"false","restricted":"true","stats":{"checkinsCount":"37","usersCount":"1","tipCount":"0"},"specials":{"count":"0"},"hereNow":{"count":"0"},"referralId":"v-1392478116"},{"id":"4ed29676490168f8d26fdc7f","name":"Battersea Rickshaw","location":{"address":"19 Battersea Square, Wandsworth, London SW11 3RA","lat":"51.47476725629477","lng":"-0.1683043438862616","distance":"63","postalCode":"SW11","cc":"GB","city":"London","state":"Greater London","country":"United Kingdom"},"categories":[{"id":"4bf58dd8d48988d10f941735","name":"Indian Restaurant","pluralName":"Indian Restaurants","shortName":"Indian","icon":{"prefix":"https:\/\/ss1.4sqi.net\/img\/categories_v2\/food\/indian_","suffix":".png"},"primary":"true"}],"verified":"false","restricted":"true","stats":{"checkinsCount":"15","usersCount":"9","tipCount":"0"},"url":"http:\/\/www.battersearickshaw.com","menu":{"type":"Menu","label":"Menu","anchor":"View Menu","url":"https:\/\/foursquare.com\/v\/battersea-rickshaw\/4ed29676490168f8d26fdc7f\/menu","mobileUrl":"https:\/\/foursquare.com\/v\/4ed29676490168f8d26fdc7f\/device_menu"},"specials":{"count":"0"},"hereNow":{"count":"0"},"referralId":"v-1392478116"},{"id":"4ad09400f964a52087d820e3","name":"Margarita Loca","contact":{"phone":"4479242772","formattedPhone":"4479242772"},"location":{"address":"517-519 Battersea Park Road","crossStreet":"Battersea","lat":"51.47193119115236","lng":"-0.16624008535331544","distance":"283","postalCode":"SW11 3BN","cc":"GB","city":"Wandsworth","state":"Greater London","country":"United Kingdom"},"categories":[{"id":"4bf58dd8d48988d1c1941735","name":"Mexican Restaurant","pluralName":"Mexican Restaurants","shortName":"Mexican","icon":{"prefix":"https:\/\/ss1.4sqi.net\/img\/categories_v2\/food\/mexican_","suffix":".png"},"primary":"true"}],"verified":"false","restricted":"true","stats":{"checkinsCount":"205","usersCount":"125","tipCount":"9"},"specials":{"count":"0"},"hereNow":{"count":"0"},"referralId":"v-1392478116"},{"id":"4f093032e4b090ef22c563a1","name":"Emone","location":{"lat":"51.473598","lng":"-0.16781","distance":"76","cc":"GB","city":"London","state":"Greater London","country":"United Kingdom"},"categories":[{"id":"4bf58dd8d48988d1f8931735","name":"Bed & Breakfast","pluralName":"Bed & Breakfasts","shortName":"B & B","icon":{"prefix":"https:\/\/ss1.4sqi.net\/img\/categories_v2\/travel\/bedandbreakfast_","suffix":".png"},"primary":"true"}],"verified":"false","restricted":"true","stats":{"checkinsCount":"0","usersCount":"0","tipCount":"0"},"specials":{"count":"0"},"hereNow":{"count":"0"},"referralId":"v-1392478116"},{"id":"4e0e423862843e04afa9db0f","name":"Bangkok Bay Battersea","contact":{"phone":"+442072235924","formattedPhone":"+44 20 7223 5924"},"location":{"address":"246 Battersea Park Road","lat":"51.472174741990735","lng":"-0.16563177108764648","distance":"279","postalCode":"SW11 3BP","cc":"GB","city":"Wandsworth","state":"Greater London","country":"United Kingdom"},"categories":[{"id":"4bf58dd8d48988d149941735","name":"Thai Restaurant","pluralName":"Thai Restaurants","shortName":"Thai","icon":{"prefix":"https:\/\/ss1.4sqi.net\/img\/categories_v2\/food\/thai_","suffix":".png"},"primary":"true"}],"verified":"true","restricted":"true","stats":{"checkinsCount":"112","usersCount":"61","tipCount":"12"},"url":"http:\/\/www.bangkokbay.co.uk","menu":{"type":"Menu","label":"Menu","anchor":"View Menu","url":"https:\/\/foursquare.com\/v\/bangkok-bay-battersea\/4e0e423862843e04afa9db0f\/menu","mobileUrl":"https:\/\/foursquare.com\/v\/4e0e423862843e04afa9db0f\/device_menu"},"specials":{"count":"1","items":[{"id":"4f57d7df6b747b0e9bf151b7","type":"frequency","message":"Special Offer: free portion of Prawn Crackers per table!","description":"Unlocked every check-in","finePrint":"One portion per table only and cannot be used in conjunction with any other offer, such as TasteCard or Gourmet Society etc.","icon":"check-in","title":"Check-in Special","provider":"foursquare","redemption":"standard"}]},"hereNow":{"count":"0"},"venuePage":{"id":"38480909"},"storeId":"","referralId":"v-1392478116"},{"id":"4ad4936df964a52037e820e3","name":"Battersea Vet Clinic","contact":{"phone":"+442079245350","formattedPhone":"+44 20 7924 5350"},"location":{"address":"533 Battersea Park Road","lat":"51.4717389","lng":"-0.16704","distance":"288","cc":"GB","city":"London","state":"Greater London","country":"United Kingdom"},"categories":[{"id":"5032897c91d4c4b30a586d69","name":"Pet Service","pluralName":"Pet Services","shortName":"Pet Service","icon":{"prefix":"https:\/\/ss1.4sqi.net\/img\/categories_v2\/shops\/pet_store_","suffix":".png"},"primary":"true"}],"verified":"false","restricted":"true","stats":{"checkinsCount":"31","usersCount":"11","tipCount":"3"},"specials":{"count":"0"},"hereNow":{"count":"0"},"referralId":"v-1392478116"},{"id":"4e6b068f18a83989ecba2f24","name":"Ethelburga Street","location":{"address":"Ethelburgastreet","lat":"51.4769808082452","lng":"-0.16512931040023243","distance":"352","cc":"GB","city":"London","state":"Greater London","country":"United Kingdom"},"categories":[{"id":"4d954b06a243a5684965b473","name":"Residential Building (Apartment \/ Condo)","pluralName":"Residential Buildings (Apartments \/ Condos)","shortName":"Residential","icon":{"prefix":"https:\/\/ss1.4sqi.net\/img\/categories_v2\/building\/apartment_","suffix":".png"},"primary":"true"}],"verified":"false","restricted":"true","stats":{"checkinsCount":"164","usersCount":"13","tipCount":"0"},"specials":{"count":"0"},"hereNow":{"count":"0"},"referralId":"v-1392478116"},{"id":"52d87197498ec600d986aeca","name":"zafer palace","location":{"lat":"51.47649488583588","lng":"-0.16770978519761015","distance":"245","cc":"GB","country":"United Kingdom"},"categories":[{"id":"4d954b06a243a5684965b473","name":"Residential Building (Apartment \/ Condo)","pluralName":"Residential Buildings (Apartments \/ Condos)","shortName":"Residential","icon":{"prefix":"https:\/\/ss1.4sqi.net\/img\/categories_v2\/building\/apartment_","suffix":".png"},"primary":"true"}],"verified":"false","restricted":"true","stats":{"checkinsCount":"3","usersCount":"1","tipCount":"0"},"specials":{"count":"0"},"hereNow":{"count":"0"},"referralId":"v-1392478116"},{"id":"4e2aeea1d4c0e5c89abe849c","name":"Latchmere Bus Stop LS","location":{"address":"Battersea Park Road","crossStreet":"Latchmere Street","lat":"51.47467757056268","lng":"-0.16531770323105754","distance":"177","cc":"GB","city":"Wandsworth","state":"Greater London","country":"United Kingdom"},"categories":[{"id":"4bf58dd8d48988d1fe931735","name":"Bus Station","pluralName":"Bus Stations","shortName":"Bus Station","icon":{"prefix":"https:\/\/ss1.4sqi.net\/img\/categories_v2\/travel\/busstation_","suffix":".png"},"primary":"true"}],"verified":"false","restricted":"true","stats":{"checkinsCount":"282","usersCount":"27","tipCount":"2"},"specials":{"count":"0"},"hereNow":{"count":"0"},"referralId":"v-1392478116"},{"id":"4c6e468b4d24b60cb941d8d8","name":"Il Molino","location":{"address":"284 Battersea Park Rd.","crossStreet":"Balfern Street","lat":"51.47171417409541","lng":"-0.16741159924977667","distance":"287","postalCode":"SW11 3BT","cc":"GB","city":"Wandsworth","state":"Greater London","country":"United Kingdom"},"categories":[{"id":"4bf58dd8d48988d16d941735","name":"Caf\u00e9","pluralName":"Caf\u00e9s","shortName":"Caf\u00e9","icon":{"prefix":"https:\/\/ss1.4sqi.net\/img\/categories_v2\/food\/cafe_","suffix":".png"},"primary":"true"}],"verified":"false","restricted":"true","stats":{"checkinsCount":"237","usersCount":"123","tipCount":"6"},"specials":{"count":"0"},"hereNow":{"count":"0"},"referralId":"v-1392478116"},{"id":"4e3d2b91483b04e17a91dd64","name":"Fantasy Cleaner","location":{"lat":"51.471720460878224","lng":"-0.16652764994042044","distance":"299","cc":"GB","city":"Wandsworth","state":"Greater London","country":"United Kingdom"},"categories":[{"id":"4bf58dd8d48988d1fc941735","name":"Laundry Service","pluralName":"Laundry Services","shortName":"Laundry","icon":{"prefix":"https:\/\/ss1.4sqi.net\/img\/categories_v2\/shops\/laundry_","suffix":".png"},"primary":"true"}],"verified":"false","restricted":"true","stats":{"checkinsCount":"9","usersCount":"5","tipCount":"0"},"specials":{"count":"0"},"hereNow":{"count":"0"},"referralId":"v-1392478116"},{"id":"4cbd4f84f50e224b3eeb03fc","name":"Battersea Preventative Dental Practice","location":{"lat":"51.472684","lng":"-0.165568","distance":"236","postalCode":"Sw11 4pr","cc":"GB","city":"Wandsworth","state":"Greater London","country":"United Kingdom"},"categories":[{"id":"4bf58dd8d48988d178941735","name":"Dentist's Office","pluralName":"Dentist's Offices","shortName":"Dentist's Office","icon":{"prefix":"https:\/\/ss1.4sqi.net\/img\/categories_v2\/building\/medical_dentist_","suffix":".png"},"primary":"true"}],"verified":"false","restricted":"true","stats":{"checkinsCount":"26","usersCount":"12","tipCount":"0"},"specials":{"count":"0"},"hereNow":{"count":"0"},"referralId":"v-1392478116"},{"id":"4f046fbd0e61e937cf06c3e2","name":"Cafe Blanca","location":{"address":"Battersea Road","lat":"51.472261653200334","lng":"-0.16840944379599543","distance":"229","cc":"GB","city":"London","state":"Greater London","country":"United Kingdom"},"categories":[{"id":"4bf58dd8d48988d1e0931735","name":"Coffee Shop","pluralName":"Coffee Shops","shortName":"Coffee Shop","icon":{"prefix":"https:\/\/ss1.4sqi.net\/img\/categories_v2\/food\/coffeeshop_","suffix":".png"},"primary":"true"}],"verified":"false","restricted":"true","stats":{"checkinsCount":"51","usersCount":"19","tipCount":"1"},"specials":{"count":"0"},"hereNow":{"count":"0"},"referralId":"v-1392478116"},{"id":"4feed25de4b0647d7c5f780e","name":"Battersea Barbers","location":{"lat":"51.47168851667927","lng":"-0.16860803677618702","distance":"294","cc":"GB","country":"United Kingdom"},"categories":[{"id":"4bf58dd8d48988d110951735","name":"Salon \/ Barbershop","pluralName":"Salons \/ Barbershops","shortName":"Salon \/ Barbershop","icon":{"prefix":"https:\/\/ss1.4sqi.net\/img\/categories_v2\/shops\/salon_barber_","suffix":".png"},"primary":"true"}],"verified":"false","restricted":"true","stats":{"checkinsCount":"18","usersCount":"3","tipCount":"1"},"specials":{"count":"0"},"hereNow":{"count":"0"},"referralId":"v-1392478116"}],"confident":"true"}}