{"meta":{"code":"200"},"response":{"venues":[{"id":"4b2e2e55f964a5202edd24e3","name":"Larkhall Park","location":{"address":"Courland Grove","crossStreet":"Larkhall Lane and Wandsworth Road","lat":"51.47320390227611","lng":"-0.1308917999267578","distance":"179","postalCode":"Sw8 2px","cc":"GB","city":"London","state":"Greater London","country":"United Kingdom"},"categories":[{"id":"4bf58dd8d48988d163941735","name":"Park","pluralName":"Parks","shortName":"Park","icon":{"prefix":"https:\/\/ss1.4sqi.net\/img\/categories_v2\/parks_outdoors\/park_","suffix":".png"},"primary":"true"}],"verified":"false","restricted":"true","stats":{"checkinsCount":"1215","usersCount":"204","tipCount":"5"},"specials":{"count":"0"},"hereNow":{"count":"0"},"referralId":"v-1392478119"},{"id":"4c814ea4d92ea093eabd3f72","name":"Wing's","location":{"lat":"51.474267","lng":"-0.132651","distance":"10","cc":"GB","country":"United Kingdom"},"categories":[{"id":"4bf58dd8d48988d145941735","name":"Chinese Restaurant","pluralName":"Chinese Restaurants","shortName":"Chinese","icon":{"prefix":"https:\/\/ss1.4sqi.net\/img\/categories_v2\/food\/chinese_","suffix":".png"},"primary":"true"}],"verified":"false","restricted":"true","stats":{"checkinsCount":"7","usersCount":"5","tipCount":"0"},"specials":{"count":"0"},"hereNow":{"count":"0"},"referralId":"v-1392478119"},{"id":"4c0ab5c0340720a137f28693","name":"Tesco Express","contact":{"phone":"+448456746452","formattedPhone":"+44 845 674 6452","twitter":"uktescooffers"},"location":{"address":"202-230 Wandsworth Road","lat":"51.4757764","lng":"-0.131638","distance":"184","postalCode":"SW28JU","cc":"GB","city":"London","state":"Greater London","country":"United Kingdom"},"categories":[{"id":"4bf58dd8d48988d118951735","name":"Grocery Store","pluralName":"Grocery Stores","shortName":"Grocery Store","icon":{"prefix":"https:\/\/ss1.4sqi.net\/img\/categories_v2\/shops\/food_grocery_","suffix":".png"},"primary":"true"}],"verified":"true","restricted":"true","stats":{"checkinsCount":"772","usersCount":"130","tipCount":"4"},"url":"http:\/\/www.tesco.com","specials":{"count":"0"},"hereNow":{"count":"0"},"storeId":"6152","referralId":"v-1392478119"},{"id":"4e809f7b5503e6d608bac383","name":"Andalucia Patisserie","location":{"address":"248 Wandsworth Rd","lat":"51.47456993142578","lng":"-0.13228286630211072","distance":"47","postalCode":"SW8 2JS","cc":"GB","city":"London","state":"Greater London","country":"United Kingdom"},"categories":[{"id":"4bf58dd8d48988d16a941735","name":"Bakery","pluralName":"Bakeries","shortName":"Bakery","icon":{"prefix":"https:\/\/ss1.4sqi.net\/img\/categories_v2\/food\/bakery_","suffix":".png"},"primary":"true"}],"verified":"false","restricted":"true","stats":{"checkinsCount":"189","usersCount":"48","tipCount":"3"},"specials":{"count":"0"},"hereNow":{"count":"0"},"referralId":"v-1392478119"},{"id":"4ea1ad649a527d6516bb4339","name":"Bus Stop N (Larkhall Park)","location":{"lat":"51.474472556751145","lng":"-0.13292565977679724","distance":"22","cc":"GB","country":"United Kingdom"},"categories":[{"id":"4bf58dd8d48988d12b951735","name":"Bus Line","pluralName":"Bus Lines","shortName":"Bus","icon":{"prefix":"https:\/\/ss1.4sqi.net\/img\/categories_v2\/travel\/busstation_","suffix":".png"},"primary":"true"}],"verified":"false","restricted":"true","stats":{"checkinsCount":"171","usersCount":"18","tipCount":"0"},"specials":{"count":"0"},"hereNow":{"count":"0"},"referralId":"v-1392478119"},{"id":"4bb994ceb35776b06505ca01","name":"A Toca","contact":{"phone":"+442076272919","formattedPhone":"+44 20 7627 2919"},"location":{"address":"343 Wandsworth Road","lat":"51.47543298131494","lng":"-0.13138663138020487","distance":"160","postalCode":"SW8 2JH","cc":"GB","city":"London","state":"Greater London","country":"United Kingdom"},"categories":[{"id":"4def73e84765ae376e57713a","name":"Portuguese Restaurant","pluralName":"Portuguese Restaurants","shortName":"Portuguese","icon":{"prefix":"https:\/\/ss1.4sqi.net\/img\/categories_v2\/food\/default_","suffix":".png"},"primary":"true"}],"verified":"false","restricted":"true","stats":{"checkinsCount":"348","usersCount":"205","tipCount":"13"},"menu":{"type":"Menu","label":"Menu","anchor":"View Menu","url":"https:\/\/foursquare.com\/v\/a-toca\/4bb994ceb35776b06505ca01\/menu","mobileUrl":"https:\/\/foursquare.com\/v\/4bb994ceb35776b06505ca01\/device_menu"},"specials":{"count":"0"},"hereNow":{"count":"1","groups":[{"type":"others","name":"Other people here","count":"1"}]},"referralId":"v-1392478119"},{"id":"4fd3a4e4e4b0abd66508838e","name":"Lahore Grill Restaurant","location":{"address":"288 Wandsworth Road","lat":"51.47434380713725","lng":"-0.13278608536432265","distance":"6","cc":"GB","country":"United Kingdom"},"categories":[{"id":"4bf58dd8d48988d10f941735","name":"Indian Restaurant","pluralName":"Indian Restaurants","shortName":"Indian","icon":{"prefix":"https:\/\/ss1.4sqi.net\/img\/categories_v2\/food\/indian_","suffix":".png"},"primary":"true"}],"verified":"false","restricted":"true","stats":{"checkinsCount":"40","usersCount":"7","tipCount":"0"},"specials":{"count":"0"},"hereNow":{"count":"0"},"referralId":"v-1392478119"},{"id":"4c2860a2ed0ac9b68c2160aa","name":"Cheung Oriental Supermarket","location":{"address":"270 Wandsworth Road","lat":"51.47458047550992","lng":"-0.13258550692352528","distance":"35","postalCode":"SW8 2JR","cc":"GB","city":"Lambeth","state":"Greater London","country":"United Kingdom"},"categories":[{"id":"4bf58dd8d48988d1f9941735","name":"Food & Drink Shop","pluralName":"Food & Drink Shops","shortName":"Food & Drink","icon":{"prefix":"https:\/\/ss1.4sqi.net\/img\/categories_v2\/shops\/foodanddrink_","suffix":".png"},"primary":"true"}],"verified":"false","restricted":"true","stats":{"checkinsCount":"71","usersCount":"15","tipCount":"0"},"specials":{"count":"0"},"hereNow":{"count":"0"},"referralId":"v-1392478119"},{"id":"5251493511d2f5e557e693ec","name":"Del\u00edcias de Portugal","location":{"lat":"51.47382028967659","lng":"-0.13279760490155643","distance":"52","cc":"GB","country":"United Kingdom"},"categories":[{"id":"4bf58dd8d48988d146941735","name":"Deli \/ Bodega","pluralName":"Delis \/ Bodegas","shortName":"Deli \/ Bodega","icon":{"prefix":"https:\/\/ss1.4sqi.net\/img\/categories_v2\/food\/deli_","suffix":".png"},"primary":"true"}],"verified":"false","restricted":"true","stats":{"checkinsCount":"6","usersCount":"5","tipCount":"0"},"specials":{"count":"0"},"hereNow":{"count":"0"},"referralId":"v-1392478119"},{"id":"507eb13a72da29727482cc56","name":"PureGym","contact":{"phone":"+448456766518","formattedPhone":"+44 845 676 6518","twitter":"puregym"},"location":{"address":"212 Wandsworth Rd","lat":"51.47615091465536","lng":"-0.1309669017791748","distance":"243","postalCode":"SW8 2JU","cc":"GB","city":"London","state":"Greater London","country":"United Kingdom"},"categories":[{"id":"4bf58dd8d48988d176941735","name":"Gym","pluralName":"Gyms","shortName":"Gym","icon":{"prefix":"https:\/\/ss1.4sqi.net\/img\/categories_v2\/building\/gym_","suffix":".png"},"primary":"true"}],"verified":"true","restricted":"true","stats":{"checkinsCount":"334","usersCount":"63","tipCount":"2"},"url":"http:\/\/www.puregym.com\/gyms\/london-lambeth","specials":{"count":"0"},"hereNow":{"count":"0"},"storeId":"","referralId":"v-1392478119"},{"id":"4ea07d0a2c5b9f62fb3c5e73","name":"Tharany Express","location":{"lat":"51.475217310132635","lng":"-0.13205504387621844","distance":"115","cc":"GB","country":"United Kingdom"},"categories":[{"id":"4d954b0ea243a5684a65b473","name":"Convenience Store","pluralName":"Convenience Stores","shortName":"Convenience Stores","icon":{"prefix":"https:\/\/ss1.4sqi.net\/img\/categories_v2\/shops\/conveniencestore_","suffix":".png"},"primary":"true"}],"verified":"false","restricted":"true","stats":{"checkinsCount":"47","usersCount":"7","tipCount":"0"},"specials":{"count":"0"},"hereNow":{"count":"0"},"referralId":"v-1392478119"},{"id":"4eb3e5ac9a52ad1e3e40d790","name":"Pak Hong","location":{"lat":"51.473757","lng":"-0.133306","distance":"68","cc":"GB","city":"Lambeth","state":"Greater London","country":"United Kingdom"},"categories":[{"id":"4bf58dd8d48988d145941735","name":"Chinese Restaurant","pluralName":"Chinese Restaurants","shortName":"Chinese","icon":{"prefix":"https:\/\/ss1.4sqi.net\/img\/categories_v2\/food\/chinese_","suffix":".png"},"primary":"true"}],"verified":"false","restricted":"true","stats":{"checkinsCount":"33","usersCount":"19","tipCount":"0"},"specials":{"count":"0"},"hereNow":{"count":"0"},"referralId":"v-1392478119"},{"id":"4fbd5eb67beb0c9cab0db682","name":"Clinique Counter","contact":{"twitter":"clinique_uk"},"location":{"address":"House of Fraser, 105 Victoria Street, Victoria","lat":"51.47420046950007","lng":"-0.13250475462623817","distance":"22","postalCode":"SW1E 6QX","cc":"GB","city":"London","state":"Greater London","country":"United Kingdom"},"categories":[{"id":"4bf58dd8d48988d10c951735","name":"Cosmetics Shop","pluralName":"Cosmetics Shops","shortName":"Cosmetics","icon":{"prefix":"https:\/\/ss1.4sqi.net\/img\/categories_v2\/shops\/beauty_cosmetic_","suffix":".png"},"primary":"true"}],"verified":"true","restricted":"true","stats":{"checkinsCount":"1","usersCount":"1","tipCount":"0"},"url":"http:\/\/clinique.co.uk","specials":{"count":"0"},"hereNow":{"count":"0"},"storeId":"C53 \u2013 Giselle Venter","referralId":"v-1392478119"},{"id":"4da30ff8593f8eecd35c7635","name":"LOST Theatre","contact":{"phone":"+442076229208","formattedPhone":"+44 20 7622 9208","twitter":"losttheatre"},"location":{"address":"208 Wandsworth Road","crossStreet":"Lansdowne Way","lat":"51.47541233251135","lng":"-0.1314672365947868","distance":"155","postalCode":"SW8 2JU","cc":"GB","city":"London","state":"Greater London","country":"United Kingdom"},"categories":[{"id":"4bf58dd8d48988d1f2931735","name":"Performing Arts Venue","pluralName":"Performing Arts Venues","shortName":"Performing Arts","icon":{"prefix":"https:\/\/ss1.4sqi.net\/img\/categories_v2\/arts_entertainment\/default_","suffix":".png"},"primary":"true"}],"verified":"false","restricted":"true","stats":{"checkinsCount":"134","usersCount":"108","tipCount":"8"},"specials":{"count":"0"},"hereNow":{"count":"0"},"referralId":"v-1392478119"},{"id":"4fe8ac77e4b0e1967f99fe56","name":"F2R","location":{"address":"389A Wandsworth Road","lat":"51.474213","lng":"-0.132494","distance":"23","postalCode":"Sw8 2JL","cc":"GB","city":"London","state":"Greater London","country":"United Kingdom"},"categories":[{"id":"4bf58dd8d48988d124941735","name":"Office","pluralName":"Offices","shortName":"Office","icon":{"prefix":"https:\/\/ss1.4sqi.net\/img\/categories_v2\/building\/default_","suffix":".png"},"primary":"true"}],"verified":"false","restricted":"true","stats":{"checkinsCount":"9","usersCount":"4","tipCount":"1"},"specials":{"count":"0"},"hereNow":{"count":"0"},"referralId":"v-1392478119"},{"id":"4f291d74e4b0ea161ddbe777","name":"Hall's Pharmacy","contact":{"phone":"+442076226989","formattedPhone":"+44 20 7622 6989"},"location":{"address":"Wandsworth Road","lat":"51.475326078788775","lng":"-0.13306950825726957","distance":"116","postalCode":"SW8 2JS","cc":"GB","city":"London","state":"Greater London","country":"United Kingdom"},"categories":[{"id":"4bf58dd8d48988d10f951735","name":"Drugstore \/ Pharmacy","pluralName":"Drugstores \/ Pharmacies","shortName":"Pharmacy","icon":{"prefix":"https:\/\/ss1.4sqi.net\/img\/categories_v2\/shops\/pharmacy_","suffix":".png"},"primary":"true"}],"verified":"false","restricted":"true","stats":{"checkinsCount":"39","usersCount":"5","tipCount":"0"},"specials":{"count":"0"},"hereNow":{"count":"0"},"referralId":"v-1392478119"},{"id":"4eccb5a3775b0e780d7d1ba2","name":"Bus Stop G","location":{"lat":"51.476162080679394","lng":"-0.13195735979828915","distance":"216","cc":"GB","country":"United Kingdom"},"categories":[{"id":"4bf58dd8d48988d1fe931735","name":"Bus Station","pluralName":"Bus Stations","shortName":"Bus Station","icon":{"prefix":"https:\/\/ss1.4sqi.net\/img\/categories_v2\/travel\/busstation_","suffix":".png"},"primary":"true"}],"verified":"false","restricted":"true","stats":{"checkinsCount":"232","usersCount":"17","tipCount":"0"},"specials":{"count":"0"},"hereNow":{"count":"0"},"referralId":"v-1392478119"},{"id":"4fb900dee4b0bd07fde75a5d","name":"Cornell Square","location":{"address":"Wandsworth Rd.","lat":"51.47569942259082","lng":"-0.1316573178667107","distance":"175","postalCode":"SW8 2EN","cc":"GB","city":"London","state":"Greater London","country":"United Kingdom"},"categories":[{"id":"4d954b06a243a5684965b473","name":"Residential Building (Apartment \/ Condo)","pluralName":"Residential Buildings (Apartments \/ Condos)","shortName":"Residential","icon":{"prefix":"https:\/\/ss1.4sqi.net\/img\/categories_v2\/building\/apartment_","suffix":".png"},"primary":"true"}],"verified":"false","restricted":"true","stats":{"checkinsCount":"22","usersCount":"5","tipCount":"0"},"specials":{"count":"0"},"hereNow":{"count":"0"},"referralId":"v-1392478119"},{"id":"50ccbac6498ee21ad20a8444","name":"Rodizio Britannia","location":{"lat":"51.47519167871157","lng":"-0.13152875180157678","distance":"133","cc":"GB","country":"United Kingdom"},"categories":[{"id":"4bf58dd8d48988d16b941735","name":"Brazilian Restaurant","pluralName":"Brazilian Restaurants","shortName":"Brazilian","icon":{"prefix":"https:\/\/ss1.4sqi.net\/img\/categories_v2\/food\/brazilian_","suffix":".png"},"primary":"true"}],"verified":"false","restricted":"true","stats":{"checkinsCount":"45","usersCount":"40","tipCount":"1"},"specials":{"count":"0"},"hereNow":{"count":"0"},"referralId":"v-1392478119"},{"id":"4d6a95189bd6a143661a6fdf","name":"The Surprise","contact":{"phone":"+442076224623","formattedPhone":"+44 20 7622 4623"},"location":{"address":"16 Southville","lat":"51.474517050356376","lng":"-0.13133704662322998","distance":"104","postalCode":"SW8 2PP","cc":"GB","city":"Lambeth","state":"Greater London","country":"United Kingdom"},"categories":[{"id":"4bf58dd8d48988d11b941735","name":"Pub","pluralName":"Pubs","shortName":"Pub","icon":{"prefix":"https:\/\/ss1.4sqi.net\/img\/categories_v2\/nightlife\/pub_","suffix":".png"},"primary":"true"}],"verified":"false","restricted":"true","stats":{"checkinsCount":"26","usersCount":"18","tipCount":"2"},"specials":{"count":"0"},"hereNow":{"count":"0"},"referralId":"v-1392478119"},{"id":"4bb992a6b35776b07c04ca01","name":"O Moinho","contact":{"phone":"+442074986333","formattedPhone":"+44 20 7498 6333"},"location":{"address":"355A Wandsworth Road","lat":"51.475113","lng":"-0.131737","distance":"117","postalCode":"SW8 2JH","cc":"GB","city":"London","state":"Greater London","country":"United Kingdom"},"categories":[{"id":"4def73e84765ae376e57713a","name":"Portuguese Restaurant","pluralName":"Portuguese Restaurants","shortName":"Portuguese","icon":{"prefix":"https:\/\/ss1.4sqi.net\/img\/categories_v2\/food\/default_","suffix":".png"},"primary":"true"}],"verified":"false","restricted":"true","stats":{"checkinsCount":"92","usersCount":"77","tipCount":"3"},"url":"http:\/\/www.omoinho.co.uk","menu":{"type":"Menu","label":"Menu","anchor":"View Menu","url":"https:\/\/foursquare.com\/v\/o-moinho\/4bb992a6b35776b07c04ca01\/menu","mobileUrl":"https:\/\/foursquare.com\/v\/4bb992a6b35776b07c04ca01\/device_menu"},"specials":{"count":"0"},"hereNow":{"count":"0"},"referralId":"v-1392478119"},{"id":"4e1376851495c8d31bd8b84b","name":"M Hallalway Butchers","contact":{"phone":"+442077388811","formattedPhone":"+44 20 7738 8811"},"location":{"address":"250 Wandsworth Road","lat":"51.475251192585255","lng":"-0.1332777994952664","distance":"112","postalCode":"SW8 2JS","cc":"GB","city":"London","state":"Greater London","country":"United Kingdom"},"categories":[{"id":"4d954b0ea243a5684a65b473","name":"Convenience Store","pluralName":"Convenience Stores","shortName":"Convenience Stores","icon":{"prefix":"https:\/\/ss1.4sqi.net\/img\/categories_v2\/shops\/conveniencestore_","suffix":".png"},"primary":"true"}],"verified":"false","restricted":"true","stats":{"checkinsCount":"24","usersCount":"0","tipCount":"0"},"specials":{"count":"0"},"hereNow":{"count":"0"},"referralId":"v-1392478119"},{"id":"4f53ceb5e4b0b5d9df19ed2a","name":"389a","location":{"lat":"51.47407250233491","lng":"-0.132349546340787","distance":"39","cc":"GB","country":"United Kingdom"},"categories":[{"id":"4d954b06a243a5684965b473","name":"Residential Building (Apartment \/ Condo)","pluralName":"Residential Buildings (Apartments \/ Condos)","shortName":"Residential","icon":{"prefix":"https:\/\/ss1.4sqi.net\/img\/categories_v2\/building\/apartment_","suffix":".png"},"primary":"true"}],"verified":"false","restricted":"true","stats":{"checkinsCount":"6","usersCount":"3","tipCount":"0"},"specials":{"count":"0"},"hereNow":{"count":"0"},"referralId":"v-1392478119"},{"id":"4d82680a1cfca35d73109681","name":"This Space","location":{"address":"212 Wandsworth Road","lat":"51.47601058504976","lng":"-0.13250112533569336","distance":"192","postalCode":"SW8 2BP","cc":"GB","city":"London","state":"Greater London","country":"United Kingdom"},"categories":[{"id":"4bf58dd8d48988d130941735","name":"Building","pluralName":"Buildings","shortName":"Building","icon":{"prefix":"https:\/\/ss1.4sqi.net\/img\/categories_v2\/building\/default_","suffix":".png"},"primary":"true"}],"verified":"false","restricted":"true","stats":{"checkinsCount":"737","usersCount":"45","tipCount":"0"},"specials":{"count":"0"},"hereNow":{"count":"0"},"referralId":"v-1392478119"},{"id":"4ead2a5f6c250091a220e283","name":"Springfield Methodist Church","location":{"lat":"51.47301891033193","lng":"-0.13396152849154255","distance":"162","cc":"GB","country":"United Kingdom"},"categories":[{"id":"4bf58dd8d48988d132941735","name":"Church","pluralName":"Churches","shortName":"Church","icon":{"prefix":"https:\/\/ss1.4sqi.net\/img\/categories_v2\/building\/religious_church_","suffix":".png"},"primary":"true"}],"verified":"false","restricted":"true","stats":{"checkinsCount":"41","usersCount":"5","tipCount":"0"},"specials":{"count":"0"},"hereNow":{"count":"0"},"referralId":"v-1392478119"},{"id":"4cf54daf8333224bb0751f8e","name":"Lambeth College (Vauxhall)","location":{"address":"Belmore St.","crossStreet":"Wandsworth Rd.","lat":"51.475626510958485","lng":"-0.1332030945656534","distance":"151","postalCode":"SW8 2JY","cc":"GB","city":"Vauxhall","state":"Greater London","country":"United Kingdom"},"categories":[{"id":"4bf58dd8d48988d1a2941735","name":"Community College","pluralName":"Community Colleges","shortName":"Community College","icon":{"prefix":"https:\/\/ss1.4sqi.net\/img\/categories_v2\/education\/communitycollege_","suffix":".png"},"primary":"true"}],"verified":"false","restricted":"true","stats":{"checkinsCount":"99","usersCount":"38","tipCount":"0"},"specials":{"count":"0"},"hereNow":{"count":"0"},"referralId":"v-1392478119"},{"id":"4cbf5f25acd48cfa1133433f","name":"O&K","contact":{"phone":"+442076226828","formattedPhone":"+44 20 7622 6828"},"location":{"address":"252 Wandsworth Rd","lat":"51.47452898761642","lng":"-0.1323571538927699","distance":"40","postalCode":"SW8 2JS","cc":"GB","city":"Lambeth","state":"Greater London","country":"United Kingdom"},"categories":[{"id":"4bf58dd8d48988d145941735","name":"Chinese Restaurant","pluralName":"Chinese Restaurants","shortName":"Chinese","icon":{"prefix":"https:\/\/ss1.4sqi.net\/img\/categories_v2\/food\/chinese_","suffix":".png"},"primary":"true"}],"verified":"false","restricted":"true","stats":{"checkinsCount":"31","usersCount":"5","tipCount":"0"},"specials":{"count":"0"},"hereNow":{"count":"0"},"referralId":"v-1392478119"},{"id":"4e29298ae4cd6c6cb34e5466","name":"Bus Stop H","location":{"lat":"51.47568971987019","lng":"-0.13096986617929615","distance":"201","cc":"GB","country":"United Kingdom"},"categories":[{"id":"4bf58dd8d48988d12b951735","name":"Bus Line","pluralName":"Bus Lines","shortName":"Bus","icon":{"prefix":"https:\/\/ss1.4sqi.net\/img\/categories_v2\/travel\/busstation_","suffix":".png"},"primary":"true"}],"verified":"false","restricted":"true","stats":{"checkinsCount":"116","usersCount":"8","tipCount":"0"},"specials":{"count":"0"},"hereNow":{"count":"0"},"referralId":"v-1392478119"},{"id":"4f8993a0e4b039b1453105ee","name":"Sunshine Factory - Tanning & Beauty","contact":{"phone":"+442076225884","formattedPhone":"+44 20 7622 5884","twitter":"funshinefactory","facebook":"289050251105813"},"location":{"address":"407 Wansdworth Road","lat":"51.47378423673036","lng":"-0.13312215229121832","distance":"60","postalCode":"SW8 2JP","cc":"GB","city":"London","state":"Greater London","country":"United Kingdom"},"categories":[{"id":"4d1cf8421a97d635ce361c31","name":"Tanning Salon","pluralName":"Tanning Salons","shortName":"Tanning Salon","icon":{"prefix":"https:\/\/ss1.4sqi.net\/img\/categories_v2\/shops\/tanning_salon_","suffix":".png"},"primary":"true"}],"verified":"false","restricted":"true","stats":{"checkinsCount":"23","usersCount":"9","tipCount":"0"},"url":"http:\/\/www.facebook.com\/SunshineFactorySW8?ref=hl","specials":{"count":"2","items":[{"id":"51b44d66abd88dd0b4a74250","type":"count","message":"Get 6-minutes Sunbed session for Free -New customers only.","description":"Unlocked on your 1st check-in","finePrint":"New customers only.","icon":"newbie","title":"Newbie Special","provider":"foursquare","redemption":"standard"},{"id":"51b44ddfabd88dd0b4a7aae6","type":"frequency","message":"Get 3-minutes of Sunbed for Free when you check in.","description":"Unlocked every check-in","finePrint":"3 minutes free when paying for 6 or more minutes.","icon":"check-in","title":"Check-in Special","provider":"foursquare","redemption":"standard"}]},"hereNow":{"count":"0"},"storeId":"","referralId":"v-1392478119"},{"id":"4c62c83879d1e21e8be1d615","name":"Selectric","contact":{"phone":"+442076273872","formattedPhone":"+44 20 7627 3872"},"location":{"address":"383 Wandsworth Road","lat":"51.473981","lng":"-0.132226","distance":"52","postalCode":"SW8 2JL","cc":"GB","city":"Lambeth","state":"Greater London","country":"United Kingdom"},"categories":[{"id":"4bf58dd8d48988d1ff941735","name":"Miscellaneous Shop","pluralName":"Miscellaneous Shops","shortName":"Shop","icon":{"prefix":"https:\/\/ss1.4sqi.net\/img\/categories_v2\/shops\/default_","suffix":".png"},"primary":"true"}],"verified":"false","restricted":"true","stats":{"checkinsCount":"2","usersCount":"2","tipCount":"1"},"specials":{"count":"0"},"hereNow":{"count":"0"},"referralId":"v-1392478119"}],"confident":"true"}}