{"meta":{"code":"200"},"response":{"venues":[{"id":"4d4c5112190ba093db871fa5","name":"TfL Bus 12","contact":{"twitter":"tflbusalerts"},"location":{"address":"Moving Target!","lat":"51.4824519372339","lng":"-0.09346961975097656","distance":"363","cc":"GB","city":"London","state":"Greater London","country":"United Kingdom"},"categories":[{"id":"4bf58dd8d48988d12b951735","name":"Bus Line","pluralName":"Bus Lines","shortName":"Bus","icon":{"prefix":"https:\/\/ss1.4sqi.net\/img\/categories_v2\/travel\/busstation_","suffix":".png"},"primary":"true"}],"verified":"false","restricted":"true","stats":{"checkinsCount":"692","usersCount":"192","tipCount":"6"},"url":"http:\/\/tfl.gov.uk","specials":{"count":"0"},"hereNow":{"count":"0"},"referralId":"v-1392478097"},{"id":"4c004729efa2ef3b3e45aa8c","name":"TfL Bus 176","location":{"address":"Moving Target!","lat":"51.489730117771295","lng":"-0.0962867957189276","distance":"614","cc":"GB","city":"London","state":"Greater London","country":"United Kingdom"},"categories":[{"id":"4bf58dd8d48988d12b951735","name":"Bus Line","pluralName":"Bus Lines","shortName":"Bus","icon":{"prefix":"https:\/\/ss1.4sqi.net\/img\/categories_v2\/travel\/busstation_","suffix":".png"},"primary":"true"}],"verified":"false","restricted":"true","stats":{"checkinsCount":"1152","usersCount":"188","tipCount":"3"},"specials":{"count":"0"},"hereNow":{"count":"0"},"referralId":"v-1392478097"},{"id":"4d7b7c67cf3f370412553c40","name":"St Pauls Church","location":{"address":"Lorimore Square","lat":"51.48501085265586","lng":"-0.10074377059936523","distance":"219","postalCode":"SE17 3QU","cc":"GB","city":"Camberwell","state":"Greater London","country":"United Kingdom"},"categories":[{"id":"4bf58dd8d48988d132941735","name":"Church","pluralName":"Churches","shortName":"Church","icon":{"prefix":"https:\/\/ss1.4sqi.net\/img\/categories_v2\/building\/religious_church_","suffix":".png"},"primary":"true"}],"verified":"false","restricted":"true","stats":{"checkinsCount":"341","usersCount":"306","tipCount":"0"},"specials":{"count":"0"},"hereNow":{"count":"0"},"referralId":"v-1392478097"},{"id":"4c890c917223b1f72f8a30a8","name":"Tesco Express","contact":{"phone":"+448456719367","formattedPhone":"+44 845 671 9367","twitter":"uktescooffers"},"location":{"address":"364-368 Walworth Road","lat":"51.48520460280602","lng":"-0.09400606155395508","distance":"282","postalCode":"SE17 2NF","cc":"GB","city":"Camberwell","state":"Greater London","country":"United Kingdom"},"categories":[{"id":"4bf58dd8d48988d118951735","name":"Grocery Store","pluralName":"Grocery Stores","shortName":"Grocery Store","icon":{"prefix":"https:\/\/ss1.4sqi.net\/img\/categories_v2\/shops\/food_grocery_","suffix":".png"},"primary":"true"}],"verified":"true","restricted":"true","stats":{"checkinsCount":"645","usersCount":"120","tipCount":"1"},"url":"http:\/\/www.tesco.com","specials":{"count":"0"},"hereNow":{"count":"0"},"storeId":"6291","referralId":"v-1392478097"},{"id":"4ba5fcadf964a520e82c39e3","name":"Fitness First","contact":{"phone":"+448445712954","formattedPhone":"+44 844 571 2954"},"location":{"address":"Walworth Rd.","lat":"51.486086489639675","lng":"-0.0945425033569336","distance":"301","postalCode":"SE17 2NA","cc":"GB","city":"Walworth","state":"Greater London","country":"United Kingdom"},"categories":[{"id":"4bf58dd8d48988d176941735","name":"Gym","pluralName":"Gyms","shortName":"Gym","icon":{"prefix":"https:\/\/ss1.4sqi.net\/img\/categories_v2\/building\/gym_","suffix":".png"},"primary":"true"}],"verified":"true","restricted":"true","stats":{"checkinsCount":"438","usersCount":"87","tipCount":"5"},"specials":{"count":"0"},"hereNow":{"count":"0"},"referralId":"v-1392478097"},{"id":"4b89844df964a520113e32e3","name":"La Luna","contact":{"phone":"+442072771991","formattedPhone":"+44 20 7277 1991"},"location":{"address":"380 Walworth Rd.","crossStreet":"at Camberwell Rd.","lat":"51.48466283451766","lng":"-0.0937925821767206","distance":"281","postalCode":"SE17 2NG","cc":"GB","city":"Camberwell","state":"Greater London","country":"United Kingdom"},"categories":[{"id":"4bf58dd8d48988d110941735","name":"Italian Restaurant","pluralName":"Italian Restaurants","shortName":"Italian","icon":{"prefix":"https:\/\/ss1.4sqi.net\/img\/categories_v2\/food\/italian_","suffix":".png"},"primary":"true"}],"verified":"false","restricted":"true","stats":{"checkinsCount":"249","usersCount":"100","tipCount":"10"},"url":"http:\/\/www.lalunapizzeria.com\/La_Luna_Pizzeria\/Home.html","reservations":{"url":"http:\/\/www.toptable.co.uk\/single.aspx?rid=24120&ref=9601"},"menu":{"type":"Menu","label":"Menu","anchor":"View Menu","url":"https:\/\/foursquare.com\/v\/la-luna\/4b89844df964a520113e32e3\/menu","mobileUrl":"https:\/\/foursquare.com\/v\/4b89844df964a520113e32e3\/device_menu"},"specials":{"count":"0"},"hereNow":{"count":"0"},"referralId":"v-1392478097"},{"id":"4da037c4e8a6721e6b7232a5","name":"K.P.Corner Stores","contact":{"phone":"+442077012022","formattedPhone":"+44 20 7701 2022"},"location":{"address":"34b Sutherland Square","lat":"51.485249301754656","lng":"-0.09823197318318172","distance":"110","postalCode":"SE17 3EE","cc":"GB","city":"Walworth","state":"Greater London","country":"United Kingdom"},"categories":[{"id":"4bf58dd8d48988d118951735","name":"Grocery Store","pluralName":"Grocery Stores","shortName":"Grocery Store","icon":{"prefix":"https:\/\/ss1.4sqi.net\/img\/categories_v2\/shops\/food_grocery_","suffix":".png"},"primary":"true"}],"verified":"false","restricted":"true","stats":{"checkinsCount":"22","usersCount":"5","tipCount":"0"},"specials":{"count":"0"},"hereNow":{"count":"0"},"referralId":"v-1392478097"},{"id":"4ff44955e4b08a4c71535837","name":"Walworth","location":{"address":"Everywhere!","lat":"51.48642199057882","lng":"-0.09445774304337104","distance":"331","cc":"GB","city":"Walworth","state":"Greater London","country":"United Kingdom"},"categories":[{"id":"4f2a25ac4b909258e854f55f","name":"Neighborhood","pluralName":"Neighborhoods","shortName":"Neighborhood","icon":{"prefix":"https:\/\/ss1.4sqi.net\/img\/categories_v2\/parks_outdoors\/neighborhood_","suffix":".png"},"primary":"true"}],"verified":"false","restricted":"true","stats":{"checkinsCount":"190","usersCount":"66","tipCount":"1"},"specials":{"count":"0"},"hereNow":{"count":"0"},"referralId":"v-1392478097"},{"id":"4d4568f21ed56dcb63baba54","name":"Carter Street","location":{"lat":"51.48546317096578","lng":"-0.10011897038356547","distance":"207","postalCode":"SE17","cc":"GB","city":"Kennington","state":"Greater London","country":"United Kingdom"},"categories":[{"id":"4bf58dd8d48988d130941735","name":"Building","pluralName":"Buildings","shortName":"Building","icon":{"prefix":"https:\/\/ss1.4sqi.net\/img\/categories_v2\/building\/default_","suffix":".png"},"primary":"true"}],"verified":"false","restricted":"true","stats":{"checkinsCount":"7","usersCount":"4","tipCount":"0"},"specials":{"count":"0"},"hereNow":{"count":"0"},"referralId":"v-1392478097"},{"id":"4b5a2ce2f964a52022b228e3","name":"Red Lion","location":{"address":"407 Walworth Rd","lat":"51.48452416816693","lng":"-0.09400437384889689","distance":"264","postalCode":"SE17 2AW","cc":"GB","city":"London","state":"Greater London","country":"United Kingdom"},"categories":[{"id":"4bf58dd8d48988d11b941735","name":"Pub","pluralName":"Pubs","shortName":"Pub","icon":{"prefix":"https:\/\/ss1.4sqi.net\/img\/categories_v2\/nightlife\/pub_","suffix":".png"},"primary":"true"}],"verified":"false","restricted":"true","stats":{"checkinsCount":"48","usersCount":"24","tipCount":"1"},"specials":{"count":"0"},"hereNow":{"count":"0"},"referralId":"v-1392478097"},{"id":"4dd3b985fa76c0bf024bb068","name":"The Secret Garden","location":{"address":"Sutherland square","lat":"51.48379446254128","lng":"-0.09738947615167164","distance":"62","postalCode":"Se17","cc":"GB","city":"Camberwell","state":"Greater London","country":"United Kingdom"},"categories":[{"id":"4bf58dd8d48988d163941735","name":"Park","pluralName":"Parks","shortName":"Park","icon":{"prefix":"https:\/\/ss1.4sqi.net\/img\/categories_v2\/parks_outdoors\/park_","suffix":".png"},"primary":"true"}],"verified":"false","restricted":"true","stats":{"checkinsCount":"66","usersCount":"25","tipCount":"0"},"specials":{"count":"0"},"hereNow":{"count":"0"},"referralId":"v-1392478097"},{"id":"4bce4bd268f976b094e46583","name":"The Best Kebab","contact":{"phone":"+442077037383","formattedPhone":"+44 20 7703 7383"},"location":{"address":"294 Walworth Rd.","lat":"51.48698110703202","lng":"-0.09524470122943196","distance":"348","postalCode":"SE17 2TE","cc":"GB","city":"Walworth","state":"Greater London","country":"United Kingdom"},"categories":[{"id":"4bf58dd8d48988d10b941735","name":"Falafel Restaurant","pluralName":"Falafel Restaurants","shortName":"Falafel","icon":{"prefix":"https:\/\/ss1.4sqi.net\/img\/categories_v2\/food\/falafel_","suffix":".png"},"primary":"true"}],"verified":"false","restricted":"true","stats":{"checkinsCount":"374","usersCount":"110","tipCount":"5"},"specials":{"count":"0"},"hereNow":{"count":"0"},"referralId":"v-1392478097"},{"id":"4ac518bbf964a52034a220e3","name":"The Beehive","location":{"address":"60 Carter Street","lat":"51.486071","lng":"-0.098445","distance":"203","postalCode":"SE17 3EW","cc":"GB","city":"London","state":"Greater London","country":"United Kingdom"},"categories":[{"id":"4bf58dd8d48988d117941735","name":"Beer Garden","pluralName":"Beer Gardens","shortName":"Beer Garden","icon":{"prefix":"https:\/\/ss1.4sqi.net\/img\/categories_v2\/nightlife\/beergarden_","suffix":".png"},"primary":"true"}],"verified":"false","restricted":"true","stats":{"checkinsCount":"282","usersCount":"153","tipCount":"6"},"menu":{"type":"Menu","label":"Menu","anchor":"View Menu","url":"https:\/\/foursquare.com\/v\/the-beehive\/4ac518bbf964a52034a220e3\/menu","mobileUrl":"https:\/\/foursquare.com\/v\/4ac518bbf964a52034a220e3\/device_menu"},"specials":{"count":"0"},"hereNow":{"count":"0"},"referralId":"v-1392478097"},{"id":"4cc06e2d575d236aac99c48e","name":"Iceland","contact":{"phone":"+442072526068","formattedPhone":"+44 20 7252 6068","twitter":"icelandfoods"},"location":{"address":"332\/334 Walworth Rd.","crossStreet":"at MacLeod St.","lat":"51.4860119208301","lng":"-0.09432488032306942","distance":"308","postalCode":"SE17 2NA","cc":"GB","city":"Southwark","state":"Greater London","country":"United Kingdom"},"categories":[{"id":"4bf58dd8d48988d118951735","name":"Grocery Store","pluralName":"Grocery Stores","shortName":"Grocery Store","icon":{"prefix":"https:\/\/ss1.4sqi.net\/img\/categories_v2\/shops\/food_grocery_","suffix":".png"},"primary":"true"}],"verified":"false","restricted":"true","stats":{"checkinsCount":"139","usersCount":"38","tipCount":"0"},"url":"http:\/\/www.iceland.co.uk","specials":{"count":"0"},"hereNow":{"count":"0"},"referralId":"v-1392478097"},{"id":"4bec0800415e20a1def9e6bb","name":"Argos","contact":{"twitter":"argos_online"},"location":{"address":"367-369 Walworth Road","lat":"51.485455","lng":"-0.094065","distance":"289","postalCode":"SE17 2AL","cc":"GB","country":"United Kingdom"},"categories":[{"id":"4bf58dd8d48988d1ff941735","name":"Miscellaneous Shop","pluralName":"Miscellaneous Shops","shortName":"Shop","icon":{"prefix":"https:\/\/ss1.4sqi.net\/img\/categories_v2\/shops\/default_","suffix":".png"},"primary":"true"}],"verified":"true","restricted":"true","stats":{"checkinsCount":"152","usersCount":"99","tipCount":"4"},"specials":{"count":"0"},"hereNow":{"count":"0"},"storeId":"","referralId":"v-1392478097"},{"id":"4c76e7ca411c9c744ac114e2","name":"20 Old Station House","location":{"address":"Carter Place","crossStreet":"Walworth Road","lat":"51.48698552151121","lng":"-0.09567466919302046","distance":"334","postalCode":"SE17 2GD","cc":"GB","city":"London","state":"Greater London","country":"United Kingdom"},"verified":"false","restricted":"true","stats":{"checkinsCount":"68","usersCount":"4","tipCount":"0"},"specials":{"count":"0"},"hereNow":{"count":"0"},"referralId":"v-1392478097"},{"id":"50716a46e4b09822b91a7977","name":"Safi Nails & Beauty","location":{"lat":"51.48546293548021","lng":"-0.09424257652098214","distance":"279","cc":"GB","country":"United Kingdom"},"categories":[{"id":"4f04aa0c2fb6e1c99f3db0b8","name":"Nail Salon","pluralName":"Nail Salons","shortName":"Nail Salon","icon":{"prefix":"https:\/\/ss1.4sqi.net\/img\/categories_v2\/shops\/nailsalon_","suffix":".png"},"primary":"true"}],"verified":"false","restricted":"true","stats":{"checkinsCount":"30","usersCount":"6","tipCount":"0"},"specials":{"count":"0"},"hereNow":{"count":"0"},"referralId":"v-1392478097"},{"id":"4d9971202bd6f04df0c87e50","name":"Vicom Mart Ltd","contact":{"phone":"+442077351849","formattedPhone":"+44 20 7735 1849"},"location":{"address":"1-3 Maddock Way","lat":"51.48246555088918","lng":"-0.10202361828481014","distance":"356","postalCode":"SE17 3NH","cc":"GB","city":"London","state":"Greater London","country":"United Kingdom"},"categories":[{"id":"4bf58dd8d48988d118951735","name":"Grocery Store","pluralName":"Grocery Stores","shortName":"Grocery Store","icon":{"prefix":"https:\/\/ss1.4sqi.net\/img\/categories_v2\/shops\/food_grocery_","suffix":".png"},"primary":"true"}],"verified":"false","restricted":"true","stats":{"checkinsCount":"165","usersCount":"5","tipCount":"0"},"specials":{"count":"0"},"hereNow":{"count":"0"},"referralId":"v-1392478097"},{"id":"513a2d8ce4b0cff95c04861d","name":"Ocean Fish Bar","location":{"address":"1 Westmoreland Road","lat":"51.48449915266159","lng":"-0.09323631091308619","distance":"317","postalCode":"SE17 2AX","cc":"GB","city":"London","state":"Greater London","country":"United Kingdom"},"categories":[{"id":"4edd64a0c7ddd24ca188df1a","name":"Fish & Chips Shop","pluralName":"Fish & Chips Shops","shortName":"Fish & Chips","icon":{"prefix":"https:\/\/ss1.4sqi.net\/img\/categories_v2\/food\/fishandchips_","suffix":".png"},"primary":"true"}],"verified":"false","restricted":"true","stats":{"checkinsCount":"22","usersCount":"9","tipCount":"0"},"specials":{"count":"0"},"hereNow":{"count":"0"},"referralId":"v-1392478097"},{"id":"4da9af79fa8cc764971fd797","name":"The Duke of Sutherland","location":{"lat":"51.48462","lng":"-0.099128","distance":"98","cc":"GB","city":"Camberwell","state":"Greater London","country":"United Kingdom"},"categories":[{"id":"4bf58dd8d48988d11b941735","name":"Pub","pluralName":"Pubs","shortName":"Pub","icon":{"prefix":"https:\/\/ss1.4sqi.net\/img\/categories_v2\/nightlife\/pub_","suffix":".png"},"primary":"true"}],"verified":"false","restricted":"true","stats":{"checkinsCount":"3","usersCount":"2","tipCount":"0"},"specials":{"count":"0"},"hereNow":{"count":"0"},"referralId":"v-1392478097"},{"id":"514f154ee4b06c69f81b75c2","name":"The Nawab Restaurant","contact":{"phone":"+442036450772","formattedPhone":"+44 20 3645 0772"},"location":{"address":"310 Walworth Road","lat":"51.486575","lng":"-0.094835","distance":"327","postalCode":"Se17 2na","cc":"GB","city":"London","state":"Greater London","country":"United Kingdom"},"categories":[{"id":"4bf58dd8d48988d10f941735","name":"Indian Restaurant","pluralName":"Indian Restaurants","shortName":"Indian","icon":{"prefix":"https:\/\/ss1.4sqi.net\/img\/categories_v2\/food\/indian_","suffix":".png"},"primary":"true"}],"verified":"false","restricted":"true","stats":{"checkinsCount":"12","usersCount":"3","tipCount":"1"},"specials":{"count":"0"},"hereNow":{"count":"0"},"referralId":"v-1392478097"},{"id":"4b5a2597f964a52032b028e3","name":"Banana's Bar","location":{"address":"374 Walworth Road","lat":"51.484764","lng":"-0.093788","distance":"283","postalCode":"SE17 2NF","cc":"GB","city":"London","state":"Greater London","country":"United Kingdom"},"categories":[{"id":"4bf58dd8d48988d116941735","name":"Bar","pluralName":"Bars","shortName":"Bar","icon":{"prefix":"https:\/\/ss1.4sqi.net\/img\/categories_v2\/nightlife\/bar_","suffix":".png"},"primary":"true"}],"verified":"false","restricted":"true","stats":{"checkinsCount":"61","usersCount":"24","tipCount":"4"},"specials":{"count":"0"},"hereNow":{"count":"0"},"referralId":"v-1392478097"},{"id":"52b71e1711d22f848e50867b","name":"Superdrug","contact":{"phone":"+442072774040","formattedPhone":"+44 20 7277 4040"},"location":{"address":"371-375 Walworth Rd.","crossStreet":"Walworth","lat":"51.485298","lng":"-0.093746","distance":"302","postalCode":"SE17 2AL","cc":"GB","city":"London","state":"Greater London","country":"United Kingdom"},"categories":[{"id":"4bf58dd8d48988d10f951735","name":"Drugstore \/ Pharmacy","pluralName":"Drugstores \/ Pharmacies","shortName":"Pharmacy","icon":{"prefix":"https:\/\/ss1.4sqi.net\/img\/categories_v2\/shops\/pharmacy_","suffix":".png"},"primary":"true"}],"verified":"false","restricted":"true","stats":{"checkinsCount":"2","usersCount":"2","tipCount":"0"},"specials":{"count":"0"},"hereNow":{"count":"0"},"referralId":"v-1392478097"},{"id":"4c6d11026af58cfa9a578817","name":"CeX","contact":{"twitter":"cex"},"location":{"address":"318-320 Walworth Rd.","lat":"51.48622094247857","lng":"-0.09467124938964844","distance":"305","postalCode":"SE17 2NA","cc":"GB","city":"London","state":"Greater London","country":"United Kingdom"},"categories":[{"id":"4bf58dd8d48988d122951735","name":"Electronics Store","pluralName":"Electronics Stores","shortName":"Electronics","icon":{"prefix":"https:\/\/ss1.4sqi.net\/img\/categories_v2\/shops\/technology_","suffix":".png"},"primary":"true"}],"verified":"false","restricted":"true","stats":{"checkinsCount":"85","usersCount":"26","tipCount":"2"},"url":"http:\/\/uk.webuy.com","specials":{"count":"0"},"hereNow":{"count":"0"},"referralId":"v-1392478097"},{"id":"4e134bab1838f8ad816cc78f","name":"Westmoreland Road Bus stop","location":{"lat":"51.4844028727021","lng":"-0.09360909461975098","distance":"291","cc":"GB","country":"United Kingdom"},"categories":[{"id":"4bf58dd8d48988d12b951735","name":"Bus Line","pluralName":"Bus Lines","shortName":"Bus","icon":{"prefix":"https:\/\/ss1.4sqi.net\/img\/categories_v2\/travel\/busstation_","suffix":".png"},"primary":"true"}],"verified":"false","restricted":"true","stats":{"checkinsCount":"156","usersCount":"39","tipCount":"0"},"specials":{"count":"0"},"hereNow":{"count":"0"},"referralId":"v-1392478097"},{"id":"518d4add498e322549d1d7a7","name":"Costcutter","location":{"lat":"51.483668","lng":"-0.094147","distance":"262","cc":"GB","country":"United Kingdom"},"categories":[{"id":"4d954b0ea243a5684a65b473","name":"Convenience Store","pluralName":"Convenience Stores","shortName":"Convenience Stores","icon":{"prefix":"https:\/\/ss1.4sqi.net\/img\/categories_v2\/shops\/conveniencestore_","suffix":".png"},"primary":"true"}],"verified":"false","restricted":"true","stats":{"checkinsCount":"14","usersCount":"4","tipCount":"0"},"specials":{"count":"0"},"hereNow":{"count":"0"},"referralId":"v-1392478097"},{"id":"4fb7a7fce4b066c0609ed9ee","name":"Sir Robert Peel","location":{"lat":"51.48432249036529","lng":"-0.09595277468419815","distance":"128","cc":"GB","country":"United Kingdom"},"categories":[{"id":"4bf58dd8d48988d11b941735","name":"Pub","pluralName":"Pubs","shortName":"Pub","icon":{"prefix":"https:\/\/ss1.4sqi.net\/img\/categories_v2\/nightlife\/pub_","suffix":".png"},"primary":"true"}],"verified":"false","restricted":"true","stats":{"checkinsCount":"5","usersCount":"5","tipCount":"0"},"specials":{"count":"0"},"hereNow":{"count":"0"},"referralId":"v-1392478097"},{"id":"4dca742bd22da18f4e631266","name":"Consumers Food And Wine","contact":{"phone":"+442077352491","formattedPhone":"+44 20 7735 2491"},"location":{"address":"8 Maddock Way","lat":"51.48246555088918","lng":"-0.10179892559702597","distance":"343","postalCode":"SE17 3NH","cc":"GB","city":"Walworth","state":"Greater London","country":"United Kingdom"},"categories":[{"id":"4d4b7105d754a06378d81259","name":"Shop & Service","pluralName":"Shops & Services","shortName":"Shops","icon":{"prefix":"https:\/\/ss1.4sqi.net\/img\/categories_v2\/shops\/default_","suffix":".png"},"primary":"true"}],"verified":"false","restricted":"true","stats":{"checkinsCount":"38","usersCount":"5","tipCount":"0"},"specials":{"count":"0"},"hereNow":{"count":"0"},"referralId":"v-1392478097"},{"id":"4ce3364a910ea1cda0c3747b","name":"Bagel King","location":{"address":"277-291 Walworth Rd","lat":"51.487256","lng":"-0.09531038","distance":"372","postalCode":"SE17 2te","cc":"GB","city":"Camberwell","state":"Greater London","country":"United Kingdom"},"categories":[{"id":"4bf58dd8d48988d179941735","name":"Bagel Shop","pluralName":"Bagel Shops","shortName":"Bagels","icon":{"prefix":"https:\/\/ss1.4sqi.net\/img\/categories_v2\/food\/bagels_","suffix":".png"},"primary":"true"}],"verified":"false","restricted":"true","stats":{"checkinsCount":"160","usersCount":"61","tipCount":"1"},"specials":{"count":"0"},"hereNow":{"count":"0"},"referralId":"v-1392478097"},{"id":"4c11a54fd41e76b09ddf310d","name":"Chicken Cottage","location":{"address":"278 Walworth Road","lat":"51.48712869754462","lng":"-0.0953364372253418","distance":"359","postalCode":"SE17 2TE","cc":"GB","city":"London","state":"Greater London","country":"United Kingdom"},"categories":[{"id":"4d4ae6fc7a7b7dea34424761","name":"Fried Chicken Joint","pluralName":"Fried Chicken Joints","shortName":"Fried Chicken","icon":{"prefix":"https:\/\/ss1.4sqi.net\/img\/categories_v2\/food\/friedchicken_","suffix":".png"},"primary":"true"}],"verified":"false","restricted":"true","stats":{"checkinsCount":"36","usersCount":"18","tipCount":"3"},"specials":{"count":"0"},"hereNow":{"count":"0"},"referralId":"v-1392478097"}],"confident":"true"}}