{"meta":{"code":"200"},"response":{"venues":[{"id":"4c004729efa2ef3b3e45aa8c","name":"TfL Bus 176","location":{"address":"Moving Target!","lat":"51.489730117771295","lng":"-0.0962867957189276","distance":"115","cc":"GB","city":"London","state":"Greater London","country":"United Kingdom"},"categories":[{"id":"4bf58dd8d48988d12b951735","name":"Bus Line","pluralName":"Bus Lines","shortName":"Bus","icon":{"prefix":"https:\/\/ss1.4sqi.net\/img\/categories_v2\/travel\/busstation_","suffix":".png"},"primary":"true"}],"verified":"false","restricted":"true","stats":{"checkinsCount":"1152","usersCount":"188","tipCount":"3"},"specials":{"count":"0"},"hereNow":{"count":"0"},"referralId":"v-1392478084"},{"id":"4bd3397341b9ef3bb598ffe5","name":"Morrisons","contact":{"phone":"+442077035116","formattedPhone":"+44 20 7703 5116","twitter":"morrisonsoffers","facebook":"132649753459881"},"location":{"address":"264 Walworth Rd","lat":"51.48861179849218","lng":"-0.09647369384765625","distance":"119","postalCode":"SE17 1JE","cc":"GB","city":"Southwark","state":"Greater London","country":"United Kingdom"},"categories":[{"id":"4bf58dd8d48988d118951735","name":"Grocery Store","pluralName":"Grocery Stores","shortName":"Grocery Store","icon":{"prefix":"https:\/\/ss1.4sqi.net\/img\/categories_v2\/shops\/food_grocery_","suffix":".png"},"primary":"true"}],"verified":"true","restricted":"true","stats":{"checkinsCount":"916","usersCount":"196","tipCount":"6"},"url":"http:\/\/www.morrisons.co.uk","specials":{"count":"0"},"hereNow":{"count":"0"},"storeId":"633","referralId":"v-1392478084"},{"id":"4c7a4b73a8683704ff38134d","name":"Cafe House","contact":{"phone":"+442072525049","formattedPhone":"+44 20 7252 5049"},"location":{"address":"189 Walworth Rd.","lat":"51.489807110440985","lng":"-0.09644755625424867","distance":"110","postalCode":"SE17 1RW","cc":"GB","city":"Walworth","state":"Greater London","country":"United Kingdom"},"categories":[{"id":"4bf58dd8d48988d143941735","name":"Breakfast Spot","pluralName":"Breakfast Spots","shortName":"Breakfast","icon":{"prefix":"https:\/\/ss1.4sqi.net\/img\/categories_v2\/food\/breakfast_","suffix":".png"},"primary":"true"}],"verified":"false","restricted":"true","stats":{"checkinsCount":"91","usersCount":"33","tipCount":"3"},"specials":{"count":"0"},"hereNow":{"count":"0"},"referralId":"v-1392478084"},{"id":"4f717edbbb3d7fb143540ba1","name":"Safestay","contact":{"twitter":"safestayhostel"},"location":{"address":"144-152 Walworth Road","crossStreet":"Elephant and Castle","lat":"51.49086976044979","lng":"-0.09736418724060059","distance":"178","postalCode":"SE17 1JL","cc":"GB","city":"London","state":"Greater London","country":"United Kingdom"},"categories":[{"id":"4bf58dd8d48988d1fa931735","name":"Hotel","pluralName":"Hotels","shortName":"Hotel","icon":{"prefix":"https:\/\/ss1.4sqi.net\/img\/categories_v2\/travel\/hotel_","suffix":".png"},"primary":"true"}],"verified":"false","restricted":"true","stats":{"checkinsCount":"685","usersCount":"375","tipCount":"5"},"specials":{"count":"0"},"hereNow":{"count":"0"},"referralId":"v-1392478084"},{"id":"4fd0b4e8e4b07573839df76e","name":"22 Amelia Street","location":{"lat":"51.490493208094975","lng":"-0.09834206677387813","distance":"139","cc":"GB","country":"United Kingdom"},"categories":[{"id":"4d954b06a243a5684965b473","name":"Residential Building (Apartment \/ Condo)","pluralName":"Residential Buildings (Apartments \/ Condos)","shortName":"Residential","icon":{"prefix":"https:\/\/ss1.4sqi.net\/img\/categories_v2\/building\/apartment_","suffix":".png"},"primary":"true"}],"verified":"false","restricted":"true","stats":{"checkinsCount":"316","usersCount":"35","tipCount":"1"},"specials":{"count":"0"},"hereNow":{"count":"0"},"referralId":"v-1392478084"},{"id":"508e2e52e4b01ff75364e893","name":"Walworth Rd.","location":{"crossStreet":"Walworth","lat":"51.49060201944036","lng":"-0.09671154618657121","distance":"164","cc":"GB","city":"London","state":"Greater London","country":"United Kingdom"},"categories":[{"id":"4f04ad622fb6e1c99f3db0b9","name":"Newsstand","pluralName":"Newsstands","shortName":"Newsstand","icon":{"prefix":"https:\/\/ss1.4sqi.net\/img\/categories_v2\/shops\/newsstand_","suffix":".png"},"primary":"true"}],"verified":"false","restricted":"true","stats":{"checkinsCount":"55","usersCount":"25","tipCount":"0"},"specials":{"count":"0"},"hereNow":{"count":"1","groups":[{"type":"others","name":"Other people here","count":"1"}]},"referralId":"v-1392478084"},{"id":"4c054335187ec9280e2cb87b","name":"Julian Markham House","location":{"address":"114 Walworth Ro","lat":"51.49073615634605","lng":"-0.09810447692871094","distance":"162","postalCode":"SE17 1JL","cc":"GB","city":"Camberwell","state":"Greater London","country":"United Kingdom"},"categories":[{"id":"4bf58dd8d48988d130941735","name":"Building","pluralName":"Buildings","shortName":"Building","icon":{"prefix":"https:\/\/ss1.4sqi.net\/img\/categories_v2\/building\/default_","suffix":".png"},"primary":"true"}],"verified":"false","restricted":"true","stats":{"checkinsCount":"333","usersCount":"33","tipCount":"1"},"specials":{"count":"0"},"hereNow":{"count":"0"},"referralId":"v-1392478084"},{"id":"4bedc180a40fc9288574820c","name":"McDonald's","contact":{"phone":"+442077081185","formattedPhone":"+44 20 7708 1185"},"location":{"address":"Walworth Rd","lat":"51.489507","lng":"-0.096469","distance":"95","postalCode":"SE17","cc":"GB","city":"Walworth","state":"Greater London","country":"United Kingdom"},"categories":[{"id":"4bf58dd8d48988d16e941735","name":"Fast Food Restaurant","pluralName":"Fast Food Restaurants","shortName":"Fast Food","icon":{"prefix":"https:\/\/ss1.4sqi.net\/img\/categories_v2\/food\/fastfood_","suffix":".png"},"primary":"true"}],"verified":"false","restricted":"true","stats":{"checkinsCount":"402","usersCount":"203","tipCount":"4"},"specials":{"count":"0"},"hereNow":{"count":"0"},"referralId":"v-1392478084"},{"id":"4d34acd0eefa8cfa4c0f4db3","name":"Husky Studio","location":{"crossStreet":"Amelia Street","lat":"51.489457108426805","lng":"-0.09829663309528738","distance":"38","postalCode":"SE17 1","cc":"GB","city":"Camberwell","state":"Greater London","country":"United Kingdom"},"categories":[{"id":"4bf58dd8d48988d134941735","name":"Dance Studio","pluralName":"Dance Studios","shortName":"Dance Studio","icon":{"prefix":"https:\/\/ss1.4sqi.net\/img\/categories_v2\/arts_entertainment\/performingarts_dancestudio_","suffix":".png"},"primary":"true"}],"verified":"false","restricted":"true","stats":{"checkinsCount":"116","usersCount":"37","tipCount":"2"},"specials":{"count":"0"},"hereNow":{"count":"0"},"referralId":"v-1392478084"},{"id":"4b58224af964a520d54b28e3","name":"The Electric Elephant Cafe & Gallery","location":{"address":"186a Crampton St","lat":"51.489853","lng":"-0.099204","distance":"115","postalCode":"SE17 3AE","cc":"GB","city":"London","state":"Greater London","country":"United Kingdom"},"categories":[{"id":"4bf58dd8d48988d16d941735","name":"Caf\u00e9","pluralName":"Caf\u00e9s","shortName":"Caf\u00e9","icon":{"prefix":"https:\/\/ss1.4sqi.net\/img\/categories_v2\/food\/cafe_","suffix":".png"},"primary":"true"}],"verified":"false","restricted":"true","stats":{"checkinsCount":"223","usersCount":"145","tipCount":"8"},"specials":{"count":"0"},"hereNow":{"count":"0"},"referralId":"v-1392478084"},{"id":"515435cbe4b0186b41243ebb","name":"Aobaba","location":{"lat":"51.49117111613211","lng":"-0.0976965812846246","distance":"209","cc":"GB","country":"United Kingdom"},"categories":[{"id":"4bf58dd8d48988d14a941735","name":"Vietnamese Restaurant","pluralName":"Vietnamese Restaurants","shortName":"Vietnamese","icon":{"prefix":"https:\/\/ss1.4sqi.net\/img\/categories_v2\/food\/default_","suffix":".png"},"primary":"true"}],"verified":"false","restricted":"true","stats":{"checkinsCount":"112","usersCount":"65","tipCount":"5"},"menu":{"type":"Menu","label":"Menu","anchor":"View Menu","url":"https:\/\/foursquare.com\/v\/aobaba\/515435cbe4b0186b41243ebb\/menu","mobileUrl":"https:\/\/foursquare.com\/v\/515435cbe4b0186b41243ebb\/device_menu"},"specials":{"count":"0"},"hereNow":{"count":"2","groups":[{"type":"others","name":"Other people here","count":"2"}]},"referralId":"v-1392478084"},{"id":"4b589d83f964a520726128e3","name":"Woodcraft Folk","location":{"address":"Units 9\/10, 83 Crampton St","lat":"51.490306","lng":"-0.099053","distance":"142","postalCode":"SE17 3BQ","cc":"GB","city":"London","state":"Greater London","country":"United Kingdom"},"categories":[{"id":"4bf58dd8d48988d124941735","name":"Office","pluralName":"Offices","shortName":"Office","icon":{"prefix":"https:\/\/ss1.4sqi.net\/img\/categories_v2\/building\/default_","suffix":".png"},"primary":"true"}],"verified":"false","restricted":"true","stats":{"checkinsCount":"145","usersCount":"3","tipCount":"0"},"specials":{"count":"0"},"hereNow":{"count":"0"},"referralId":"v-1392478084"},{"id":"506999643d7cfe42e733a84f","name":"Elephant & Castle Railway Station (ZEL)","contact":{"phone":"+448457484950","formattedPhone":"+44 845 748 4950","twitter":"nationalrailenq","facebook":"94740547473"},"location":{"address":"Camberwell","lat":"51.49054503310377","lng":"-0.09804321759456538","distance":"140","postalCode":"SE17 1LB","cc":"GB","city":"London","state":"Greater London","country":"United Kingdom"},"categories":[{"id":"4bf58dd8d48988d129951735","name":"Train Station","pluralName":"Train Stations","shortName":"Train Station","icon":{"prefix":"https:\/\/ss1.4sqi.net\/img\/categories_v2\/travel\/trainstation_","suffix":".png"},"primary":"true"}],"verified":"true","restricted":"true","stats":{"checkinsCount":"156","usersCount":"132","tipCount":"0"},"url":"http:\/\/www.nationalrail.co.uk\/stations\/zel\/details.html","specials":{"count":"0"},"hereNow":{"count":"0"},"storeId":"ZEL","referralId":"v-1392478084"},{"id":"4c1cbf5fb4e62d7fd97bdb93","name":"Ossie's jerk chicken","location":{"lat":"51.489427","lng":"-0.09644150733947754","distance":"95","cc":"GB","country":"United Kingdom"},"categories":[{"id":"4bf58dd8d48988d144941735","name":"Caribbean Restaurant","pluralName":"Caribbean Restaurants","shortName":"Caribbean","icon":{"prefix":"https:\/\/ss1.4sqi.net\/img\/categories_v2\/food\/caribbean_","suffix":".png"},"primary":"true"}],"verified":"false","restricted":"true","stats":{"checkinsCount":"96","usersCount":"33","tipCount":"0"},"specials":{"count":"0"},"hereNow":{"count":"0"},"referralId":"v-1392478084"},{"id":"4bc76b8315a7ef3bb45e79da","name":"Tesco Express","contact":{"phone":"+448456757086","formattedPhone":"+44 845 675 7086","twitter":"uktescooffers"},"location":{"address":"224-226 Walworth Road","lat":"51.489052711092484","lng":"-0.09655952453613281","distance":"90","postalCode":"SE17 1JE","cc":"GB","city":"London","state":"Greater London","country":"United Kingdom"},"categories":[{"id":"4bf58dd8d48988d118951735","name":"Grocery Store","pluralName":"Grocery Stores","shortName":"Grocery Store","icon":{"prefix":"https:\/\/ss1.4sqi.net\/img\/categories_v2\/shops\/food_grocery_","suffix":".png"},"primary":"true"}],"verified":"true","restricted":"true","stats":{"checkinsCount":"308","usersCount":"103","tipCount":"1"},"url":"http:\/\/www.tesco.com","specials":{"count":"0"},"hereNow":{"count":"0"},"storeId":"5784","referralId":"v-1392478084"},{"id":"4e1838ed14957dc705d4dab4","name":"G Baldwin & Co.","contact":{"phone":"+442077035550","formattedPhone":"+44 20 7703 5550","twitter":"baldwinsuk"},"location":{"address":"171-173 Walworth Rd.","lat":"51.489613475859436","lng":"-0.09653904986383487","distance":"94","postalCode":"SE17 1RW","cc":"GB","city":"Camberwell","state":"Greater London","country":"United Kingdom"},"categories":[{"id":"4bf58dd8d48988d1f9941735","name":"Food & Drink Shop","pluralName":"Food & Drink Shops","shortName":"Food & Drink","icon":{"prefix":"https:\/\/ss1.4sqi.net\/img\/categories_v2\/shops\/foodanddrink_","suffix":".png"},"primary":"true"}],"verified":"true","restricted":"true","stats":{"checkinsCount":"52","usersCount":"27","tipCount":"2"},"specials":{"count":"0"},"hereNow":{"count":"0"},"venuePage":{"id":"77510098"},"referralId":"v-1392478084"},{"id":"4b1edff6f964a520e62024e3","name":"Mama Thai","location":{"address":"235 Walworth Road","lat":"51.488647","lng":"-0.09610891342162807","distance":"137","postalCode":"SE17 1R","cc":"GB","city":"London","state":"Greater London","country":"United Kingdom"},"categories":[{"id":"4bf58dd8d48988d149941735","name":"Thai Restaurant","pluralName":"Thai Restaurants","shortName":"Thai","icon":{"prefix":"https:\/\/ss1.4sqi.net\/img\/categories_v2\/food\/thai_","suffix":".png"},"primary":"true"}],"verified":"false","restricted":"true","stats":{"checkinsCount":"122","usersCount":"70","tipCount":"5"},"menu":{"type":"Menu","label":"Menu","anchor":"View Menu","url":"https:\/\/foursquare.com\/v\/mama-thai\/4b1edff6f964a520e62024e3\/menu","mobileUrl":"https:\/\/foursquare.com\/v\/4b1edff6f964a520e62024e3\/device_menu"},"specials":{"count":"0"},"hereNow":{"count":"0"},"referralId":"v-1392478084"},{"id":"5128079ee4b0b8fa8a0033d1","name":"O Central","location":{"lat":"51.490555","lng":"-0.098934","distance":"161","cc":"GB","country":"United Kingdom"},"categories":[{"id":"4d954b06a243a5684965b473","name":"Residential Building (Apartment \/ Condo)","pluralName":"Residential Buildings (Apartments \/ Condos)","shortName":"Residential","icon":{"prefix":"https:\/\/ss1.4sqi.net\/img\/categories_v2\/building\/apartment_","suffix":".png"},"primary":"true"}],"verified":"false","restricted":"true","stats":{"checkinsCount":"38","usersCount":"10","tipCount":"0"},"specials":{"count":"0"},"hereNow":{"count":"0"},"referralId":"v-1392478084"},{"id":"506ab926e4b0155ce7945fea","name":"Manor Place Surgery","location":{"lat":"51.489204","lng":"-0.09748","distance":"24","cc":"GB","country":"United Kingdom"},"categories":[{"id":"4bf58dd8d48988d177941735","name":"Doctor's Office","pluralName":"Doctor's Offices","shortName":"Doctor's Office","icon":{"prefix":"https:\/\/ss1.4sqi.net\/img\/categories_v2\/building\/medical_doctorsoffice_","suffix":".png"},"primary":"true"}],"verified":"false","restricted":"true","stats":{"checkinsCount":"12","usersCount":"4","tipCount":"0"},"specials":{"count":"0"},"hereNow":{"count":"0"},"referralId":"v-1392478084"},{"id":"4f080f49e4b07c8f8bb6f640","name":"Royal Mail Delivery Office","contact":{"phone":"+448456112452","formattedPhone":"+44 845 611 2452"},"location":{"address":"113 Crampton Street","lat":"51.48929732571598","lng":"-0.09872214243234174","distance":"63","postalCode":"SE17 3AA","cc":"GB","city":"London","state":"Greater London","country":"United Kingdom"},"categories":[{"id":"4bf58dd8d48988d172941735","name":"Post Office","pluralName":"Post Offices","shortName":"Post Office","icon":{"prefix":"https:\/\/ss1.4sqi.net\/img\/categories_v2\/building\/postoffice_","suffix":".png"},"primary":"true"}],"verified":"false","restricted":"true","stats":{"checkinsCount":"19","usersCount":"10","tipCount":"0"},"specials":{"count":"0"},"hereNow":{"count":"0"},"referralId":"v-1392478084"},{"id":"51741a93498e39cf07d1e94e","name":"Gabbys Carribbean Resturant & Takeway","location":{"lat":"51.48917007446289","lng":"-0.09822139889001846","distance":"31","cc":"GB","country":"United Kingdom"},"categories":[{"id":"4bf58dd8d48988d144941735","name":"Caribbean Restaurant","pluralName":"Caribbean Restaurants","shortName":"Caribbean","icon":{"prefix":"https:\/\/ss1.4sqi.net\/img\/categories_v2\/food\/caribbean_","suffix":".png"},"primary":"true"}],"verified":"false","restricted":"true","stats":{"checkinsCount":"1","usersCount":"1","tipCount":"1"},"specials":{"count":"0"},"hereNow":{"count":"0"},"referralId":"v-1392478084"},{"id":"4c29b7c8ce3fc928ae226f88","name":"Pullens Open Space","location":{"address":"Amelila St","lat":"51.49006244305372","lng":"-0.09929814127180493","distance":"134","postalCode":"SE17","cc":"GB","city":"Camberwell","state":"Greater London","country":"United Kingdom"},"categories":[{"id":"4bf58dd8d48988d163941735","name":"Park","pluralName":"Parks","shortName":"Park","icon":{"prefix":"https:\/\/ss1.4sqi.net\/img\/categories_v2\/parks_outdoors\/park_","suffix":".png"},"primary":"true"}],"verified":"false","restricted":"true","stats":{"checkinsCount":"78","usersCount":"23","tipCount":"0"},"specials":{"count":"0"},"hereNow":{"count":"0"},"referralId":"v-1392478084"},{"id":"516bd4e3e4b075b2e0194ed1","name":"CoolTan Arts","contact":{"phone":"+442077012696","formattedPhone":"+44 20 7701 2696"},"location":{"address":"3rd Floor, 224 - 236 Walworth Rd.","lat":"51.488509355917905","lng":"-0.09601876859944226","distance":"151","postalCode":"SE17 1JE","cc":"GB","city":"Southwark","state":"Greater London","country":"United Kingdom"},"categories":[{"id":"50328a8e91d4c4b30a586d6c","name":"Non-Profit","pluralName":"Non-Profits","shortName":"Non-Profit","icon":{"prefix":"https:\/\/ss1.4sqi.net\/img\/categories_v2\/building\/default_","suffix":".png"},"primary":"true"}],"verified":"false","restricted":"true","stats":{"checkinsCount":"28","usersCount":"3","tipCount":"0"},"specials":{"count":"0"},"hereNow":{"count":"0"},"referralId":"v-1392478084"},{"id":"4cac5b2397c8a1cd07c39fa5","name":"Walworth Police Station","location":{"address":"12-28 Manor Place","lat":"51.48913917660392","lng":"-0.09737416143309506","distance":"34","postalCode":"SE17 3BB","cc":"GB","city":"Walworth","state":"Greater London","country":"United Kingdom"},"categories":[{"id":"4bf58dd8d48988d12e941735","name":"Police Station","pluralName":"Police Stations","shortName":"Police Station","icon":{"prefix":"https:\/\/ss1.4sqi.net\/img\/categories_v2\/building\/government_policestation_","suffix":".png"},"primary":"true"}],"verified":"false","restricted":"true","stats":{"checkinsCount":"28","usersCount":"26","tipCount":"0"},"specials":{"count":"0"},"hereNow":{"count":"0"},"referralId":"v-1392478084"},{"id":"503bdf80e4b0d21c21bb7af2","name":"Afro World Super Store","location":{"address":"188 Walworth Road","lat":"51.49013001361124","lng":"-0.09701631855132611","distance":"108","cc":"GB","city":"London","state":"Greater London","country":"United Kingdom"},"categories":[{"id":"4d954b0ea243a5684a65b473","name":"Convenience Store","pluralName":"Convenience Stores","shortName":"Convenience Stores","icon":{"prefix":"https:\/\/ss1.4sqi.net\/img\/categories_v2\/shops\/conveniencestore_","suffix":".png"},"primary":"true"}],"verified":"false","restricted":"true","stats":{"checkinsCount":"6","usersCount":"4","tipCount":"1"},"specials":{"count":"0"},"hereNow":{"count":"0"},"referralId":"v-1392478084"},{"id":"4b5a0f03f964a52099aa28e3","name":"The Tankard","location":{"address":"178 Walworth Road","lat":"51.490096","lng":"-0.0969","distance":"109","postalCode":"SE17 1JL","cc":"GB","city":"Walworth","state":"Greater London","country":"United Kingdom"},"categories":[{"id":"4bf58dd8d48988d11b941735","name":"Pub","pluralName":"Pubs","shortName":"Pub","icon":{"prefix":"https:\/\/ss1.4sqi.net\/img\/categories_v2\/nightlife\/pub_","suffix":".png"},"primary":"true"}],"verified":"false","restricted":"true","stats":{"checkinsCount":"79","usersCount":"64","tipCount":"1"},"specials":{"count":"0"},"hereNow":{"count":"0"},"referralId":"v-1392478084"},{"id":"528621d211d22e52c3b55fbc","name":"Post Office Walworth Road","location":{"lat":"51.489039","lng":"-0.098372","distance":"48","cc":"GB","country":"United Kingdom"},"categories":[{"id":"4bf58dd8d48988d172941735","name":"Post Office","pluralName":"Post Offices","shortName":"Post Office","icon":{"prefix":"https:\/\/ss1.4sqi.net\/img\/categories_v2\/building\/postoffice_","suffix":".png"},"primary":"true"}],"verified":"false","restricted":"true","stats":{"checkinsCount":"2","usersCount":"2","tipCount":"0"},"specials":{"count":"0"},"hereNow":{"count":"0"},"referralId":"v-1392478084"},{"id":"527c1e8f498e3c08d49beab3","name":"Abacus Arts","location":{"lat":"51.48975133219912","lng":"-0.09621220279675055","distance":"121","cc":"GB","country":"United Kingdom"},"categories":[{"id":"4bf58dd8d48988d1f2931735","name":"Performing Arts Venue","pluralName":"Performing Arts Venues","shortName":"Performing Arts","icon":{"prefix":"https:\/\/ss1.4sqi.net\/img\/categories_v2\/arts_entertainment\/default_","suffix":".png"},"primary":"true"}],"verified":"false","restricted":"true","stats":{"checkinsCount":"4","usersCount":"2","tipCount":"0"},"specials":{"count":"0"},"hereNow":{"count":"0"},"referralId":"v-1392478084"},{"id":"52fe404111d26b65d2a5ef6c","name":"Castle BBQ & Restaurant","location":{"lat":"51.49074508870565","lng":"-0.09784418048796527","distance":"162","cc":"GB","country":"United Kingdom"},"categories":[{"id":"4f04af1f2fb6e1c99f3db0bb","name":"Turkish Restaurant","pluralName":"Turkish Restaurants","shortName":"Turkish","icon":{"prefix":"https:\/\/ss1.4sqi.net\/img\/categories_v2\/food\/turkish_","suffix":".png"},"primary":"true"}],"verified":"false","restricted":"true","stats":{"checkinsCount":"2","usersCount":"2","tipCount":"0"},"specials":{"count":"0"},"hereNow":{"count":"0"},"referralId":"v-1392478084"},{"id":"4c56b9b3b7a31b8da1864eda","name":"Iliffe Yard","location":{"address":"Crampton Street","lat":"51.489937662832645","lng":"-0.09977939920351321","distance":"154","postalCode":"SE17 3QA","cc":"GB","city":"Walworth","state":"Greater London","country":"United Kingdom"},"categories":[{"id":"4bf58dd8d48988d1f4941735","name":"Design Studio","pluralName":"Design Studios","shortName":"Design","icon":{"prefix":"https:\/\/ss1.4sqi.net\/img\/categories_v2\/shops\/design_","suffix":".png"},"primary":"true"}],"verified":"false","restricted":"true","stats":{"checkinsCount":"160","usersCount":"48","tipCount":"1"},"specials":{"count":"0"},"hereNow":{"count":"0"},"referralId":"v-1392478084"}],"confident":"true"}}