{"meta":{"code":"200"},"response":{"venues":[{"id":"4ac518eef964a52024ad20e3","name":"East Street Market","location":{"address":"East St.","lat":"51.488117436869885","lng":"-0.09449958801269531","distance":"175","postalCode":"SE17 1EL","cc":"GB","city":"Walworth","state":"Greater London","country":"United Kingdom"},"categories":[{"id":"4bf58dd8d48988d1ff941735","name":"Miscellaneous Shop","pluralName":"Miscellaneous Shops","shortName":"Shop","icon":{"prefix":"https:\/\/ss1.4sqi.net\/img\/categories_v2\/shops\/default_","suffix":".png"},"primary":"true"}],"verified":"false","restricted":"true","stats":{"checkinsCount":"738","usersCount":"253","tipCount":"8"},"specials":{"count":"0"},"hereNow":{"count":"0"},"referralId":"v-1392478084"},{"id":"4bd3397341b9ef3bb598ffe5","name":"Morrisons","contact":{"phone":"+442077035116","formattedPhone":"+44 20 7703 5116","twitter":"morrisonsoffers","facebook":"132649753459881"},"location":{"address":"264 Walworth Rd","lat":"51.48861179849218","lng":"-0.09647369384765625","distance":"265","postalCode":"SE17 1JE","cc":"GB","city":"Southwark","state":"Greater London","country":"United Kingdom"},"categories":[{"id":"4bf58dd8d48988d118951735","name":"Grocery Store","pluralName":"Grocery Stores","shortName":"Grocery Store","icon":{"prefix":"https:\/\/ss1.4sqi.net\/img\/categories_v2\/shops\/food_grocery_","suffix":".png"},"primary":"true"}],"verified":"true","restricted":"true","stats":{"checkinsCount":"916","usersCount":"196","tipCount":"6"},"url":"http:\/\/www.morrisons.co.uk","specials":{"count":"0"},"hereNow":{"count":"0"},"storeId":"633","referralId":"v-1392478084"},{"id":"4c7a4b73a8683704ff38134d","name":"Cafe House","contact":{"phone":"+442072525049","formattedPhone":"+44 20 7252 5049"},"location":{"address":"189 Walworth Rd.","lat":"51.489807110440985","lng":"-0.09644755625424867","distance":"259","postalCode":"SE17 1RW","cc":"GB","city":"Walworth","state":"Greater London","country":"United Kingdom"},"categories":[{"id":"4bf58dd8d48988d143941735","name":"Breakfast Spot","pluralName":"Breakfast Spots","shortName":"Breakfast","icon":{"prefix":"https:\/\/ss1.4sqi.net\/img\/categories_v2\/food\/breakfast_","suffix":".png"},"primary":"true"}],"verified":"false","restricted":"true","stats":{"checkinsCount":"91","usersCount":"33","tipCount":"3"},"specials":{"count":"0"},"hereNow":{"count":"0"},"referralId":"v-1392478084"},{"id":"52b61d5e498ea21d3acab44b","name":"La Polentaria","location":{"lat":"51.48896897119082","lng":"-0.0923509440690858","distance":"47","cc":"GB","country":"United Kingdom"},"categories":[{"id":"4bf58dd8d48988d110941735","name":"Italian Restaurant","pluralName":"Italian Restaurants","shortName":"Italian","icon":{"prefix":"https:\/\/ss1.4sqi.net\/img\/categories_v2\/food\/italian_","suffix":".png"},"primary":"true"}],"verified":"false","restricted":"true","stats":{"checkinsCount":"2","usersCount":"2","tipCount":"0"},"specials":{"count":"0"},"hereNow":{"count":"0"},"referralId":"v-1392478084"},{"id":"4bedc180a40fc9288574820c","name":"McDonald's","contact":{"phone":"+442077081185","formattedPhone":"+44 20 7708 1185"},"location":{"address":"Walworth Rd","lat":"51.489507","lng":"-0.096469","distance":"255","postalCode":"SE17","cc":"GB","city":"Walworth","state":"Greater London","country":"United Kingdom"},"categories":[{"id":"4bf58dd8d48988d16e941735","name":"Fast Food Restaurant","pluralName":"Fast Food Restaurants","shortName":"Fast Food","icon":{"prefix":"https:\/\/ss1.4sqi.net\/img\/categories_v2\/food\/fastfood_","suffix":".png"},"primary":"true"}],"verified":"false","restricted":"true","stats":{"checkinsCount":"402","usersCount":"203","tipCount":"4"},"specials":{"count":"0"},"hereNow":{"count":"0"},"referralId":"v-1392478084"},{"id":"4b1edff6f964a520e62024e3","name":"Mama Thai","location":{"address":"235 Walworth Road","lat":"51.488647","lng":"-0.09610891342162807","distance":"240","postalCode":"SE17 1R","cc":"GB","city":"London","state":"Greater London","country":"United Kingdom"},"categories":[{"id":"4bf58dd8d48988d149941735","name":"Thai Restaurant","pluralName":"Thai Restaurants","shortName":"Thai","icon":{"prefix":"https:\/\/ss1.4sqi.net\/img\/categories_v2\/food\/thai_","suffix":".png"},"primary":"true"}],"verified":"false","restricted":"true","stats":{"checkinsCount":"122","usersCount":"70","tipCount":"5"},"menu":{"type":"Menu","label":"Menu","anchor":"View Menu","url":"https:\/\/foursquare.com\/v\/mama-thai\/4b1edff6f964a520e62024e3\/menu","mobileUrl":"https:\/\/foursquare.com\/v\/4b1edff6f964a520e62024e3\/device_menu"},"specials":{"count":"0"},"hereNow":{"count":"0"},"referralId":"v-1392478084"},{"id":"4d0383047d9ba35d9a246023","name":"Big Ben Fish - Wholesale","location":{"address":"49 East St","lat":"51.48819844683063","lng":"-0.09472649008652702","distance":"180","postalCode":"SE17 1","cc":"GB","city":"Camberwell","state":"Greater London","country":"United Kingdom"},"categories":[{"id":"4bf58dd8d48988d10e951735","name":"Fish Market","pluralName":"Fish Markets","shortName":"Fish Market","icon":{"prefix":"https:\/\/ss1.4sqi.net\/img\/categories_v2\/shops\/food_fishmarket_","suffix":".png"},"primary":"true"}],"verified":"false","restricted":"true","stats":{"checkinsCount":"17","usersCount":"6","tipCount":"0"},"specials":{"count":"0"},"hereNow":{"count":"0"},"referralId":"v-1392478084"},{"id":"4bce4bd268f976b094e46583","name":"The Best Kebab","contact":{"phone":"+442077037383","formattedPhone":"+44 20 7703 7383"},"location":{"address":"294 Walworth Rd.","lat":"51.48698110703202","lng":"-0.09524470122943196","distance":"307","postalCode":"SE17 2TE","cc":"GB","city":"Walworth","state":"Greater London","country":"United Kingdom"},"categories":[{"id":"4bf58dd8d48988d10b941735","name":"Falafel Restaurant","pluralName":"Falafel Restaurants","shortName":"Falafel","icon":{"prefix":"https:\/\/ss1.4sqi.net\/img\/categories_v2\/food\/falafel_","suffix":".png"},"primary":"true"}],"verified":"false","restricted":"true","stats":{"checkinsCount":"374","usersCount":"110","tipCount":"5"},"specials":{"count":"0"},"hereNow":{"count":"0"},"referralId":"v-1392478084"},{"id":"51557636e4b0d12c928e54d2","name":"East Street Baptist Church","location":{"lat":"51.488791","lng":"-0.091537","distance":"103","cc":"GB","country":"United Kingdom"},"verified":"false","restricted":"true","stats":{"checkinsCount":"2","usersCount":"2","tipCount":"0"},"specials":{"count":"0"},"hereNow":{"count":"0"},"referralId":"v-1392478084"},{"id":"5217885d11d201d9c30ed86a","name":"Abba Fresh","location":{"address":"83 East Street","lat":"51.489692","lng":"-0.093952","distance":"91","postalCode":"SE17 2DH","cc":"GB","country":"United Kingdom"},"categories":[{"id":"4bf58dd8d48988d1c8941735","name":"African Restaurant","pluralName":"African Restaurants","shortName":"African","icon":{"prefix":"https:\/\/ss1.4sqi.net\/img\/categories_v2\/food\/african_","suffix":".png"},"primary":"true"}],"verified":"false","restricted":"true","stats":{"checkinsCount":"2","usersCount":"2","tipCount":"0"},"specials":{"count":"0"},"hereNow":{"count":"0"},"referralId":"v-1392478084"},{"id":"4ff44955e4b08a4c71535837","name":"Walworth","location":{"address":"Everywhere!","lat":"51.48642199057882","lng":"-0.09445774304337104","distance":"339","cc":"GB","city":"Walworth","state":"Greater London","country":"United Kingdom"},"categories":[{"id":"4f2a25ac4b909258e854f55f","name":"Neighborhood","pluralName":"Neighborhoods","shortName":"Neighborhood","icon":{"prefix":"https:\/\/ss1.4sqi.net\/img\/categories_v2\/parks_outdoors\/neighborhood_","suffix":".png"},"primary":"true"}],"verified":"false","restricted":"true","stats":{"checkinsCount":"190","usersCount":"66","tipCount":"1"},"specials":{"count":"0"},"hereNow":{"count":"0"},"referralId":"v-1392478084"},{"id":"51f163f3498ebb25e4397d2d","name":"Gladstone","location":{"address":"24 King & Queen Street","lat":"51.489479064941406","lng":"-0.09359840303659439","distance":"59","cc":"GB","city":"Walworth","state":"Greater London","country":"United Kingdom"},"categories":[{"id":"4bf58dd8d48988d11b941735","name":"Pub","pluralName":"Pubs","shortName":"Pub","icon":{"prefix":"https:\/\/ss1.4sqi.net\/img\/categories_v2\/nightlife\/pub_","suffix":".png"},"primary":"true"}],"verified":"false","restricted":"true","stats":{"checkinsCount":"1","usersCount":"1","tipCount":"0"},"specials":{"count":"0"},"hereNow":{"count":"0"},"referralId":"v-1392478084"},{"id":"4c1cbf5fb4e62d7fd97bdb93","name":"Ossie's jerk chicken","location":{"lat":"51.489427","lng":"-0.09644150733947754","distance":"252","cc":"GB","country":"United Kingdom"},"categories":[{"id":"4bf58dd8d48988d144941735","name":"Caribbean Restaurant","pluralName":"Caribbean Restaurants","shortName":"Caribbean","icon":{"prefix":"https:\/\/ss1.4sqi.net\/img\/categories_v2\/food\/caribbean_","suffix":".png"},"primary":"true"}],"verified":"false","restricted":"true","stats":{"checkinsCount":"96","usersCount":"33","tipCount":"0"},"specials":{"count":"0"},"hereNow":{"count":"0"},"referralId":"v-1392478084"},{"id":"516bd4e3e4b075b2e0194ed1","name":"CoolTan Arts","contact":{"phone":"+442077012696","formattedPhone":"+44 20 7701 2696"},"location":{"address":"3rd Floor, 224 - 236 Walworth Rd.","lat":"51.488509355917905","lng":"-0.09601876859944226","distance":"239","postalCode":"SE17 1JE","cc":"GB","city":"Southwark","state":"Greater London","country":"United Kingdom"},"categories":[{"id":"50328a8e91d4c4b30a586d6c","name":"Non-Profit","pluralName":"Non-Profits","shortName":"Non-Profit","icon":{"prefix":"https:\/\/ss1.4sqi.net\/img\/categories_v2\/building\/default_","suffix":".png"},"primary":"true"}],"verified":"false","restricted":"true","stats":{"checkinsCount":"28","usersCount":"3","tipCount":"0"},"specials":{"count":"0"},"hereNow":{"count":"0"},"referralId":"v-1392478084"},{"id":"4ed0acd50e01f1a88021e792","name":"Sam's Salon","location":{"lat":"51.489851","lng":"-0.093217","distance":"68","cc":"GB","city":"Camberwell","state":"Greater London","country":"United Kingdom"},"categories":[{"id":"4bf58dd8d48988d100951735","name":"Pet Store","pluralName":"Pet Stores","shortName":"Pet Store","icon":{"prefix":"https:\/\/ss1.4sqi.net\/img\/categories_v2\/shops\/pet_store_","suffix":".png"},"primary":"true"}],"verified":"false","restricted":"true","stats":{"checkinsCount":"4","usersCount":"2","tipCount":"1"},"specials":{"count":"0"},"hereNow":{"count":"0"},"referralId":"v-1392478084"},{"id":"4bc76b8315a7ef3bb45e79da","name":"Tesco Express","contact":{"phone":"+448456757086","formattedPhone":"+44 845 675 7086","twitter":"uktescooffers"},"location":{"address":"224-226 Walworth Road","lat":"51.489052711092484","lng":"-0.09655952453613281","distance":"261","postalCode":"SE17 1JE","cc":"GB","city":"London","state":"Greater London","country":"United Kingdom"},"categories":[{"id":"4bf58dd8d48988d118951735","name":"Grocery Store","pluralName":"Grocery Stores","shortName":"Grocery Store","icon":{"prefix":"https:\/\/ss1.4sqi.net\/img\/categories_v2\/shops\/food_grocery_","suffix":".png"},"primary":"true"}],"verified":"true","restricted":"true","stats":{"checkinsCount":"308","usersCount":"103","tipCount":"1"},"url":"http:\/\/www.tesco.com","specials":{"count":"0"},"hereNow":{"count":"0"},"storeId":"5784","referralId":"v-1392478084"},{"id":"4dac4adb1e72c1ab9c1b70db","name":"Barclays","location":{"lat":"51.488001628395786","lng":"-0.0957016826827357","distance":"246","cc":"GB","city":"Southwark","state":"Greater London","country":"United Kingdom"},"categories":[{"id":"4bf58dd8d48988d10a951735","name":"Bank","pluralName":"Banks","shortName":"Bank","icon":{"prefix":"https:\/\/ss1.4sqi.net\/img\/categories_v2\/shops\/financial_","suffix":".png"},"primary":"true"}],"verified":"false","restricted":"true","stats":{"checkinsCount":"26","usersCount":"10","tipCount":"1"},"specials":{"count":"0"},"hereNow":{"count":"0"},"referralId":"v-1392478084"},{"id":"4e1838ed14957dc705d4dab4","name":"G Baldwin & Co.","contact":{"phone":"+442077035550","formattedPhone":"+44 20 7703 5550","twitter":"baldwinsuk"},"location":{"address":"171-173 Walworth Rd.","lat":"51.489613475859436","lng":"-0.09653904986383487","distance":"261","postalCode":"SE17 1RW","cc":"GB","city":"Camberwell","state":"Greater London","country":"United Kingdom"},"categories":[{"id":"4bf58dd8d48988d1f9941735","name":"Food & Drink Shop","pluralName":"Food & Drink Shops","shortName":"Food & Drink","icon":{"prefix":"https:\/\/ss1.4sqi.net\/img\/categories_v2\/shops\/foodanddrink_","suffix":".png"},"primary":"true"}],"verified":"true","restricted":"true","stats":{"checkinsCount":"52","usersCount":"27","tipCount":"2"},"specials":{"count":"0"},"hereNow":{"count":"0"},"venuePage":{"id":"77510098"},"referralId":"v-1392478084"},{"id":"4b5a16a2f964a5206fac28e3","name":"KFC","location":{"address":"247-249 Walworth Road","lat":"51.488409","lng":"-0.095748","distance":"226","postalCode":"SE17 1RL","cc":"GB","city":"Walworth","state":"Greater London","country":"United Kingdom"},"categories":[{"id":"4d4ae6fc7a7b7dea34424761","name":"Fried Chicken Joint","pluralName":"Fried Chicken Joints","shortName":"Fried Chicken","icon":{"prefix":"https:\/\/ss1.4sqi.net\/img\/categories_v2\/food\/friedchicken_","suffix":".png"},"primary":"true"}],"verified":"false","restricted":"true","stats":{"checkinsCount":"99","usersCount":"63","tipCount":"0"},"specials":{"count":"0"},"hereNow":{"count":"0"},"referralId":"v-1392478084"},{"id":"4ba5fcadf964a520e82c39e3","name":"Fitness First","contact":{"phone":"+448445712954","formattedPhone":"+44 844 571 2954"},"location":{"address":"Walworth Rd.","lat":"51.486086489639675","lng":"-0.0945425033569336","distance":"376","postalCode":"SE17 2NA","cc":"GB","city":"Walworth","state":"Greater London","country":"United Kingdom"},"categories":[{"id":"4bf58dd8d48988d176941735","name":"Gym","pluralName":"Gyms","shortName":"Gym","icon":{"prefix":"https:\/\/ss1.4sqi.net\/img\/categories_v2\/building\/gym_","suffix":".png"},"primary":"true"}],"verified":"true","restricted":"true","stats":{"checkinsCount":"438","usersCount":"87","tipCount":"5"},"specials":{"count":"0"},"hereNow":{"count":"0"},"referralId":"v-1392478084"},{"id":"52f0b5b611d27d6ddc98ea01","name":"Second Chance Education","contact":{"twitter":"2chanceuk"},"location":{"address":"Larcom House","lat":"51.49065265358242","lng":"-0.09613573551177979","distance":"276","postalCode":"SE171RX","cc":"GB","city":"Larcom Street","state":"Greater London","country":"United Kingdom"},"categories":[{"id":"4bf58dd8d48988d1a8941735","name":"General College & University","pluralName":"General Colleges & Universities","shortName":"Education","icon":{"prefix":"https:\/\/ss1.4sqi.net\/img\/categories_v2\/education\/other_","suffix":".png"},"primary":"true"}],"verified":"false","restricted":"true","stats":{"checkinsCount":"2","usersCount":"2","tipCount":"0"},"specials":{"count":"0"},"hereNow":{"count":"0"},"referralId":"v-1392478084"},{"id":"527c1e8f498e3c08d49beab3","name":"Abacus Arts","location":{"lat":"51.48975133219912","lng":"-0.09621220279675055","distance":"241","cc":"GB","country":"United Kingdom"},"categories":[{"id":"4bf58dd8d48988d1f2931735","name":"Performing Arts Venue","pluralName":"Performing Arts Venues","shortName":"Performing Arts","icon":{"prefix":"https:\/\/ss1.4sqi.net\/img\/categories_v2\/arts_entertainment\/default_","suffix":".png"},"primary":"true"}],"verified":"false","restricted":"true","stats":{"checkinsCount":"4","usersCount":"2","tipCount":"0"},"specials":{"count":"0"},"hereNow":{"count":"0"},"referralId":"v-1392478084"},{"id":"514f154ee4b06c69f81b75c2","name":"The Nawab Restaurant","contact":{"phone":"+442036450772","formattedPhone":"+44 20 3645 0772"},"location":{"address":"310 Walworth Road","lat":"51.486575","lng":"-0.094835","distance":"333","postalCode":"Se17 2na","cc":"GB","city":"London","state":"Greater London","country":"United Kingdom"},"categories":[{"id":"4bf58dd8d48988d10f941735","name":"Indian Restaurant","pluralName":"Indian Restaurants","shortName":"Indian","icon":{"prefix":"https:\/\/ss1.4sqi.net\/img\/categories_v2\/food\/indian_","suffix":".png"},"primary":"true"}],"verified":"false","restricted":"true","stats":{"checkinsCount":"12","usersCount":"3","tipCount":"1"},"specials":{"count":"0"},"hereNow":{"count":"0"},"referralId":"v-1392478084"},{"id":"4c7f871cfb74236a423cfab9","name":"Marks & Spencer","contact":{"phone":"+442077036263","formattedPhone":"+44 20 7703 6263"},"location":{"address":"311 Walworth Rd.","lat":"51.48691965468434","lng":"-0.0950390431843525","distance":"305","postalCode":"SE17 2TG","cc":"GB","city":"Walworth","state":"Greater London","country":"United Kingdom"},"categories":[{"id":"4bf58dd8d48988d1f6941735","name":"Department Store","pluralName":"Department Stores","shortName":"Department Store","icon":{"prefix":"https:\/\/ss1.4sqi.net\/img\/categories_v2\/shops\/departmentstore_","suffix":".png"},"primary":"true"}],"verified":"true","restricted":"true","stats":{"checkinsCount":"139","usersCount":"71","tipCount":"1"},"specials":{"count":"0"},"hereNow":{"count":"0"},"storeId":"Walworth Road","referralId":"v-1392478084"},{"id":"4c8f564db3bcb60c4f866027","name":"Subway","contact":{"phone":"+448000855058","formattedPhone":"+44 800 085 5058","twitter":"subwayukireland"},"location":{"address":"Walworth Road","lat":"51.48830901527939","lng":"-0.09582349350855712","distance":"236","postalCode":"SE17","cc":"GB","city":"London","state":"Greater London","country":"United Kingdom"},"categories":[{"id":"4bf58dd8d48988d1c5941735","name":"Sandwich Place","pluralName":"Sandwich Places","shortName":"Sandwiches","icon":{"prefix":"https:\/\/ss1.4sqi.net\/img\/categories_v2\/food\/sandwiches_","suffix":".png"},"primary":"true"}],"verified":"true","restricted":"true","stats":{"checkinsCount":"44","usersCount":"28","tipCount":"0"},"url":"http:\/\/www.subway.co.uk","specials":{"count":"0"},"hereNow":{"count":"0"},"storeId":"37992","referralId":"v-1392478084"},{"id":"4f64a230e4b0e30d20c50841","name":"Poundland","contact":{"phone":"+442035384186","formattedPhone":"+44 20 3538 4186"},"location":{"address":"284-286 Walworth Rd.","lat":"51.48719128134603","lng":"-0.09529273798998211","distance":"290","postalCode":"SE17 2TE","cc":"GB","city":"Walworth","state":"Greater London","country":"United Kingdom"},"categories":[{"id":"4bf58dd8d48988d1ff941735","name":"Miscellaneous Shop","pluralName":"Miscellaneous Shops","shortName":"Shop","icon":{"prefix":"https:\/\/ss1.4sqi.net\/img\/categories_v2\/shops\/default_","suffix":".png"},"primary":"true"}],"verified":"false","restricted":"true","stats":{"checkinsCount":"85","usersCount":"29","tipCount":"0"},"url":"http:\/\/www.poundland.co.uk","specials":{"count":"0"},"hereNow":{"count":"0"},"referralId":"v-1392478084"},{"id":"51d98fb7498ea185547e10e8","name":"Faraday Gardens","location":{"lat":"51.48755292884532","lng":"-0.09386960619517665","distance":"206","cc":"GB","country":"United Kingdom"},"categories":[{"id":"4bf58dd8d48988d163941735","name":"Park","pluralName":"Parks","shortName":"Park","icon":{"prefix":"https:\/\/ss1.4sqi.net\/img\/categories_v2\/parks_outdoors\/park_","suffix":".png"},"primary":"true"}],"verified":"false","restricted":"true","stats":{"checkinsCount":"7","usersCount":"2","tipCount":"0"},"specials":{"count":"0"},"hereNow":{"count":"0"},"referralId":"v-1392478084"},{"id":"4f7838a9e4b0488e2fa1a936","name":"King & Queen Outdoor Gym","location":{"lat":"51.48987","lng":"-0.09438","distance":"127","cc":"GB","country":"United Kingdom"},"categories":[{"id":"4bf58dd8d48988d176941735","name":"Gym","pluralName":"Gyms","shortName":"Gym","icon":{"prefix":"https:\/\/ss1.4sqi.net\/img\/categories_v2\/building\/gym_","suffix":".png"},"primary":"true"}],"verified":"false","restricted":"true","stats":{"checkinsCount":"7","usersCount":"2","tipCount":"0"},"specials":{"count":"0"},"hereNow":{"count":"0"},"referralId":"v-1392478084"},{"id":"50c765e9e4b0b612cee14f9c","name":"Sam 99p","location":{"address":"Walworth Road","lat":"51.489437791194305","lng":"-0.096310120549996","distance":"243","cc":"GB","country":"United Kingdom"},"categories":[{"id":"4bf58dd8d48988d1ff941735","name":"Miscellaneous Shop","pluralName":"Miscellaneous Shops","shortName":"Shop","icon":{"prefix":"https:\/\/ss1.4sqi.net\/img\/categories_v2\/shops\/default_","suffix":".png"},"primary":"true"}],"verified":"false","restricted":"true","stats":{"checkinsCount":"7","usersCount":"7","tipCount":"0"},"specials":{"count":"0"},"hereNow":{"count":"0"},"referralId":"v-1392478084"},{"id":"52ecd3bc498e6fd23041e685","name":"boots optician walworth road","location":{"lat":"51.48715543345565","lng":"-0.09515985893657355","distance":"288","cc":"GB","country":"United Kingdom"},"categories":[{"id":"4d954afda243a5684865b473","name":"Optical Shop","pluralName":"Optical Shops","shortName":"Optical","icon":{"prefix":"https:\/\/ss1.4sqi.net\/img\/categories_v2\/building\/medical_opticalshop_","suffix":".png"},"primary":"true"}],"verified":"false","restricted":"true","stats":{"checkinsCount":"1","usersCount":"1","tipCount":"0"},"specials":{"count":"0"},"hereNow":{"count":"0"},"referralId":"v-1392478084"}],"confident":"true"}}