{"meta":{"code":"200"},"response":{"venues":[{"id":"4b7c3a5af964a520d1852fe3","name":"The Gloucester Arms","location":{"address":"Gloucester Road","lat":"51.49881849992524","lng":"-0.18395662307739258","distance":"95","postalCode":"SW7","cc":"GB","country":"United Kingdom"},"categories":[{"id":"4bf58dd8d48988d11b941735","name":"Pub","pluralName":"Pubs","shortName":"Pub","icon":{"prefix":"https:\/\/ss1.4sqi.net\/img\/categories_v2\/nightlife\/pub_","suffix":".png"},"primary":"true"}],"verified":"false","restricted":"true","stats":{"checkinsCount":"1216","usersCount":"702","tipCount":"12"},"specials":{"count":"0"},"hereNow":{"count":"1","groups":[{"type":"others","name":"Other people here","count":"1"}]},"referralId":"v-1392478049"},{"id":"4ac518daf964a520d8a820e3","name":"Da Mario","contact":{"phone":"+442075849078","formattedPhone":"+44 20 7584 9078"},"location":{"address":"15 Gloucester Rd.","lat":"51.498576936918006","lng":"-0.1836469733569821","distance":"98","postalCode":"SW7 4PP","cc":"GB","city":"London","state":"Greater London","country":"United Kingdom"},"categories":[{"id":"4bf58dd8d48988d110941735","name":"Italian Restaurant","pluralName":"Italian Restaurants","shortName":"Italian","icon":{"prefix":"https:\/\/ss1.4sqi.net\/img\/categories_v2\/food\/italian_","suffix":".png"},"primary":"true"}],"verified":"false","restricted":"true","stats":{"checkinsCount":"845","usersCount":"543","tipCount":"24"},"url":"http:\/\/www.damario.co.uk","menu":{"type":"Menu","label":"Menu","anchor":"View Menu","url":"https:\/\/foursquare.com\/v\/da-mario\/4ac518daf964a520d8a820e3\/menu","mobileUrl":"https:\/\/foursquare.com\/v\/4ac518daf964a520d8a820e3\/device_menu"},"specials":{"count":"0"},"hereNow":{"count":"0"},"referralId":"v-1392478049"},{"id":"4b68131cf964a52034662be3","name":"Starbucks","contact":{"twitter":"starbucksuk"},"location":{"address":"Unit 5, 17-35 Gloucester Rd","lat":"51.49802665740347","lng":"-0.18372366813368035","distance":"154","postalCode":"SW7 4PL","cc":"GB","city":"London","state":"Greater London","country":"United Kingdom"},"categories":[{"id":"4bf58dd8d48988d1e0931735","name":"Coffee Shop","pluralName":"Coffee Shops","shortName":"Coffee Shop","icon":{"prefix":"https:\/\/ss1.4sqi.net\/img\/categories_v2\/food\/coffeeshop_","suffix":".png"},"primary":"true"}],"verified":"true","restricted":"true","stats":{"checkinsCount":"1759","usersCount":"594","tipCount":"10"},"url":"http:\/\/starbucks.co.uk","specials":{"count":"0"},"hereNow":{"count":"0"},"storeId":"12073","referralId":"v-1392478049"},{"id":"4ac518bdf964a520d0a220e3","name":"Queen's Arms","location":{"address":"30 Queen's Gate Mews","lat":"51.499126100000005","lng":"-0.180712775","distance":"145","postalCode":"SW7 5QL","cc":"GB","city":"London","state":"Greater London","country":"United Kingdom"},"categories":[{"id":"4bf58dd8d48988d11b941735","name":"Pub","pluralName":"Pubs","shortName":"Pub","icon":{"prefix":"https:\/\/ss1.4sqi.net\/img\/categories_v2\/nightlife\/pub_","suffix":".png"},"primary":"true"}],"verified":"false","restricted":"true","stats":{"checkinsCount":"1465","usersCount":"1040","tipCount":"23"},"menu":{"type":"Menu","label":"Menu","anchor":"View Menu","url":"https:\/\/foursquare.com\/v\/queens-arms\/4ac518bdf964a520d0a220e3\/menu","mobileUrl":"https:\/\/foursquare.com\/v\/4ac518bdf964a520d0a220e3\/device_menu"},"specials":{"count":"0"},"hereNow":{"count":"0"},"referralId":"v-1392478049"},{"id":"4bed53c53372c928626f1114","name":"L'etranger","location":{"address":"36 Gloucester Rd","lat":"51.498619","lng":"-0.183693","distance":"96","postalCode":"SW7","cc":"GB","city":"Kensington","state":"Greater London","country":"United Kingdom"},"categories":[{"id":"4bf58dd8d48988d111941735","name":"Japanese Restaurant","pluralName":"Japanese Restaurants","shortName":"Japanese","icon":{"prefix":"https:\/\/ss1.4sqi.net\/img\/categories_v2\/food\/japanese_","suffix":".png"},"primary":"true"}],"verified":"false","restricted":"true","stats":{"checkinsCount":"305","usersCount":"220","tipCount":"8"},"url":"http:\/\/www.etranger.co.uk","menu":{"type":"Menu","label":"Menu","anchor":"View Menu","url":"https:\/\/foursquare.com\/v\/letranger-kensington-greater-london\/4bed53c53372c928626f1114\/menu","mobileUrl":"https:\/\/foursquare.com\/v\/4bed53c53372c928626f1114\/device_menu"},"specials":{"count":"0"},"hereNow":{"count":"0"},"referralId":"v-1392478049"},{"id":"52b4a29e498eb5044d91779e","name":"Crib de Rib Restaurant","location":{"address":"1 Gloucester Rd.","lat":"51.4990896760005","lng":"-0.183639741999571","distance":"62","postalCode":"SW7 4PP","cc":"GB","city":"London","state":"Greater London","country":"United Kingdom"},"categories":[{"id":"4bf58dd8d48988d1c4941735","name":"Restaurant","pluralName":"Restaurants","shortName":"Restaurant","icon":{"prefix":"https:\/\/ss1.4sqi.net\/img\/categories_v2\/food\/default_","suffix":".png"},"primary":"true"}],"verified":"false","restricted":"true","stats":{"checkinsCount":"5","usersCount":"4","tipCount":"0"},"reservations":{"url":"http:\/\/www.toptable.co.uk\/single.aspx?rid=96579&ref=9601"},"menu":{"type":"Menu","label":"Menu","anchor":"View Menu","url":"https:\/\/foursquare.com\/v\/crib-de-rib-restaurant\/52b4a29e498eb5044d91779e\/menu","mobileUrl":"https:\/\/foursquare.com\/v\/52b4a29e498eb5044d91779e\/device_menu"},"specials":{"count":"0"},"hereNow":{"count":"0"},"referralId":"v-1392478049"},{"id":"4babb0fff964a520cfc03ae3","name":"Queen's Gate Terrace","location":{"lat":"51.49865589424965","lng":"-0.18096522876281088","distance":"145","cc":"GB","city":"Kensington","state":"Greater London","country":"United Kingdom"},"categories":[{"id":"4bf58dd8d48988d130941735","name":"Building","pluralName":"Buildings","shortName":"Building","icon":{"prefix":"https:\/\/ss1.4sqi.net\/img\/categories_v2\/building\/default_","suffix":".png"},"primary":"true"}],"verified":"false","restricted":"true","stats":{"checkinsCount":"908","usersCount":"194","tipCount":"0"},"specials":{"count":"0"},"hereNow":{"count":"0"},"referralId":"v-1392478049"},{"id":"4bb5b96e2f70c9b620778430","name":"Coco Momo","contact":{"phone":"+442075890905","formattedPhone":"+44 20 7589 0905"},"location":{"address":"25 Gloucester Rd","lat":"51.497976934297135","lng":"-0.1835489273071289","distance":"154","postalCode":"SW7 4PL","cc":"GB","city":"Kensington","state":"Greater London","country":"United Kingdom"},"categories":[{"id":"4bf58dd8d48988d16d941735","name":"Caf\u00e9","pluralName":"Caf\u00e9s","shortName":"Caf\u00e9","icon":{"prefix":"https:\/\/ss1.4sqi.net\/img\/categories_v2\/food\/cafe_","suffix":".png"},"primary":"true"}],"verified":"false","restricted":"true","stats":{"checkinsCount":"1182","usersCount":"550","tipCount":"12"},"url":"http:\/\/www.foodandfuel.co.uk\/our-cafes\/coco-momo-kensington\/","menu":{"type":"Menu","label":"Menu","anchor":"View Menu","url":"https:\/\/foursquare.com\/v\/coco-momo\/4bb5b96e2f70c9b620778430\/menu","mobileUrl":"https:\/\/foursquare.com\/v\/4bb5b96e2f70c9b620778430\/device_menu"},"specials":{"count":"0"},"hereNow":{"count":"0"},"referralId":"v-1392478049"},{"id":"4ff96e9ee4b0211bc39cb3e5","name":"Fait Maison","contact":{"phone":"+442079980071","formattedPhone":"+44 20 7998 0071"},"location":{"address":"50 Gloucester Road","lat":"51.49804728371963","lng":"-0.18365390712949287","distance":"150","postalCode":"SW7 4QT","cc":"GB","city":"London","state":"Greater London","country":"United Kingdom"},"categories":[{"id":"4bf58dd8d48988d146941735","name":"Deli \/ Bodega","pluralName":"Delis \/ Bodegas","shortName":"Deli \/ Bodega","icon":{"prefix":"https:\/\/ss1.4sqi.net\/img\/categories_v2\/food\/deli_","suffix":".png"},"primary":"true"}],"verified":"false","restricted":"true","stats":{"checkinsCount":"196","usersCount":"132","tipCount":"5"},"menu":{"type":"Menu","label":"Menu","anchor":"View Menu","url":"https:\/\/foursquare.com\/v\/fait-maison\/4ff96e9ee4b0211bc39cb3e5\/menu","mobileUrl":"https:\/\/foursquare.com\/v\/4ff96e9ee4b0211bc39cb3e5\/device_menu"},"specials":{"count":"0"},"hereNow":{"count":"1","groups":[{"type":"others","name":"Other people here","count":"1"}]},"referralId":"v-1392478049"},{"id":"4f919efde4b0ad245608d442","name":"Meursault","contact":{"phone":"+442075849719","formattedPhone":"+44 20 7584 9719"},"location":{"address":"36 Gloucester Road","lat":"51.49852911735075","lng":"-0.1838434531490312","distance":"111","postalCode":"Sw7 4qt","cc":"GB","city":"London","state":"Greater London","country":"United Kingdom"},"categories":[{"id":"4bf58dd8d48988d11e941735","name":"Cocktail Bar","pluralName":"Cocktail Bars","shortName":"Cocktail","icon":{"prefix":"https:\/\/ss1.4sqi.net\/img\/categories_v2\/nightlife\/cocktails_","suffix":".png"},"primary":"true"}],"verified":"false","restricted":"true","stats":{"checkinsCount":"113","usersCount":"75","tipCount":"1"},"url":"http:\/\/www.meursaultlondon.co.uk","menu":{"type":"Menu","label":"Menu","anchor":"View Menu","url":"https:\/\/foursquare.com\/v\/meursault\/4f919efde4b0ad245608d442\/menu","mobileUrl":"https:\/\/foursquare.com\/v\/4f919efde4b0ad245608d442\/device_menu"},"specials":{"count":"0"},"hereNow":{"count":"0"},"referralId":"v-1392478049"},{"id":"4ad067fdf964a520f9d720e3","name":"Partridges","location":{"address":"17 Gloucester Road","lat":"51.49839676450613","lng":"-0.18354246564522222","distance":"111","postalCode":"Sw7","cc":"GB","city":"London","state":"Greater London","country":"United Kingdom"},"categories":[{"id":"4bf58dd8d48988d118951735","name":"Grocery Store","pluralName":"Grocery Stores","shortName":"Grocery Store","icon":{"prefix":"https:\/\/ss1.4sqi.net\/img\/categories_v2\/shops\/food_grocery_","suffix":".png"},"primary":"true"}],"verified":"false","restricted":"true","stats":{"checkinsCount":"478","usersCount":"174","tipCount":"3"},"specials":{"count":"0"},"hereNow":{"count":"0"},"referralId":"v-1392478049"},{"id":"4ac518e3f964a520aeaa20e3","name":"Little India","location":{"address":"32 Gloucester Rd.","lat":"51.498645","lng":"-0.183734","distance":"96","postalCode":"SW7 4RB","cc":"GB","city":"London","state":"Greater London","country":"United Kingdom"},"categories":[{"id":"4bf58dd8d48988d10f941735","name":"Indian Restaurant","pluralName":"Indian Restaurants","shortName":"Indian","icon":{"prefix":"https:\/\/ss1.4sqi.net\/img\/categories_v2\/food\/indian_","suffix":".png"},"primary":"true"}],"verified":"false","restricted":"true","stats":{"checkinsCount":"113","usersCount":"92","tipCount":"5"},"url":"http:\/\/littleindialondon.com","reservations":{"url":"http:\/\/www.toptable.co.uk\/single.aspx?rid=47769&ref=9601"},"menu":{"type":"Menu","label":"Menu","anchor":"View Menu","url":"https:\/\/foursquare.com\/v\/little-india\/4ac518e3f964a520aeaa20e3\/menu","mobileUrl":"https:\/\/foursquare.com\/v\/4ac518e3f964a520aeaa20e3\/device_menu"},"specials":{"count":"0"},"hereNow":{"count":"0"},"referralId":"v-1392478049"},{"id":"4ac518ddf964a52063a920e3","name":"Med Kitchen","location":{"address":"25 Gloucester Road","lat":"51.49784710430514","lng":"-0.18390736800017565","distance":"177","postalCode":"SW7 4PL","cc":"GB","city":"London","state":"Greater London","country":"United Kingdom"},"categories":[{"id":"4bf58dd8d48988d1c0941735","name":"Mediterranean Restaurant","pluralName":"Mediterranean Restaurants","shortName":"Mediterranean","icon":{"prefix":"https:\/\/ss1.4sqi.net\/img\/categories_v2\/food\/mediterranean_","suffix":".png"},"primary":"true"}],"verified":"false","restricted":"true","stats":{"checkinsCount":"597","usersCount":"380","tipCount":"11"},"url":"http:\/\/www.medkitchen.co.uk\/restaurants\/south-kensington-restaurant","menu":{"type":"Menu","label":"Menu","anchor":"View Menu","url":"https:\/\/foursquare.com\/v\/med-kitchen-london-uk\/4ac518ddf964a52063a920e3\/menu","mobileUrl":"https:\/\/foursquare.com\/v\/4ac518ddf964a52063a920e3\/device_menu"},"specials":{"count":"0"},"hereNow":{"count":"0"},"referralId":"v-1392478049"},{"id":"4ac518def964a520a5a920e3","name":"Memories of India","location":{"address":"18 Gloucester Road","lat":"51.499137","lng":"-0.183732","distance":"66","postalCode":"SW7 4RB","cc":"GB","city":"London","state":"Greater London","country":"United Kingdom"},"categories":[{"id":"4bf58dd8d48988d10f941735","name":"Indian Restaurant","pluralName":"Indian Restaurants","shortName":"Indian","icon":{"prefix":"https:\/\/ss1.4sqi.net\/img\/categories_v2\/food\/indian_","suffix":".png"},"primary":"true"}],"verified":"false","restricted":"true","stats":{"checkinsCount":"124","usersCount":"114","tipCount":"2"},"url":"http:\/\/www.memoriesofindia.com","reservations":{"url":"http:\/\/www.toptable.co.uk\/single.aspx?rid=22029&ref=9601"},"menu":{"type":"Menu","label":"Menu","anchor":"View Menu","url":"https:\/\/foursquare.com\/v\/memories-of-india-london-uk\/4ac518def964a520a5a920e3\/menu","mobileUrl":"https:\/\/foursquare.com\/v\/4ac518def964a520a5a920e3\/device_menu"},"specials":{"count":"0"},"hereNow":{"count":"0"},"referralId":"v-1392478049"},{"id":"4e7e0769cc211b5c22e4a828","name":"Da Lisa","location":{"address":"14 Gloucester Road","lat":"51.49925286881626","lng":"-0.18375","distance":"65","postalCode":"SW7","cc":"GB","city":"London","state":"Greater London","country":"United Kingdom"},"verified":"false","restricted":"true","stats":{"checkinsCount":"85","usersCount":"45","tipCount":"3"},"specials":{"count":"0"},"hereNow":{"count":"0"},"referralId":"v-1392478049"},{"id":"529174c411d2c28e42cc01b2","name":"Palace Gate Apartments","location":{"lat":"51.500231","lng":"-0.183354","distance":"111","cc":"GB","country":"United Kingdom"},"categories":[{"id":"4d954b06a243a5684965b473","name":"Residential Building (Apartment \/ Condo)","pluralName":"Residential Buildings (Apartments \/ Condos)","shortName":"Residential","icon":{"prefix":"https:\/\/ss1.4sqi.net\/img\/categories_v2\/building\/apartment_","suffix":".png"},"primary":"true"}],"verified":"false","restricted":"true","stats":{"checkinsCount":"5","usersCount":"2","tipCount":"0"},"specials":{"count":"0"},"hereNow":{"count":"0"},"referralId":"v-1392478049"},{"id":"4ccf5a817b6854815736bbf8","name":"Richmond University-Ambassador House","location":{"lat":"51.49876332745164","lng":"-0.18202302408853083","distance":"79","cc":"GB","country":"United Kingdom"},"categories":[{"id":"4f4533804b9074f6e4fb0105","name":"Elementary School","pluralName":"Elementary Schools","shortName":"Elementary School","icon":{"prefix":"https:\/\/ss1.4sqi.net\/img\/categories_v2\/building\/school_","suffix":".png"},"primary":"true"}],"verified":"false","restricted":"true","stats":{"checkinsCount":"129","usersCount":"22","tipCount":"1"},"specials":{"count":"0"},"hereNow":{"count":"0"},"referralId":"v-1392478049"},{"id":"4ac518d6f964a5203ba820e3","name":"Launceston Place Restaurant","contact":{"phone":"+442079376912","formattedPhone":"+44 20 7937 6912","twitter":"danddlondon"},"location":{"address":"1a Launceston Place","lat":"51.49925579745432","lng":"-0.18532443749938196","distance":"174","postalCode":"W8 5RL","cc":"GB","city":"London","state":"Greater London","country":"United Kingdom"},"categories":[{"id":"4bf58dd8d48988d1c4941735","name":"Restaurant","pluralName":"Restaurants","shortName":"Restaurant","icon":{"prefix":"https:\/\/ss1.4sqi.net\/img\/categories_v2\/food\/default_","suffix":".png"},"primary":"true"}],"verified":"true","restricted":"true","stats":{"checkinsCount":"314","usersCount":"239","tipCount":"14"},"url":"http:\/\/www.launcestonplace-restaurant.co.uk","reservations":{"url":"http:\/\/www.toptable.co.uk\/single.aspx?rid=78703&ref=9601"},"specials":{"count":"0"},"hereNow":{"count":"0"},"storeId":"Launceston Place","referralId":"v-1392478049"},{"id":"4c0feb85f1b6a5932d107b27","name":"Khobkhun Thai Cuisine","location":{"address":"9A Gloucester Rd.","lat":"51.498894230902714","lng":"-0.1837998163088676","distance":"81","cc":"GB","city":"Kensington","state":"Greater London","country":"United Kingdom"},"categories":[{"id":"4bf58dd8d48988d142941735","name":"Asian Restaurant","pluralName":"Asian Restaurants","shortName":"Asian","icon":{"prefix":"https:\/\/ss1.4sqi.net\/img\/categories_v2\/food\/asian_","suffix":".png"},"primary":"true"}],"verified":"false","restricted":"true","stats":{"checkinsCount":"52","usersCount":"37","tipCount":"2"},"specials":{"count":"0"},"hereNow":{"count":"0"},"referralId":"v-1392478049"},{"id":"4de9280ee4cd15735408ea4f","name":"The Sandwich Shop","location":{"address":"54 gloucester road","lat":"51.49829576109307","lng":"-0.18358861009072658","distance":"123","cc":"GB","city":"Kensington","state":"Greater London","country":"United Kingdom"},"categories":[{"id":"4bf58dd8d48988d1c5941735","name":"Sandwich Place","pluralName":"Sandwich Places","shortName":"Sandwiches","icon":{"prefix":"https:\/\/ss1.4sqi.net\/img\/categories_v2\/food\/sandwiches_","suffix":".png"},"primary":"true"}],"verified":"false","restricted":"true","stats":{"checkinsCount":"80","usersCount":"35","tipCount":"1"},"menu":{"type":"Menu","label":"Menu","anchor":"View Menu","url":"https:\/\/foursquare.com\/v\/the-sandwich-shop\/4de9280ee4cd15735408ea4f\/menu","mobileUrl":"https:\/\/foursquare.com\/v\/4de9280ee4cd15735408ea4f\/device_menu"},"specials":{"count":"0"},"hereNow":{"count":"0"},"referralId":"v-1392478049"},{"id":"4f802e1fe4b0cd6f61623c0e","name":"Mara House Queen's Gate Terrace London","location":{"lat":"51.49899833752917","lng":"-0.18265604843187927","distance":"33","cc":"GB","country":"United Kingdom"},"categories":[{"id":"4d954b06a243a5684965b473","name":"Residential Building (Apartment \/ Condo)","pluralName":"Residential Buildings (Apartments \/ Condos)","shortName":"Residential","icon":{"prefix":"https:\/\/ss1.4sqi.net\/img\/categories_v2\/building\/apartment_","suffix":".png"},"primary":"true"}],"verified":"false","restricted":"true","stats":{"checkinsCount":"15","usersCount":"10","tipCount":"0"},"specials":{"count":"0"},"hereNow":{"count":"0"},"referralId":"v-1392478049"},{"id":"4ea824c58b8154b19ff38e49","name":"Pretty Nails","contact":{"phone":"+442075819413","formattedPhone":"+44 20 7581 9413"},"location":{"address":"28 Victoria Grove","lat":"51.498554992772284","lng":"-0.1839345109501538","distance":"113","postalCode":"w8 5rw","cc":"GB","city":"London","state":"Greater London","country":"United Kingdom"},"categories":[{"id":"4bf58dd8d48988d110951735","name":"Salon \/ Barbershop","pluralName":"Salons \/ Barbershops","shortName":"Salon \/ Barbershop","icon":{"prefix":"https:\/\/ss1.4sqi.net\/img\/categories_v2\/shops\/salon_barber_","suffix":".png"},"primary":"true"}],"verified":"false","restricted":"true","stats":{"checkinsCount":"43","usersCount":"21","tipCount":"1"},"specials":{"count":"0"},"hereNow":{"count":"0"},"referralId":"v-1392478049"},{"id":"4c146cb0a9c220a1f1a5579d","name":"Citadines Prestige South Kensington London","contact":{"phone":"+442075437878","formattedPhone":"+44 20 7543 7878","twitter":"citadineseurope","facebook":"153956034715056"},"location":{"address":"35a Gloucester Rd","lat":"51.49792483555291","lng":"-0.18357491638908094","distance":"161","postalCode":"SW7 4PL","cc":"GB","city":"Kensington","state":"Greater London","country":"United Kingdom"},"categories":[{"id":"4bf58dd8d48988d1fa931735","name":"Hotel","pluralName":"Hotels","shortName":"Hotel","icon":{"prefix":"https:\/\/ss1.4sqi.net\/img\/categories_v2\/travel\/hotel_","suffix":".png"},"primary":"true"}],"verified":"true","restricted":"true","stats":{"checkinsCount":"535","usersCount":"148","tipCount":"11"},"url":"http:\/\/www.citadines.com","specials":{"count":"0"},"hereNow":{"count":"0"},"storeId":"","referralId":"v-1392478049"},{"id":"4c94942c94a0236a3ec08d12","name":"The Luxpod","location":{"address":"Mezzanine, 38 Gloucester Road","lat":"51.499451","lng":"-0.183093","distance":"27","postalCode":"SW7 4QT","cc":"GB","city":"Kensington","state":"Greater London","country":"United Kingdom"},"categories":[{"id":"4bf58dd8d48988d1fa931735","name":"Hotel","pluralName":"Hotels","shortName":"Hotel","icon":{"prefix":"https:\/\/ss1.4sqi.net\/img\/categories_v2\/travel\/hotel_","suffix":".png"},"primary":"true"}],"verified":"false","restricted":"true","stats":{"checkinsCount":"1","usersCount":"1","tipCount":"1"},"specials":{"count":"0"},"hereNow":{"count":"0"},"referralId":"v-1392478049"},{"id":"521e244511d238623a015401","name":"37 Hyde Park Gate","location":{"lat":"51.501033","lng":"-0.181907","distance":"203","cc":"GB","country":"United Kingdom"},"categories":[{"id":"4d954b06a243a5684965b473","name":"Residential Building (Apartment \/ Condo)","pluralName":"Residential Buildings (Apartments \/ Condos)","shortName":"Residential","icon":{"prefix":"https:\/\/ss1.4sqi.net\/img\/categories_v2\/building\/apartment_","suffix":".png"},"primary":"true"}],"verified":"false","restricted":"true","stats":{"checkinsCount":"105","usersCount":"26","tipCount":"0"},"specials":{"count":"0"},"hereNow":{"count":"0"},"referralId":"v-1392478049"},{"id":"4b643ae1f964a52050a52ae3","name":"Jakobs","location":{"address":"20 Gloucester Rd.","lat":"51.49889253168776","lng":"-0.18345521861003983","distance":"63","postalCode":"SW7 4RV","cc":"GB","city":"Kensington","state":"Greater London","country":"United Kingdom"},"categories":[{"id":"4bf58dd8d48988d1bd941735","name":"Salad Place","pluralName":"Salad Shop","shortName":"Salad","icon":{"prefix":"https:\/\/ss1.4sqi.net\/img\/categories_v2\/food\/salad_","suffix":".png"},"primary":"true"}],"verified":"false","restricted":"true","stats":{"checkinsCount":"134","usersCount":"80","tipCount":"2"},"specials":{"count":"0"},"hereNow":{"count":"0"},"referralId":"v-1392478049"},{"id":"5221bbd311d259e6d1214cfc","name":"Slick Willies","location":{"lat":"51.49881715287804","lng":"-0.18468548469889498","distance":"140","cc":"GB","country":"United Kingdom"},"categories":[{"id":"4bf58dd8d48988d1f2941735","name":"Sporting Goods Shop","pluralName":"Sporting Goods Shops","shortName":"Sporting Goods","icon":{"prefix":"https:\/\/ss1.4sqi.net\/img\/categories_v2\/shops\/sports_outdoors_","suffix":".png"},"primary":"true"}],"verified":"false","restricted":"true","stats":{"checkinsCount":"5","usersCount":"5","tipCount":"0"},"specials":{"count":"0"},"hereNow":{"count":"0"},"referralId":"v-1392478049"},{"id":"4babbac4f964a5206cc43ae3","name":"Il Borgo","location":{"lat":"51.49875170957007","lng":"-0.1835489273071289","distance":"79","cc":"GB","city":"London","state":"Greater London","country":"United Kingdom"},"categories":[{"id":"4bf58dd8d48988d1ca941735","name":"Pizza Place","pluralName":"Pizza Places","shortName":"Pizza","icon":{"prefix":"https:\/\/ss1.4sqi.net\/img\/categories_v2\/food\/pizza_","suffix":".png"},"primary":"true"}],"verified":"false","restricted":"true","stats":{"checkinsCount":"51","usersCount":"44","tipCount":"4"},"menu":{"type":"Menu","label":"Menu","anchor":"View Menu","url":"https:\/\/foursquare.com\/v\/il-borgo\/4babbac4f964a5206cc43ae3\/menu","mobileUrl":"https:\/\/foursquare.com\/v\/4babbac4f964a5206cc43ae3\/device_menu"},"specials":{"count":"0"},"hereNow":{"count":"0"},"referralId":"v-1392478049"},{"id":"4faa910ce4b0f00008f75c29","name":"Ten Palace Gate","location":{"lat":"51.499983","lng":"-0.183596","distance":"94","cc":"GB","country":"United Kingdom"},"categories":[{"id":"4d954b06a243a5684965b473","name":"Residential Building (Apartment \/ Condo)","pluralName":"Residential Buildings (Apartments \/ Condos)","shortName":"Residential","icon":{"prefix":"https:\/\/ss1.4sqi.net\/img\/categories_v2\/building\/apartment_","suffix":".png"},"primary":"true"}],"verified":"false","restricted":"true","stats":{"checkinsCount":"42","usersCount":"18","tipCount":"0"},"specials":{"count":"0"},"hereNow":{"count":"0"},"referralId":"v-1392478049"},{"id":"4c8129e02f1c236ace102d43","name":"Toni&Guy","location":{"address":"21 Gloucester Road","lat":"51.498166","lng":"-0.1837168","distance":"140","postalCode":"SW7 4PL","cc":"GB","city":"Kensington","state":"Greater London","country":"United Kingdom"},"categories":[{"id":"4bf58dd8d48988d110951735","name":"Salon \/ Barbershop","pluralName":"Salons \/ Barbershops","shortName":"Salon \/ Barbershop","icon":{"prefix":"https:\/\/ss1.4sqi.net\/img\/categories_v2\/shops\/salon_barber_","suffix":".png"},"primary":"true"}],"verified":"false","restricted":"true","stats":{"checkinsCount":"82","usersCount":"39","tipCount":"1"},"specials":{"count":"0"},"hereNow":{"count":"0"},"referralId":"v-1392478049"}],"confident":"true"}}