{"meta":{"code":"200"},"response":{"venues":[{"id":"4bbcaa30593fef3b046b0256","name":"Mare Moto","contact":{"phone":"+442077318685","formattedPhone":"+44 20 7731 8685"},"location":{"address":"562 King's Rd.","crossStreet":"at Holmead Rd.","lat":"51.479288935661316","lng":"-0.187487","distance":"21","postalCode":"SW6 2DZ","cc":"GB","city":"Fulham","state":"Greater London","country":"United Kingdom"},"categories":[{"id":"4bf58dd8d48988d110941735","name":"Italian Restaurant","pluralName":"Italian Restaurants","shortName":"Italian","icon":{"prefix":"https:\/\/ss1.4sqi.net\/img\/categories_v2\/food\/italian_","suffix":".png"},"primary":"true"}],"verified":"false","restricted":"true","stats":{"checkinsCount":"239","usersCount":"189","tipCount":"7"},"url":"http:\/\/www.maremoto.co.uk","menu":{"type":"Menu","label":"Menu","anchor":"View Menu","url":"https:\/\/foursquare.com\/v\/mare-moto\/4bbcaa30593fef3b046b0256\/menu","mobileUrl":"https:\/\/foursquare.com\/v\/4bbcaa30593fef3b046b0256\/device_menu"},"specials":{"count":"0"},"hereNow":{"count":"0"},"referralId":"v-1392478101"},{"id":"4b558436f964a5203ee627e3","name":"Megan's","location":{"lat":"51.478809","lng":"-0.18812477588653564","distance":"57","cc":"GB","country":"United Kingdom"},"categories":[{"id":"4bf58dd8d48988d16d941735","name":"Caf\u00e9","pluralName":"Caf\u00e9s","shortName":"Caf\u00e9","icon":{"prefix":"https:\/\/ss1.4sqi.net\/img\/categories_v2\/food\/cafe_","suffix":".png"},"primary":"true"}],"verified":"false","restricted":"true","stats":{"checkinsCount":"615","usersCount":"349","tipCount":"14"},"menu":{"type":"Menu","label":"Menu","anchor":"View Menu","url":"https:\/\/foursquare.com\/v\/megans\/4b558436f964a5203ee627e3\/menu","mobileUrl":"https:\/\/foursquare.com\/v\/4b558436f964a5203ee627e3\/device_menu"},"specials":{"count":"0"},"hereNow":{"count":"0"},"referralId":"v-1392478101"},{"id":"52c82012498e5d888a71b6af","name":"The Imperial","contact":{"phone":"+442077366081","formattedPhone":"+44 20 7736 6081"},"location":{"address":"577 King's Road","lat":"51.478905","lng":"-0.188259","distance":"53","postalCode":"SW6 2EH","cc":"GB","city":"London","country":"United Kingdom"},"categories":[{"id":"4bf58dd8d48988d155941735","name":"Gastropub","pluralName":"Gastropubs","shortName":"Gastropub","icon":{"prefix":"https:\/\/ss1.4sqi.net\/img\/categories_v2\/food\/gastropub_","suffix":".png"},"primary":"true"}],"verified":"false","restricted":"true","stats":{"checkinsCount":"14","usersCount":"13","tipCount":"0"},"url":"http:\/\/the-imperial.co.uk","menu":{"type":"Menu","label":"Menu","anchor":"View Menu","url":"https:\/\/foursquare.com\/v\/the-imperial\/52c82012498e5d888a71b6af\/menu","mobileUrl":"https:\/\/foursquare.com\/v\/52c82012498e5d888a71b6af\/device_menu"},"specials":{"count":"0"},"hereNow":{"count":"0"},"referralId":"v-1392478101"},{"id":"4d8f4995d00a6ea8e990cb4f","name":"The Jam Tree","contact":{"phone":"+442033973739","formattedPhone":"+44 20 3397 3739","twitter":"the_jam_tree"},"location":{"address":"541 King's Rd","lat":"51.4793748420538","lng":"-0.18683978966320228","distance":"67","postalCode":"SW6 2EB","cc":"GB","city":"Fulham","state":"Greater London","country":"United Kingdom"},"categories":[{"id":"4bf58dd8d48988d116941735","name":"Bar","pluralName":"Bars","shortName":"Bar","icon":{"prefix":"https:\/\/ss1.4sqi.net\/img\/categories_v2\/nightlife\/bar_","suffix":".png"},"primary":"true"}],"verified":"true","restricted":"true","stats":{"checkinsCount":"785","usersCount":"542","tipCount":"7"},"url":"http:\/\/www.thejamtree.com","reservations":{"url":"http:\/\/www.toptable.co.uk\/single.aspx?rid=62533&ref=9601"},"menu":{"type":"Menu","label":"Menu","anchor":"View Menu","url":"https:\/\/foursquare.com\/v\/the-jam-tree\/4d8f4995d00a6ea8e990cb4f\/menu","mobileUrl":"https:\/\/foursquare.com\/v\/4d8f4995d00a6ea8e990cb4f\/device_menu"},"specials":{"count":"0"},"hereNow":{"count":"0"},"storeId":"","referralId":"v-1392478101"},{"id":"52c81cb0498e75e332645d47","name":"Trowbridge Gallery","location":{"address":"555 Kings Road","lat":"51.479233","lng":"-0.187502","distance":"21","cc":"GB","country":"United Kingdom"},"categories":[{"id":"4bf58dd8d48988d1e2931735","name":"Art Gallery","pluralName":"Art Galleries","shortName":"Art Gallery","icon":{"prefix":"https:\/\/ss1.4sqi.net\/img\/categories_v2\/arts_entertainment\/artgallery_","suffix":".png"},"primary":"true"}],"verified":"false","restricted":"true","stats":{"checkinsCount":"2","usersCount":"2","tipCount":"0"},"specials":{"count":"0"},"hereNow":{"count":"0"},"referralId":"v-1392478101"},{"id":"4d80d3204a984eb929fd27e8","name":"Frankie's Sports Bar & Grill","location":{"address":"Stamford Bridge, Fulham Road","lat":"51.48096584664885","lng":"-0.1897916936801941","distance":"232","postalCode":"SW6 1HS","cc":"GB","city":"London","state":"Greater London","country":"United Kingdom"},"categories":[{"id":"4bf58dd8d48988d16c941735","name":"Burger Joint","pluralName":"Burger Joints","shortName":"Burgers","icon":{"prefix":"https:\/\/ss1.4sqi.net\/img\/categories_v2\/food\/burger_","suffix":".png"},"primary":"true"}],"verified":"false","restricted":"true","stats":{"checkinsCount":"707","usersCount":"482","tipCount":"13"},"url":"http:\/\/www.frankies-chelsea.org.","specials":{"count":"0"},"hereNow":{"count":"0"},"referralId":"v-1392478101"},{"id":"4bc1e83c2a89ef3b78daf288","name":"Millennium & Copthorne Hotels at Chelsea Football Club","contact":{"phone":"+442075651400","formattedPhone":"+44 20 7565 1400","twitter":"millenniumeu","facebook":"456685494411593"},"location":{"address":"Stamford Bridge","crossStreet":"Fulham Road","lat":"51.480981747743165","lng":"-0.18958922068085396","distance":"225","postalCode":"SW6 1HS","cc":"GB","city":"Chelsea","state":"Greater London","country":"United Kingdom"},"categories":[{"id":"4bf58dd8d48988d1fa931735","name":"Hotel","pluralName":"Hotels","shortName":"Hotel","icon":{"prefix":"https:\/\/ss1.4sqi.net\/img\/categories_v2\/travel\/hotel_","suffix":".png"},"primary":"true"}],"verified":"true","restricted":"true","stats":{"checkinsCount":"1828","usersCount":"969","tipCount":"19"},"url":"http:\/\/www.millenniumhotels.co.uk","specials":{"count":"0"},"hereNow":{"count":"0"},"storeId":"","referralId":"v-1392478101"},{"id":"5286831b11d2821390ce8b79","name":"Jaks Kings Road","location":{"lat":"51.48038307859561","lng":"-0.1852563759618954","distance":"214","cc":"GB","country":"United Kingdom"},"categories":[{"id":"4bf58dd8d48988d1c4941735","name":"Restaurant","pluralName":"Restaurants","shortName":"Restaurant","icon":{"prefix":"https:\/\/ss1.4sqi.net\/img\/categories_v2\/food\/default_","suffix":".png"},"primary":"true"}],"verified":"false","restricted":"true","stats":{"checkinsCount":"48","usersCount":"37","tipCount":"2"},"specials":{"count":"0"},"hereNow":{"count":"1","groups":[{"type":"others","name":"Other people here","count":"1"}]},"referralId":"v-1392478101"},{"id":"4cc2cb54d43ba143a7f95af8","name":"The Butchers Hook","location":{"address":"477 Fulham Road","lat":"51.480312","lng":"-0.1893467","distance":"156","postalCode":"SW6 1HL","cc":"GB","city":"Fulham","state":"Greater London","country":"United Kingdom"},"categories":[{"id":"4bf58dd8d48988d155941735","name":"Gastropub","pluralName":"Gastropubs","shortName":"Gastropub","icon":{"prefix":"https:\/\/ss1.4sqi.net\/img\/categories_v2\/food\/gastropub_","suffix":".png"},"primary":"true"}],"verified":"false","restricted":"true","stats":{"checkinsCount":"726","usersCount":"383","tipCount":"16"},"menu":{"type":"Menu","label":"Menu","anchor":"View Menu","url":"https:\/\/foursquare.com\/v\/the-butchers-hook\/4cc2cb54d43ba143a7f95af8\/menu","mobileUrl":"https:\/\/foursquare.com\/v\/4cc2cb54d43ba143a7f95af8\/device_menu"},"specials":{"count":"0"},"hereNow":{"count":"0"},"referralId":"v-1392478101"},{"id":"4fc4f3ade4b0829fe123587d","name":"interio","location":{"lat":"51.47929169427707","lng":"-0.18758610628199118","distance":"15","cc":"GB","country":"United Kingdom"},"categories":[{"id":"4bf58dd8d48988d1f8941735","name":"Furniture \/ Home Store","pluralName":"Furniture \/ Home Stores","shortName":"Furniture \/ Home","icon":{"prefix":"https:\/\/ss1.4sqi.net\/img\/categories_v2\/shops\/furniture_","suffix":".png"},"primary":"true"}],"verified":"false","restricted":"true","stats":{"checkinsCount":"4","usersCount":"3","tipCount":"0"},"specials":{"count":"0"},"hereNow":{"count":"0"},"referralId":"v-1392478101"},{"id":"4ac518bdf964a520b2a220e3","name":"Shoeless Joe's","location":{"address":"555 King's Road","lat":"51.47921935","lng":"-0.18765807","distance":"12","postalCode":"SW6 2EB","cc":"GB","city":"London","state":"Greater London","country":"United Kingdom"},"categories":[{"id":"4bf58dd8d48988d11e941735","name":"Cocktail Bar","pluralName":"Cocktail Bars","shortName":"Cocktail","icon":{"prefix":"https:\/\/ss1.4sqi.net\/img\/categories_v2\/nightlife\/cocktails_","suffix":".png"},"primary":"true"}],"verified":"false","restricted":"true","stats":{"checkinsCount":"5","usersCount":"3","tipCount":"0"},"specials":{"count":"0"},"hereNow":{"count":"0"},"referralId":"v-1392478101"},{"id":"4cc6c9130a8c9521b7e0bca6","name":"L'Antico","contact":{"phone":"+442073719536","formattedPhone":"+44 20 7371 9536"},"location":{"address":"564 Kings Road","lat":"51.479112056078854","lng":"-0.18780930601695936","distance":"19","postalCode":"SW6 2DY","cc":"GB","city":"London","state":"Greater London","country":"United Kingdom"},"categories":[{"id":"4bf58dd8d48988d1ca941735","name":"Pizza Place","pluralName":"Pizza Places","shortName":"Pizza","icon":{"prefix":"https:\/\/ss1.4sqi.net\/img\/categories_v2\/food\/pizza_","suffix":".png"},"primary":"true"}],"verified":"false","restricted":"true","stats":{"checkinsCount":"63","usersCount":"48","tipCount":"2"},"specials":{"count":"0"},"hereNow":{"count":"0"},"referralId":"v-1392478101"},{"id":"4ac518d4f964a520b9a720e3","name":"Chutney Mary","contact":{"phone":"+442073513113","formattedPhone":"+44 20 7351 3113"},"location":{"address":"535 Kings Rd","lat":"51.48015680870031","lng":"-0.18588244915008545","distance":"164","postalCode":"SW10 0SZ","cc":"GB","city":"Chelsea","state":"Greater London","country":"United Kingdom"},"categories":[{"id":"4bf58dd8d48988d10f941735","name":"Indian Restaurant","pluralName":"Indian Restaurants","shortName":"Indian","icon":{"prefix":"https:\/\/ss1.4sqi.net\/img\/categories_v2\/food\/indian_","suffix":".png"},"primary":"true"}],"verified":"true","restricted":"true","stats":{"checkinsCount":"464","usersCount":"409","tipCount":"17"},"url":"http:\/\/realindianfood.com","reservations":{"url":"http:\/\/www.toptable.co.uk\/single.aspx?rid=83044&ref=9601"},"specials":{"count":"0"},"hereNow":{"count":"0"},"referralId":"v-1392478101"},{"id":"525ffcb211d25cf0872edd1a","name":"Titchmarsh & Goodwin","contact":{"phone":"+442077314555","formattedPhone":"+44 20 7731 4555"},"location":{"address":"555 Kings Rd","lat":"51.479411","lng":"-0.187427","distance":"29","postalCode":"SW6 2EB","cc":"GB","city":"London","state":"Greater London","country":"United Kingdom"},"categories":[{"id":"4bf58dd8d48988d1f8941735","name":"Furniture \/ Home Store","pluralName":"Furniture \/ Home Stores","shortName":"Furniture \/ Home","icon":{"prefix":"https:\/\/ss1.4sqi.net\/img\/categories_v2\/shops\/furniture_","suffix":".png"},"primary":"true"}],"verified":"true","restricted":"true","stats":{"checkinsCount":"8","usersCount":"3","tipCount":"0"},"specials":{"count":"0"},"hereNow":{"count":"0"},"venuePage":{"id":"74913970"},"referralId":"v-1392478101"},{"id":"52cc13bc498e81cc2082abf0","name":"Meridian West London","location":{"lat":"51.47994655141077","lng":"-0.18577156319830032","distance":"158","cc":"GB","country":"United Kingdom"},"categories":[{"id":"4bf58dd8d48988d122951735","name":"Electronics Store","pluralName":"Electronics Stores","shortName":"Electronics","icon":{"prefix":"https:\/\/ss1.4sqi.net\/img\/categories_v2\/shops\/technology_","suffix":".png"},"primary":"true"}],"verified":"false","restricted":"true","stats":{"checkinsCount":"9","usersCount":"2","tipCount":"0"},"specials":{"count":"0"},"hereNow":{"count":"0"},"referralId":"v-1392478101"},{"id":"4ac518c8f964a52091a520e3","name":"Embargo 59","contact":{"phone":"+442073515038","formattedPhone":"+44 20 7351 5038","twitter":"embargo59"},"location":{"address":"533b King's Rd","lat":"51.480372","lng":"-0.185345","distance":"208","postalCode":"SW10 0TZ","cc":"GB","city":"Fulham","state":"Greater London","country":"United Kingdom"},"categories":[{"id":"4bf58dd8d48988d116941735","name":"Bar","pluralName":"Bars","shortName":"Bar","icon":{"prefix":"https:\/\/ss1.4sqi.net\/img\/categories_v2\/nightlife\/bar_","suffix":".png"},"primary":"true"}],"verified":"false","restricted":"true","stats":{"checkinsCount":"444","usersCount":"335","tipCount":"8"},"url":"http:\/\/www.embargo59.com","menu":{"type":"Menu","label":"Menu","anchor":"View Menu","url":"https:\/\/foursquare.com\/v\/embargo-59\/4ac518c8f964a52091a520e3\/menu","mobileUrl":"https:\/\/foursquare.com\/v\/4ac518c8f964a52091a520e3\/device_menu"},"specials":{"count":"0"},"hereNow":{"count":"0"},"referralId":"v-1392478101"},{"id":"4b62b52cf964a520ca4f2ae3","name":"Hand & Flower pub","contact":{"phone":"+442077310999","formattedPhone":"+44 20 7731 0999"},"location":{"address":"617 Kings Road, Chelsea","crossStreet":"Edith Row","lat":"51.477867","lng":"-0.18964","distance":"203","postalCode":"SW6 2ES","cc":"GB","city":"London","state":"Greater London","country":"United Kingdom"},"categories":[{"id":"4bf58dd8d48988d11b941735","name":"Pub","pluralName":"Pubs","shortName":"Pub","icon":{"prefix":"https:\/\/ss1.4sqi.net\/img\/categories_v2\/nightlife\/pub_","suffix":".png"},"primary":"true"}],"verified":"true","restricted":"true","stats":{"checkinsCount":"400","usersCount":"249","tipCount":"8"},"menu":{"type":"Menu","label":"Menu","anchor":"View Menu","url":"https:\/\/foursquare.com\/v\/hand--flower-pub\/4b62b52cf964a520ca4f2ae3\/menu","mobileUrl":"https:\/\/foursquare.com\/v\/4b62b52cf964a520ca4f2ae3\/device_menu"},"specials":{"count":"0"},"hereNow":{"count":"0"},"referralId":"v-1392478101"},{"id":"5202683e498e6736151c63ce","name":"York Road Gallery","location":{"address":"569 Kings Road","lat":"51.479325","lng":"-0.187488","distance":"22","postalCode":"SW6","cc":"GB","country":"United Kingdom"},"categories":[{"id":"4bf58dd8d48988d1e2931735","name":"Art Gallery","pluralName":"Art Galleries","shortName":"Art Gallery","icon":{"prefix":"https:\/\/ss1.4sqi.net\/img\/categories_v2\/arts_entertainment\/artgallery_","suffix":".png"},"primary":"true"}],"verified":"false","restricted":"true","stats":{"checkinsCount":"1","usersCount":"1","tipCount":"0"},"specials":{"count":"0"},"hereNow":{"count":"0"},"referralId":"v-1392478101"},{"id":"4cfe2abc20fe370414ae63f8","name":"Wovenground","location":{"lat":"51.479087","lng":"-0.187848","distance":"22","cc":"GB","country":"United Kingdom"},"verified":"false","restricted":"true","stats":{"checkinsCount":"2","usersCount":"2","tipCount":"1"},"specials":{"count":"0"},"hereNow":{"count":"0"},"referralId":"v-1392478101"},{"id":"4d31b10fb60937048269eedf","name":"John Cullen Lighting: Design & Supply","contact":{"phone":"+442073715400","formattedPhone":"+44 20 7371 5400"},"location":{"address":"561-563 Kings Road","lat":"51.47903091739699","lng":"-0.1877760887145996","distance":"28","postalCode":"SW6 2EB","cc":"GB","city":"London","state":"Greater London","country":"United Kingdom"},"categories":[{"id":"4bf58dd8d48988d1f4941735","name":"Design Studio","pluralName":"Design Studios","shortName":"Design","icon":{"prefix":"https:\/\/ss1.4sqi.net\/img\/categories_v2\/shops\/design_","suffix":".png"},"primary":"true"}],"verified":"false","restricted":"true","stats":{"checkinsCount":"2","usersCount":"2","tipCount":"0"},"specials":{"count":"0"},"hereNow":{"count":"0"},"referralId":"v-1392478101"},{"id":"4ddd2e5d52b177ff2e7d8edb","name":"Rockstar Games","location":{"address":"555 Kings Road","lat":"51.47939989115987","lng":"-0.18752806075203138","distance":"22","postalCode":"SW6 2EB","cc":"GB","city":"London","state":"Greater London","country":"United Kingdom"},"categories":[{"id":"4bf58dd8d48988d125941735","name":"Tech Startup","pluralName":"Tech Startups","shortName":"Tech Startup","icon":{"prefix":"https:\/\/ss1.4sqi.net\/img\/categories_v2\/shops\/technology_","suffix":".png"},"primary":"true"}],"verified":"false","restricted":"true","stats":{"checkinsCount":"63","usersCount":"32","tipCount":"0"},"specials":{"count":"0"},"hereNow":{"count":"0"},"referralId":"v-1392478101"},{"id":"4c81bfdf74d7b60c08477ad8","name":"Tesco Express","contact":{"phone":"+448456779285","formattedPhone":"+44 845 677 9285","twitter":"uktescooffers"},"location":{"address":"601 Kings Road","lat":"51.47787249595582","lng":"-0.18912610584971762","distance":"182","postalCode":"SW6 2EL","cc":"GB","city":"London","state":"Greater London","country":"United Kingdom"},"categories":[{"id":"4bf58dd8d48988d118951735","name":"Grocery Store","pluralName":"Grocery Stores","shortName":"Grocery Store","icon":{"prefix":"https:\/\/ss1.4sqi.net\/img\/categories_v2\/shops\/food_grocery_","suffix":".png"},"primary":"true"}],"verified":"true","restricted":"true","stats":{"checkinsCount":"187","usersCount":"71","tipCount":"3"},"url":"http:\/\/www.tesco.com","specials":{"count":"0"},"hereNow":{"count":"0"},"storeId":"2553","referralId":"v-1392478101"},{"id":"4b928a70f964a520770234e3","name":"Warrs Harley Davidson","location":{"lat":"51.47774972922079","lng":"-0.18931011719154134","distance":"200","cc":"GB","country":"United Kingdom"},"categories":[{"id":"4bf58dd8d48988d124951735","name":"Automotive Shop","pluralName":"Automotive Shops","shortName":"Automotive","icon":{"prefix":"https:\/\/ss1.4sqi.net\/img\/categories_v2\/shops\/automotive_","suffix":".png"},"primary":"true"}],"verified":"false","restricted":"true","stats":{"checkinsCount":"150","usersCount":"133","tipCount":"2"},"specials":{"count":"0"},"hereNow":{"count":"0"},"referralId":"v-1392478101"},{"id":"4c0d0b3f336220a10014ca77","name":"Maremoto","location":{"address":"562 King's Rd.","lat":"51.479403","lng":"-0.187314","distance":"36","postalCode":"SW6 2DZ","cc":"GB","city":"London","state":"Greater London","country":"United Kingdom"},"categories":[{"id":"4bf58dd8d48988d110941735","name":"Italian Restaurant","pluralName":"Italian Restaurants","shortName":"Italian","icon":{"prefix":"https:\/\/ss1.4sqi.net\/img\/categories_v2\/food\/italian_","suffix":".png"},"primary":"true"}],"verified":"false","restricted":"true","stats":{"checkinsCount":"26","usersCount":"21","tipCount":"1"},"url":"http:\/\/www.maremoto.co.uk","reservations":{"url":"http:\/\/www.toptable.co.uk\/single.aspx?rid=43668&ref=9601"},"menu":{"type":"Menu","label":"Menu","anchor":"View Menu","url":"https:\/\/foursquare.com\/v\/maremoto\/4c0d0b3f336220a10014ca77\/menu","mobileUrl":"https:\/\/foursquare.com\/v\/4c0d0b3f336220a10014ca77\/device_menu"},"specials":{"count":"0"},"hereNow":{"count":"0"},"referralId":"v-1392478101"},{"id":"51b8cce7498e9626c769e763","name":"Guinevere","location":{"address":"574-580 King's Road","lat":"51.478969","lng":"-0.188159","distance":"43","cc":"GB","city":"London","state":"Greater London","country":"United Kingdom"},"categories":[{"id":"4bf58dd8d48988d101951735","name":"Thrift \/ Vintage Store","pluralName":"Thrift \/ Vintage Stores","shortName":"Thrift \/ Vintage","icon":{"prefix":"https:\/\/ss1.4sqi.net\/img\/categories_v2\/shops\/default_","suffix":".png"},"primary":"true"}],"verified":"false","restricted":"true","stats":{"checkinsCount":"1","usersCount":"1","tipCount":"0"},"specials":{"count":"0"},"hereNow":{"count":"0"},"referralId":"v-1392478101"},{"id":"4e187c7ee4cd49a7e3e9caac","name":"And So To Bed","location":{"address":"640 Kings Road","lat":"51.47842265314062","lng":"-0.18883212852002068","distance":"119","cc":"GB","city":"Hammersmith","state":"Greater London","country":"United Kingdom"},"categories":[{"id":"4bf58dd8d48988d1f8941735","name":"Furniture \/ Home Store","pluralName":"Furniture \/ Home Stores","shortName":"Furniture \/ Home","icon":{"prefix":"https:\/\/ss1.4sqi.net\/img\/categories_v2\/shops\/furniture_","suffix":".png"},"primary":"true"}],"verified":"false","restricted":"true","stats":{"checkinsCount":"4","usersCount":"4","tipCount":"0"},"specials":{"count":"0"},"hereNow":{"count":"0"},"referralId":"v-1392478101"},{"id":"50b0ea08e4b0caa69c3cc824","name":"deirdre Dyson","location":{"lat":"51.479620454763236","lng":"-0.18732989650032766","distance":"49","cc":"GB","country":"United Kingdom"},"categories":[{"id":"4bf58dd8d48988d1f8941735","name":"Furniture \/ Home Store","pluralName":"Furniture \/ Home Stores","shortName":"Furniture \/ Home","icon":{"prefix":"https:\/\/ss1.4sqi.net\/img\/categories_v2\/shops\/furniture_","suffix":".png"},"primary":"true"}],"verified":"false","restricted":"true","stats":{"checkinsCount":"1","usersCount":"1","tipCount":"0"},"specials":{"count":"0"},"hereNow":{"count":"0"},"referralId":"v-1392478101"},{"id":"4b22ab6cf964a5206d4b24e3","name":"Fullham Broadway Mall","location":{"address":"Fullham road","lat":"51.48065055693361","lng":"-0.1897701048788724","distance":"203","cc":"GB","city":"London","state":"Greater London","country":"United Kingdom"},"categories":[{"id":"4bf58dd8d48988d1fd941735","name":"Mall","pluralName":"Malls","shortName":"Mall","icon":{"prefix":"https:\/\/ss1.4sqi.net\/img\/categories_v2\/shops\/mall_","suffix":".png"},"primary":"true"}],"verified":"false","restricted":"true","stats":{"checkinsCount":"149","usersCount":"108","tipCount":"0"},"specials":{"count":"0"},"hereNow":{"count":"0"},"referralId":"v-1392478101"},{"id":"4c5307f6224ab71394c6fc97","name":"The Noble Union","contact":{"twitter":"thenobleunion"},"location":{"address":"571 King's Road","lat":"51.478868","lng":"-0.188066","distance":"50","postalCode":"SW6 2EB","cc":"GB","city":"London","state":"Greater London","country":"United Kingdom"},"verified":"false","restricted":"true","stats":{"checkinsCount":"3","usersCount":"3","tipCount":"0"},"specials":{"count":"0"},"hereNow":{"count":"0"},"referralId":"v-1392478101"},{"id":"506211a0e4b02bec9b6eb08c","name":"George Smith","location":{"lat":"51.47846850349525","lng":"-0.18895240856927548","distance":"121","cc":"GB","country":"United Kingdom"},"categories":[{"id":"4bf58dd8d48988d1f8941735","name":"Furniture \/ Home Store","pluralName":"Furniture \/ Home Stores","shortName":"Furniture \/ Home","icon":{"prefix":"https:\/\/ss1.4sqi.net\/img\/categories_v2\/shops\/furniture_","suffix":".png"},"primary":"true"}],"verified":"false","restricted":"true","stats":{"checkinsCount":"7","usersCount":"7","tipCount":"0"},"specials":{"count":"0"},"hereNow":{"count":"0"},"referralId":"v-1392478101"}],"confident":"true"}}