{"meta":{"code":"200"},"response":{"venues":[{"id":"4db6a5bef7b121c29f762040","name":"Belgravia Garage \/ Car Wash SW1","location":{"lat":"51.494140620200675","lng":"-0.1526377494761856","distance":"20","cc":"GB","city":"London","state":"Greater London","country":"United Kingdom"},"categories":[{"id":"4bf58dd8d48988d124951735","name":"Automotive Shop","pluralName":"Automotive Shops","shortName":"Automotive","icon":{"prefix":"https:\/\/ss1.4sqi.net\/img\/categories_v2\/shops\/automotive_","suffix":".png"},"primary":"true"}],"verified":"false","restricted":"true","stats":{"checkinsCount":"63","usersCount":"19","tipCount":"0"},"specials":{"count":"0"},"hereNow":{"count":"0"},"referralId":"v-1392478065"},{"id":"4b58367df964a5202f4e28e3","name":"Baker & Spice","contact":{"phone":"+442077305524","formattedPhone":"+44 20 7730 5524"},"location":{"address":"54-56 Elizabeth St","lat":"51.493965","lng":"-0.151389","distance":"104","postalCode":"SW1W 9PB","cc":"GB","city":"London","state":"Greater London","country":"United Kingdom"},"categories":[{"id":"4bf58dd8d48988d16a941735","name":"Bakery","pluralName":"Bakeries","shortName":"Bakery","icon":{"prefix":"https:\/\/ss1.4sqi.net\/img\/categories_v2\/food\/bakery_","suffix":".png"},"primary":"true"}],"verified":"false","restricted":"true","stats":{"checkinsCount":"681","usersCount":"399","tipCount":"13"},"url":"http:\/\/www.bakerandspice.uk.com","specials":{"count":"0"},"hereNow":{"count":"1","groups":[{"type":"others","name":"Other people here","count":"1"}]},"referralId":"v-1392478065"},{"id":"4b12c38ef964a520a28d23e3","name":"Thomas Cubitt","contact":{"phone":"+442077306060","formattedPhone":"+44 20 7730 6060"},"location":{"address":"44 Elizabeth St.","crossStreet":"at Ebury Mews","lat":"51.493677","lng":"-0.1507546","distance":"157","postalCode":"SW1W 9PA","cc":"GB","city":"Belgravia","state":"Greater London","country":"United Kingdom"},"categories":[{"id":"4bf58dd8d48988d155941735","name":"Gastropub","pluralName":"Gastropubs","shortName":"Gastropub","icon":{"prefix":"https:\/\/ss1.4sqi.net\/img\/categories_v2\/food\/gastropub_","suffix":".png"},"primary":"true"}],"verified":"false","restricted":"true","stats":{"checkinsCount":"1809","usersCount":"1234","tipCount":"29"},"url":"http:\/\/www.thethomascubitt.co.uk","reservations":{"url":"http:\/\/www.toptable.co.uk\/single.aspx?rid=31480&ref=9601"},"menu":{"type":"Menu","label":"Menu","anchor":"View Menu","url":"https:\/\/foursquare.com\/v\/thomas-cubitt\/4b12c38ef964a520a28d23e3\/menu","mobileUrl":"https:\/\/foursquare.com\/v\/4b12c38ef964a520a28d23e3\/device_menu"},"specials":{"count":"0"},"hereNow":{"count":"3","groups":[{"type":"others","name":"Other people here","count":"3"}]},"referralId":"v-1392478065"},{"id":"4ae41b7ef964a520c09921e3","name":"Tomtom Coffee House","contact":{"phone":"+442077301771","formattedPhone":"+44 20 7730 1771"},"location":{"address":"114 Ebury St","crossStreet":"at Elizabeth St","lat":"51.49339934817631","lng":"-0.1502119881797557","distance":"205","postalCode":"SW1W 9QD","cc":"GB","city":"Victoria","state":"Greater London","country":"United Kingdom"},"categories":[{"id":"4bf58dd8d48988d1e0931735","name":"Coffee Shop","pluralName":"Coffee Shops","shortName":"Coffee Shop","icon":{"prefix":"https:\/\/ss1.4sqi.net\/img\/categories_v2\/food\/coffeeshop_","suffix":".png"},"primary":"true"}],"verified":"true","restricted":"true","stats":{"checkinsCount":"1348","usersCount":"590","tipCount":"24"},"url":"http:\/\/www.tomtom.co.uk","menu":{"type":"Menu","label":"Menu","anchor":"View Menu","url":"https:\/\/foursquare.com\/v\/tomtom-coffee-house\/4ae41b7ef964a520c09921e3\/menu","mobileUrl":"https:\/\/foursquare.com\/v\/4ae41b7ef964a520c09921e3\/device_menu"},"specials":{"count":"0"},"hereNow":{"count":"1","groups":[{"type":"others","name":"Other people here","count":"1"}]},"venuePage":{"id":"39776635"},"storeId":"","referralId":"v-1392478065"},{"id":"4ade11f7f964a520d67221e3","name":"Oliveto","contact":{"phone":"+442077300074","formattedPhone":"+44 20 7730 0074"},"location":{"address":"49 Elizabeth Street","lat":"51.493525","lng":"-0.15041828155517578","distance":"185","postalCode":"SW1W 9PP","cc":"GB","city":"Belgravia","state":"Greater London","country":"United Kingdom"},"categories":[{"id":"4bf58dd8d48988d110941735","name":"Italian Restaurant","pluralName":"Italian Restaurants","shortName":"Italian","icon":{"prefix":"https:\/\/ss1.4sqi.net\/img\/categories_v2\/food\/italian_","suffix":".png"},"primary":"true"}],"verified":"false","restricted":"true","stats":{"checkinsCount":"515","usersCount":"314","tipCount":"20"},"menu":{"type":"Menu","label":"Menu","anchor":"View Menu","url":"https:\/\/foursquare.com\/v\/oliveto\/4ade11f7f964a520d67221e3\/menu","mobileUrl":"https:\/\/foursquare.com\/v\/4ade11f7f964a520d67221e3\/device_menu"},"specials":{"count":"0"},"hereNow":{"count":"0"},"referralId":"v-1392478065"},{"id":"5028cbc229a6b0b0e3add031","name":"Olivocarne","contact":{"phone":"+442077307997","formattedPhone":"+44 20 7730 7997"},"location":{"address":"61 Elizabeth St","lat":"51.494583797796174","lng":"-0.15202760696411133","distance":"62","postalCode":"SW1W 9PP","cc":"GB","city":"Belgravis","state":"Greater London","country":"United Kingdom"},"categories":[{"id":"4bf58dd8d48988d1c0941735","name":"Mediterranean Restaurant","pluralName":"Mediterranean Restaurants","shortName":"Mediterranean","icon":{"prefix":"https:\/\/ss1.4sqi.net\/img\/categories_v2\/food\/mediterranean_","suffix":".png"},"primary":"true"}],"verified":"false","restricted":"true","stats":{"checkinsCount":"55","usersCount":"45","tipCount":"3"},"specials":{"count":"0"},"hereNow":{"count":"0"},"referralId":"v-1392478065"},{"id":"4ac518bef964a520fba220e3","name":"The Antelope","contact":{"phone":"+442078248512","formattedPhone":"+44 20 7824 8512"},"location":{"address":"22 Eaton Terrace","lat":"51.49396745556143","lng":"-0.1553305938054493","distance":"178","postalCode":"SW1W 8EZ","cc":"GB","city":"London","state":"Greater London","country":"United Kingdom"},"categories":[{"id":"4bf58dd8d48988d11b941735","name":"Pub","pluralName":"Pubs","shortName":"Pub","icon":{"prefix":"https:\/\/ss1.4sqi.net\/img\/categories_v2\/nightlife\/pub_","suffix":".png"},"primary":"true"}],"verified":"false","restricted":"true","stats":{"checkinsCount":"583","usersCount":"408","tipCount":"9"},"specials":{"count":"0"},"hereNow":{"count":"0"},"referralId":"v-1392478065"},{"id":"523abe6e11d250a646c4d80a","name":"The Faculty","location":{"lat":"51.493958","lng":"-0.154793","distance":"142","cc":"GB","country":"United Kingdom"},"categories":[{"id":"4bf58dd8d48988d124941735","name":"Office","pluralName":"Offices","shortName":"Office","icon":{"prefix":"https:\/\/ss1.4sqi.net\/img\/categories_v2\/building\/default_","suffix":".png"},"primary":"true"}],"verified":"false","restricted":"true","stats":{"checkinsCount":"11","usersCount":"4","tipCount":"0"},"specials":{"count":"0"},"hereNow":{"count":"0"},"referralId":"v-1392478065"},{"id":"4cebbf17f3bda143a27dcde4","name":"Peggy Porschen","contact":{"phone":"+442077301316","formattedPhone":"+44 20 7730 1316"},"location":{"address":"116 Ebury St.","lat":"51.493271008402566","lng":"-0.1501470156359098","distance":"216","postalCode":"SW1W 9QQ","cc":"GB","city":"London","state":"Greater London","country":"United Kingdom"},"categories":[{"id":"4bf58dd8d48988d1bc941735","name":"Cupcake Shop","pluralName":"Cupcake Shops","shortName":"Cupcakes","icon":{"prefix":"https:\/\/ss1.4sqi.net\/img\/categories_v2\/food\/cupcakes_","suffix":".png"},"primary":"true"}],"verified":"true","restricted":"true","stats":{"checkinsCount":"529","usersCount":"387","tipCount":"13"},"specials":{"count":"0"},"hereNow":{"count":"0"},"venuePage":{"id":"39894666"},"referralId":"v-1392478065"},{"id":"4bc78d1c6501c9b6afa63e29","name":"Duke Of Wellington","contact":{"phone":"+442077301782","formattedPhone":"+44 20 7730 1782","facebook":"8029823489"},"location":{"address":"63 Eaton Terrace","lat":"51.49305914191852","lng":"-0.1533740758895874","distance":"142","postalCode":"SW1W 8TR","cc":"GB","city":"Belgravia","state":"Greater London","country":"United Kingdom"},"categories":[{"id":"4bf58dd8d48988d11b941735","name":"Pub","pluralName":"Pubs","shortName":"Pub","icon":{"prefix":"https:\/\/ss1.4sqi.net\/img\/categories_v2\/nightlife\/pub_","suffix":".png"},"primary":"true"}],"verified":"true","restricted":"true","stats":{"checkinsCount":"421","usersCount":"232","tipCount":"7"},"url":"http:\/\/www.dukeofwellingtonbelgravia.co.uk","specials":{"count":"0"},"hereNow":{"count":"0"},"storeId":"","referralId":"v-1392478065"},{"id":"4bb85a7e314e95212765489d","name":"St Michael's","contact":{"phone":"+442077308889","formattedPhone":"+44 20 7730 8889","twitter":"stmikeschurch"},"location":{"address":"4 Chester Sq.","lat":"51.494106505375235","lng":"-0.15115039069118788","distance":"116","postalCode":"SW1W 9HH","cc":"GB","city":"London","state":"Greater London","country":"United Kingdom"},"categories":[{"id":"4bf58dd8d48988d132941735","name":"Church","pluralName":"Churches","shortName":"Church","icon":{"prefix":"https:\/\/ss1.4sqi.net\/img\/categories_v2\/building\/religious_church_","suffix":".png"},"primary":"true"}],"verified":"false","restricted":"true","stats":{"checkinsCount":"42","usersCount":"27","tipCount":"0"},"url":"http:\/\/www.stmichaelschurch.org.uk","specials":{"count":"0"},"hereNow":{"count":"0"},"referralId":"v-1392478065"},{"id":"4dcd11cbe4cd130e1643da89","name":"H R Stoke Staionery","location":{"lat":"51.494376941799004","lng":"-0.15176562382254966","distance":"72","cc":"GB","city":"London","state":"Greater London","country":"United Kingdom"},"categories":[{"id":"4bf58dd8d48988d121951735","name":"Paper \/ Office Supplies Store","pluralName":"Paper \/ Office Supplies Stores","shortName":"Office Supplies","icon":{"prefix":"https:\/\/ss1.4sqi.net\/img\/categories_v2\/shops\/papergoods_","suffix":".png"},"primary":"true"}],"verified":"false","restricted":"true","stats":{"checkinsCount":"52","usersCount":"9","tipCount":"0"},"specials":{"count":"0"},"hereNow":{"count":"0"},"referralId":"v-1392478065"},{"id":"4bdfbfd7ffdec9288914eda1","name":"Poil\u00e2ne","contact":{"phone":"+442078084910","formattedPhone":"+44 20 7808 4910"},"location":{"address":"46 Elizabeth Street","lat":"51.49397251573494","lng":"-0.1510744371305641","distance":"124","postalCode":"SW1W 9PA","cc":"GB","city":"London","state":"Greater London","country":"United Kingdom"},"categories":[{"id":"4bf58dd8d48988d16a941735","name":"Bakery","pluralName":"Bakeries","shortName":"Bakery","icon":{"prefix":"https:\/\/ss1.4sqi.net\/img\/categories_v2\/food\/bakery_","suffix":".png"},"primary":"true"}],"verified":"false","restricted":"true","stats":{"checkinsCount":"136","usersCount":"55","tipCount":"4"},"url":"http:\/\/www.poilane.com","specials":{"count":"0"},"hereNow":{"count":"0"},"referralId":"v-1392478065"},{"id":"4efb1718775b54cdb7aa37bf","name":"Eaton Terrace","location":{"lat":"51.49357348114145","lng":"-0.15366058258622917","distance":"99","cc":"GB","country":"United Kingdom"},"verified":"false","restricted":"true","stats":{"checkinsCount":"39","usersCount":"15","tipCount":"0"},"specials":{"count":"0"},"hereNow":{"count":"0"},"referralId":"v-1392478065"},{"id":"4e6e552cd1647053ba0e315b","name":"Park Avenue Belgravia Hotel","location":{"address":"106-108 Ebury St.","lat":"51.4935","lng":"-0.15015","distance":"203","cc":"GB","city":"London","state":"Greater London","country":"United Kingdom"},"categories":[{"id":"4bf58dd8d48988d1fa931735","name":"Hotel","pluralName":"Hotels","shortName":"Hotel","icon":{"prefix":"https:\/\/ss1.4sqi.net\/img\/categories_v2\/travel\/hotel_","suffix":".png"},"primary":"true"}],"verified":"false","restricted":"true","stats":{"checkinsCount":"193","usersCount":"99","tipCount":"3"},"specials":{"count":"0"},"hereNow":{"count":"0"},"referralId":"v-1392478065"},{"id":"4bfaa393633d9c74ed1b0843","name":"Mungo & Maud","contact":{"phone":"+442074670823","formattedPhone":"+44 20 7467 0823","twitter":"mungomaud"},"location":{"address":"79 Elizabeth Street","lat":"51.494003031627706","lng":"-0.15142123000162655","distance":"100","postalCode":"SW1W 9PJ","cc":"GB","city":"London","state":"Greater London","country":"United Kingdom"},"categories":[{"id":"4bf58dd8d48988d100951735","name":"Pet Store","pluralName":"Pet Stores","shortName":"Pet Store","icon":{"prefix":"https:\/\/ss1.4sqi.net\/img\/categories_v2\/shops\/pet_store_","suffix":".png"},"primary":"true"}],"verified":"true","restricted":"true","stats":{"checkinsCount":"26","usersCount":"20","tipCount":"1"},"url":"http:\/\/www.mungoandmaud.com","specials":{"count":"0"},"hereNow":{"count":"0"},"storeId":"","referralId":"v-1392478065"},{"id":"4be18a3a8dd062b57b4e3e3c","name":"Lime Tree Hotel","location":{"address":"135-137 Ebury St.","lat":"51.493458","lng":"-0.1500360309194415","distance":"212","cc":"GB","city":"London","state":"Greater London","country":"United Kingdom"},"categories":[{"id":"4bf58dd8d48988d1fa931735","name":"Hotel","pluralName":"Hotels","shortName":"Hotel","icon":{"prefix":"https:\/\/ss1.4sqi.net\/img\/categories_v2\/travel\/hotel_","suffix":".png"},"primary":"true"}],"verified":"false","restricted":"true","stats":{"checkinsCount":"332","usersCount":"31","tipCount":"0"},"specials":{"count":"0"},"hereNow":{"count":"0"},"referralId":"v-1392478065"},{"id":"4ce3c4dc748d6ea89e91cc50","name":"Jeroboams","contact":{"phone":"+442077308108","formattedPhone":"+44 20 7730 8108"},"location":{"address":"54 Elizabeth St.","lat":"51.493913","lng":"-0.151368","distance":"107","postalCode":"SW1W 9PB","cc":"GB","city":"London","state":"Greater London","country":"United Kingdom"},"categories":[{"id":"4bf58dd8d48988d119951735","name":"Wine Shop","pluralName":"Wine Shops","shortName":"Wine Shop","icon":{"prefix":"https:\/\/ss1.4sqi.net\/img\/categories_v2\/shops\/food_wineshop_","suffix":".png"},"primary":"true"}],"verified":"true","restricted":"true","stats":{"checkinsCount":"37","usersCount":"10","tipCount":"0"},"specials":{"count":"0"},"hereNow":{"count":"0"},"storeId":"","referralId":"v-1392478065"},{"id":"4b97ec67f964a520ad1f35e3","name":"Elizabeth Street Veterinary Clinic","contact":{"phone":"+442077309102","formattedPhone":"+44 20 7730 9102"},"location":{"address":"55 Elizabeth Street","lat":"51.49369776248932","lng":"-0.150854","distance":"150","postalCode":"SW1W 9PP","cc":"GB","city":"London","state":"Greater London","country":"United Kingdom"},"categories":[{"id":"4d954af4a243a5684765b473","name":"Veterinarian","pluralName":"Veterinarians","shortName":"Veterinarians","icon":{"prefix":"https:\/\/ss1.4sqi.net\/img\/categories_v2\/building\/medical_veterinarian_","suffix":".png"},"primary":"true"}],"verified":"false","restricted":"true","stats":{"checkinsCount":"39","usersCount":"24","tipCount":"0"},"specials":{"count":"0"},"hereNow":{"count":"0"},"referralId":"v-1392478065"},{"id":"4dba26bb815445c8ca4689b4","name":"Chester Row","location":{"lat":"51.493761","lng":"-0.152498","distance":"62","cc":"GB","city":"London","state":"Greater London","country":"United Kingdom"},"categories":[{"id":"4d4b7105d754a06375d81259","name":"Professional & Other Places","pluralName":"Professional & Other Places","shortName":"Professional","icon":{"prefix":"https:\/\/ss1.4sqi.net\/img\/categories_v2\/building\/default_","suffix":".png"},"primary":"true"}],"verified":"false","restricted":"true","stats":{"checkinsCount":"50","usersCount":"6","tipCount":"1"},"specials":{"count":"0"},"hereNow":{"count":"0"},"referralId":"v-1392478065"},{"id":"522871c811d2823e01e3e6cb","name":"The Inchbald School of Design","location":{"address":"7 Eaton Gate","lat":"51.49419945847643","lng":"-0.15444191420294312","distance":"114","postalCode":"SW1W 9BA","cc":"GB","city":"London","state":"Greater London","country":"United Kingdom"},"categories":[{"id":"4bf58dd8d48988d1ae941735","name":"University","pluralName":"Universities","shortName":"University","icon":{"prefix":"https:\/\/ss1.4sqi.net\/img\/categories_v2\/education\/default_","suffix":".png"},"primary":"true"}],"verified":"false","restricted":"true","stats":{"checkinsCount":"37","usersCount":"3","tipCount":"0"},"specials":{"count":"0"},"hereNow":{"count":"0"},"referralId":"v-1392478065"},{"id":"4ac518ecf964a5207aac20e3","name":"Philip Treacy","location":{"address":"69 Elizabeth Street","lat":"51.49375384298494","lng":"-0.15082147977309412","distance":"149","postalCode":"SW1W 9PJ","cc":"GB","city":"London","state":"Greater London","country":"United Kingdom"},"categories":[{"id":"4bf58dd8d48988d102951735","name":"Accessories Store","pluralName":"Accessories Stores","shortName":"Accessories","icon":{"prefix":"https:\/\/ss1.4sqi.net\/img\/categories_v2\/shops\/apparel_accessories_","suffix":".png"},"primary":"true"}],"verified":"false","restricted":"true","stats":{"checkinsCount":"44","usersCount":"21","tipCount":"1"},"specials":{"count":"0"},"hereNow":{"count":"0"},"referralId":"v-1392478065"},{"id":"4b5a0abaf964a52080a928e3","name":"Ebury Wine Bar","contact":{"phone":"+442077305447","formattedPhone":"+44 20 7730 5447"},"location":{"address":"139 Ebury St.","lat":"51.49333298206329","lng":"-0.15012262","distance":"214","postalCode":"SW1W 9QU","cc":"GB","city":"Victoria","state":"Greater London","country":"United Kingdom"},"categories":[{"id":"4bf58dd8d48988d123941735","name":"Wine Bar","pluralName":"Wine Bars","shortName":"Wine Bar","icon":{"prefix":"https:\/\/ss1.4sqi.net\/img\/categories_v2\/nightlife\/wine_","suffix":".png"},"primary":"true"}],"verified":"false","restricted":"true","stats":{"checkinsCount":"341","usersCount":"268","tipCount":"6"},"url":"http:\/\/eburyrestaurant.co.uk","menu":{"type":"Menu","label":"Menu","anchor":"View Menu","url":"https:\/\/foursquare.com\/v\/ebury-wine-bar\/4b5a0abaf964a52080a928e3\/menu","mobileUrl":"https:\/\/foursquare.com\/v\/4b5a0abaf964a52080a928e3\/device_menu"},"specials":{"count":"0"},"hereNow":{"count":"0"},"referralId":"v-1392478065"},{"id":"51bb8778498ec3fd09ed15f0","name":"The Ebury","location":{"lat":"51.493584135295706","lng":"-0.1501153020605751","distance":"202","cc":"GB","country":"United Kingdom"},"categories":[{"id":"4bf58dd8d48988d1c4941735","name":"Restaurant","pluralName":"Restaurants","shortName":"Restaurant","icon":{"prefix":"https:\/\/ss1.4sqi.net\/img\/categories_v2\/food\/default_","suffix":".png"},"primary":"true"}],"verified":"false","restricted":"true","stats":{"checkinsCount":"3","usersCount":"3","tipCount":"0"},"specials":{"count":"0"},"hereNow":{"count":"0"},"referralId":"v-1392478065"},{"id":"5224c419498ea9c6adb80d9c","name":"Annabel's Members Club","location":{"lat":"51.493448072280216","lng":"-0.15127037420396852","distance":"141","cc":"GB","country":"United Kingdom"},"categories":[{"id":"4bf58dd8d48988d121941735","name":"Lounge","pluralName":"Lounges","shortName":"Lounge","icon":{"prefix":"https:\/\/ss1.4sqi.net\/img\/categories_v2\/nightlife\/lounge_","suffix":".png"},"primary":"true"}],"verified":"false","restricted":"true","stats":{"checkinsCount":"11","usersCount":"7","tipCount":"0"},"specials":{"count":"0"},"hereNow":{"count":"0"},"referralId":"v-1392478065"},{"id":"502a6887e4b0d267a817d8f9","name":"Bus Stop D @ Sloane Square Station","location":{"address":"Etonian Gate","crossStreet":"Sloane Square","lat":"51.49466246237619","lng":"-0.15356024811948335","distance":"66","cc":"GB","city":"London","state":"Greater London","country":"United Kingdom"},"categories":[{"id":"4bf58dd8d48988d1fe931735","name":"Bus Station","pluralName":"Bus Stations","shortName":"Bus Station","icon":{"prefix":"https:\/\/ss1.4sqi.net\/img\/categories_v2\/travel\/busstation_","suffix":".png"},"primary":"true"}],"verified":"false","restricted":"true","stats":{"checkinsCount":"4","usersCount":"3","tipCount":"0"},"specials":{"count":"0"},"hereNow":{"count":"0"},"referralId":"v-1392478065"},{"id":"4defbe50d22ddfee16ff3b27","name":"Elisabeth Street Fair","location":{"lat":"51.4941727292244","lng":"-0.15131838792593194","distance":"103","cc":"GB","city":"London","state":"Greater London","country":"United Kingdom"},"categories":[{"id":"4bf58dd8d48988d1fa941735","name":"Farmers Market","pluralName":"Farmers Markets","shortName":"Farmer's Market","icon":{"prefix":"https:\/\/ss1.4sqi.net\/img\/categories_v2\/shops\/food_farmersmarket_","suffix":".png"},"primary":"true"}],"verified":"false","restricted":"true","stats":{"checkinsCount":"20","usersCount":"14","tipCount":"0"},"specials":{"count":"0"},"hereNow":{"count":"0"},"referralId":"v-1392478065"},{"id":"4dd67d10d1647fcf3e325d95","name":"Veronica Moncho Lobo","contact":{"phone":"+442077306699","formattedPhone":"+44 20 7730 6699","twitter":"vmldesign"},"location":{"address":"73 Elizabeth Street","lat":"51.494228","lng":"-0.15171","distance":"76","postalCode":"SW1W 9PJ","cc":"GB","city":"London","state":"Greater London","country":"United Kingdom"},"categories":[{"id":"4bf58dd8d48988d104951735","name":"Boutique","pluralName":"Boutiques","shortName":"Boutique","icon":{"prefix":"https:\/\/ss1.4sqi.net\/img\/categories_v2\/shops\/apparel_boutique_","suffix":".png"},"primary":"true"}],"verified":"false","restricted":"true","stats":{"checkinsCount":"3","usersCount":"1","tipCount":"0"},"specials":{"count":"0"},"hereNow":{"count":"0"},"referralId":"v-1392478065"},{"id":"4ef48e17722e31c647bd83f0","name":"Ebury House Hotel","location":{"lat":"51.49381468167187","lng":"-0.1504093389326577","distance":"174","cc":"GB","country":"United Kingdom"},"categories":[{"id":"4bf58dd8d48988d1ee931735","name":"Hostel","pluralName":"Hostels","shortName":"Hostel","icon":{"prefix":"https:\/\/ss1.4sqi.net\/img\/categories_v2\/travel\/hostel_","suffix":".png"},"primary":"true"}],"verified":"false","restricted":"true","stats":{"checkinsCount":"16","usersCount":"9","tipCount":"1"},"specials":{"count":"0"},"hereNow":{"count":"0"},"referralId":"v-1392478065"},{"id":"4c7e4aadb33a224b3567da81","name":"Les senteurs","location":{"address":"71 Elizabeth Street","lat":"51.494039462755026","lng":"-0.15080525447528495","distance":"141","postalCode":"SW1W9PJ","cc":"GB","city":"City of Westminster","state":"Greater London","country":"United Kingdom"},"categories":[{"id":"4bf58dd8d48988d10c951735","name":"Cosmetics Shop","pluralName":"Cosmetics Shops","shortName":"Cosmetics","icon":{"prefix":"https:\/\/ss1.4sqi.net\/img\/categories_v2\/shops\/beauty_cosmetic_","suffix":".png"},"primary":"true"}],"verified":"false","restricted":"true","stats":{"checkinsCount":"16","usersCount":"15","tipCount":"0"},"specials":{"count":"0"},"hereNow":{"count":"0"},"referralId":"v-1392478065"}],"confident":"true"}}