{"meta":{"code":"200"},"response":{"venues":[{"id":"4b633885f964a520926b2ae3","name":"The Drayton Arms","contact":{"phone":"+442078352301","formattedPhone":"+44 20 7835 2301"},"location":{"address":"153 Old Brompton Rd.","lat":"51.49080202252688","lng":"-0.18319997687376977","distance":"170","postalCode":"SW5 0LJ","cc":"GB","city":"Kensington","state":"Greater London","country":"United Kingdom"},"categories":[{"id":"4bf58dd8d48988d116941735","name":"Bar","pluralName":"Bars","shortName":"Bar","icon":{"prefix":"https:\/\/ss1.4sqi.net\/img\/categories_v2\/nightlife\/bar_","suffix":".png"},"primary":"true"}],"verified":"false","restricted":"true","stats":{"checkinsCount":"825","usersCount":"601","tipCount":"13"},"menu":{"type":"Menu","label":"Menu","anchor":"View Menu","url":"https:\/\/foursquare.com\/v\/the-drayton-arms\/4b633885f964a520926b2ae3\/menu","mobileUrl":"https:\/\/foursquare.com\/v\/4b633885f964a520926b2ae3\/device_menu"},"specials":{"count":"0"},"hereNow":{"count":"0"},"referralId":"v-1392478075"},{"id":"4b43c55df964a52041e925e3","name":"The Duke of Clarence (Geronimo)","contact":{"phone":"+442073731285","formattedPhone":"+44 20 7373 1285","twitter":"mylocalsagpub"},"location":{"address":"148 Old Brompton Rd.","lat":"51.490835","lng":"-0.18247762857142855","distance":"173","cc":"GB","city":"London","state":"Greater London","country":"United Kingdom"},"categories":[{"id":"4bf58dd8d48988d11b941735","name":"Pub","pluralName":"Pubs","shortName":"Pub","icon":{"prefix":"https:\/\/ss1.4sqi.net\/img\/categories_v2\/nightlife\/pub_","suffix":".png"},"primary":"true"}],"verified":"true","restricted":"true","stats":{"checkinsCount":"998","usersCount":"593","tipCount":"14"},"specials":{"count":"0"},"hereNow":{"count":"0"},"referralId":"v-1392478075"},{"id":"4bdddfd26198c9b6a30712ff","name":"Eclipse","contact":{"phone":"+442072592577","formattedPhone":"+44 20 7259 2577"},"location":{"address":"158 Old Brompton Rd.","lat":"51.490925","lng":"-0.183278","distance":"185","postalCode":"SW5 0BA","cc":"GB","city":"South Kensington","state":"Greater London","country":"United Kingdom"},"categories":[{"id":"4bf58dd8d48988d11e941735","name":"Cocktail Bar","pluralName":"Cocktail Bars","shortName":"Cocktail","icon":{"prefix":"https:\/\/ss1.4sqi.net\/img\/categories_v2\/nightlife\/cocktails_","suffix":".png"},"primary":"true"}],"verified":"false","restricted":"true","stats":{"checkinsCount":"775","usersCount":"578","tipCount":"13"},"url":"http:\/\/www.eclipsebars.com\/south-kensington\/reservations\/","menu":{"type":"Menu","label":"Menu","anchor":"View Menu","url":"https:\/\/foursquare.com\/v\/eclipse\/4bdddfd26198c9b6a30712ff\/menu","mobileUrl":"https:\/\/foursquare.com\/v\/4bdddfd26198c9b6a30712ff\/device_menu"},"specials":{"count":"0"},"hereNow":{"count":"0"},"referralId":"v-1392478075"},{"id":"4d02d3ce347da1cdcebe218f","name":"DeRose Method London","contact":{"phone":"+442073737070","formattedPhone":"+44 20 7373 7070","twitter":"derosemethod","facebook":"629274340456738"},"location":{"address":"Dove Mews","crossStreet":"146 Old Brompton Rd","lat":"51.49081631885529","lng":"-0.18234729766845703","distance":"172","postalCode":"SW7 4NR","cc":"GB","city":"London","state":"Greater London","country":"United Kingdom"},"categories":[{"id":"4bf58dd8d48988d1a8941735","name":"General College & University","pluralName":"General Colleges & Universities","shortName":"Education","icon":{"prefix":"https:\/\/ss1.4sqi.net\/img\/categories_v2\/education\/other_","suffix":".png"},"primary":"true"}],"verified":"true","restricted":"true","stats":{"checkinsCount":"379","usersCount":"53","tipCount":"7"},"url":"http:\/\/www.derosemethod.co.uk","specials":{"count":"1","items":[{"id":"4f5e1318bb3dca01c0edf2db","type":"count","message":"Check-in and connect with us to have an opportunity to win a free trial experience.","description":"Unlocked on your 1st check-in","finePrint":"There are limited numbers of free trial experiences, all experiences require an interview with the instructor. The school has the right to refuse any individual.","icon":"newbie","title":"Newbie Special","provider":"foursquare","redemption":"standard"}]},"hereNow":{"count":"1","groups":[{"type":"others","name":"Other people here","count":"1"}]},"storeId":"3457501","referralId":"v-1392478075"},{"id":"4d99c02db188721e49ca4437","name":"Rosary Gardens","location":{"address":"Rosary Gardens","lat":"51.49152458978738","lng":"-0.1824669413711729","distance":"249","cc":"GB","city":"Kensington","state":"Greater London","country":"United Kingdom"},"categories":[{"id":"4bf58dd8d48988d162941735","name":"Other Great Outdoors","pluralName":"Other Great Outdoors","shortName":"Other Outdoors","icon":{"prefix":"https:\/\/ss1.4sqi.net\/img\/categories_v2\/parks_outdoors\/outdoors_","suffix":".png"},"primary":"true"}],"verified":"false","restricted":"true","stats":{"checkinsCount":"822","usersCount":"112","tipCount":"0"},"specials":{"count":"0"},"hereNow":{"count":"0"},"referralId":"v-1392478075"},{"id":"4ac518b5f964a5209da020e3","name":"Blakes","location":{"address":"33 Roland Gardens","lat":"51.489274","lng":"-0.180209","distance":"179","postalCode":"SW7 3PF","cc":"GB","city":"London","state":"Greater London","country":"United Kingdom"},"categories":[{"id":"4bf58dd8d48988d1fa931735","name":"Hotel","pluralName":"Hotels","shortName":"Hotel","icon":{"prefix":"https:\/\/ss1.4sqi.net\/img\/categories_v2\/travel\/hotel_","suffix":".png"},"primary":"true"}],"verified":"false","restricted":"true","stats":{"checkinsCount":"468","usersCount":"290","tipCount":"18"},"specials":{"count":"0"},"hereNow":{"count":"0"},"referralId":"v-1392478075"},{"id":"51c9f562498ed711099c9abe","name":"The Drayton Theatre","location":{"address":"153 Old Brompton Road","lat":"51.49075078982034","lng":"-0.1833702184699996","distance":"167","cc":"GB","city":"London","state":"Greater London","country":"United Kingdom"},"categories":[{"id":"4bf58dd8d48988d137941735","name":"Theater","pluralName":"Theaters","shortName":"Theater","icon":{"prefix":"https:\/\/ss1.4sqi.net\/img\/categories_v2\/arts_entertainment\/performingarts_theater_","suffix":".png"},"primary":"true"}],"verified":"false","restricted":"true","stats":{"checkinsCount":"18","usersCount":"8","tipCount":"0"},"specials":{"count":"0"},"hereNow":{"count":"0"},"referralId":"v-1392478075"},{"id":"4c114b82a9420f47bc817c51","name":"Tendido Cero","contact":{"phone":"+442073703685","formattedPhone":"+44 20 7370 3685","twitter":"cambiodtercio"},"location":{"address":"174 Old Brompton Rd.","lat":"51.49085268148776","lng":"-0.18380364621366715","distance":"187","postalCode":"SW5 0BA","cc":"GB","city":"London","state":"Greater London","country":"United Kingdom"},"categories":[{"id":"4bf58dd8d48988d1db931735","name":"Tapas Restaurant","pluralName":"Tapas Restaurants","shortName":"Tapas","icon":{"prefix":"https:\/\/ss1.4sqi.net\/img\/categories_v2\/food\/tapas_","suffix":".png"},"primary":"true"}],"verified":"false","restricted":"true","stats":{"checkinsCount":"336","usersCount":"253","tipCount":"11"},"url":"http:\/\/www.cambiodetercio.co.uk","reservations":{"url":"http:\/\/www.toptable.co.uk\/single.aspx?rid=100284&ref=9601"},"menu":{"type":"Menu","label":"Menu","anchor":"View Menu","url":"https:\/\/foursquare.com\/v\/tendido-cero\/4c114b82a9420f47bc817c51\/menu","mobileUrl":"https:\/\/foursquare.com\/v\/4c114b82a9420f47bc817c51\/device_menu"},"specials":{"count":"0"},"hereNow":{"count":"0"},"referralId":"v-1392478075"},{"id":"4ac518d5f964a520d0a720e3","name":"Cambio de Tercio","location":{"address":"163 Old Brompton Road","lat":"51.49088860980504","lng":"-0.18359644123623112","distance":"186","postalCode":"SW5 0LJ","cc":"GB","city":"London","state":"Greater London","country":"United Kingdom"},"categories":[{"id":"4bf58dd8d48988d1db931735","name":"Tapas Restaurant","pluralName":"Tapas Restaurants","shortName":"Tapas","icon":{"prefix":"https:\/\/ss1.4sqi.net\/img\/categories_v2\/food\/tapas_","suffix":".png"},"primary":"true"}],"verified":"false","restricted":"true","stats":{"checkinsCount":"309","usersCount":"252","tipCount":"14"},"url":"http:\/\/www.cambiodetercio.co.uk","reservations":{"url":"http:\/\/www.toptable.co.uk\/single.aspx?rid=100278&ref=9601"},"menu":{"type":"Menu","label":"Menu","anchor":"View Menu","url":"https:\/\/foursquare.com\/v\/cambio-de-tercio\/4ac518d5f964a520d0a720e3\/menu","mobileUrl":"https:\/\/foursquare.com\/v\/4ac518d5f964a520d0a720e3\/device_menu"},"specials":{"count":"0"},"hereNow":{"count":"0"},"referralId":"v-1392478075"},{"id":"528a90e9498e503490e818bd","name":"Margaux","location":{"address":"152 Brompton Road","lat":"51.4907827122755","lng":"-0.18251038901861122","distance":"167","postalCode":"SW5 0BE","cc":"GB","city":"London","state":"Greater London","country":"United Kingdom"},"categories":[{"id":"4bf58dd8d48988d10c941735","name":"French Restaurant","pluralName":"French Restaurants","shortName":"French","icon":{"prefix":"https:\/\/ss1.4sqi.net\/img\/categories_v2\/food\/french_","suffix":".png"},"primary":"true"}],"verified":"false","restricted":"true","stats":{"checkinsCount":"17","usersCount":"16","tipCount":"0"},"url":"http:\/\/www.barmargaux.co.uk","reservations":{"url":"http:\/\/www.toptable.co.uk\/single.aspx?rid=99144&ref=9601"},"menu":{"type":"Menu","label":"Menu","anchor":"View Menu","url":"https:\/\/foursquare.com\/v\/margaux\/528a90e9498e503490e818bd\/menu","mobileUrl":"https:\/\/foursquare.com\/v\/528a90e9498e503490e818bd\/device_menu"},"specials":{"count":"0"},"hereNow":{"count":"0"},"referralId":"v-1392478075"},{"id":"4cade50e4f1c952144cddb21","name":"Noor Jahan","location":{"address":"2 Gloucester Rd.","lat":"51.490909798442765","lng":"-0.1830739710770753","distance":"181","postalCode":"SW5 0LA","cc":"GB","city":"London","state":"Greater London","country":"United Kingdom"},"categories":[{"id":"4bf58dd8d48988d10f941735","name":"Indian Restaurant","pluralName":"Indian Restaurants","shortName":"Indian","icon":{"prefix":"https:\/\/ss1.4sqi.net\/img\/categories_v2\/food\/indian_","suffix":".png"},"primary":"true"}],"verified":"false","restricted":"true","stats":{"checkinsCount":"196","usersCount":"149","tipCount":"7"},"url":"http:\/\/www.noorjahanrestaurants.co.uk\/index.html","reservations":{"url":"http:\/\/www.toptable.co.uk\/single.aspx?rid=90552&ref=9601"},"menu":{"type":"Menu","label":"Menu","anchor":"View Menu","url":"https:\/\/foursquare.com\/v\/noor-jahan\/4cade50e4f1c952144cddb21\/menu","mobileUrl":"https:\/\/foursquare.com\/v\/4cade50e4f1c952144cddb21\/device_menu"},"specials":{"count":"0"},"hereNow":{"count":"0"},"referralId":"v-1392478075"},{"id":"5238a58511d223ad2a6ea03c","name":"Yashin Ocean House","contact":{"phone":"+442073733990","formattedPhone":"+44 20 7373 3990"},"location":{"address":"117-119 Old Brompton Road","lat":"51.490939728934855","lng":"-0.18044371950654262","distance":"245","postalCode":"SW7 3RN","cc":"GB","city":"South Kensington","state":"Greater London","country":"United Kingdom"},"categories":[{"id":"4bf58dd8d48988d111941735","name":"Japanese Restaurant","pluralName":"Japanese Restaurants","shortName":"Japanese","icon":{"prefix":"https:\/\/ss1.4sqi.net\/img\/categories_v2\/food\/japanese_","suffix":".png"},"primary":"true"}],"verified":"false","restricted":"true","stats":{"checkinsCount":"28","usersCount":"27","tipCount":"4"},"specials":{"count":"0"},"hereNow":{"count":"0"},"referralId":"v-1392478075"},{"id":"4ac518d4f964a520baa720e3","name":"Star of India","location":{"address":"154 Old Brompton Road","lat":"51.490911","lng":"-0.182744","distance":"180","postalCode":"SW5 0BE","cc":"GB","city":"London","state":"Greater London","country":"United Kingdom"},"categories":[{"id":"4bf58dd8d48988d10f941735","name":"Indian Restaurant","pluralName":"Indian Restaurants","shortName":"Indian","icon":{"prefix":"https:\/\/ss1.4sqi.net\/img\/categories_v2\/food\/indian_","suffix":".png"},"primary":"true"}],"verified":"false","restricted":"true","stats":{"checkinsCount":"186","usersCount":"146","tipCount":"4"},"menu":{"type":"Menu","label":"Menu","anchor":"View Menu","url":"https:\/\/foursquare.com\/v\/star-of-india\/4ac518d4f964a520baa720e3\/menu","mobileUrl":"https:\/\/foursquare.com\/v\/4ac518d4f964a520baa720e3\/device_menu"},"specials":{"count":"0"},"hereNow":{"count":"0"},"referralId":"v-1392478075"},{"id":"4ac518bbf964a52022a220e3","name":"Nam Long Le Shaker","location":{"address":"159 Old Brompton Road","lat":"51.490797","lng":"-0.183482","distance":"174","postalCode":"SW3 1QP","cc":"GB","city":"London","state":"Greater London","country":"United Kingdom"},"categories":[{"id":"4bf58dd8d48988d11e941735","name":"Cocktail Bar","pluralName":"Cocktail Bars","shortName":"Cocktail","icon":{"prefix":"https:\/\/ss1.4sqi.net\/img\/categories_v2\/nightlife\/cocktails_","suffix":".png"},"primary":"true"}],"verified":"false","restricted":"true","stats":{"checkinsCount":"298","usersCount":"232","tipCount":"16"},"menu":{"type":"Menu","label":"Menu","anchor":"View Menu","url":"https:\/\/foursquare.com\/v\/nam-long-le-shaker\/4ac518bbf964a52022a220e3\/menu","mobileUrl":"https:\/\/foursquare.com\/v\/4ac518bbf964a52022a220e3\/device_menu"},"specials":{"count":"0"},"hereNow":{"count":"0"},"referralId":"v-1392478075"},{"id":"51aeaea9c64082261b11281a","name":"Blakes Restaurant","location":{"address":"33 Roland Gardens","lat":"51.489365","lng":"-0.180077","distance":"189","postalCode":"SW7 3PF","cc":"GB","city":"London","state":"Greater London","country":"United Kingdom"},"categories":[{"id":"4bf58dd8d48988d1c4941735","name":"Restaurant","pluralName":"Restaurants","shortName":"Restaurant","icon":{"prefix":"https:\/\/ss1.4sqi.net\/img\/categories_v2\/food\/default_","suffix":".png"},"primary":"true"}],"verified":"false","restricted":"true","stats":{"checkinsCount":"15","usersCount":"14","tipCount":"1"},"url":"http:\/\/www.blakeshotels.com\/dinning\/restaurant","reservations":{"url":"http:\/\/www.toptable.co.uk\/single.aspx?rid=33469&ref=9601"},"menu":{"type":"Menu","label":"Menu","anchor":"View Menu","url":"https:\/\/foursquare.com\/v\/blakes-restaurant\/51aeaea9c64082261b11281a\/menu","mobileUrl":"https:\/\/foursquare.com\/v\/51aeaea9c64082261b11281a\/device_menu"},"specials":{"count":"0"},"hereNow":{"count":"0"},"referralId":"v-1392478075"},{"id":"4cc9c160d063a143331510b4","name":"Thali","location":{"address":"166 Old Brompton Road","lat":"51.49085","lng":"-0.183293","distance":"177","postalCode":"SW7","cc":"GB","city":"London","state":"Greater London","country":"United Kingdom"},"categories":[{"id":"4bf58dd8d48988d10f941735","name":"Indian Restaurant","pluralName":"Indian Restaurants","shortName":"Indian","icon":{"prefix":"https:\/\/ss1.4sqi.net\/img\/categories_v2\/food\/indian_","suffix":".png"},"primary":"true"}],"verified":"false","restricted":"true","stats":{"checkinsCount":"62","usersCount":"56","tipCount":"2"},"url":"http:\/\/www.thali.uk.com\/html\/home.html","reservations":{"url":"http:\/\/www.toptable.co.uk\/single.aspx?rid=84217&ref=9601"},"menu":{"type":"Menu","label":"Menu","anchor":"View Menu","url":"https:\/\/foursquare.com\/v\/thali\/4cc9c160d063a143331510b4\/menu","mobileUrl":"https:\/\/foursquare.com\/v\/4cc9c160d063a143331510b4\/device_menu"},"specials":{"count":"0"},"hereNow":{"count":"0"},"referralId":"v-1392478075"},{"id":"510aca97e4b09ee0620cdf3a","name":"gaon korean","location":{"lat":"51.49076616589665","lng":"-0.18328590665836048","distance":"167","cc":"GB","country":"United Kingdom"},"categories":[{"id":"4bf58dd8d48988d113941735","name":"Korean Restaurant","pluralName":"Korean Restaurants","shortName":"Korean","icon":{"prefix":"https:\/\/ss1.4sqi.net\/img\/categories_v2\/food\/korean_","suffix":".png"},"primary":"true"}],"verified":"false","restricted":"true","stats":{"checkinsCount":"34","usersCount":"31","tipCount":"0"},"specials":{"count":"0"},"hereNow":{"count":"0"},"referralId":"v-1392478075"},{"id":"4e90744ed3e3187fc2e9911b","name":"St Mary the Boltons","location":{"lat":"51.48919886528548","lng":"-0.18506040152268577","distance":"156","cc":"GB","country":"United Kingdom"},"categories":[{"id":"4bf58dd8d48988d132941735","name":"Church","pluralName":"Churches","shortName":"Church","icon":{"prefix":"https:\/\/ss1.4sqi.net\/img\/categories_v2\/building\/religious_church_","suffix":".png"},"primary":"true"}],"verified":"false","restricted":"true","stats":{"checkinsCount":"16","usersCount":"14","tipCount":"2"},"specials":{"count":"0"},"hereNow":{"count":"0"},"referralId":"v-1392478075"},{"id":"4c418892af052d7fdd7d7d79","name":"St Marys Church House","location":{"address":"The Boltons","lat":"51.489304","lng":"-0.183935","distance":"78","cc":"GB","city":"Kensington","state":"Greater London","country":"United Kingdom"},"categories":[{"id":"4bf58dd8d48988d132941735","name":"Church","pluralName":"Churches","shortName":"Church","icon":{"prefix":"https:\/\/ss1.4sqi.net\/img\/categories_v2\/building\/religious_church_","suffix":".png"},"primary":"true"}],"verified":"false","restricted":"true","stats":{"checkinsCount":"13","usersCount":"11","tipCount":"0"},"specials":{"count":"0"},"hereNow":{"count":"0"},"referralId":"v-1392478075"},{"id":"4fb03a5ee4b078fd5bbd0f63","name":"Clarence Avenue","location":{"lat":"51.48983237180097","lng":"-0.17985619888623003","distance":"213","cc":"GB","country":"United Kingdom"},"verified":"false","restricted":"true","stats":{"checkinsCount":"3","usersCount":"3","tipCount":"0"},"specials":{"count":"0"},"hereNow":{"count":"0"},"referralId":"v-1392478075"},{"id":"4d9e8ad79bf0a35d38b4fd0a","name":"Delby Crest Ltd","location":{"address":"53 dryton rd","lat":"51.489207","lng":"-0.181692","distance":"77","cc":"GB","city":"Kensington","state":"Greater London","country":"United Kingdom"},"categories":[{"id":"4bf58dd8d48988d124941735","name":"Office","pluralName":"Offices","shortName":"Office","icon":{"prefix":"https:\/\/ss1.4sqi.net\/img\/categories_v2\/building\/default_","suffix":".png"},"primary":"true"}],"verified":"false","restricted":"true","stats":{"checkinsCount":"1","usersCount":"1","tipCount":"0"},"specials":{"count":"0"},"hereNow":{"count":"0"},"referralId":"v-1392478075"},{"id":"4ac518b7f964a5202da120e3","name":"The Cranley Hotel","contact":{"phone":"+442073730123","formattedPhone":"+44 20 7373 0123","twitter":"the_cranley"},"location":{"address":"10 Bina Gardens","lat":"51.49126927049117","lng":"-0.18315654696261546","distance":"221","postalCode":"SW5 0LA","cc":"GB","city":"South Kensington","state":"Greater London","country":"United Kingdom"},"categories":[{"id":"4bf58dd8d48988d1fa931735","name":"Hotel","pluralName":"Hotels","shortName":"Hotel","icon":{"prefix":"https:\/\/ss1.4sqi.net\/img\/categories_v2\/travel\/hotel_","suffix":".png"},"primary":"true"}],"verified":"true","restricted":"true","stats":{"checkinsCount":"171","usersCount":"85","tipCount":"3"},"url":"http:\/\/www.cranleyhotel.com","specials":{"count":"0"},"hereNow":{"count":"0"},"venuePage":{"id":"38075555"},"storeId":"","referralId":"v-1392478075"},{"id":"4e3f3f666365a251c7042f64","name":"The Garconium Club","location":{"address":"Garconium Lodge, The Boltons.","lat":"51.48863852058933","lng":"-0.18323779106140137","distance":"78","postalCode":"SW10","cc":"GB","city":"Chelsea, London.","state":"Greater London","country":"United Kingdom"},"categories":[{"id":"4bf58dd8d48988d11d941735","name":"Sports Bar","pluralName":"Sports Bars","shortName":"Sports Bar","icon":{"prefix":"https:\/\/ss1.4sqi.net\/img\/categories_v2\/nightlife\/sportsbar_","suffix":".png"},"primary":"true"}],"verified":"false","restricted":"true","stats":{"checkinsCount":"13","usersCount":"4","tipCount":"0"},"specials":{"count":"0"},"hereNow":{"count":"0"},"referralId":"v-1392478075"},{"id":"4f6f5d23e4b0541c632e80e2","name":"H.R.Owen Ferrari","location":{"address":"Old Brompton Rd","lat":"51.4910656482633","lng":"-0.18187304559538978","distance":"208","cc":"GB","city":"London","state":"Greater London","country":"United Kingdom"},"categories":[{"id":"4bf58dd8d48988d124951735","name":"Automotive Shop","pluralName":"Automotive Shops","shortName":"Automotive","icon":{"prefix":"https:\/\/ss1.4sqi.net\/img\/categories_v2\/shops\/automotive_","suffix":".png"},"primary":"true"}],"verified":"false","restricted":"true","stats":{"checkinsCount":"47","usersCount":"40","tipCount":"0"},"specials":{"count":"0"},"hereNow":{"count":"0"},"referralId":"v-1392478075"},{"id":"5231809d11d2f866bf530f52","name":"Bina Gardens","location":{"lat":"51.49183908704247","lng":"-0.18295962847771136","distance":"284","cc":"GB","country":"United Kingdom"},"categories":[{"id":"4d954b06a243a5684965b473","name":"Residential Building (Apartment \/ Condo)","pluralName":"Residential Buildings (Apartments \/ Condos)","shortName":"Residential","icon":{"prefix":"https:\/\/ss1.4sqi.net\/img\/categories_v2\/building\/apartment_","suffix":".png"},"primary":"true"}],"verified":"false","restricted":"true","stats":{"checkinsCount":"20","usersCount":"4","tipCount":"0"},"specials":{"count":"0"},"hereNow":{"count":"0"},"referralId":"v-1392478075"},{"id":"519fdabd498edfa81789f267","name":"Londis","location":{"lat":"51.48975006084907","lng":"-0.1828908240677041","distance":"51","cc":"GB","country":"United Kingdom"},"categories":[{"id":"4d954b0ea243a5684a65b473","name":"Convenience Store","pluralName":"Convenience Stores","shortName":"Convenience Stores","icon":{"prefix":"https:\/\/ss1.4sqi.net\/img\/categories_v2\/shops\/conveniencestore_","suffix":".png"},"primary":"true"}],"verified":"false","restricted":"true","stats":{"checkinsCount":"12","usersCount":"8","tipCount":"0"},"specials":{"count":"0"},"hereNow":{"count":"0"},"referralId":"v-1392478075"},{"id":"4e24a7bf45dd9c2217de8c86","name":"Egelicious","location":{"lat":"51.489442","lng":"-0.181351","distance":"102","cc":"GB","city":"Kensington","state":"Greater London","country":"United Kingdom"},"categories":[{"id":"4d4b7105d754a06375d81259","name":"Professional & Other Places","pluralName":"Professional & Other Places","shortName":"Professional","icon":{"prefix":"https:\/\/ss1.4sqi.net\/img\/categories_v2\/building\/default_","suffix":".png"},"primary":"true"}],"verified":"false","restricted":"true","stats":{"checkinsCount":"2","usersCount":"1","tipCount":"0"},"specials":{"count":"0"},"hereNow":{"count":"0"},"referralId":"v-1392478075"},{"id":"4dc139d81f6e7441cf48267f","name":"American Dry Cleaning Company","location":{"address":"216 Fulham Road","lat":"51.48807608790551","lng":"-0.18047060660680964","distance":"210","postalCode":"SW10 9NB","cc":"GB","city":"Fulham","state":"Greater London","country":"United Kingdom"},"categories":[{"id":"4bf58dd8d48988d1fc941735","name":"Laundry Service","pluralName":"Laundry Services","shortName":"Laundry","icon":{"prefix":"https:\/\/ss1.4sqi.net\/img\/categories_v2\/shops\/laundry_","suffix":".png"},"primary":"true"}],"verified":"false","restricted":"true","stats":{"checkinsCount":"7","usersCount":"4","tipCount":"0"},"specials":{"count":"0"},"hereNow":{"count":"0"},"referralId":"v-1392478075"},{"id":"4df0a5cbd16486e86e50d63a","name":"Shaukat & Co","contact":{"phone":"+442073736927","formattedPhone":"+44 20 7373 6927"},"location":{"address":"168-172 Old Brompton Rd","lat":"51.49084829403012","lng":"-0.18379310325661222","distance":"186","postalCode":"SW5 0BA","cc":"GB","city":"Kensington","state":"Greater London","country":"United Kingdom"},"categories":[{"id":"4bf58dd8d48988d1fb941735","name":"Hobby Shop","pluralName":"Hobby Shops","shortName":"Hobbies","icon":{"prefix":"https:\/\/ss1.4sqi.net\/img\/categories_v2\/shops\/hobbyshop_","suffix":".png"},"primary":"true"}],"verified":"false","restricted":"true","stats":{"checkinsCount":"12","usersCount":"11","tipCount":"0"},"url":"http:\/\/www.shaukat.co.uk","specials":{"count":"0"},"hereNow":{"count":"0"},"referralId":"v-1392478075"},{"id":"4fd48f3fe4b070e01e92dbce","name":"Gledhow Gardens","location":{"lat":"51.49096956928629","lng":"-0.1846218771983834","distance":"225","cc":"GB","country":"United Kingdom"},"categories":[{"id":"4bf58dd8d48988d15a941735","name":"Garden","pluralName":"Gardens","shortName":"Garden","icon":{"prefix":"https:\/\/ss1.4sqi.net\/img\/categories_v2\/parks_outdoors\/garden_","suffix":".png"},"primary":"true"}],"verified":"false","restricted":"true","stats":{"checkinsCount":"5","usersCount":"5","tipCount":"0"},"specials":{"count":"0"},"hereNow":{"count":"0"},"referralId":"v-1392478075"}],"confident":"false"}}