{"meta":{"code":"200"},"response":{"venues":[{"id":"4f8990c4e4b0089de8febf14","name":"South Kensington","location":{"address":"Everywhere!","lat":"51.49399999648858","lng":"-0.17385861569992994","distance":"79","postalCode":"SW7","cc":"GB","city":"South Kensington","state":"Greater London","country":"United Kingdom"},"categories":[{"id":"4f2a25ac4b909258e854f55f","name":"Neighborhood","pluralName":"Neighborhoods","shortName":"Neighborhood","icon":{"prefix":"https:\/\/ss1.4sqi.net\/img\/categories_v2\/parks_outdoors\/neighborhood_","suffix":".png"},"primary":"true"}],"verified":"false","restricted":"true","stats":{"checkinsCount":"7583","usersCount":"3961","tipCount":"9"},"specials":{"count":"0"},"hereNow":{"count":"2","groups":[{"type":"others","name":"Other people here","count":"2"}]},"referralId":"v-1392478063"},{"id":"4c24a118db519521f1012c3a","name":"Cr\u00e9merie Cr\u00eaperie","contact":{"phone":"+442075898947","formattedPhone":"+44 20 7589 8947"},"location":{"address":"2-6 Exhibition Rd.","lat":"51.494824264604176","lng":"-0.17312049865722656","distance":"63","postalCode":"SW7 2HF","cc":"GB","city":"Kensington","state":"Greater London","country":"United Kingdom"},"categories":[{"id":"4bf58dd8d48988d1d0941735","name":"Dessert Shop","pluralName":"Dessert Shops","shortName":"Desserts","icon":{"prefix":"https:\/\/ss1.4sqi.net\/img\/categories_v2\/food\/dessert_","suffix":".png"},"primary":"true"}],"verified":"false","restricted":"true","stats":{"checkinsCount":"3251","usersCount":"2236","tipCount":"69"},"url":"http:\/\/www.kensingtoncreperie.com","menu":{"type":"Menu","label":"Menu","anchor":"View Menu","url":"https:\/\/foursquare.com\/v\/cr%C3%A9merie-cr%C3%AAperie\/4c24a118db519521f1012c3a\/menu","mobileUrl":"https:\/\/foursquare.com\/v\/4c24a118db519521f1012c3a\/device_menu"},"specials":{"count":"0"},"hereNow":{"count":"0"},"referralId":"v-1392478063"},{"id":"4bd9d0b8e914a5931e0a58fa","name":"Subway","contact":{"phone":"+442075892111","formattedPhone":"+44 20 7589 2111","twitter":"subwayukireland"},"location":{"address":"30 Thurloe St.","crossStreet":"At South Kensington Tube Station","lat":"51.4946244218775","lng":"-0.1736668996255029","distance":"70","postalCode":"SW7 2LT","cc":"GB","city":"Kensington","state":"Greater London","country":"United Kingdom"},"categories":[{"id":"4bf58dd8d48988d1c5941735","name":"Sandwich Place","pluralName":"Sandwich Places","shortName":"Sandwiches","icon":{"prefix":"https:\/\/ss1.4sqi.net\/img\/categories_v2\/food\/sandwiches_","suffix":".png"},"primary":"true"}],"verified":"true","restricted":"true","stats":{"checkinsCount":"693","usersCount":"390","tipCount":"3"},"url":"http:\/\/www.subway.co.uk","specials":{"count":"0"},"hereNow":{"count":"0"},"storeId":"34137","referralId":"v-1392478063"},{"id":"4ed4d3f3be7b276c5fbf88bc","name":"Comptoir Libanais","contact":{"phone":"+442072255006","formattedPhone":"+44 20 7225 5006","twitter":"comptoirlibanai","facebook":"348069791941336"},"location":{"address":"5 Exhibition Rd","lat":"51.49474751330551","lng":"-0.1734311044884482","distance":"67","postalCode":"SW7 2HE","cc":"GB","city":"South Kensington","state":"Greater London","country":"United Kingdom"},"categories":[{"id":"4bf58dd8d48988d115941735","name":"Middle Eastern Restaurant","pluralName":"Middle Eastern Restaurants","shortName":"Middle Eastern","icon":{"prefix":"https:\/\/ss1.4sqi.net\/img\/categories_v2\/food\/default_","suffix":".png"},"primary":"true"}],"verified":"true","restricted":"true","stats":{"checkinsCount":"1748","usersCount":"1406","tipCount":"23"},"url":"http:\/\/www.lecomptoir.co.uk","specials":{"count":"0"},"hereNow":{"count":"2","groups":[{"type":"others","name":"Other people here","count":"2"}]},"storeId":"","referralId":"v-1392478063"},{"id":"4ee7cc910e01e8843f1fc2e0","name":"Platform 2","location":{"address":"South Kensington Underground Station","crossStreet":"(District\/Circle lines, Eastbound)","lat":"51.49408578927748","lng":"-0.17328866097196075","distance":"40","cc":"GB","city":"London","state":"Greater London","country":"United Kingdom"},"categories":[{"id":"4f4531504b9074f6e4fb0102","name":"Platform","pluralName":"Platforms","shortName":"Platform","icon":{"prefix":"https:\/\/ss1.4sqi.net\/img\/categories_v2\/travel\/trainstation_","suffix":".png"},"primary":"true"}],"verified":"false","restricted":"true","stats":{"checkinsCount":"1010","usersCount":"753","tipCount":"0"},"specials":{"count":"0"},"hereNow":{"count":"0"},"referralId":"v-1392478063"},{"id":"5005186ee4b0e5538d490d50","name":"Platform 1","location":{"address":"South Kensington","lat":"51.49404595326687","lng":"-0.17304043551288043","distance":"31","cc":"GB","country":"United Kingdom"},"categories":[{"id":"4f4531504b9074f6e4fb0102","name":"Platform","pluralName":"Platforms","shortName":"Platform","icon":{"prefix":"https:\/\/ss1.4sqi.net\/img\/categories_v2\/travel\/trainstation_","suffix":".png"},"primary":"true"}],"verified":"false","restricted":"true","stats":{"checkinsCount":"468","usersCount":"349","tipCount":"1"},"specials":{"count":"0"},"hereNow":{"count":"0"},"referralId":"v-1392478063"},{"id":"50977f07e4b0a70263ed8d16","name":"District line","location":{"lat":"51.494157707771606","lng":"-0.17327905264611734","distance":"36","cc":"GB","country":"United Kingdom"},"categories":[{"id":"4bf58dd8d48988d1f6931735","name":"General Travel","pluralName":"General Travel","shortName":"Travel","icon":{"prefix":"https:\/\/ss1.4sqi.net\/img\/categories_v2\/travel\/default_","suffix":".png"},"primary":"true"}],"verified":"false","restricted":"true","stats":{"checkinsCount":"226","usersCount":"77","tipCount":"1"},"specials":{"count":"0"},"hereNow":{"count":"0"},"referralId":"v-1392478063"},{"id":"4b0e5ffff964a520295723e3","name":"Le Pain Quotidien","contact":{"phone":"+442074866154","formattedPhone":"+44 20 7486 6154","twitter":"le_pain_q_uk"},"location":{"address":"15-17 Exhibition Rd","crossStreet":"near Cromwell Rd","lat":"51.495062","lng":"-0.173804","distance":"110","postalCode":"SW7 2HE","cc":"GB","city":"South Kensington","state":"Greater London","country":"United Kingdom"},"categories":[{"id":"4bf58dd8d48988d16d941735","name":"Caf\u00e9","pluralName":"Caf\u00e9s","shortName":"Caf\u00e9","icon":{"prefix":"https:\/\/ss1.4sqi.net\/img\/categories_v2\/food\/cafe_","suffix":".png"},"primary":"true"}],"verified":"false","restricted":"true","stats":{"checkinsCount":"3283","usersCount":"2261","tipCount":"50"},"url":"http:\/\/www.lepainquotidien.co.uk","specials":{"count":"0"},"hereNow":{"count":"1","groups":[{"type":"others","name":"Other people here","count":"1"}]},"referralId":"v-1392478063"},{"id":"50755c32e4b09eeb040e30a3","name":"Fernandez & Wells","contact":{"phone":"+442075897473","formattedPhone":"+44 20 7589 7473","twitter":"fandwcoffee"},"location":{"address":"8 Exhibition Rd","lat":"51.495051370980335","lng":"-0.17327070236206055","distance":"90","postalCode":"SW7 2HF","cc":"GB","city":"South Kensington","state":"Greater London","country":"United Kingdom"},"categories":[{"id":"4bf58dd8d48988d1e0931735","name":"Coffee Shop","pluralName":"Coffee Shops","shortName":"Coffee Shop","icon":{"prefix":"https:\/\/ss1.4sqi.net\/img\/categories_v2\/food\/coffeeshop_","suffix":".png"},"primary":"true"}],"verified":"false","restricted":"true","stats":{"checkinsCount":"792","usersCount":"487","tipCount":"18"},"url":"http:\/\/www.fernandezandwells.com","specials":{"count":"0"},"hereNow":{"count":"0"},"referralId":"v-1392478063"},{"id":"4e8ab4658231cd82541825e6","name":"Muriel's Kitchen","contact":{"phone":"+442075893511","formattedPhone":"+44 20 7589 3511","twitter":"murielskitchen"},"location":{"address":"1-3 Pelham St","lat":"51.49409925421291","lng":"-0.1745472539579073","distance":"122","postalCode":"SW7 2ND","cc":"GB","city":"South Kensington","state":"Greater London","country":"United Kingdom"},"categories":[{"id":"4bf58dd8d48988d16d941735","name":"Caf\u00e9","pluralName":"Caf\u00e9s","shortName":"Caf\u00e9","icon":{"prefix":"https:\/\/ss1.4sqi.net\/img\/categories_v2\/food\/cafe_","suffix":".png"},"primary":"true"}],"verified":"false","restricted":"true","stats":{"checkinsCount":"2066","usersCount":"1514","tipCount":"64"},"url":"http:\/\/murielskitchen.co.uk","menu":{"type":"Menu","label":"Menu","anchor":"View Menu","url":"https:\/\/foursquare.com\/v\/muriels-kitchen\/4e8ab4658231cd82541825e6\/menu","mobileUrl":"https:\/\/foursquare.com\/v\/4e8ab4658231cd82541825e6\/device_menu"},"specials":{"count":"0"},"hereNow":{"count":"2","groups":[{"type":"others","name":"Other people here","count":"2"}]},"referralId":"v-1392478063"},{"id":"4b05c3d8f964a520c8e222e3","name":"Casa Brindisa","contact":{"phone":"+442075900008","formattedPhone":"+44 20 7590 0008"},"location":{"address":"5-7 Exhibition Rd.","lat":"51.4948961","lng":"-0.17349533","distance":"82","postalCode":"SW7 2HQ","cc":"GB","city":"Kensington","state":"Greater London","country":"United Kingdom"},"categories":[{"id":"4bf58dd8d48988d1db931735","name":"Tapas Restaurant","pluralName":"Tapas Restaurants","shortName":"Tapas","icon":{"prefix":"https:\/\/ss1.4sqi.net\/img\/categories_v2\/food\/tapas_","suffix":".png"},"primary":"true"}],"verified":"true","restricted":"true","stats":{"checkinsCount":"1445","usersCount":"1084","tipCount":"24"},"url":"http:\/\/www.brindisa.com","reservations":{"url":"http:\/\/www.toptable.co.uk\/single.aspx?rid=81637&ref=9601"},"menu":{"type":"Menu","label":"Menu","anchor":"View Menu","url":"https:\/\/foursquare.com\/v\/casa-brindisa\/4b05c3d8f964a520c8e222e3\/menu","mobileUrl":"https:\/\/foursquare.com\/v\/4b05c3d8f964a520c8e222e3\/device_menu"},"specials":{"count":"1","items":[{"id":"4d98b9e629352d431ba300c2","type":"frequency","message":"Receive a free glass of Cava when you check in 10 times","description":"Unlocked every 10 check-ins","icon":"frequency","title":"Loyalty Special","provider":"foursquare","redemption":"standard"}]},"hereNow":{"count":"1","groups":[{"type":"others","name":"Other people here","count":"1"}]},"referralId":"v-1392478063"},{"id":"50224180e4b01df8a078e7d8","name":"Starbucks","contact":{"phone":"+442072250921","formattedPhone":"+44 20 7225 0921","twitter":"starbucksuk"},"location":{"address":"19 Old Brompton Rd","lat":"51.49381245694101","lng":"-0.1743213470225755","distance":"117","postalCode":"SW7 3HZ","cc":"GB","city":"South Kensington","state":"Greater London","country":"United Kingdom"},"categories":[{"id":"4bf58dd8d48988d1e0931735","name":"Coffee Shop","pluralName":"Coffee Shops","shortName":"Coffee Shop","icon":{"prefix":"https:\/\/ss1.4sqi.net\/img\/categories_v2\/food\/coffeeshop_","suffix":".png"},"primary":"true"}],"verified":"true","restricted":"true","stats":{"checkinsCount":"1700","usersCount":"1070","tipCount":"6"},"url":"http:\/\/starbucks.co.uk","specials":{"count":"0"},"hereNow":{"count":"0"},"storeId":"6145","referralId":"v-1392478063"},{"id":"4c7280dd7121a1cd259b62d1","name":"Oriental Canteen","contact":{"phone":"+442075818831","formattedPhone":"+44 20 7581 8831"},"location":{"address":"2A Exhibition Rd.","crossStreet":"at Thurloe St.","lat":"51.49461719603978","lng":"-0.17316341400146484","distance":"44","postalCode":"SW7 2HF","cc":"GB","city":"London","state":"Greater London","country":"United Kingdom"},"categories":[{"id":"4bf58dd8d48988d142941735","name":"Asian Restaurant","pluralName":"Asian Restaurants","shortName":"Asian","icon":{"prefix":"https:\/\/ss1.4sqi.net\/img\/categories_v2\/food\/asian_","suffix":".png"},"primary":"true"}],"verified":"false","restricted":"true","stats":{"checkinsCount":"507","usersCount":"291","tipCount":"20"},"specials":{"count":"0"},"hereNow":{"count":"0"},"referralId":"v-1392478063"},{"id":"4ac518e2f964a52095aa20e3","name":"Thai Square","contact":{"phone":"+442075848359","formattedPhone":"+44 20 7584 8359"},"location":{"address":"19 Exhibition Road, South Kensington","lat":"51.49460717656928","lng":"-0.17360061407089233","distance":"65","postalCode":"SW7 2HE","cc":"GB","city":"London","state":"Greater London","country":"United Kingdom"},"categories":[{"id":"4bf58dd8d48988d149941735","name":"Thai Restaurant","pluralName":"Thai Restaurants","shortName":"Thai","icon":{"prefix":"https:\/\/ss1.4sqi.net\/img\/categories_v2\/food\/thai_","suffix":".png"},"primary":"true"}],"verified":"false","restricted":"true","stats":{"checkinsCount":"712","usersCount":"570","tipCount":"23"},"url":"http:\/\/thaisquare.net\/#south-kensington","menu":{"type":"Menu","label":"Menu","anchor":"View Menu","url":"https:\/\/foursquare.com\/v\/thai-square\/4ac518e2f964a52095aa20e3\/menu","mobileUrl":"https:\/\/foursquare.com\/v\/4ac518e2f964a52095aa20e3\/device_menu"},"specials":{"count":"0"},"hereNow":{"count":"0"},"referralId":"v-1392478063"},{"id":"4b457611f964a520f70c26e3","name":"Pret A Manger","contact":{"phone":"+442079325368","formattedPhone":"+44 20 7932 5368","twitter":"pret","facebook":"162638680417951"},"location":{"address":"15 Old Brompton Rd.","crossStreet":"Opposite South Kensington Station","lat":"51.4933910062275","lng":"-0.174116786884463","distance":"135","postalCode":"SW7 3HZ","cc":"GB","city":"Kensington","state":"Greater London","country":"United Kingdom"},"categories":[{"id":"4bf58dd8d48988d1c5941735","name":"Sandwich Place","pluralName":"Sandwich Places","shortName":"Sandwiches","icon":{"prefix":"https:\/\/ss1.4sqi.net\/img\/categories_v2\/food\/sandwiches_","suffix":".png"},"primary":"true"}],"verified":"true","restricted":"true","stats":{"checkinsCount":"2501","usersCount":"1635","tipCount":"22"},"url":"http:\/\/www.pret.com","specials":{"count":"0"},"hereNow":{"count":"0"},"storeId":"168","referralId":"v-1392478063"},{"id":"4d8de1136174a093b722bae3","name":"Jia","contact":{"phone":"+442075847188","formattedPhone":"+44 20 7584 7188"},"location":{"address":"1 Harrington Rd","lat":"51.49421222606138","lng":"-0.1748191197075035","distance":"139","postalCode":"SW7 3ES","cc":"GB","city":"South Kensington","state":"Greater London","country":"United Kingdom"},"categories":[{"id":"4bf58dd8d48988d145941735","name":"Chinese Restaurant","pluralName":"Chinese Restaurants","shortName":"Chinese","icon":{"prefix":"https:\/\/ss1.4sqi.net\/img\/categories_v2\/food\/chinese_","suffix":".png"},"primary":"true"}],"verified":"false","restricted":"true","stats":{"checkinsCount":"593","usersCount":"299","tipCount":"10"},"specials":{"count":"0"},"hereNow":{"count":"3","groups":[{"type":"others","name":"Other people here","count":"3"}]},"referralId":"v-1392478063"},{"id":"4bdc450b2a3a0f475e16b2b6","name":"Paul","contact":{"phone":"+442075816034","formattedPhone":"+44 20 7581 6034"},"location":{"address":"41 Thurloe St","lat":"51.494443524905655","lng":"-0.17422020435333252","distance":"99","postalCode":"SW7 2LQ","cc":"GB","city":"South Kensington","state":"Greater London","country":"United Kingdom"},"categories":[{"id":"4bf58dd8d48988d16a941735","name":"Bakery","pluralName":"Bakeries","shortName":"Bakery","icon":{"prefix":"https:\/\/ss1.4sqi.net\/img\/categories_v2\/food\/bakery_","suffix":".png"},"primary":"true"}],"verified":"false","restricted":"true","stats":{"checkinsCount":"1473","usersCount":"1007","tipCount":"21"},"url":"http:\/\/www.paul-uk.com","specials":{"count":"0"},"hereNow":{"count":"0"},"referralId":"v-1392478063"},{"id":"4ac518baf964a520f9a120e3","name":"Daquise","contact":{"phone":"+442075896117","formattedPhone":"+44 20 7589 6117"},"location":{"address":"20 Thurloe St","lat":"51.494502","lng":"-0.173393","distance":"47","postalCode":"SW7 2LT","cc":"GB","city":"South Kensington","state":"Greater London","country":"United Kingdom"},"categories":[{"id":"4bf58dd8d48988d109941735","name":"Eastern European Restaurant","pluralName":"Eastern European Restaurants","shortName":"Eastern European","icon":{"prefix":"https:\/\/ss1.4sqi.net\/img\/categories_v2\/food\/default_","suffix":".png"},"primary":"true"}],"verified":"false","restricted":"true","stats":{"checkinsCount":"113","usersCount":"97","tipCount":"2"},"specials":{"count":"0"},"hereNow":{"count":"0"},"referralId":"v-1392478063"},{"id":"5156ee9de4b0dadf82a168f8","name":"Bubbleology","contact":{"phone":"+442075841171","formattedPhone":"+44 20 7584 1171","twitter":"bubbleology"},"location":{"address":"23 Cromwell Pl","lat":"51.49450569851092","lng":"-0.17447357603668306","distance":"118","postalCode":"SW7 2LD","cc":"GB","city":"South Kensington","state":"Greater London","country":"United Kingdom"},"categories":[{"id":"4bf58dd8d48988d1dc931735","name":"Tea Room","pluralName":"Tea Rooms","shortName":"Tea Room","icon":{"prefix":"https:\/\/ss1.4sqi.net\/img\/categories_v2\/food\/tearoom_","suffix":".png"},"primary":"true"}],"verified":"false","restricted":"true","stats":{"checkinsCount":"483","usersCount":"139","tipCount":"2"},"url":"http:\/\/www.bubbleology.co.uk","specials":{"count":"0"},"hereNow":{"count":"1","groups":[{"type":"others","name":"Other people here","count":"1"}]},"referralId":"v-1392478063"},{"id":"4b883652f964a520c9e731e3","name":"Little Japan","contact":{"phone":"+442075910207","formattedPhone":"+44 20 7591 0207"},"location":{"address":"32 Thurloe St","lat":"51.49439818090823","lng":"-0.17407877469562158","distance":"89","postalCode":"SW7 2LT","cc":"GB","city":"South Kensington","state":"Greater London","country":"United Kingdom"},"categories":[{"id":"4bf58dd8d48988d111941735","name":"Japanese Restaurant","pluralName":"Japanese Restaurants","shortName":"Japanese","icon":{"prefix":"https:\/\/ss1.4sqi.net\/img\/categories_v2\/food\/japanese_","suffix":".png"},"primary":"true"}],"verified":"false","restricted":"true","stats":{"checkinsCount":"283","usersCount":"220","tipCount":"11"},"specials":{"count":"0"},"hereNow":{"count":"1","groups":[{"type":"others","name":"Other people here","count":"1"}]},"referralId":"v-1392478063"},{"id":"4ac518bdf964a520cba220e3","name":"The Hoop and Toy","location":{"address":"34 Thurloe Place","lat":"51.494818260255734","lng":"-0.17437932534627196","distance":"124","postalCode":"SW7 2HQ","cc":"GB","city":"London","state":"Greater London","country":"United Kingdom"},"categories":[{"id":"4bf58dd8d48988d11b941735","name":"Pub","pluralName":"Pubs","shortName":"Pub","icon":{"prefix":"https:\/\/ss1.4sqi.net\/img\/categories_v2\/nightlife\/pub_","suffix":".png"},"primary":"true"}],"verified":"false","restricted":"true","stats":{"checkinsCount":"1652","usersCount":"1285","tipCount":"12"},"specials":{"count":"0"},"hereNow":{"count":"0"},"referralId":"v-1392478063"},{"id":"4ac51fd5f964a52078b020e3","name":"Boujis","contact":{"phone":"+442075846678","formattedPhone":"+44 20 7584 6678","twitter":"boujis"},"location":{"address":"43 Thurloe St","lat":"51.49439216473174","lng":"-0.17439405714409592","distance":"110","postalCode":"SW7 2LG","cc":"GB","city":"Kensington","state":"Greater London","country":"United Kingdom"},"categories":[{"id":"4bf58dd8d48988d11f941735","name":"Nightclub","pluralName":"Nightclubs","shortName":"Nightclub","icon":{"prefix":"https:\/\/ss1.4sqi.net\/img\/categories_v2\/nightlife\/nightclub_","suffix":".png"},"primary":"true"}],"verified":"false","restricted":"true","stats":{"checkinsCount":"1716","usersCount":"1068","tipCount":"26"},"url":"http:\/\/www.boujis.com","specials":{"count":"0"},"hereNow":{"count":"0"},"referralId":"v-1392478063"},{"id":"4d3b17c36de7721e1a2ef549","name":"Billy's Grill & Steakhouse","location":{"address":"Thurloe Street","lat":"51.49470102316133","lng":"-0.17369443593387202","distance":"76","cc":"GB","city":"Kensington","state":"Greater London","country":"United Kingdom"},"categories":[{"id":"4bf58dd8d48988d1cc941735","name":"Steakhouse","pluralName":"Steakhouses","shortName":"Steakhouse","icon":{"prefix":"https:\/\/ss1.4sqi.net\/img\/categories_v2\/food\/steakhouse_","suffix":".png"},"primary":"true"}],"verified":"false","restricted":"true","stats":{"checkinsCount":"428","usersCount":"347","tipCount":"19"},"specials":{"count":"0"},"hereNow":{"count":"0"},"referralId":"v-1392478063"},{"id":"4ad0800ff964a5203fd820e3","name":"Kulu Kulu Sushi","contact":{"phone":"+442075892225","formattedPhone":"+44 20 7589 2225"},"location":{"address":"39 Thurloe Pl","lat":"51.495096236725246","lng":"-0.17359420300042447","distance":"105","postalCode":"SW7 2HP","cc":"GB","city":"South Kensington","state":"Greater London","country":"United Kingdom"},"categories":[{"id":"4bf58dd8d48988d1d2941735","name":"Sushi Restaurant","pluralName":"Sushi Restaurants","shortName":"Sushi","icon":{"prefix":"https:\/\/ss1.4sqi.net\/img\/categories_v2\/food\/sushi_","suffix":".png"},"primary":"true"}],"verified":"false","restricted":"true","stats":{"checkinsCount":"607","usersCount":"334","tipCount":"11"},"specials":{"count":"0"},"hereNow":{"count":"0"},"referralId":"v-1392478063"},{"id":"4c878a48b504a1437e23b71c","name":"Chopstix Noodle Bar","contact":{"phone":"+442075848055","formattedPhone":"+44 20 7584 8055"},"location":{"address":"28 Thurloe St","lat":"51.49445492567857","lng":"-0.1737458446699116","distance":"67","postalCode":"SW7 2LT","cc":"GB","city":"Kensington","state":"Greater London","country":"United Kingdom"},"categories":[{"id":"4bf58dd8d48988d1d1941735","name":"Ramen \/ Noodle House","pluralName":"Ramen \/ Noodle House","shortName":"Ramen \/ Noodles","icon":{"prefix":"https:\/\/ss1.4sqi.net\/img\/categories_v2\/food\/ramen_","suffix":".png"},"primary":"true"}],"verified":"false","restricted":"true","stats":{"checkinsCount":"281","usersCount":"207","tipCount":"3"},"specials":{"count":"0"},"hereNow":{"count":"0"},"referralId":"v-1392478063"},{"id":"502148ece4b03d58caddf817","name":"Carluccio's","contact":{"phone":"+442075818101","formattedPhone":"+44 20 7581 8101"},"location":{"address":"Old Brompton Rd","lat":"51.49348832184051","lng":"-0.17420411109924316","distance":"131","cc":"GB","city":"London","state":"Greater London","country":"United Kingdom"},"categories":[{"id":"4bf58dd8d48988d110941735","name":"Italian Restaurant","pluralName":"Italian Restaurants","shortName":"Italian","icon":{"prefix":"https:\/\/ss1.4sqi.net\/img\/categories_v2\/food\/italian_","suffix":".png"},"primary":"true"}],"verified":"false","restricted":"true","stats":{"checkinsCount":"580","usersCount":"484","tipCount":"19"},"specials":{"count":"0"},"hereNow":{"count":"1","groups":[{"type":"others","name":"Other people here","count":"1"}]},"referralId":"v-1392478063"},{"id":"4b76d500f964a5209d622ee3","name":"Tombo","contact":{"phone":"+442075890018","formattedPhone":"+44 20 7589 0018","twitter":"tombo_london"},"location":{"address":"29 Thurloe Place","lat":"51.49498656000001","lng":"-0.173831","distance":"105","postalCode":"SW7 2HQ","cc":"GB","city":"Kensington","state":"Greater London","country":"United Kingdom"},"categories":[{"id":"4bf58dd8d48988d111941735","name":"Japanese Restaurant","pluralName":"Japanese Restaurants","shortName":"Japanese","icon":{"prefix":"https:\/\/ss1.4sqi.net\/img\/categories_v2\/food\/japanese_","suffix":".png"},"primary":"true"}],"verified":"true","restricted":"true","stats":{"checkinsCount":"800","usersCount":"472","tipCount":"27"},"url":"http:\/\/tombodeliandcafe.com","menu":{"type":"Menu","label":"Menu","anchor":"View Menu","url":"https:\/\/foursquare.com\/v\/tombo\/4b76d500f964a5209d622ee3\/menu","mobileUrl":"https:\/\/foursquare.com\/v\/4b76d500f964a5209d622ee3\/device_menu"},"specials":{"count":"1","items":[{"id":"4ead67610039f003c3c526bd","type":"count","message":"Free wasabi peas or chilli puffs with your order.","description":"Unlocked on your 1st check-in","icon":"newbie","title":"Newbie Special","provider":"foursquare","redemption":"standard"}]},"hereNow":{"count":"0"},"storeId":"","referralId":"v-1392478063"},{"id":"4bb5ec06941ad13a8aa41ee3","name":"Ben's Cookies","contact":{"phone":"+442075899155","formattedPhone":"+44 20 7589 9155"},"location":{"address":"9 Pelham St.","lat":"51.494159637973176","lng":"-0.17435431480407715","distance":"108","postalCode":"SW7 2ND","cc":"GB","city":"London","state":"Greater London","country":"United Kingdom"},"categories":[{"id":"4bf58dd8d48988d16a941735","name":"Bakery","pluralName":"Bakeries","shortName":"Bakery","icon":{"prefix":"https:\/\/ss1.4sqi.net\/img\/categories_v2\/food\/bakery_","suffix":".png"},"primary":"true"}],"verified":"false","restricted":"true","stats":{"checkinsCount":"599","usersCount":"397","tipCount":"12"},"specials":{"count":"0"},"hereNow":{"count":"0"},"referralId":"v-1392478063"},{"id":"4b6de396f964a52009992ce3","name":"Snog Pure Frozen Yogurt","contact":{"phone":"+442075844926","formattedPhone":"+44 20 7584 4926","twitter":"ifancyasnog","facebook":"153338631029"},"location":{"address":"32 Thurloe Pl.","lat":"51.494774167457116","lng":"-0.17431139945983887","distance":"117","postalCode":"SW7 2HQ","cc":"GB","city":"London","state":"Greater London","country":"United Kingdom"},"categories":[{"id":"4bf58dd8d48988d1d0941735","name":"Dessert Shop","pluralName":"Dessert Shops","shortName":"Desserts","icon":{"prefix":"https:\/\/ss1.4sqi.net\/img\/categories_v2\/food\/dessert_","suffix":".png"},"primary":"true"}],"verified":"true","restricted":"true","stats":{"checkinsCount":"1360","usersCount":"753","tipCount":"13"},"url":"http:\/\/www.ifancyasnog.com","specials":{"count":"0"},"hereNow":{"count":"0"},"storeId":"","referralId":"v-1392478063"},{"id":"4bf2e40be5eba593d4ed1d90","name":"Institut Fran\u00e7ais","location":{"address":"14 Cromwell Rd.","lat":"51.49458124960373","lng":"-0.17486738715214017","distance":"146","postalCode":"SW7","cc":"GB","city":"Kensington","state":"Greater London","country":"United Kingdom"},"categories":[{"id":"4bf58dd8d48988d1a8941735","name":"General College & University","pluralName":"General Colleges & Universities","shortName":"Education","icon":{"prefix":"https:\/\/ss1.4sqi.net\/img\/categories_v2\/education\/other_","suffix":".png"},"primary":"true"}],"verified":"false","restricted":"true","stats":{"checkinsCount":"760","usersCount":"286","tipCount":"3"},"specials":{"count":"0"},"hereNow":{"count":"0"},"referralId":"v-1392478063"}],"confident":"true"}}