{"meta":{"code":"200"},"response":{"venues":[{"id":"4ad07e23f964a52038d820e3","name":"Tesco","contact":{"phone":"+448456779387","formattedPhone":"+44 845 677 9387","twitter":"uktescooffers"},"location":{"address":"Kennington Lane","lat":"51.48655749039304","lng":"-0.11542618274688721","distance":"345","postalCode":"SE11 5QU","cc":"GB","city":"London","state":"Greater London","country":"United Kingdom"},"categories":[{"id":"4bf58dd8d48988d118951735","name":"Grocery Store","pluralName":"Grocery Stores","shortName":"Grocery Store","icon":{"prefix":"https:\/\/ss1.4sqi.net\/img\/categories_v2\/shops\/food_grocery_","suffix":".png"},"primary":"true"}],"verified":"true","restricted":"true","stats":{"checkinsCount":"1611","usersCount":"539","tipCount":"15"},"url":"http:\/\/www.tesco.com","specials":{"count":"0"},"hereNow":{"count":"1","groups":[{"type":"others","name":"Other people here","count":"1"}]},"storeId":"2764","referralId":"v-1392478082"},{"id":"4acdf94af964a520bdcd20e3","name":"Zeitgeist @ The Jolly Gardeners","contact":{"phone":"+442078400426","formattedPhone":"+44 20 7840 0426"},"location":{"address":"49-51 Black Prince Rd.","lat":"51.49129729095059","lng":"-0.11823177337646484","distance":"225","postalCode":"SE11 6AB","cc":"GB","city":"Lambeth","state":"Greater London","country":"United Kingdom"},"categories":[{"id":"4bf58dd8d48988d11b941735","name":"Pub","pluralName":"Pubs","shortName":"Pub","icon":{"prefix":"https:\/\/ss1.4sqi.net\/img\/categories_v2\/nightlife\/pub_","suffix":".png"},"primary":"true"}],"verified":"false","restricted":"true","stats":{"checkinsCount":"1416","usersCount":"677","tipCount":"43"},"menu":{"type":"Menu","label":"Menu","anchor":"View Menu","url":"https:\/\/foursquare.com\/v\/zeitgeist--the-jolly-gardeners\/4acdf94af964a520bdcd20e3\/menu","mobileUrl":"https:\/\/foursquare.com\/v\/4acdf94af964a520bdcd20e3\/device_menu"},"specials":{"count":"0"},"hereNow":{"count":"1","groups":[{"type":"others","name":"Other people here","count":"1"}]},"referralId":"v-1392478082"},{"id":"523c2c5411d23b0b06be8945","name":"Cuerpos Beauty","contact":{"phone":"+442037302890","formattedPhone":"+44 20 3730 2890"},"location":{"address":"2 Jonathan Street","crossStreet":"Vauxhall","lat":"51.489459","lng":"-0.117391","distance":"34","postalCode":"SE11 5NH","cc":"GB","city":"London","state":"Greater London","country":"United Kingdom"},"categories":[{"id":"4bf58dd8d48988d1ed941735","name":"Spa","pluralName":"Spas","shortName":"Spa","icon":{"prefix":"https:\/\/ss1.4sqi.net\/img\/categories_v2\/shops\/spa_","suffix":".png"},"primary":"true"}],"verified":"false","restricted":"true","stats":{"checkinsCount":"3","usersCount":"2","tipCount":"0"},"specials":{"count":"0"},"hereNow":{"count":"0"},"referralId":"v-1392478082"},{"id":"4e2eb0d61495329632fc4cd4","name":"Tea House Theatre","contact":{"phone":"+442072074585","formattedPhone":"+44 20 7207 4585"},"location":{"address":"Vauxhall Walk, Lambeth,","lat":"51.488197","lng":"-0.120692","distance":"234","postalCode":"SE11 5HL","cc":"GB","city":"London","state":"Greater London","country":"United Kingdom"},"categories":[{"id":"4bf58dd8d48988d1dc931735","name":"Tea Room","pluralName":"Tea Rooms","shortName":"Tea Room","icon":{"prefix":"https:\/\/ss1.4sqi.net\/img\/categories_v2\/food\/tearoom_","suffix":".png"},"primary":"true"}],"verified":"false","restricted":"true","stats":{"checkinsCount":"500","usersCount":"272","tipCount":"19"},"url":"http:\/\/www.teahousetheatre.com","menu":{"type":"Menu","label":"Menu","anchor":"View Menu","url":"https:\/\/foursquare.com\/v\/tea-house-theatre\/4e2eb0d61495329632fc4cd4\/menu","mobileUrl":"https:\/\/foursquare.com\/v\/4e2eb0d61495329632fc4cd4\/device_menu"},"specials":{"count":"0"},"hereNow":{"count":"0"},"referralId":"v-1392478082"},{"id":"4be7f1dd88ed2d7f1e39cb1d","name":"The Black Dog","location":{"address":"Glasshouse Walk","lat":"51.488618","lng":"-0.12080622","distance":"221","postalCode":"SE11","cc":"GB","city":"Lambeth","state":"Greater London","country":"United Kingdom"},"categories":[{"id":"4bf58dd8d48988d11b941735","name":"Pub","pluralName":"Pubs","shortName":"Pub","icon":{"prefix":"https:\/\/ss1.4sqi.net\/img\/categories_v2\/nightlife\/pub_","suffix":".png"},"primary":"true"}],"verified":"false","restricted":"true","stats":{"checkinsCount":"869","usersCount":"375","tipCount":"13"},"menu":{"type":"Menu","label":"Menu","anchor":"View Menu","url":"https:\/\/foursquare.com\/v\/the-black-dog\/4be7f1dd88ed2d7f1e39cb1d\/menu","mobileUrl":"https:\/\/foursquare.com\/v\/4be7f1dd88ed2d7f1e39cb1d\/device_menu"},"specials":{"count":"0"},"hereNow":{"count":"0"},"referralId":"v-1392478082"},{"id":"4ae09d26f964a520f08021e3","name":"The Rose","contact":{"phone":"+442077353723","formattedPhone":"+44 20 7735 3723"},"location":{"address":"35 Albert Embankment","lat":"51.48975169790656","lng":"-0.12280833708244099","distance":"350","postalCode":"SE1 7TL","cc":"GB","city":"Vauxhall","state":"Greater London","country":"United Kingdom"},"categories":[{"id":"4bf58dd8d48988d11b941735","name":"Pub","pluralName":"Pubs","shortName":"Pub","icon":{"prefix":"https:\/\/ss1.4sqi.net\/img\/categories_v2\/nightlife\/pub_","suffix":".png"},"primary":"true"}],"verified":"false","restricted":"true","stats":{"checkinsCount":"717","usersCount":"472","tipCount":"19"},"url":"http:\/\/www.therosepublondon.co.uk","menu":{"type":"Menu","label":"Menu","anchor":"View Menu","url":"https:\/\/foursquare.com\/v\/the-rose\/4ae09d26f964a520f08021e3\/menu","mobileUrl":"https:\/\/foursquare.com\/v\/4ae09d26f964a520f08021e3\/device_menu"},"specials":{"count":"0"},"hereNow":{"count":"0"},"referralId":"v-1392478082"},{"id":"4d7762866af42d435d6e7ff7","name":"The Beaufoy Institute","location":{"address":"39 Black Prince Road","lat":"51.49045558645382","lng":"-0.11623620986938477","distance":"169","postalCode":"SE11 6JJ","cc":"GB","city":"Lambeth","state":"Greater London","country":"United Kingdom"},"categories":[{"id":"4bf58dd8d48988d1a2941735","name":"Community College","pluralName":"Community Colleges","shortName":"Community College","icon":{"prefix":"https:\/\/ss1.4sqi.net\/img\/categories_v2\/education\/communitycollege_","suffix":".png"},"primary":"true"}],"verified":"false","restricted":"true","stats":{"checkinsCount":"180","usersCount":"22","tipCount":"3"},"specials":{"count":"0"},"hereNow":{"count":"0"},"referralId":"v-1392478082"},{"id":"4c28aee3783d9c74d1588f6b","name":"Pedlar's Park","location":{"address":"Vauxhall Wlk.","crossStreet":"Salamanca St.","lat":"51.49111692700949","lng":"-0.1195836067199707","distance":"237","postalCode":"SE11","cc":"GB","city":"Lambeth","state":"Greater London","country":"United Kingdom"},"categories":[{"id":"4bf58dd8d48988d163941735","name":"Park","pluralName":"Parks","shortName":"Park","icon":{"prefix":"https:\/\/ss1.4sqi.net\/img\/categories_v2\/parks_outdoors\/park_","suffix":".png"},"primary":"true"}],"verified":"false","restricted":"true","stats":{"checkinsCount":"870","usersCount":"79","tipCount":"2"},"specials":{"count":"0"},"hereNow":{"count":"0"},"referralId":"v-1392478082"},{"id":"4b6389e9f964a520e3812ae3","name":"The Eagle","contact":{"phone":"+442077930903","formattedPhone":"+44 20 7793 0903","twitter":"eaglelondon"},"location":{"address":"349 Kennington Ln","lat":"51.48628692008459","lng":"-0.11918449960886382","distance":"347","postalCode":"SE11 5QY","cc":"GB","city":"Lambeth","state":"Greater London","country":"United Kingdom"},"categories":[{"id":"4bf58dd8d48988d1d8941735","name":"Gay Bar","pluralName":"Gay Bars","shortName":"Gay Bar","icon":{"prefix":"https:\/\/ss1.4sqi.net\/img\/categories_v2\/nightlife\/gaybar_","suffix":".png"},"primary":"true"}],"verified":"false","restricted":"true","stats":{"checkinsCount":"998","usersCount":"518","tipCount":"10"},"url":"http:\/\/eaglelondon.com","specials":{"count":"0"},"hereNow":{"count":"0"},"referralId":"v-1392478082"},{"id":"51c455bb498edf951fcecb8b","name":"Launderette","location":{"address":"Jonathan Str","crossStreet":"Vauxhall Str","lat":"51.48941888153345","lng":"-0.11722426528220571","distance":"42","postalCode":"SE11","cc":"GB","city":"London","state":"Greater London","country":"United Kingdom"},"categories":[{"id":"4bf58dd8d48988d1fc941735","name":"Laundry Service","pluralName":"Laundry Services","shortName":"Laundry","icon":{"prefix":"https:\/\/ss1.4sqi.net\/img\/categories_v2\/shops\/laundry_","suffix":".png"},"primary":"true"}],"verified":"false","restricted":"true","stats":{"checkinsCount":"12","usersCount":"1","tipCount":"0"},"specials":{"count":"0"},"hereNow":{"count":"0"},"referralId":"v-1392478082"},{"id":"4c767b3b3adda143cb1d0aaf","name":"Citywire","location":{"address":"87 Vauxhall Walk","lat":"51.489323","lng":"-0.12044155","distance":"182","postalCode":"SE11 5HJ","cc":"GB","city":"London","state":"Greater London","country":"United Kingdom"},"categories":[{"id":"4bf58dd8d48988d124941735","name":"Office","pluralName":"Offices","shortName":"Office","icon":{"prefix":"https:\/\/ss1.4sqi.net\/img\/categories_v2\/building\/default_","suffix":".png"},"primary":"true"}],"verified":"false","restricted":"true","stats":{"checkinsCount":"27","usersCount":"9","tipCount":"0"},"specials":{"count":"0"},"hereNow":{"count":"0"},"referralId":"v-1392478082"},{"id":"4ace0328f964a520e2cd20e3","name":"Vauxhall City Farm","contact":{"phone":"+442075824204","formattedPhone":"+44 20 7582 4204","twitter":"vauxhallfarm","facebook":"153282628028908"},"location":{"address":"165 Tyers St.","crossStreet":"near Kennington Ln.","lat":"51.48683474388078","lng":"-0.11911153793334961","distance":"287","postalCode":"SE11 5HS","cc":"GB","city":"Vauxhall","state":"Greater London","country":"United Kingdom"},"categories":[{"id":"4bf58dd8d48988d15b941735","name":"Farm","pluralName":"Farms","shortName":"Farm","icon":{"prefix":"https:\/\/ss1.4sqi.net\/img\/categories_v2\/parks_outdoors\/farm_","suffix":".png"},"primary":"true"}],"verified":"true","restricted":"true","stats":{"checkinsCount":"311","usersCount":"180","tipCount":"1"},"url":"http:\/\/www.vauxhallcityfarm.org","specials":{"count":"0"},"hereNow":{"count":"0"},"venuePage":{"id":"77944621"},"referralId":"v-1392478082"},{"id":"51af09e27dd2de27a274066a","name":"Fencing and Gates","contact":{"phone":"+442030269548","formattedPhone":"+44 20 3026 9548"},"location":{"address":"17 Jonathan Street","lat":"51.48966730942109","lng":"-0.11760950088500977","distance":"44","postalCode":"SE11 5NH","cc":"GB","city":"London","state":"Greater London","country":"United Kingdom"},"categories":[{"id":"4bf58dd8d48988d130941735","name":"Building","pluralName":"Buildings","shortName":"Building","icon":{"prefix":"https:\/\/ss1.4sqi.net\/img\/categories_v2\/building\/default_","suffix":".png"},"primary":"true"}],"verified":"false","restricted":"true","stats":{"checkinsCount":"0","usersCount":"0","tipCount":"2"},"specials":{"count":"0"},"hereNow":{"count":"0"},"referralId":"v-1392478082"},{"id":"4ad71b60f964a520b30821e3","name":"Casa Madeira","contact":{"phone":"+442078201117","formattedPhone":"+44 20 7820 1117"},"location":{"address":"46 Albert Embankment","lat":"51.488679","lng":"-0.122934","distance":"362","postalCode":"SE1 7TN","cc":"GB","city":"London","state":"Greater London","country":"United Kingdom"},"categories":[{"id":"4def73e84765ae376e57713a","name":"Portuguese Restaurant","pluralName":"Portuguese Restaurants","shortName":"Portuguese","icon":{"prefix":"https:\/\/ss1.4sqi.net\/img\/categories_v2\/food\/default_","suffix":".png"},"primary":"true"}],"verified":"false","restricted":"true","stats":{"checkinsCount":"276","usersCount":"222","tipCount":"16"},"specials":{"count":"0"},"hereNow":{"count":"0"},"referralId":"v-1392478082"},{"id":"4f3a5565e4b0a81c49d6d716","name":"PJ Frankland","location":{"lat":"51.4897346496582","lng":"-0.11789087951183319","distance":"49","cc":"GB","country":"United Kingdom"},"categories":[{"id":"4bf58dd8d48988d11d951735","name":"Butcher","pluralName":"Butchers","shortName":"Butcher","icon":{"prefix":"https:\/\/ss1.4sqi.net\/img\/categories_v2\/shops\/food_butcher_","suffix":".png"},"primary":"true"}],"verified":"false","restricted":"true","stats":{"checkinsCount":"7","usersCount":"4","tipCount":"0"},"specials":{"count":"0"},"hereNow":{"count":"0"},"referralId":"v-1392478082"},{"id":"50aa3212e4b00340979caebf","name":"Imperial War Museum Cafe","location":{"address":"Imperial War Museum","crossStreet":"Lambeth Street","lat":"51.48995053216186","lng":"-0.11407732140101663","distance":"268","cc":"GB","city":"London","state":"Greater London","country":"United Kingdom"},"categories":[{"id":"4bf58dd8d48988d16d941735","name":"Caf\u00e9","pluralName":"Caf\u00e9s","shortName":"Caf\u00e9","icon":{"prefix":"https:\/\/ss1.4sqi.net\/img\/categories_v2\/food\/cafe_","suffix":".png"},"primary":"true"}],"verified":"false","restricted":"true","stats":{"checkinsCount":"14","usersCount":"6","tipCount":"1"},"specials":{"count":"0"},"hereNow":{"count":"0"},"referralId":"v-1392478082"},{"id":"4c07ff9a7e3fc928059fef82","name":"The Royal Oak","contact":{"phone":"+442077351984","formattedPhone":"+44 20 7735 1984"},"location":{"address":"355 Kennington Lane","lat":"51.48628152720781","lng":"-0.11958166044870266","distance":"356","postalCode":"SE11 5QY","cc":"GB","city":"London","state":"Greater London","country":"United Kingdom"},"categories":[{"id":"4bf58dd8d48988d11b941735","name":"Pub","pluralName":"Pubs","shortName":"Pub","icon":{"prefix":"https:\/\/ss1.4sqi.net\/img\/categories_v2\/nightlife\/pub_","suffix":".png"},"primary":"true"}],"verified":"false","restricted":"true","stats":{"checkinsCount":"354","usersCount":"119","tipCount":"5"},"specials":{"count":"0"},"hereNow":{"count":"0"},"referralId":"v-1392478082"},{"id":"4d4cbb2913d88cfa7e5100da","name":"Fitladz","location":{"lat":"51.48947382323577","lng":"-0.11852669677010308","distance":"54","cc":"GB","city":"Vauxhall","state":"Greater London","country":"United Kingdom"},"categories":[{"id":"4bf58dd8d48988d1d8941735","name":"Gay Bar","pluralName":"Gay Bars","shortName":"Gay Bar","icon":{"prefix":"https:\/\/ss1.4sqi.net\/img\/categories_v2\/nightlife\/gaybar_","suffix":".png"},"primary":"true"}],"verified":"false","restricted":"true","stats":{"checkinsCount":"18","usersCount":"8","tipCount":"0"},"specials":{"count":"0"},"hereNow":{"count":"0"},"referralId":"v-1392478082"},{"id":"4d7a0aff70de5481841dc499","name":"Tasty house","location":{"address":"Vauxhall Street","lat":"51.48967045578938","lng":"-0.11703058809203812","distance":"68","cc":"GB","city":"Lambeth","state":"Greater London","country":"United Kingdom"},"categories":[{"id":"4bf58dd8d48988d142941735","name":"Asian Restaurant","pluralName":"Asian Restaurants","shortName":"Asian","icon":{"prefix":"https:\/\/ss1.4sqi.net\/img\/categories_v2\/food\/asian_","suffix":".png"},"primary":"true"}],"verified":"false","restricted":"true","stats":{"checkinsCount":"24","usersCount":"10","tipCount":"1"},"specials":{"count":"0"},"hereNow":{"count":"0"},"referralId":"v-1392478082"},{"id":"51ceeb5a498e9bff992e9012","name":"Black Prince Community Hub","location":{"lat":"51.49115029158483","lng":"-0.1154765369744419","distance":"262","cc":"GB","country":"United Kingdom"},"categories":[{"id":"4f4528bc4b90abdf24c9de85","name":"Athletics & Sports","pluralName":"Athletics & Sports","shortName":"Athletics & Sports","icon":{"prefix":"https:\/\/ss1.4sqi.net\/img\/categories_v2\/shops\/sports_outdoors_","suffix":".png"},"primary":"true"}],"verified":"false","restricted":"true","stats":{"checkinsCount":"25","usersCount":"13","tipCount":"0"},"specials":{"count":"0"},"hereNow":{"count":"0"},"referralId":"v-1392478082"},{"id":"4f1c9154e4b0889e067ae48c","name":"Horsemeat Disco","contact":{"phone":"+442077930903","formattedPhone":"+44 20 7793 0903"},"location":{"address":"349 Kennington La.","lat":"51.486470942542056","lng":"-0.11920757452723027","distance":"328","postalCode":"SE11 5QY","cc":"GB","city":"London","state":"Greater London","country":"United Kingdom"},"categories":[{"id":"4bf58dd8d48988d11f941735","name":"Nightclub","pluralName":"Nightclubs","shortName":"Nightclub","icon":{"prefix":"https:\/\/ss1.4sqi.net\/img\/categories_v2\/nightlife\/nightclub_","suffix":".png"},"primary":"true"}],"verified":"false","restricted":"true","stats":{"checkinsCount":"118","usersCount":"86","tipCount":"3"},"specials":{"count":"0"},"hereNow":{"count":"0"},"referralId":"v-1392478082"},{"id":"4f797e63e4b0948938533a91","name":"Vauxhall Children's Centre","location":{"lat":"51.48888429289962","lng":"-0.11850453523281677","distance":"66","cc":"GB","country":"United Kingdom"},"categories":[{"id":"4bf58dd8d48988d130941735","name":"Building","pluralName":"Buildings","shortName":"Building","icon":{"prefix":"https:\/\/ss1.4sqi.net\/img\/categories_v2\/building\/default_","suffix":".png"},"primary":"true"}],"verified":"false","restricted":"true","stats":{"checkinsCount":"6","usersCount":"3","tipCount":"0"},"specials":{"count":"0"},"hereNow":{"count":"0"},"referralId":"v-1392478082"},{"id":"52519c88498ed0d7166409bc","name":"Tennessee Fried Chicken","location":{"lat":"51.488737","lng":"-0.117365","distance":"68","cc":"GB","country":"United Kingdom"},"categories":[{"id":"4d4ae6fc7a7b7dea34424761","name":"Fried Chicken Joint","pluralName":"Fried Chicken Joints","shortName":"Fried Chicken","icon":{"prefix":"https:\/\/ss1.4sqi.net\/img\/categories_v2\/food\/friedchicken_","suffix":".png"},"primary":"true"}],"verified":"false","restricted":"true","stats":{"checkinsCount":"1","usersCount":"1","tipCount":"0"},"specials":{"count":"0"},"hereNow":{"count":"0"},"referralId":"v-1392478082"},{"id":"4c69162e897b1b8d653aae17","name":"School of Communication Arts - Studio","contact":{"twitter":"sca2dean"},"location":{"address":"Worgan St.","crossStreet":"Jonathan St.","lat":"51.489605","lng":"-0.119673","distance":"134","cc":"GB","city":"London","state":"Greater London","country":"United Kingdom"},"categories":[{"id":"4bf58dd8d48988d1ad941735","name":"Trade School","pluralName":"Trade Schools","shortName":"Trade School","icon":{"prefix":"https:\/\/ss1.4sqi.net\/img\/categories_v2\/education\/tradeschool_","suffix":".png"},"primary":"true"}],"verified":"false","restricted":"true","stats":{"checkinsCount":"1400","usersCount":"88","tipCount":"4"},"specials":{"count":"0"},"hereNow":{"count":"0"},"referralId":"v-1392478082"},{"id":"52b1db79498ec0c201310816","name":"IMBIBE Media","location":{"lat":"51.487125396728516","lng":"-0.11582989990711212","distance":"276","cc":"GB","country":"United Kingdom"},"categories":[{"id":"4bf58dd8d48988d124941735","name":"Office","pluralName":"Offices","shortName":"Office","icon":{"prefix":"https:\/\/ss1.4sqi.net\/img\/categories_v2\/building\/default_","suffix":".png"},"primary":"true"}],"verified":"false","restricted":"true","stats":{"checkinsCount":"5","usersCount":"1","tipCount":"0"},"specials":{"count":"0"},"hereNow":{"count":"0"},"referralId":"v-1392478082"},{"id":"4ac518cdf964a520d2a520e3","name":"Hidden","contact":{"phone":"0208206613","formattedPhone":"0208206613","twitter":"hiddennightclub"},"location":{"address":"100 Tinworth Street","crossStreet":"Albert Embankment","lat":"51.489967","lng":"-0.122408","distance":"327","postalCode":"SE11 5EQ","cc":"GB","city":"London","state":"Greater London","country":"United Kingdom"},"categories":[{"id":"4bf58dd8d48988d11f941735","name":"Nightclub","pluralName":"Nightclubs","shortName":"Nightclub","icon":{"prefix":"https:\/\/ss1.4sqi.net\/img\/categories_v2\/nightlife\/nightclub_","suffix":".png"},"primary":"true"}],"verified":"false","restricted":"true","stats":{"checkinsCount":"393","usersCount":"221","tipCount":"5"},"specials":{"count":"0"},"hereNow":{"count":"0"},"referralId":"v-1392478082"},{"id":"4ace02c9f964a520dfcd20e3","name":"Spring Gardens","location":{"address":"Glyn St","lat":"51.487409056199965","lng":"-0.1208269607632371","distance":"296","postalCode":"SE11 5HS","cc":"GB","city":"Lambeth","state":"Greater London","country":"United Kingdom"},"categories":[{"id":"4bf58dd8d48988d163941735","name":"Park","pluralName":"Parks","shortName":"Park","icon":{"prefix":"https:\/\/ss1.4sqi.net\/img\/categories_v2\/parks_outdoors\/park_","suffix":".png"},"primary":"true"}],"verified":"false","restricted":"true","stats":{"checkinsCount":"315","usersCount":"176","tipCount":"2"},"specials":{"count":"0"},"hereNow":{"count":"0"},"referralId":"v-1392478082"},{"id":"4de4dda852b1d38d29a69f95","name":"Post Office","location":{"address":"34 Vauxhall St","lat":"51.48861346983072","lng":"-0.1172402241622714","distance":"84","cc":"GB","city":"Lambeth","state":"Greater London","country":"United Kingdom"},"categories":[{"id":"4bf58dd8d48988d172941735","name":"Post Office","pluralName":"Post Offices","shortName":"Post Office","icon":{"prefix":"https:\/\/ss1.4sqi.net\/img\/categories_v2\/building\/postoffice_","suffix":".png"},"primary":"true"}],"verified":"false","restricted":"true","stats":{"checkinsCount":"27","usersCount":"16","tipCount":"1"},"specials":{"count":"0"},"hereNow":{"count":"0"},"referralId":"v-1392478082"},{"id":"52fe45c811d28c7d0d5d52bc","name":"Post Office","location":{"address":"34 Vauxhall street","lat":"51.489993","lng":"-0.117221","distance":"88","postalCode":"SE11 5LG","cc":"GB","city":"London","state":"Greater London","country":"United Kingdom"},"categories":[{"id":"4bf58dd8d48988d172941735","name":"Post Office","pluralName":"Post Offices","shortName":"Post Office","icon":{"prefix":"https:\/\/ss1.4sqi.net\/img\/categories_v2\/building\/postoffice_","suffix":".png"},"primary":"true"}],"verified":"false","restricted":"true","stats":{"checkinsCount":"1","usersCount":"1","tipCount":"0"},"specials":{"count":"0"},"hereNow":{"count":"0"},"referralId":"v-1392478082"},{"id":"4decb2c418386283a41d4084","name":"Blue Bridge Solutions","contact":{"phone":"+442031760528","formattedPhone":"+44 20 3176 0528"},"location":{"address":"Southbank House","crossStreet":"Black Prince Road","lat":"51.49198183981866","lng":"-0.11989720190870803","distance":"333","postalCode":"SE1 7JS","cc":"GB","city":"Lambeth","state":"Greater London","country":"United Kingdom"},"categories":[{"id":"4d4b7105d754a06375d81259","name":"Professional & Other Places","pluralName":"Professional & Other Places","shortName":"Professional","icon":{"prefix":"https:\/\/ss1.4sqi.net\/img\/categories_v2\/building\/default_","suffix":".png"},"primary":"true"}],"verified":"false","restricted":"true","stats":{"checkinsCount":"33","usersCount":"4","tipCount":"0"},"url":"http:\/\/www.bluebridgeltd.cm","specials":{"count":"0"},"hereNow":{"count":"0"},"referralId":"v-1392478082"}],"confident":"true"}}