{"meta":{"code":"200"},"response":{"venues":[{"id":"4ac518cef964a520f6a520e3","name":"Big Ben","contact":{"twitter":"visitparliament"},"location":{"address":"Parliament Sq.","crossStreet":"Bridge St.","lat":"51.50064517819402","lng":"-0.1245725154876709","distance":"194","postalCode":"SW1P","cc":"GB","city":"London","state":"Greater London","country":"United Kingdom"},"categories":[{"id":"4bf58dd8d48988d12d941735","name":"Monument \/ Landmark","pluralName":"Monuments \/ Landmarks","shortName":"Landmark","icon":{"prefix":"https:\/\/ss1.4sqi.net\/img\/categories_v2\/building\/government_monument_","suffix":".png"},"primary":"true"}],"verified":"true","restricted":"true","stats":{"checkinsCount":"42356","usersCount":"34711","tipCount":"213"},"url":"http:\/\/www.parliament.uk\/bigben","menu":{"type":"Menu","label":"Menu","anchor":"View Menu","url":"https:\/\/foursquare.com\/v\/big-ben\/4ac518cef964a520f6a520e3\/menu","mobileUrl":"https:\/\/foursquare.com\/v\/4ac518cef964a520f6a520e3\/device_menu"},"specials":{"count":"0"},"hereNow":{"count":"8","groups":[{"type":"others","name":"Other people here","count":"8"}]},"venuePage":{"id":"54926925"},"storeId":"","referralId":"v-1392478055"},{"id":"4c62c3bbfa7bc92851d60e27","name":"River Thames","location":{"address":"Lechlade to Southend","lat":"51.497642","lng":"-0.121267","distance":"212","cc":"GB","city":"London","state":"Greater London","country":"United Kingdom"},"categories":[{"id":"4eb1d4dd4b900d56c88a45fd","name":"River","pluralName":"Rivers","shortName":"River","icon":{"prefix":"https:\/\/ss1.4sqi.net\/img\/categories_v2\/parks_outdoors\/river_","suffix":".png"},"primary":"true"}],"verified":"false","restricted":"true","stats":{"checkinsCount":"4828","usersCount":"2749","tipCount":"30"},"specials":{"count":"0"},"hereNow":{"count":"0"},"referralId":"v-1392478055"},{"id":"4adf3f57f964a520ad7821e3","name":"Houses of Parliament","contact":{"phone":"+442072193000","formattedPhone":"+44 20 7219 3000","twitter":"visitparliament"},"location":{"address":"Parliament Sq.","crossStreet":"at Bridge St.","lat":"51.50003406728848","lng":"-0.12441158294677734","distance":"138","postalCode":"SW1A 0AA","cc":"GB","city":"City of Westminster","state":"Greater London","country":"United Kingdom"},"categories":[{"id":"4bf58dd8d48988d12a941735","name":"Capitol Building","pluralName":"Capitol Buildings","shortName":"Capitol Building","icon":{"prefix":"https:\/\/ss1.4sqi.net\/img\/categories_v2\/building\/government_capitolbuilding_","suffix":".png"},"primary":"true"}],"verified":"true","restricted":"true","stats":{"checkinsCount":"16032","usersCount":"11007","tipCount":"64"},"url":"http:\/\/www.parliament.uk\/visiting","specials":{"count":"0"},"hereNow":{"count":"4","groups":[{"type":"others","name":"Other people here","count":"4"}]},"venuePage":{"id":"54854640"},"storeId":"","referralId":"v-1392478055"},{"id":"4ac518d0f964a52097a620e3","name":"Westminster Bridge","location":{"address":"Westminster Bridge Rd.","crossStreet":"Victoria Embankment","lat":"51.50080880759211","lng":"-0.12179374694824219","distance":"183","postalCode":"SE1 7XB","cc":"GB","city":"London","state":"Greater London","country":"United Kingdom"},"categories":[{"id":"4bf58dd8d48988d1df941735","name":"Bridge","pluralName":"Bridges","shortName":"Bridge","icon":{"prefix":"https:\/\/ss1.4sqi.net\/img\/categories_v2\/parks_outdoors\/bridge_","suffix":".png"},"primary":"true"}],"verified":"false","restricted":"true","stats":{"checkinsCount":"9990","usersCount":"7512","tipCount":"46"},"specials":{"count":"0"},"hereNow":{"count":"2","groups":[{"type":"others","name":"Other people here","count":"2"}]},"referralId":"v-1392478055"},{"id":"4eb1587693adccbac49e282f","name":"Palace Of Westminster","location":{"address":"St. Margaret St.","lat":"51.500060782690625","lng":"-0.12492656707763672","distance":"170","postalCode":"SW1P","cc":"GB","city":"London","state":"Greater London","country":"United Kingdom"},"categories":[{"id":"4bf58dd8d48988d12a941735","name":"Capitol Building","pluralName":"Capitol Buildings","shortName":"Capitol Building","icon":{"prefix":"https:\/\/ss1.4sqi.net\/img\/categories_v2\/building\/government_capitolbuilding_","suffix":".png"},"primary":"true"}],"verified":"false","restricted":"true","stats":{"checkinsCount":"2384","usersCount":"1894","tipCount":"14"},"specials":{"count":"0"},"hereNow":{"count":"0"},"referralId":"v-1392478055"},{"id":"4aeecd2df964a52049d421e3","name":"House of Commons","contact":{"phone":"+442072193000","formattedPhone":"+44 20 7219 3000"},"location":{"address":"Parliament Sq.","lat":"51.500060782690625","lng":"-0.12561321258544922","distance":"212","postalCode":"SW1A 0AA","cc":"GB","city":"London","state":"Greater London","country":"United Kingdom"},"categories":[{"id":"4bf58dd8d48988d12a941735","name":"Capitol Building","pluralName":"Capitol Buildings","shortName":"Capitol Building","icon":{"prefix":"https:\/\/ss1.4sqi.net\/img\/categories_v2\/building\/government_capitolbuilding_","suffix":".png"},"primary":"true"}],"verified":"false","restricted":"true","stats":{"checkinsCount":"2862","usersCount":"1856","tipCount":"15"},"url":"http:\/\/www.parliament.uk","specials":{"count":"0"},"hereNow":{"count":"0"},"referralId":"v-1392478055"},{"id":"4ba0b286f964a520247837e3","name":"House Of Lords","location":{"address":"Millbank","lat":"51.4987383514873","lng":"-0.12494802474975586","distance":"160","postalCode":"SW1P","cc":"GB","city":"City of Westminster","state":"Greater London","country":"United Kingdom"},"categories":[{"id":"4bf58dd8d48988d12a941735","name":"Capitol Building","pluralName":"Capitol Buildings","shortName":"Capitol Building","icon":{"prefix":"https:\/\/ss1.4sqi.net\/img\/categories_v2\/building\/government_capitolbuilding_","suffix":".png"},"primary":"true"}],"verified":"false","restricted":"true","stats":{"checkinsCount":"1572","usersCount":"1111","tipCount":"10"},"specials":{"count":"0"},"hereNow":{"count":"0"},"referralId":"v-1392478055"},{"id":"4bcae6b7b6c49c74af3f9191","name":"Thames River Boats","location":{"address":"River Thames","lat":"51.50080880759211","lng":"-0.1215362548828125","distance":"190","cc":"GB","city":"London","state":"Greater London","country":"United Kingdom"},"categories":[{"id":"4bf58dd8d48988d12d951735","name":"Boat or Ferry","pluralName":"Boats or Ferries","shortName":"Boat \/ Ferry","icon":{"prefix":"https:\/\/ss1.4sqi.net\/img\/categories_v2\/travel\/boat_","suffix":".png"},"primary":"true"}],"verified":"false","restricted":"true","stats":{"checkinsCount":"1294","usersCount":"1227","tipCount":"11"},"menu":{"type":"Menu","label":"Menu","anchor":"View Menu","url":"https:\/\/foursquare.com\/v\/thames-river-boats-london-greater-london\/4bcae6b7b6c49c74af3f9191\/menu","mobileUrl":"https:\/\/foursquare.com\/v\/4bcae6b7b6c49c74af3f9191\/device_menu"},"specials":{"count":"0"},"hereNow":{"count":"0"},"referralId":"v-1392478055"},{"id":"4c0fee9ee7d29521aeb3d7b0","name":"House of Commons Terrace","location":{"address":"Victoria Embankment","crossStreet":"Parliament Square","lat":"51.50061679344269","lng":"-0.12389123439788818","distance":"165","postalCode":"SW1P 4PN","cc":"GB","city":"London","state":"Greater London","country":"United Kingdom"},"categories":[{"id":"4bf58dd8d48988d12a941735","name":"Capitol Building","pluralName":"Capitol Buildings","shortName":"Capitol Building","icon":{"prefix":"https:\/\/ss1.4sqi.net\/img\/categories_v2\/building\/government_capitolbuilding_","suffix":".png"},"primary":"true"}],"verified":"false","restricted":"true","stats":{"checkinsCount":"446","usersCount":"293","tipCount":"5"},"specials":{"count":"0"},"hereNow":{"count":"0"},"referralId":"v-1392478055"},{"id":"4c506074371520a150fd38c1","name":"Strangers' Bar","location":{"address":"Houses of Parliament","crossStreet":"Parliament Square","lat":"51.499523","lng":"-0.123955","distance":"83","postalCode":"SW1A 0AA","cc":"GB","city":"London","state":"Greater London","country":"United Kingdom"},"categories":[{"id":"4bf58dd8d48988d116941735","name":"Bar","pluralName":"Bars","shortName":"Bar","icon":{"prefix":"https:\/\/ss1.4sqi.net\/img\/categories_v2\/nightlife\/bar_","suffix":".png"},"primary":"true"}],"verified":"false","restricted":"true","stats":{"checkinsCount":"90","usersCount":"60","tipCount":"0"},"specials":{"count":"0"},"hereNow":{"count":"0"},"referralId":"v-1392478055"},{"id":"4b9539f2f964a520409634e3","name":"Westminster Hall","location":{"address":"Palace of Westminster","lat":"51.50062180251775","lng":"-0.1261281967163086","distance":"274","postalCode":"SW1A 1AA","cc":"GB","city":"City of Westminster","state":"Greater London","country":"United Kingdom"},"categories":[{"id":"4deefb944765f83613cdba6e","name":"Historic Site","pluralName":"Historic Sites","shortName":"Historic Site","icon":{"prefix":"https:\/\/ss1.4sqi.net\/img\/categories_v2\/arts_entertainment\/historicsite_","suffix":".png"},"primary":"true"}],"verified":"false","restricted":"true","stats":{"checkinsCount":"2025","usersCount":"1666","tipCount":"6"},"specials":{"count":"0"},"hereNow":{"count":"0"},"referralId":"v-1392478055"},{"id":"4ac518d0f964a5209ea620e3","name":"Namco Funscape County Hall","contact":{"phone":"+442079671066","formattedPhone":"+44 20 7967 1066","twitter":"funscapelondon"},"location":{"address":"County Hall, Riverside Buildings","lat":"51.501069277666936","lng":"-0.11970162391662598","distance":"292","postalCode":"SE1 7PB","cc":"GB","city":"London","state":"Greater London","country":"United Kingdom"},"categories":[{"id":"4bf58dd8d48988d1e1931735","name":"Arcade","pluralName":"Arcades","shortName":"Arcade","icon":{"prefix":"https:\/\/ss1.4sqi.net\/img\/categories_v2\/arts_entertainment\/arcade_","suffix":".png"},"primary":"true"}],"verified":"true","restricted":"true","stats":{"checkinsCount":"1664","usersCount":"1316","tipCount":"26"},"url":"http:\/\/www.facebook.com\/FunscapeLondon","specials":{"count":"0"},"hereNow":{"count":"0"},"venuePage":{"id":"39348809"},"storeId":"","referralId":"v-1392478055"},{"id":"4ac518cef964a52006a620e3","name":"City Cruises","location":{"address":"Westminster Pier","lat":"51.50149829221112","lng":"-0.12311703428863793","distance":"246","postalCode":"SW1A 2JR","cc":"GB","city":"London","state":"Greater London","country":"United Kingdom"},"categories":[{"id":"4bf58dd8d48988d12d951735","name":"Boat or Ferry","pluralName":"Boats or Ferries","shortName":"Boat \/ Ferry","icon":{"prefix":"https:\/\/ss1.4sqi.net\/img\/categories_v2\/travel\/boat_","suffix":".png"},"primary":"true"}],"verified":"false","restricted":"true","stats":{"checkinsCount":"898","usersCount":"883","tipCount":"5"},"specials":{"count":"0"},"hereNow":{"count":"0"},"referralId":"v-1392478055"},{"id":"4acf6668f964a5206fd320e3","name":"Portcullis House","location":{"address":"Victoria Embankment","lat":"51.5012696382499","lng":"-0.12498021125793457","distance":"267","postalCode":"SW1A 2LW","cc":"GB","city":"City of Westminster","state":"Greater London","country":"United Kingdom"},"categories":[{"id":"4bf58dd8d48988d126941735","name":"Government Building","pluralName":"Government Buildings","shortName":"Government","icon":{"prefix":"https:\/\/ss1.4sqi.net\/img\/categories_v2\/building\/government_","suffix":".png"},"primary":"true"}],"verified":"false","restricted":"true","stats":{"checkinsCount":"3022","usersCount":"1040","tipCount":"14"},"specials":{"count":"0"},"hereNow":{"count":"0"},"referralId":"v-1392478055"},{"id":"4b057699f964a520805822e3","name":"Evelina London Children's Hospital","contact":{"phone":"+442071887188","formattedPhone":"+44 20 7188 7188"},"location":{"address":"St Thomas's Hospital, Westminster Bridge Rd","lat":"51.49869968853984","lng":"-0.119053351071024","distance":"268","postalCode":"SE1 7EH","cc":"GB","city":"London","state":"Greater London","country":"United Kingdom"},"categories":[{"id":"4bf58dd8d48988d196941735","name":"Hospital","pluralName":"Hospitals","shortName":"Hospital","icon":{"prefix":"https:\/\/ss1.4sqi.net\/img\/categories_v2\/building\/medical_hospital_","suffix":".png"},"primary":"true"}],"verified":"false","restricted":"true","stats":{"checkinsCount":"837","usersCount":"117","tipCount":"7"},"url":"http:\/\/www.guysandstthomas.nhs.uk\/our-services\/childrens\/childrens-services.aspx","specials":{"count":"0"},"hereNow":{"count":"0"},"referralId":"v-1392478055"},{"id":"4b9f9704f964a5205d2d37e3","name":"Victoria Tower Gardens","location":{"address":"Millbank","lat":"51.49726792378821","lng":"-0.12492513700099248","distance":"268","postalCode":"SW1P","cc":"GB","city":"London","state":"Greater London","country":"United Kingdom"},"categories":[{"id":"4bf58dd8d48988d163941735","name":"Park","pluralName":"Parks","shortName":"Park","icon":{"prefix":"https:\/\/ss1.4sqi.net\/img\/categories_v2\/parks_outdoors\/park_","suffix":".png"},"primary":"true"}],"verified":"false","restricted":"true","stats":{"checkinsCount":"1243","usersCount":"956","tipCount":"2"},"specials":{"count":"0"},"hereNow":{"count":"0"},"referralId":"v-1392478055"},{"id":"4ac518c5f964a520d4a420e3","name":"St. Stephens Tavern","contact":{"phone":"+442079252286","formattedPhone":"+44 20 7925 2286"},"location":{"address":"10 Bridge St.","crossStreet":"at Canon Row","lat":"51.501062598965646","lng":"-0.12560248374938965","distance":"276","postalCode":"SW1A 2JR","cc":"GB","city":"City of Westminster","state":"Greater London","country":"United Kingdom"},"categories":[{"id":"4bf58dd8d48988d11b941735","name":"Pub","pluralName":"Pubs","shortName":"Pub","icon":{"prefix":"https:\/\/ss1.4sqi.net\/img\/categories_v2\/nightlife\/pub_","suffix":".png"},"primary":"true"}],"verified":"false","restricted":"true","stats":{"checkinsCount":"1521","usersCount":"1212","tipCount":"29"},"url":"http:\/\/ststephenstavern.co.uk","menu":{"type":"Menu","label":"Menu","anchor":"View Menu","url":"https:\/\/foursquare.com\/v\/st-stephens-tavern-westminster-london\/4ac518c5f964a520d4a420e3\/menu","mobileUrl":"https:\/\/foursquare.com\/v\/4ac518c5f964a520d4a420e3\/device_menu"},"specials":{"count":"0"},"hereNow":{"count":"0"},"referralId":"v-1392478055"},{"id":"4de15b17fa7651589ee4b1bb","name":"Hall & Woodhouse","location":{"lat":"51.500992845054675","lng":"-0.12547361595113443","distance":"264","cc":"GB","city":"London","state":"Greater London","country":"United Kingdom"},"categories":[{"id":"4bf58dd8d48988d11b941735","name":"Pub","pluralName":"Pubs","shortName":"Pub","icon":{"prefix":"https:\/\/ss1.4sqi.net\/img\/categories_v2\/nightlife\/pub_","suffix":".png"},"primary":"true"}],"verified":"false","restricted":"true","stats":{"checkinsCount":"309","usersCount":"302","tipCount":"3"},"specials":{"count":"0"},"hereNow":{"count":"0"},"referralId":"v-1392478055"},{"id":"502ebdc7e4b0beacbddca708","name":"Westminister Pier","location":{"address":"London","lat":"51.5015033911501","lng":"-0.12327432632446289","distance":"248","cc":"GB","country":"United Kingdom"},"categories":[{"id":"4bf58dd8d48988d1e0941735","name":"Harbor \/ Marina","pluralName":"Harbors \/ Marinas","shortName":"Harbor \/ Marina","icon":{"prefix":"https:\/\/ss1.4sqi.net\/img\/categories_v2\/parks_outdoors\/harbor_","suffix":".png"},"primary":"true"}],"verified":"false","restricted":"true","stats":{"checkinsCount":"251","usersCount":"236","tipCount":"0"},"specials":{"count":"0"},"hereNow":{"count":"0"},"referralId":"v-1392478055"},{"id":"4b6160dff964a52085112ae3","name":"Tesco Express","contact":{"phone":"+448450269357","formattedPhone":"+44 845 026 9357","twitter":"uktescooffers"},"location":{"address":"Unit A, Portcullis House, 8\/9 Bridge Street","lat":"51.50102363790581","lng":"-0.12539330789716957","distance":"263","postalCode":"SW1A 2JR","cc":"GB","city":"London","state":"Greater London","country":"United Kingdom"},"categories":[{"id":"4bf58dd8d48988d118951735","name":"Grocery Store","pluralName":"Grocery Stores","shortName":"Grocery Store","icon":{"prefix":"https:\/\/ss1.4sqi.net\/img\/categories_v2\/shops\/food_grocery_","suffix":".png"},"primary":"true"}],"verified":"true","restricted":"true","stats":{"checkinsCount":"568","usersCount":"276","tipCount":"4"},"url":"http:\/\/www.tesco.com","specials":{"count":"0"},"hereNow":{"count":"0"},"storeId":"3483","referralId":"v-1392478055"},{"id":"51221e27e4b0320fabfb84c8","name":"Westminster Station Parliament Square bus stop","location":{"lat":"51.50094708923168","lng":"-0.12488255681252647","distance":"234","cc":"GB","country":"United Kingdom"},"categories":[{"id":"4bf58dd8d48988d1fe931735","name":"Bus Station","pluralName":"Bus Stations","shortName":"Bus Station","icon":{"prefix":"https:\/\/ss1.4sqi.net\/img\/categories_v2\/travel\/busstation_","suffix":".png"},"primary":"true"}],"verified":"false","restricted":"true","stats":{"checkinsCount":"467","usersCount":"403","tipCount":"2"},"specials":{"count":"0"},"hereNow":{"count":"0"},"referralId":"v-1392478055"},{"id":"4d22df3716cfb60ce0fb6c61","name":"1 Parliament Street","location":{"address":"House of Commons","lat":"51.50126963824993","lng":"-0.12585997581481934","distance":"305","cc":"GB","country":"United Kingdom"},"categories":[{"id":"4bf58dd8d48988d12a941735","name":"Capitol Building","pluralName":"Capitol Buildings","shortName":"Capitol Building","icon":{"prefix":"https:\/\/ss1.4sqi.net\/img\/categories_v2\/building\/government_capitolbuilding_","suffix":".png"},"primary":"true"}],"verified":"false","restricted":"true","stats":{"checkinsCount":"781","usersCount":"475","tipCount":"0"},"specials":{"count":"0"},"hereNow":{"count":"0"},"referralId":"v-1392478055"},{"id":"4ad31c32f964a5201ae320e3","name":"Caff\u00e8 Nero","contact":{"phone":"+442079250781","formattedPhone":"+44 20 7925 0781"},"location":{"address":"Unit B, Portcullis House, 1-2 Bridge St.","lat":"51.50091134699318","lng":"-0.12466975941107226","distance":"222","postalCode":"SW1A 2JH","cc":"GB","city":"London","state":"Greater London","country":"United Kingdom"},"categories":[{"id":"4bf58dd8d48988d1e0931735","name":"Coffee Shop","pluralName":"Coffee Shops","shortName":"Coffee Shop","icon":{"prefix":"https:\/\/ss1.4sqi.net\/img\/categories_v2\/food\/coffeeshop_","suffix":".png"},"primary":"true"}],"verified":"false","restricted":"true","stats":{"checkinsCount":"585","usersCount":"410","tipCount":"3"},"url":"http:\/\/www.caffenero.com","specials":{"count":"0"},"hereNow":{"count":"0"},"referralId":"v-1392478055"},{"id":"4b50b220f964a520f52d27e3","name":"Sports and Social Bar","location":{"address":"Houses of Parliament","crossStreet":"Derby Gate","lat":"51.499628647984814","lng":"-0.1245986758368512","distance":"130","cc":"GB","city":"City of Westminster","state":"Greater London","country":"United Kingdom"},"categories":[{"id":"4bf58dd8d48988d116941735","name":"Bar","pluralName":"Bars","shortName":"Bar","icon":{"prefix":"https:\/\/ss1.4sqi.net\/img\/categories_v2\/nightlife\/bar_","suffix":".png"},"primary":"true"}],"verified":"false","restricted":"true","stats":{"checkinsCount":"222","usersCount":"72","tipCount":"1"},"specials":{"count":"0"},"hereNow":{"count":"0"},"referralId":"v-1392478055"},{"id":"4e73423db0fb38bb72cc3383","name":"Terrace Cafeteria","location":{"address":"Palace of Westminster","lat":"51.50003446189843","lng":"-0.12575533082001303","distance":"220","postalCode":"SW1 0AA","cc":"GB","city":"City of Westminster","state":"Greater London","country":"United Kingdom"},"categories":[{"id":"4bf58dd8d48988d16d941735","name":"Caf\u00e9","pluralName":"Caf\u00e9s","shortName":"Caf\u00e9","icon":{"prefix":"https:\/\/ss1.4sqi.net\/img\/categories_v2\/food\/cafe_","suffix":".png"},"primary":"true"}],"verified":"false","restricted":"true","stats":{"checkinsCount":"326","usersCount":"58","tipCount":"0"},"specials":{"count":"0"},"hereNow":{"count":"0"},"referralId":"v-1392478055"},{"id":"4baa3d42f964a5209c563ae3","name":"Old Palace Yard","location":{"address":"Abingdon St","lat":"51.49901612331234","lng":"-0.12594807878209688","distance":"220","cc":"GB","city":"City of Westminster","state":"Greater London","country":"United Kingdom"},"categories":[{"id":"4bf58dd8d48988d164941735","name":"Plaza","pluralName":"Plazas","shortName":"Plaza","icon":{"prefix":"https:\/\/ss1.4sqi.net\/img\/categories_v2\/parks_outdoors\/plaza_","suffix":".png"},"primary":"true"}],"verified":"false","restricted":"true","stats":{"checkinsCount":"380","usersCount":"152","tipCount":"0"},"specials":{"count":"0"},"hereNow":{"count":"0"},"referralId":"v-1392478055"},{"id":"50b75731e4b0bfbacb889008","name":"Committee Room 10","location":{"lat":"51.49962009670266","lng":"-0.12277053188391752","distance":"36","cc":"GB","country":"United Kingdom"},"categories":[{"id":"4bf58dd8d48988d12a941735","name":"Capitol Building","pluralName":"Capitol Buildings","shortName":"Capitol Building","icon":{"prefix":"https:\/\/ss1.4sqi.net\/img\/categories_v2\/building\/government_capitolbuilding_","suffix":".png"},"primary":"true"}],"verified":"false","restricted":"true","stats":{"checkinsCount":"2","usersCount":"2","tipCount":"1"},"specials":{"count":"0"},"hereNow":{"count":"0"},"referralId":"v-1392478055"},{"id":"4e69f6b845ddadf2d03e39da","name":"Moncrieffs Cafe","location":{"address":"Palace Of Westminster","lat":"51.50061827320244","lng":"-0.1245717303127857","distance":"192","cc":"GB","city":"London","state":"Greater London","country":"United Kingdom"},"categories":[{"id":"4bf58dd8d48988d1c4941735","name":"Restaurant","pluralName":"Restaurants","shortName":"Restaurant","icon":{"prefix":"https:\/\/ss1.4sqi.net\/img\/categories_v2\/food\/default_","suffix":".png"},"primary":"true"}],"verified":"false","restricted":"true","stats":{"checkinsCount":"99","usersCount":"25","tipCount":"0"},"specials":{"count":"0"},"hereNow":{"count":"0"},"referralId":"v-1392478055"},{"id":"4dcd234a183899ddfab054e7","name":"River Restaurant (House Of Lords)","location":{"lat":"51.49901902681444","lng":"-0.1239849374941541","distance":"87","cc":"GB","city":"London","state":"Greater London","country":"United Kingdom"},"categories":[{"id":"4bf58dd8d48988d1c4941735","name":"Restaurant","pluralName":"Restaurants","shortName":"Restaurant","icon":{"prefix":"https:\/\/ss1.4sqi.net\/img\/categories_v2\/food\/default_","suffix":".png"},"primary":"true"}],"verified":"false","restricted":"true","stats":{"checkinsCount":"204","usersCount":"53","tipCount":"2"},"specials":{"count":"0"},"hereNow":{"count":"0"},"referralId":"v-1392478055"},{"id":"513de53ae4b0b886b3b28539","name":"McDonald's","location":{"address":"Abington St","crossStreet":"Westminster Bridge Rd","lat":"51.498765067648954","lng":"-0.12582778930664062","distance":"217","cc":"GB","city":"London","state":"Greater London","country":"United Kingdom"},"categories":[{"id":"4bf58dd8d48988d16e941735","name":"Fast Food Restaurant","pluralName":"Fast Food Restaurants","shortName":"Fast Food","icon":{"prefix":"https:\/\/ss1.4sqi.net\/img\/categories_v2\/food\/fastfood_","suffix":".png"},"primary":"true"}],"verified":"false","restricted":"true","stats":{"checkinsCount":"71","usersCount":"71","tipCount":"0"},"specials":{"count":"0"},"hereNow":{"count":"0"},"referralId":"v-1392478055"}],"confident":"true"}}