{"meta":{"code":"200"},"response":{"venues":[{"id":"4ac518f6f964a5205eaf20e3","name":"St Thomas' Hospital","contact":{"phone":"+442071887188","formattedPhone":"+44 20 7188 7188","twitter":"gsttnhs"},"location":{"address":"Westminster Bridge Rd","lat":"51.49990049004296","lng":"-0.11866092681884766","distance":"90","postalCode":"SE1 7EH","cc":"GB","city":"London","state":"Greater London","country":"United Kingdom"},"categories":[{"id":"4bf58dd8d48988d196941735","name":"Hospital","pluralName":"Hospitals","shortName":"Hospital","icon":{"prefix":"https:\/\/ss1.4sqi.net\/img\/categories_v2\/building\/medical_hospital_","suffix":".png"},"primary":"true"}],"verified":"false","restricted":"true","stats":{"checkinsCount":"4137","usersCount":"1690","tipCount":"29"},"specials":{"count":"0"},"hereNow":{"count":"1","groups":[{"type":"others","name":"Other people here","count":"1"}]},"referralId":"v-1392478056"},{"id":"4b8aaf57f964a520aa7932e3","name":"Park Plaza Westminster","contact":{"phone":"+448444156790","formattedPhone":"+44 844 415 6790"},"location":{"address":"200 Westminster Bridge Rd.","lat":"51.500782092628455","lng":"-0.1172339916229248","distance":"170","postalCode":"SE1 7UT","cc":"GB","city":"London","state":"Greater London","country":"United Kingdom"},"categories":[{"id":"4bf58dd8d48988d1fa931735","name":"Hotel","pluralName":"Hotels","shortName":"Hotel","icon":{"prefix":"https:\/\/ss1.4sqi.net\/img\/categories_v2\/travel\/hotel_","suffix":".png"},"primary":"true"}],"verified":"true","restricted":"true","stats":{"checkinsCount":"11664","usersCount":"5400","tipCount":"96"},"specials":{"count":"1","items":[{"id":"4d81d1b6ee7da090449e81a7","type":"frequency","message":"We reward loyal guests! Show this screen at the ground level coffee bar to receive a complimentary cup of coffee \/ tea! Greetings from Park Plaza","description":"Unlocked every 3 check-ins","finePrint":"- Max. 1 per week\n- Subject to availability\n- Questions? socialmedia@pphe.com","icon":"frequency","title":"Loyalty Special","provider":"foursquare","redemption":"standard"}]},"hereNow":{"count":"1","groups":[{"type":"others","name":"Other people here","count":"1"}]},"storeId":"WMBR","referralId":"v-1392478056"},{"id":"4bbc48d0e4529521bcba55a4","name":"EY, EMEIA & Global HQ","contact":{"phone":"+442079512000","formattedPhone":"+44 20 7951 2000","twitter":"eynews"},"location":{"address":"Becket House","crossStreet":"1 Lambeth Palace Rd","lat":"51.49983203156488","lng":"-0.11624920226421186","distance":"123","postalCode":"SE1 7EU","cc":"GB","city":"London","state":"Greater London","country":"United Kingdom"},"categories":[{"id":"4bf58dd8d48988d124941735","name":"Office","pluralName":"Offices","shortName":"Office","icon":{"prefix":"https:\/\/ss1.4sqi.net\/img\/categories_v2\/building\/default_","suffix":".png"},"primary":"true"}],"verified":"false","restricted":"true","stats":{"checkinsCount":"1091","usersCount":"177","tipCount":"3"},"specials":{"count":"0"},"hereNow":{"count":"0"},"referralId":"v-1392478056"},{"id":"4b057699f964a520805822e3","name":"Evelina London Children's Hospital","contact":{"phone":"+442071887188","formattedPhone":"+44 20 7188 7188"},"location":{"address":"St Thomas's Hospital, Westminster Bridge Rd","lat":"51.49869968853984","lng":"-0.119053351071024","distance":"108","postalCode":"SE1 7EH","cc":"GB","city":"London","state":"Greater London","country":"United Kingdom"},"categories":[{"id":"4bf58dd8d48988d196941735","name":"Hospital","pluralName":"Hospitals","shortName":"Hospital","icon":{"prefix":"https:\/\/ss1.4sqi.net\/img\/categories_v2\/building\/medical_hospital_","suffix":".png"},"primary":"true"}],"verified":"false","restricted":"true","stats":{"checkinsCount":"837","usersCount":"117","tipCount":"7"},"url":"http:\/\/www.guysandstthomas.nhs.uk\/our-services\/childrens\/childrens-services.aspx","specials":{"count":"0"},"hereNow":{"count":"0"},"referralId":"v-1392478056"},{"id":"4bc0539e920eb71357ca182c","name":"Starbucks","contact":{"phone":"+442079284557","formattedPhone":"+44 20 7928 4557","twitter":"starbucksuk"},"location":{"address":"County Hall","crossStreet":"Belvedere Rd","lat":"51.50166367816015","lng":"-0.11758804321289062","distance":"264","postalCode":"SE1 7GQ","cc":"GB","city":"London","state":"Greater London","country":"United Kingdom"},"categories":[{"id":"4bf58dd8d48988d1e0931735","name":"Coffee Shop","pluralName":"Coffee Shops","shortName":"Coffee Shop","icon":{"prefix":"https:\/\/ss1.4sqi.net\/img\/categories_v2\/food\/coffeeshop_","suffix":".png"},"primary":"true"}],"verified":"true","restricted":"true","stats":{"checkinsCount":"2954","usersCount":"1883","tipCount":"17"},"url":"http:\/\/starbucks.co.uk","specials":{"count":"0"},"hereNow":{"count":"0"},"storeId":"12198","referralId":"v-1392478056"},{"id":"4ac518d0f964a5209ea620e3","name":"Namco Funscape County Hall","contact":{"phone":"+442079671066","formattedPhone":"+44 20 7967 1066","twitter":"funscapelondon"},"location":{"address":"County Hall, Riverside Buildings","lat":"51.501069277666936","lng":"-0.11970162391662598","distance":"237","postalCode":"SE1 7PB","cc":"GB","city":"London","state":"Greater London","country":"United Kingdom"},"categories":[{"id":"4bf58dd8d48988d1e1931735","name":"Arcade","pluralName":"Arcades","shortName":"Arcade","icon":{"prefix":"https:\/\/ss1.4sqi.net\/img\/categories_v2\/arts_entertainment\/arcade_","suffix":".png"},"primary":"true"}],"verified":"true","restricted":"true","stats":{"checkinsCount":"1664","usersCount":"1316","tipCount":"26"},"url":"http:\/\/www.facebook.com\/FunscapeLondon","specials":{"count":"0"},"hereNow":{"count":"0"},"venuePage":{"id":"39348809"},"storeId":"","referralId":"v-1392478056"},{"id":"4b9ac096f964a5208fd235e3","name":"Primo","location":{"address":"Park Plaza Westminster Bridge","lat":"51.50072911010268","lng":"-0.11727177076015265","distance":"164","postalCode":"SE1 7UT","cc":"GB","city":"London","state":"Greater London","country":"United Kingdom"},"categories":[{"id":"4bf58dd8d48988d116941735","name":"Bar","pluralName":"Bars","shortName":"Bar","icon":{"prefix":"https:\/\/ss1.4sqi.net\/img\/categories_v2\/nightlife\/bar_","suffix":".png"},"primary":"true"}],"verified":"true","restricted":"true","stats":{"checkinsCount":"734","usersCount":"496","tipCount":"8"},"url":"http:\/\/www.primobar.co.uk","reservations":{"url":"http:\/\/www.toptable.co.uk\/single.aspx?rid=42766&ref=9601"},"menu":{"type":"Menu","label":"Menu","anchor":"View Menu","url":"https:\/\/foursquare.com\/v\/primo\/4b9ac096f964a5208fd235e3\/menu","mobileUrl":"https:\/\/foursquare.com\/v\/4b9ac096f964a5208fd235e3\/device_menu"},"specials":{"count":"0"},"hereNow":{"count":"1","groups":[{"type":"others","name":"Other people here","count":"1"}]},"venuePage":{"id":"34898052"},"referralId":"v-1392478056"},{"id":"4dad7cb6fa8cf64d8048658f","name":"A&E Department","location":{"address":"St Thomas' Hospital","crossStreet":"Westminster Bridge Road","lat":"51.498922410167054","lng":"-0.11750358842186157","distance":"45","postalCode":"SE1 7EH","cc":"GB","city":"City of Westminster","state":"Greater London","country":"United Kingdom"},"categories":[{"id":"4bf58dd8d48988d196941735","name":"Hospital","pluralName":"Hospitals","shortName":"Hospital","icon":{"prefix":"https:\/\/ss1.4sqi.net\/img\/categories_v2\/building\/medical_hospital_","suffix":".png"},"primary":"true"}],"verified":"false","restricted":"true","stats":{"checkinsCount":"208","usersCount":"173","tipCount":"3"},"specials":{"count":"0"},"hereNow":{"count":"0"},"referralId":"v-1392478056"},{"id":"4c0917a9ffb8c9b6c33f6961","name":"Park Plaza County Hall","contact":{"phone":"+442077692477","formattedPhone":"+44 20 7769 2477"},"location":{"address":"1 Addington St.","lat":"51.501443283376005","lng":"-0.1160430908203125","distance":"269","postalCode":"SE1 7RY","cc":"GB","city":"London","state":"Greater London","country":"United Kingdom"},"categories":[{"id":"4bf58dd8d48988d1fa931735","name":"Hotel","pluralName":"Hotels","shortName":"Hotel","icon":{"prefix":"https:\/\/ss1.4sqi.net\/img\/categories_v2\/travel\/hotel_","suffix":".png"},"primary":"true"}],"verified":"true","restricted":"true","stats":{"checkinsCount":"2767","usersCount":"1286","tipCount":"28"},"url":"http:\/\/parkplaza.com\/countyhall","specials":{"count":"0"},"hereNow":{"count":"0"},"storeId":"LOCH","referralId":"v-1392478056"},{"id":"4b570665f964a520582328e3","name":"YO! Sushi","contact":{"phone":"+442079288871","formattedPhone":"+44 20 7928 8871","twitter":"yosushi"},"location":{"address":"County Hall, Belvedere Road","crossStreet":"Belvedere Rd.","lat":"51.5011561","lng":"-0.118188858","distance":"209","postalCode":"SE1 7GP","cc":"GB","city":"Hackney","state":"Greater London","country":"United Kingdom"},"categories":[{"id":"4bf58dd8d48988d1d2941735","name":"Sushi Restaurant","pluralName":"Sushi Restaurants","shortName":"Sushi","icon":{"prefix":"https:\/\/ss1.4sqi.net\/img\/categories_v2\/food\/sushi_","suffix":".png"},"primary":"true"}],"verified":"true","restricted":"true","stats":{"checkinsCount":"664","usersCount":"488","tipCount":"11"},"url":"http:\/\/www.yosushi.com","specials":{"count":"0"},"hereNow":{"count":"0"},"storeId":"COUN","referralId":"v-1392478056"},{"id":"4ac518d2f964a52043a720e3","name":"Florence Nightingale Museum","location":{"address":"2 Lambeth Palace Rd.","lat":"51.50048275725076","lng":"-0.11729621517650729","distance":"137","postalCode":"SE1 7EW","cc":"GB","city":"Lambeth","state":"Greater London","country":"United Kingdom"},"categories":[{"id":"4bf58dd8d48988d190941735","name":"History Museum","pluralName":"History Museums","shortName":"History Museum","icon":{"prefix":"https:\/\/ss1.4sqi.net\/img\/categories_v2\/arts_entertainment\/museum_history_","suffix":".png"},"primary":"true"}],"verified":"true","restricted":"true","stats":{"checkinsCount":"205","usersCount":"160","tipCount":"4"},"specials":{"count":"0"},"hereNow":{"count":"0"},"referralId":"v-1392478056"},{"id":"4cb9d6f79552b60c7d23d68b","name":"Brasserie Jo\u00ebl","contact":{"phone":"+442076207272","formattedPhone":"+44 20 7620 7272"},"location":{"address":"at Park Plaza Westminster Bridge","lat":"51.500741149999996","lng":"-0.117424","distance":"163","postalCode":"SE1 7UT","cc":"GB","city":"City of Westminster","state":"Greater London","country":"United Kingdom"},"categories":[{"id":"4bf58dd8d48988d10c941735","name":"French Restaurant","pluralName":"French Restaurants","shortName":"French","icon":{"prefix":"https:\/\/ss1.4sqi.net\/img\/categories_v2\/food\/french_","suffix":".png"},"primary":"true"}],"verified":"true","restricted":"true","stats":{"checkinsCount":"569","usersCount":"390","tipCount":"8"},"url":"http:\/\/www.brasseriejoel.co.uk","reservations":{"url":"http:\/\/www.toptable.co.uk\/single.aspx?rid=41440&ref=9601"},"menu":{"type":"Menu","label":"Menu","anchor":"View Menu","url":"https:\/\/foursquare.com\/v\/brasserie-jo%C3%ABl\/4cb9d6f79552b60c7d23d68b\/menu","mobileUrl":"https:\/\/foursquare.com\/v\/4cb9d6f79552b60c7d23d68b\/device_menu"},"specials":{"count":"0"},"hereNow":{"count":"0"},"venuePage":{"id":"34898021"},"referralId":"v-1392478056"},{"id":"4b9e77edf964a52087e636e3","name":"Aji Zen Canteen","contact":{"phone":"+442076206117","formattedPhone":"+44 20 7620 6117"},"location":{"address":"County Hall, Westminster Bridge Rd.","lat":"51.500840310789954","lng":"-0.11867826779149185","distance":"183","postalCode":"SE1 7PB","cc":"GB","city":"Lambeth","state":"Greater London","country":"United Kingdom"},"categories":[{"id":"4bf58dd8d48988d111941735","name":"Japanese Restaurant","pluralName":"Japanese Restaurants","shortName":"Japanese","icon":{"prefix":"https:\/\/ss1.4sqi.net\/img\/categories_v2\/food\/japanese_","suffix":".png"},"primary":"true"}],"verified":"false","restricted":"true","stats":{"checkinsCount":"580","usersCount":"416","tipCount":"21"},"specials":{"count":"0"},"hereNow":{"count":"0"},"referralId":"v-1392478056"},{"id":"4fae71f2e4b0f4503a3ecc6b","name":"M&S Cafe","location":{"address":"St Thomas' Hospital","lat":"51.499830386719886","lng":"-0.11881767406483708","distance":"92","cc":"GB","country":"United Kingdom"},"categories":[{"id":"4bf58dd8d48988d16d941735","name":"Caf\u00e9","pluralName":"Caf\u00e9s","shortName":"Caf\u00e9","icon":{"prefix":"https:\/\/ss1.4sqi.net\/img\/categories_v2\/food\/cafe_","suffix":".png"},"primary":"true"}],"verified":"false","restricted":"true","stats":{"checkinsCount":"46","usersCount":"21","tipCount":"0"},"specials":{"count":"0"},"hereNow":{"count":"0"},"referralId":"v-1392478056"},{"id":"4ccc2d3532e776b02c78da27","name":"Ichi Sushi & Sashimi Bar","contact":{"phone":"+442076207373","formattedPhone":"+44 20 7620 7373","twitter":"ichisushilondon"},"location":{"address":"Park Plaza Westminster Bridge","lat":"51.50083552254009","lng":"-0.1169443130493164","distance":"182","postalCode":"SE1 7UT","cc":"GB","city":"London","state":"Greater London","country":"United Kingdom"},"categories":[{"id":"4bf58dd8d48988d111941735","name":"Japanese Restaurant","pluralName":"Japanese Restaurants","shortName":"Japanese","icon":{"prefix":"https:\/\/ss1.4sqi.net\/img\/categories_v2\/food\/japanese_","suffix":".png"},"primary":"true"}],"verified":"true","restricted":"true","stats":{"checkinsCount":"355","usersCount":"267","tipCount":"7"},"url":"http:\/\/www.ichisushi.co.uk","reservations":{"url":"http:\/\/www.toptable.co.uk\/single.aspx?rid=41437&ref=9601"},"menu":{"type":"Menu","label":"Menu","anchor":"View Menu","url":"https:\/\/foursquare.com\/v\/ichi-sushi--sashimi-bar\/4ccc2d3532e776b02c78da27\/menu","mobileUrl":"https:\/\/foursquare.com\/v\/4ccc2d3532e776b02c78da27\/device_menu"},"specials":{"count":"0"},"hereNow":{"count":"0"},"venuePage":{"id":"34898031"},"referralId":"v-1392478056"},{"id":"50641564e4b0fee0464f362e","name":"St. Thomas' Hospital. Gassiot House","location":{"lat":"51.49999938174335","lng":"-0.1182385140989423","distance":"84","cc":"GB","country":"United Kingdom"},"categories":[{"id":"4bf58dd8d48988d196941735","name":"Hospital","pluralName":"Hospitals","shortName":"Hospital","icon":{"prefix":"https:\/\/ss1.4sqi.net\/img\/categories_v2\/building\/medical_hospital_","suffix":".png"},"primary":"true"}],"verified":"false","restricted":"true","stats":{"checkinsCount":"27","usersCount":"15","tipCount":"1"},"specials":{"count":"0"},"hereNow":{"count":"0"},"referralId":"v-1392478056"},{"id":"4b7564f8f964a5201e0a2ee3","name":"Locale","contact":{"phone":"+442074016734","formattedPhone":"+44 20 7401 6734"},"location":{"address":"3b Belvedere Road","crossStreet":"Westminster Bridge Road","lat":"51.50158505305861","lng":"-0.11812792991384592","distance":"256","postalCode":"SE1 7GP","cc":"GB","city":"Lambeth","state":"Greater London","country":"United Kingdom"},"categories":[{"id":"4bf58dd8d48988d110941735","name":"Italian Restaurant","pluralName":"Italian Restaurants","shortName":"Italian","icon":{"prefix":"https:\/\/ss1.4sqi.net\/img\/categories_v2\/food\/italian_","suffix":".png"},"primary":"true"}],"verified":"false","restricted":"true","stats":{"checkinsCount":"550","usersCount":"457","tipCount":"18"},"url":"http:\/\/www.localerestaurants.com","specials":{"count":"0"},"hereNow":{"count":"0"},"referralId":"v-1392478056"},{"id":"4b6fc85bf964a52069fc2ce3","name":"AMT Coffee","location":{"address":"St. Thomas Hospital","crossStreet":"Westminster Bridge Rd.","lat":"51.49993747999999","lng":"-0.119028","distance":"111","cc":"GB","city":"London","state":"Greater London","country":"United Kingdom"},"categories":[{"id":"4bf58dd8d48988d16d941735","name":"Caf\u00e9","pluralName":"Caf\u00e9s","shortName":"Caf\u00e9","icon":{"prefix":"https:\/\/ss1.4sqi.net\/img\/categories_v2\/food\/cafe_","suffix":".png"},"primary":"true"}],"verified":"false","restricted":"true","stats":{"checkinsCount":"177","usersCount":"71","tipCount":"8"},"specials":{"count":"0"},"hereNow":{"count":"0"},"referralId":"v-1392478056"},{"id":"5151c606e4b0be643bb7ddb4","name":"Stock Shop","location":{"lat":"51.49928061348848","lng":"-0.11851665319165595","distance":"49","cc":"GB","country":"United Kingdom"},"categories":[{"id":"4bf58dd8d48988d102951735","name":"Accessories Store","pluralName":"Accessories Stores","shortName":"Accessories","icon":{"prefix":"https:\/\/ss1.4sqi.net\/img\/categories_v2\/shops\/apparel_accessories_","suffix":".png"},"primary":"true"}],"verified":"false","restricted":"true","stats":{"checkinsCount":"11","usersCount":"1","tipCount":"0"},"specials":{"count":"0"},"hereNow":{"count":"0"},"referralId":"v-1392478056"},{"id":"512cd9d4e4b01674103b844c","name":"Premier Inn","location":{"address":"85 York Road","crossStreet":"Waterloo Bridge","lat":"51.50179119867206","lng":"-0.11651711412981546","distance":"292","postalCode":"SE1","cc":"GB","city":"London","state":"Greater London","country":"United Kingdom"},"categories":[{"id":"4bf58dd8d48988d1fa931735","name":"Hotel","pluralName":"Hotels","shortName":"Hotel","icon":{"prefix":"https:\/\/ss1.4sqi.net\/img\/categories_v2\/travel\/hotel_","suffix":".png"},"primary":"true"}],"verified":"false","restricted":"true","stats":{"checkinsCount":"335","usersCount":"149","tipCount":"6"},"specials":{"count":"0"},"hereNow":{"count":"0"},"referralId":"v-1392478056"},{"id":"4ae6ece5f964a5208ba721e3","name":"Walrus Social","location":{"address":"140 Lower Marsh","lat":"51.49992596305386","lng":"-0.11454927342263861","distance":"236","cc":"GB","city":"London","state":"Greater London","country":"United Kingdom"},"categories":[{"id":"4bf58dd8d48988d11b941735","name":"Pub","pluralName":"Pubs","shortName":"Pub","icon":{"prefix":"https:\/\/ss1.4sqi.net\/img\/categories_v2\/nightlife\/pub_","suffix":".png"},"primary":"true"}],"verified":"false","restricted":"true","stats":{"checkinsCount":"580","usersCount":"379","tipCount":"7"},"specials":{"count":"0"},"hereNow":{"count":"0"},"referralId":"v-1392478056"},{"id":"4eaa68f37ee5cd8bcd7049dd","name":"Lambeth Wing","location":{"lat":"51.500132393655186","lng":"-0.11797978120478911","distance":"94","cc":"GB","country":"United Kingdom"},"categories":[{"id":"4bf58dd8d48988d196941735","name":"Hospital","pluralName":"Hospitals","shortName":"Hospital","icon":{"prefix":"https:\/\/ss1.4sqi.net\/img\/categories_v2\/building\/medical_hospital_","suffix":".png"},"primary":"true"}],"verified":"false","restricted":"true","stats":{"checkinsCount":"36","usersCount":"11","tipCount":"0"},"specials":{"count":"0"},"hereNow":{"count":"0"},"referralId":"v-1392478056"},{"id":"4fec74363d7c9b9c78e06941","name":"WHSmith","contact":{"phone":"+442079280793","formattedPhone":"+44 20 7928 0793","twitter":"whsmithcouk"},"location":{"address":"Basement Lambeth Wing","crossStreet":"St Thomas' Hospital","lat":"51.49928061348848","lng":"-0.11851665319165595","distance":"49","postalCode":"SE1 7EH","cc":"GB","city":"London","state":"Greater London","country":"United Kingdom"},"categories":[{"id":"4bf58dd8d48988d114951735","name":"Bookstore","pluralName":"Bookstores","shortName":"Bookstore","icon":{"prefix":"https:\/\/ss1.4sqi.net\/img\/categories_v2\/shops\/bookstore_","suffix":".png"},"primary":"true"}],"verified":"true","restricted":"true","stats":{"checkinsCount":"6","usersCount":"0","tipCount":"0"},"url":"http:\/\/www.whsmith.co.uk","specials":{"count":"0"},"hereNow":{"count":"0"},"storeId":"2587 St Thomas Hospital","referralId":"v-1392478056"},{"id":"51572891e4b08b1cda5756f4","name":"L' Italiano","location":{"lat":"51.501192152921206","lng":"-0.11613157831515684","distance":"241","cc":"GB","country":"United Kingdom"},"categories":[{"id":"4bf58dd8d48988d110941735","name":"Italian Restaurant","pluralName":"Italian Restaurants","shortName":"Italian","icon":{"prefix":"https:\/\/ss1.4sqi.net\/img\/categories_v2\/food\/italian_","suffix":".png"},"primary":"true"}],"verified":"false","restricted":"true","stats":{"checkinsCount":"51","usersCount":"42","tipCount":"0"},"specials":{"count":"0"},"hereNow":{"count":"0"},"referralId":"v-1392478056"},{"id":"4d8353bff9f3a1cde3a59d64","name":"espressamente illy coffee bar","contact":{"phone":"+442076207333","formattedPhone":"+44 20 7620 7333"},"location":{"address":"Park Plaza Westminster Bridge","lat":"51.500713708015425","lng":"-0.11692691952778642","distance":"169","postalCode":"SE1 7UT","cc":"GB","city":"London","state":"Greater London","country":"United Kingdom"},"categories":[{"id":"4bf58dd8d48988d1e0931735","name":"Coffee Shop","pluralName":"Coffee Shops","shortName":"Coffee Shop","icon":{"prefix":"https:\/\/ss1.4sqi.net\/img\/categories_v2\/food\/coffeeshop_","suffix":".png"},"primary":"true"}],"verified":"true","restricted":"true","stats":{"checkinsCount":"602","usersCount":"335","tipCount":"2"},"specials":{"count":"0"},"hereNow":{"count":"0"},"venuePage":{"id":"34898051"},"referralId":"v-1392478056"},{"id":"4bb47bfc49bdc9b610d00c10","name":"Bakery County Hall","location":{"address":"Belvedere Road","lat":"51.50116417449728","lng":"-0.11847310995032986","distance":"213","postalCode":"SE1 7PB","cc":"GB","city":"London","state":"Greater London","country":"United Kingdom"},"categories":[{"id":"4bf58dd8d48988d16d941735","name":"Caf\u00e9","pluralName":"Caf\u00e9s","shortName":"Caf\u00e9","icon":{"prefix":"https:\/\/ss1.4sqi.net\/img\/categories_v2\/food\/cafe_","suffix":".png"},"primary":"true"}],"verified":"false","restricted":"true","stats":{"checkinsCount":"396","usersCount":"307","tipCount":"23"},"specials":{"count":"0"},"hereNow":{"count":"0"},"referralId":"v-1392478056"},{"id":"4ae9a4b4f964a5207fb521e3","name":"Subway","contact":{"phone":"+442079281986","formattedPhone":"+44 20 7928 1986","twitter":"subwayukireland"},"location":{"address":"Unit 3A\/B Belvedere Rd.","crossStreet":"At County Hall","lat":"51.501497","lng":"-0.11827","distance":"247","postalCode":"SE1 7GP","cc":"GB","city":"Lambeth","state":"Greater London","country":"United Kingdom"},"categories":[{"id":"4bf58dd8d48988d1c5941735","name":"Sandwich Place","pluralName":"Sandwich Places","shortName":"Sandwiches","icon":{"prefix":"https:\/\/ss1.4sqi.net\/img\/categories_v2\/food\/sandwiches_","suffix":".png"},"primary":"true"}],"verified":"true","restricted":"true","stats":{"checkinsCount":"452","usersCount":"311","tipCount":"5"},"url":"http:\/\/www.subway.co.uk","specials":{"count":"0"},"hereNow":{"count":"0"},"storeId":"42224","referralId":"v-1392478056"},{"id":"527d62d111d23c9cc3883ec1","name":"EMU St Thomas'","location":{"lat":"51.49901","lng":"-0.118159","distance":"39","cc":"GB","country":"United Kingdom"},"categories":[{"id":"4bf58dd8d48988d196941735","name":"Hospital","pluralName":"Hospitals","shortName":"Hospital","icon":{"prefix":"https:\/\/ss1.4sqi.net\/img\/categories_v2\/building\/medical_hospital_","suffix":".png"},"primary":"true"}],"verified":"false","restricted":"true","stats":{"checkinsCount":"1","usersCount":"1","tipCount":"0"},"specials":{"count":"0"},"hereNow":{"count":"0"},"referralId":"v-1392478056"},{"id":"526a5feb11d284221381670d","name":"The Golden Joystick Awards","location":{"address":"Westminster Park Plaza","lat":"51.499235","lng":"-0.118416","distance":"42","cc":"GB","country":"United Kingdom"},"categories":[{"id":"4bf58dd8d48988d1e1931735","name":"Arcade","pluralName":"Arcades","shortName":"Arcade","icon":{"prefix":"https:\/\/ss1.4sqi.net\/img\/categories_v2\/arts_entertainment\/arcade_","suffix":".png"},"primary":"true"}],"verified":"false","restricted":"true","stats":{"checkinsCount":"1","usersCount":"1","tipCount":"0"},"specials":{"count":"0"},"hereNow":{"count":"0"},"referralId":"v-1392478056"},{"id":"5183920b498e6cbd97192009","name":"St. Thomas' Hospital Fracture Clinic","location":{"lat":"51.499102","lng":"-0.117252","distance":"43","cc":"GB","country":"United Kingdom"},"categories":[{"id":"4bf58dd8d48988d196941735","name":"Hospital","pluralName":"Hospitals","shortName":"Hospital","icon":{"prefix":"https:\/\/ss1.4sqi.net\/img\/categories_v2\/building\/medical_hospital_","suffix":".png"},"primary":"true"}],"verified":"false","restricted":"true","stats":{"checkinsCount":"1","usersCount":"1","tipCount":"0"},"specials":{"count":"0"},"hereNow":{"count":"0"},"referralId":"v-1392478056"}],"confident":"true"}}