{"meta":{"code":"200"},"response":{"venues":[{"id":"4c38274d18e72d7fe0ed17f5","name":"Gabor Hall","location":{"address":"Gabor Hall, Princes Gardens","lat":"51.499341911649196","lng":"-0.17271318469086896","distance":"8","postalCode":"SW7 1AZ","cc":"GB","city":"London","state":"Greater London","country":"United Kingdom"},"categories":[{"id":"4bf58dd8d48988d1a3941735","name":"College Residence Hall","pluralName":"College Residence Halls","shortName":"Residence Hall","icon":{"prefix":"https:\/\/ss1.4sqi.net\/img\/categories_v2\/education\/residencehall_","suffix":".png"},"primary":"true"}],"verified":"false","restricted":"true","stats":{"checkinsCount":"248","usersCount":"41","tipCount":"2"},"specials":{"count":"0"},"hereNow":{"count":"0"},"referralId":"v-1392478050"},{"id":"4b882d9ef964a52058e531e3","name":"Eastside Bar","contact":{"phone":"+442075945438","formattedPhone":"+44 20 7594 5438"},"location":{"address":"Prince's Gardens","lat":"51.499092339358185","lng":"-0.17228364944458008","distance":"42","postalCode":"SW7 1BU","cc":"GB","city":"London","state":"Greater London","country":"United Kingdom"},"categories":[{"id":"4bf58dd8d48988d116941735","name":"Bar","pluralName":"Bars","shortName":"Bar","icon":{"prefix":"https:\/\/ss1.4sqi.net\/img\/categories_v2\/nightlife\/bar_","suffix":".png"},"primary":"true"}],"verified":"false","restricted":"true","stats":{"checkinsCount":"741","usersCount":"307","tipCount":"10"},"specials":{"count":"0"},"hereNow":{"count":"0"},"referralId":"v-1392478050"},{"id":"4bc4d797b492d13a27a6aa60","name":"Ethos Gym","contact":{"phone":"+442075948964","formattedPhone":"+44 20 7594 8964"},"location":{"address":"7 Princes Gardens","crossStreet":"off Exhibition Road","lat":"51.49939289293945","lng":"-0.17365694046020508","distance":"60","postalCode":"SW7 2AZ","cc":"GB","city":"London","state":"Greater London","country":"United Kingdom"},"categories":[{"id":"4bf58dd8d48988d1b2941735","name":"College Gym","pluralName":"College Gyms","shortName":"Gym","icon":{"prefix":"https:\/\/ss1.4sqi.net\/img\/categories_v2\/building\/gym_","suffix":".png"},"primary":"true"}],"verified":"false","restricted":"true","stats":{"checkinsCount":"1503","usersCount":"235","tipCount":"5"},"specials":{"count":"0"},"hereNow":{"count":"0"},"referralId":"v-1392478050"},{"id":"4c07cdba271dc9b69a602b9a","name":"Princes' Gardens","location":{"address":"Princes Gardens","lat":"51.499146135891486","lng":"-0.17279170707677885","distance":"15","cc":"GB","city":"London","state":"Greater London","country":"United Kingdom"},"categories":[{"id":"4bf58dd8d48988d1aa941735","name":"College Quad","pluralName":"College Quads","shortName":"Quad","icon":{"prefix":"https:\/\/ss1.4sqi.net\/img\/categories_v2\/education\/quad_","suffix":".png"},"primary":"true"}],"verified":"false","restricted":"true","stats":{"checkinsCount":"838","usersCount":"262","tipCount":"0"},"specials":{"count":"0"},"hereNow":{"count":"0"},"referralId":"v-1392478050"},{"id":"4cb0b55eef1b3704c7443d00","name":"Linstead hall","location":{"lat":"51.49898799023903","lng":"-0.17252665250244986","distance":"38","cc":"GB","city":"London","state":"Greater London","country":"United Kingdom"},"categories":[{"id":"4bf58dd8d48988d1a3941735","name":"College Residence Hall","pluralName":"College Residence Halls","shortName":"Residence Hall","icon":{"prefix":"https:\/\/ss1.4sqi.net\/img\/categories_v2\/education\/residencehall_","suffix":".png"},"primary":"true"}],"verified":"false","restricted":"true","stats":{"checkinsCount":"350","usersCount":"37","tipCount":"1"},"specials":{"count":"0"},"hereNow":{"count":"0"},"referralId":"v-1392478050"},{"id":"4be5d6287e2a76b0dad81c9b","name":"Imperial College Business School","contact":{"phone":"+442075895111","formattedPhone":"+44 20 7589 5111"},"location":{"address":"Imperial College London","crossStreet":"Exhibition Rd","lat":"51.49939289293945","lng":"-0.174407958984375","distance":"111","postalCode":"SW7 2AZ","cc":"GB","city":"London","state":"Greater London","country":"United Kingdom"},"categories":[{"id":"4bf58dd8d48988d198941735","name":"College Academic Building","pluralName":"College Academic Buildings","shortName":"Academic Building","icon":{"prefix":"https:\/\/ss1.4sqi.net\/img\/categories_v2\/education\/academicbuilding_","suffix":".png"},"primary":"true"}],"verified":"false","restricted":"true","stats":{"checkinsCount":"2297","usersCount":"656","tipCount":"7"},"specials":{"count":"0"},"hereNow":{"count":"0"},"referralId":"v-1392478050"},{"id":"51517d93e4b0bc4fb415cf28","name":"Imperial College London","location":{"lat":"51.49891860617233","lng":"-0.17426489356364144","distance":"109","cc":"GB","country":"United Kingdom"},"categories":[{"id":"4bf58dd8d48988d19e941735","name":"College Engineering Building","pluralName":"College Engineering Buildings","shortName":"Engineering","icon":{"prefix":"https:\/\/ss1.4sqi.net\/img\/categories_v2\/education\/collegeacademicbuildings_engineering_","suffix":".png"},"primary":"true"}],"verified":"false","restricted":"true","stats":{"checkinsCount":"310","usersCount":"200","tipCount":"0"},"specials":{"count":"0"},"hereNow":{"count":"0"},"referralId":"v-1392478050"},{"id":"4ac518d3f964a52065a720e3","name":"Goethe Institute","location":{"address":"50, Princes Gate","lat":"51.49944241748852","lng":"-0.17411087676292786","distance":"92","postalCode":"SW7 2PH","cc":"GB","city":"London","state":"Greater London","country":"United Kingdom"},"categories":[{"id":"4bf58dd8d48988d190941735","name":"History Museum","pluralName":"History Museums","shortName":"History Museum","icon":{"prefix":"https:\/\/ss1.4sqi.net\/img\/categories_v2\/arts_entertainment\/museum_history_","suffix":".png"},"primary":"true"}],"verified":"false","restricted":"true","stats":{"checkinsCount":"422","usersCount":"105","tipCount":"1"},"specials":{"count":"0"},"hereNow":{"count":"0"},"referralId":"v-1392478050"},{"id":"4ccfe4fd1ac7a1cdf5fc1592","name":"Imperial College Health Centre","contact":{"phone":"+442075846301","formattedPhone":"+44 20 7584 6301"},"location":{"address":"40 Prince's Gardens","crossStreet":"off Exhibition Rd","lat":"51.498927029458216","lng":"-0.173124017310021","distance":"46","postalCode":"SW7 1LY","cc":"GB","city":"London","state":"Greater London","country":"United Kingdom"},"categories":[{"id":"4bf58dd8d48988d177941735","name":"Doctor's Office","pluralName":"Doctor's Offices","shortName":"Doctor's Office","icon":{"prefix":"https:\/\/ss1.4sqi.net\/img\/categories_v2\/building\/medical_doctorsoffice_","suffix":".png"},"primary":"true"}],"verified":"false","restricted":"true","stats":{"checkinsCount":"120","usersCount":"44","tipCount":"0"},"specials":{"count":"0"},"hereNow":{"count":"0"},"referralId":"v-1392478050"},{"id":"4ccfca576449a093fdacc6cf","name":"Essentials","location":{"address":"Prince's Gardens","lat":"51.49969431956846","lng":"-0.17274980996708328","distance":"45","postalCode":"SW7 1","cc":"GB","city":"London","state":"Greater London","country":"United Kingdom"},"categories":[{"id":"4bf58dd8d48988d118951735","name":"Grocery Store","pluralName":"Grocery Stores","shortName":"Grocery Store","icon":{"prefix":"https:\/\/ss1.4sqi.net\/img\/categories_v2\/shops\/food_grocery_","suffix":".png"},"primary":"true"}],"verified":"false","restricted":"true","stats":{"checkinsCount":"78","usersCount":"27","tipCount":"1"},"specials":{"count":"0"},"hereNow":{"count":"0"},"referralId":"v-1392478050"},{"id":"4ac518f7f964a52098af20e3","name":"Imperial College Sports Centre","location":{"address":"7 Princes Gardens","lat":"51.499813043027885","lng":"-0.17338964461074066","distance":"71","postalCode":"SW7 1NA","cc":"GB","city":"London","state":"Greater London","country":"United Kingdom"},"categories":[{"id":"4bf58dd8d48988d1b2941735","name":"College Gym","pluralName":"College Gyms","shortName":"Gym","icon":{"prefix":"https:\/\/ss1.4sqi.net\/img\/categories_v2\/building\/gym_","suffix":".png"},"primary":"true"}],"verified":"false","restricted":"true","stats":{"checkinsCount":"95","usersCount":"40","tipCount":"0"},"specials":{"count":"0"},"hereNow":{"count":"0"},"referralId":"v-1392478050"},{"id":"4e7745781838f9188aa174a7","name":"Ognisko - Polish Club","contact":{"phone":"+442075894635","formattedPhone":"+44 20 7589 4635"},"location":{"address":"55 Exhibition Road","lat":"51.499052190608516","lng":"-0.17429588320552566","distance":"106","postalCode":"SW7 2PN","cc":"GB","city":"London","state":"Greater London","country":"United Kingdom"},"categories":[{"id":"4bf58dd8d48988d1c4941735","name":"Restaurant","pluralName":"Restaurants","shortName":"Restaurant","icon":{"prefix":"https:\/\/ss1.4sqi.net\/img\/categories_v2\/food\/default_","suffix":".png"},"primary":"true"}],"verified":"false","restricted":"true","stats":{"checkinsCount":"96","usersCount":"82","tipCount":"2"},"url":"http:\/\/www.ogniskorestaurant.co.uk","menu":{"type":"Menu","label":"Menu","anchor":"View Menu","url":"https:\/\/foursquare.com\/v\/ognisko--polish-club\/4e7745781838f9188aa174a7\/menu","mobileUrl":"https:\/\/foursquare.com\/v\/4e7745781838f9188aa174a7\/device_menu"},"specials":{"count":"0"},"hereNow":{"count":"0"},"referralId":"v-1392478050"},{"id":"50ec3140e4b087294ca8adbb","name":"Princess Garden 13","location":{"lat":"51.49918248235972","lng":"-0.1728726751113022","distance":"12","cc":"GB","city":"London","state":"Greater London","country":"United Kingdom"},"categories":[{"id":"4bf58dd8d48988d1a0941735","name":"College Classroom","pluralName":"College Classrooms","shortName":"Classroom","icon":{"prefix":"https:\/\/ss1.4sqi.net\/img\/categories_v2\/education\/classroom_","suffix":".png"},"primary":"true"}],"verified":"false","restricted":"true","stats":{"checkinsCount":"13","usersCount":"2","tipCount":"0"},"specials":{"count":"0"},"hereNow":{"count":"0"},"referralId":"v-1392478050"},{"id":"5189c283abd81cf626f16c39","name":"Sport Imperial","contact":{"phone":"+442075949527","formattedPhone":"+44 20 7594 9527"},"location":{"address":"Level 3, Sherfield Building","lat":"51.49916580819443","lng":"-0.17258405685424805","distance":"20","postalCode":"SW7 2AZ","cc":"GB","city":"South Kensington Campus","state":"Greater London","country":"United Kingdom"},"categories":[{"id":"4bf58dd8d48988d1b2941735","name":"College Gym","pluralName":"College Gyms","shortName":"Gym","icon":{"prefix":"https:\/\/ss1.4sqi.net\/img\/categories_v2\/building\/gym_","suffix":".png"},"primary":"true"}],"verified":"false","restricted":"true","stats":{"checkinsCount":"0","usersCount":"0","tipCount":"0"},"specials":{"count":"0"},"hereNow":{"count":"0"},"referralId":"v-1392478050"},{"id":"5077f085e4b08aa6bd57259c","name":"Mechanical Engineering Lecture Hall 220","location":{"lat":"51.49878","lng":"-0.174388","distance":"123","cc":"GB","country":"United Kingdom"},"categories":[{"id":"4bf58dd8d48988d1a0941735","name":"College Classroom","pluralName":"College Classrooms","shortName":"Classroom","icon":{"prefix":"https:\/\/ss1.4sqi.net\/img\/categories_v2\/education\/classroom_","suffix":".png"},"primary":"true"}],"verified":"false","restricted":"true","stats":{"checkinsCount":"77","usersCount":"10","tipCount":"0"},"specials":{"count":"0"},"hereNow":{"count":"0"},"referralId":"v-1392478050"},{"id":"4c3af232def90f47eb15fd2d","name":"UAE Embassy","contact":{"phone":"+442075811281","formattedPhone":"+44 20 7581 1281"},"location":{"lat":"51.49993847954314","lng":"-0.17417835790730546","distance":"119","postalCode":"SW7 1PT","cc":"GB","city":"London","state":"Greater London","country":"United Kingdom"},"categories":[{"id":"4bf58dd8d48988d126941735","name":"Government Building","pluralName":"Government Buildings","shortName":"Government","icon":{"prefix":"https:\/\/ss1.4sqi.net\/img\/categories_v2\/building\/government_","suffix":".png"},"primary":"true"}],"verified":"false","restricted":"true","stats":{"checkinsCount":"164","usersCount":"56","tipCount":"0"},"specials":{"count":"0"},"hereNow":{"count":"0"},"referralId":"v-1392478050"},{"id":"524c51a111d29a3190a5e9d7","name":"Imperial College Business School @ 53 Prince's Gate","contact":{"twitter":"imperialbiz"},"location":{"address":"53 Prince's Gate","lat":"51.49929938759321","lng":"-0.17413437366485596","distance":"92","postalCode":"SW7 2PH","cc":"GB","city":"London","state":"Greater London","country":"United Kingdom"},"categories":[{"id":"4bf58dd8d48988d1ae941735","name":"University","pluralName":"Universities","shortName":"University","icon":{"prefix":"https:\/\/ss1.4sqi.net\/img\/categories_v2\/education\/default_","suffix":".png"},"primary":"true"}],"verified":"false","restricted":"true","stats":{"checkinsCount":"16","usersCount":"3","tipCount":"0"},"specials":{"count":"0"},"hereNow":{"count":"0"},"referralId":"v-1392478050"},{"id":"508ff5b6e4b0d71be2c1242d","name":"Mechanical Engineering Level 6","location":{"lat":"51.498794","lng":"-0.174336","distance":"119","cc":"GB","country":"United Kingdom"},"categories":[{"id":"4bf58dd8d48988d19e941735","name":"College Engineering Building","pluralName":"College Engineering Buildings","shortName":"Engineering","icon":{"prefix":"https:\/\/ss1.4sqi.net\/img\/categories_v2\/education\/collegeacademicbuildings_engineering_","suffix":".png"},"primary":"true"}],"verified":"false","restricted":"true","stats":{"checkinsCount":"34","usersCount":"5","tipCount":"0"},"specials":{"count":"0"},"hereNow":{"count":"0"},"referralId":"v-1392478050"},{"id":"5015243ae4b07ac9f23ddbf0","name":"Bleecker St. Burger","contact":{"phone":"+447712540501","formattedPhone":"+44 7712 540501","twitter":"bleeckerburger"},"location":{"address":"Moving Target!","lat":"51.499967","lng":"-0.174322","distance":"129","cc":"GB","city":"London","state":"Greater London","country":"United Kingdom"},"categories":[{"id":"4bf58dd8d48988d1cb941735","name":"Food Truck","pluralName":"Food Trucks","shortName":"Food Truck","icon":{"prefix":"https:\/\/ss1.4sqi.net\/img\/categories_v2\/food\/streetfood_","suffix":".png"},"primary":"true"}],"verified":"false","restricted":"true","stats":{"checkinsCount":"12","usersCount":"11","tipCount":"3"},"url":"http:\/\/www.bleeckerburger.co.uk","menu":{"type":"Menu","label":"Menu","anchor":"View Menu","url":"https:\/\/foursquare.com\/v\/bleecker-st-burger\/5015243ae4b07ac9f23ddbf0\/menu","mobileUrl":"https:\/\/foursquare.com\/v\/5015243ae4b07ac9f23ddbf0\/device_menu"},"specials":{"count":"0"},"hereNow":{"count":"0"},"referralId":"v-1392478050"},{"id":"4d454297bbb1a14312705072","name":"The Church of Jesus Christ of Latter-day Saints","location":{"address":"64-68 Exhibition Road","lat":"51.49801366962905","lng":"-0.1738286018371582","distance":"158","postalCode":"SW7 2PA","cc":"GB","city":"Kensington","state":"Greater London","country":"United Kingdom"},"categories":[{"id":"4bf58dd8d48988d13a941735","name":"Temple","pluralName":"Temples","shortName":"Temple","icon":{"prefix":"https:\/\/ss1.4sqi.net\/img\/categories_v2\/building\/religious_temple_","suffix":".png"},"primary":"true"}],"verified":"false","restricted":"true","stats":{"checkinsCount":"143","usersCount":"79","tipCount":"1"},"specials":{"count":"0"},"hereNow":{"count":"0"},"referralId":"v-1392478050"},{"id":"52970279498ec799cfddb58c","name":"Subway","location":{"lat":"51.49811299491506","lng":"-0.1742505425827206","distance":"164","cc":"GB","country":"United Kingdom"},"categories":[{"id":"4bf58dd8d48988d1c5941735","name":"Sandwich Place","pluralName":"Sandwich Places","shortName":"Sandwiches","icon":{"prefix":"https:\/\/ss1.4sqi.net\/img\/categories_v2\/food\/sandwiches_","suffix":".png"},"primary":"true"}],"verified":"false","restricted":"true","stats":{"checkinsCount":"4","usersCount":"4","tipCount":"0"},"specials":{"count":"0"},"hereNow":{"count":"0"},"referralId":"v-1392478050"},{"id":"4cfcda3a2d80a1438a6453d8","name":"1st floor Kitchen","location":{"address":"Linstead hall","lat":"51.49896696666667","lng":"-0.17287992","distance":"36","postalCode":"SW7","cc":"GB","city":"Kensington","state":"Greater London","country":"United Kingdom"},"categories":[{"id":"4bf58dd8d48988d1a3941735","name":"College Residence Hall","pluralName":"College Residence Halls","shortName":"Residence Hall","icon":{"prefix":"https:\/\/ss1.4sqi.net\/img\/categories_v2\/education\/residencehall_","suffix":".png"},"primary":"true"}],"verified":"false","restricted":"true","stats":{"checkinsCount":"29","usersCount":"2","tipCount":"0"},"specials":{"count":"0"},"hereNow":{"count":"0"},"referralId":"v-1392478050"},{"id":"4ddf4efeb0fbefa198c29b75","name":"Imperial College Dental Centre","contact":{"phone":"+442075896623","formattedPhone":"+44 20 7589 6623"},"location":{"address":"Watt's Way Princess Gardens","lat":"51.49887399756747","lng":"-0.17344008034420488","distance":"63","postalCode":"SW7 1NA","cc":"GB","city":"London","state":"Greater London","country":"United Kingdom"},"categories":[{"id":"4bf58dd8d48988d178941735","name":"Dentist's Office","pluralName":"Dentist's Offices","shortName":"Dentist's Office","icon":{"prefix":"https:\/\/ss1.4sqi.net\/img\/categories_v2\/building\/medical_dentist_","suffix":".png"},"primary":"true"}],"verified":"false","restricted":"true","stats":{"checkinsCount":"52","usersCount":"25","tipCount":"1"},"specials":{"count":"0"},"hereNow":{"count":"0"},"referralId":"v-1392478050"},{"id":"4c54af34728920a19def2583","name":"Pepperdine","location":{"address":"56 Princes Gate","crossStreet":"Exhibition Rd","lat":"51.498903457120626","lng":"-0.17431327838039176","distance":"113","cc":"GB","city":"London","state":"Greater London","country":"United Kingdom"},"categories":[{"id":"4bf58dd8d48988d1ae941735","name":"University","pluralName":"Universities","shortName":"University","icon":{"prefix":"https:\/\/ss1.4sqi.net\/img\/categories_v2\/education\/default_","suffix":".png"},"primary":"true"}],"verified":"false","restricted":"true","stats":{"checkinsCount":"71","usersCount":"20","tipCount":"1"},"specials":{"count":"0"},"hereNow":{"count":"0"},"referralId":"v-1392478050"},{"id":"4d07d15214b737047522d750","name":"Southside Social Space","location":{"lat":"51.49892556251536","lng":"-0.17308938915337113","distance":"45","cc":"GB","city":"Kensington","state":"Greater London","country":"United Kingdom"},"categories":[{"id":"4bf58dd8d48988d163941735","name":"Park","pluralName":"Parks","shortName":"Park","icon":{"prefix":"https:\/\/ss1.4sqi.net\/img\/categories_v2\/parks_outdoors\/park_","suffix":".png"},"primary":"true"}],"verified":"false","restricted":"true","stats":{"checkinsCount":"5","usersCount":"5","tipCount":"0"},"specials":{"count":"0"},"hereNow":{"count":"0"},"referralId":"v-1392478050"},{"id":"4cf6119b64e3721eac181fc8","name":"Wilkinson Hall","location":{"lat":"51.499619","lng":"-0.172464","distance":"43","cc":"GB","city":"London","state":"Greater London","country":"United Kingdom"},"categories":[{"id":"4bf58dd8d48988d1a3941735","name":"College Residence Hall","pluralName":"College Residence Halls","shortName":"Residence Hall","icon":{"prefix":"https:\/\/ss1.4sqi.net\/img\/categories_v2\/education\/residencehall_","suffix":".png"},"primary":"true"}],"verified":"false","restricted":"true","stats":{"checkinsCount":"144","usersCount":"31","tipCount":"0"},"specials":{"count":"0"},"hereNow":{"count":"0"},"referralId":"v-1392478050"},{"id":"5134822be4b0fb5190695641","name":"Computer Lab","location":{"address":"Imperial College Road","lat":"51.498826","lng":"-0.172778","distance":"51","cc":"GB","country":"United Kingdom"},"categories":[{"id":"4bf58dd8d48988d1a5941735","name":"College Lab","pluralName":"College Labs","shortName":"Lab","icon":{"prefix":"https:\/\/ss1.4sqi.net\/img\/categories_v2\/education\/lab_","suffix":".png"},"primary":"true"}],"verified":"false","restricted":"true","stats":{"checkinsCount":"1","usersCount":"1","tipCount":"0"},"specials":{"count":"0"},"hereNow":{"count":"0"},"referralId":"v-1392478050"},{"id":"4c0e062ac700c9b6c339a3dd","name":"Imperial Innovations","location":{"lat":"51.4991802346402","lng":"-0.1743950869326037","distance":"110","cc":"GB","country":"United Kingdom"},"categories":[{"id":"4bf58dd8d48988d198941735","name":"College Academic Building","pluralName":"College Academic Buildings","shortName":"Academic Building","icon":{"prefix":"https:\/\/ss1.4sqi.net\/img\/categories_v2\/education\/academicbuilding_","suffix":".png"},"primary":"true"}],"verified":"false","restricted":"true","stats":{"checkinsCount":"32","usersCount":"19","tipCount":"0"},"specials":{"count":"0"},"hereNow":{"count":"0"},"referralId":"v-1392478050"},{"id":"4dbaef3e4b222080d36ae0a1","name":"Tizard Hall, Princes Gardens","location":{"lat":"51.49892633920259","lng":"-0.17268192041922414","distance":"41","cc":"GB","city":"Kensington","state":"Greater London","country":"United Kingdom"},"categories":[{"id":"4bf58dd8d48988d1a3941735","name":"College Residence Hall","pluralName":"College Residence Halls","shortName":"Residence Hall","icon":{"prefix":"https:\/\/ss1.4sqi.net\/img\/categories_v2\/education\/residencehall_","suffix":".png"},"primary":"true"}],"verified":"false","restricted":"true","stats":{"checkinsCount":"180","usersCount":"21","tipCount":"3"},"specials":{"count":"0"},"hereNow":{"count":"0"},"referralId":"v-1392478050"},{"id":"4bbc9e178a4fb7133ee43b9d","name":"Falmouth Hall","location":{"address":"Prince's Gardens","crossStreet":"Off Exhibition Road","lat":"51.498805141862064","lng":"-0.1732492446899414","distance":"62","postalCode":"SW7 1BA","cc":"GB","city":"London","state":"Greater London","country":"United Kingdom"},"categories":[{"id":"4bf58dd8d48988d1a3941735","name":"College Residence Hall","pluralName":"College Residence Halls","shortName":"Residence Hall","icon":{"prefix":"https:\/\/ss1.4sqi.net\/img\/categories_v2\/education\/residencehall_","suffix":".png"},"primary":"true"}],"verified":"false","restricted":"true","stats":{"checkinsCount":"260","usersCount":"32","tipCount":"2"},"specials":{"count":"0"},"hereNow":{"count":"0"},"referralId":"v-1392478050"}],"confident":"true"}}