{"meta":{"code":"200"},"response":{"venues":[{"id":"4de688cad4c09fc98b81b6f4","name":"The Windsor Castle","contact":{"phone":"+442078347260","formattedPhone":"+44 20 7834 7260"},"location":{"address":"23 Francis St.","crossStreet":"btwn Ambrosden Ave. & Thirleby Rd.","lat":"51.49533","lng":"-0.138015","distance":"116","postalCode":"SW1P 1DN","cc":"GB","city":"Victoria","state":"Greater London","country":"United Kingdom"},"categories":[{"id":"4bf58dd8d48988d11b941735","name":"Pub","pluralName":"Pubs","shortName":"Pub","icon":{"prefix":"https:\/\/ss1.4sqi.net\/img\/categories_v2\/nightlife\/pub_","suffix":".png"},"primary":"true"}],"verified":"false","restricted":"true","stats":{"checkinsCount":"864","usersCount":"477","tipCount":"11"},"specials":{"count":"0"},"hereNow":{"count":"0"},"referralId":"v-1392478067"},{"id":"52d850d3498e30bf89fac0b4","name":"Vincent Square Mansions","location":{"lat":"51.49333295143454","lng":"-0.13730173616399297","distance":"111","cc":"GB","country":"United Kingdom"},"categories":[{"id":"4d954b06a243a5684965b473","name":"Residential Building (Apartment \/ Condo)","pluralName":"Residential Buildings (Apartments \/ Condos)","shortName":"Residential","icon":{"prefix":"https:\/\/ss1.4sqi.net\/img\/categories_v2\/building\/apartment_","suffix":".png"},"primary":"true"}],"verified":"false","restricted":"true","stats":{"checkinsCount":"26","usersCount":"1","tipCount":"0"},"specials":{"count":"0"},"hereNow":{"count":"0"},"referralId":"v-1392478067"},{"id":"4b61dbc2f964a52082272ae3","name":"The Jugged Hare","contact":{"phone":"+442078281543","formattedPhone":"+44 20 7828 1543"},"location":{"address":"172 Vauxhall Bridge Rd","crossStreet":"at Warwick Way","lat":"51.49299","lng":"-0.138372","distance":"149","postalCode":"SW1V 1DX","cc":"GB","city":"London","state":"Greater London","country":"United Kingdom"},"categories":[{"id":"4bf58dd8d48988d11b941735","name":"Pub","pluralName":"Pubs","shortName":"Pub","icon":{"prefix":"https:\/\/ss1.4sqi.net\/img\/categories_v2\/nightlife\/pub_","suffix":".png"},"primary":"true"}],"verified":"false","restricted":"true","stats":{"checkinsCount":"533","usersCount":"394","tipCount":"11"},"url":"http:\/\/www.juggedharevictoria.co.uk","menu":{"type":"Menu","label":"Menu","anchor":"View Menu","url":"https:\/\/foursquare.com\/v\/the-jugged-hare\/4b61dbc2f964a52082272ae3\/menu","mobileUrl":"https:\/\/foursquare.com\/v\/4b61dbc2f964a52082272ae3\/device_menu"},"specials":{"count":"0"},"hereNow":{"count":"1","groups":[{"type":"others","name":"Other people here","count":"1"}]},"referralId":"v-1392478067"},{"id":"4fb521abe4b0fbb02db1667e","name":"Gustoso Ristorante & Enoteca","contact":{"phone":"+442078345778","formattedPhone":"+44 20 7834 5778","twitter":"gustosorist","facebook":"420814277956240"},"location":{"address":"35 Willow Place","crossStreet":"Rochester Row","lat":"51.49360869591882","lng":"-0.1384628230380172","distance":"88","postalCode":"SW1P 1JH","cc":"GB","city":"London","state":"Greater London","country":"United Kingdom"},"categories":[{"id":"4bf58dd8d48988d110941735","name":"Italian Restaurant","pluralName":"Italian Restaurants","shortName":"Italian","icon":{"prefix":"https:\/\/ss1.4sqi.net\/img\/categories_v2\/food\/italian_","suffix":".png"},"primary":"true"}],"verified":"true","restricted":"true","stats":{"checkinsCount":"123","usersCount":"75","tipCount":"2"},"url":"http:\/\/www.ristorantegustoso.co.uk","reservations":{"url":"http:\/\/www.toptable.co.uk\/single.aspx?rid=83725&ref=9601"},"menu":{"type":"Menu","label":"Menu","anchor":"View Menu","url":"https:\/\/foursquare.com\/v\/gustoso-ristorante--enoteca\/4fb521abe4b0fbb02db1667e\/menu","mobileUrl":"https:\/\/foursquare.com\/v\/4fb521abe4b0fbb02db1667e\/device_menu"},"specials":{"count":"0"},"hereNow":{"count":"0"},"venuePage":{"id":"37707391"},"storeId":"","referralId":"v-1392478067"},{"id":"4b882c8ff964a52004e531e3","name":"Grange Rochester Hotel","contact":{"phone":"+442078286611","formattedPhone":"+44 20 7828 6611","twitter":"grangehotels","facebook":"1407377219476804"},"location":{"address":"69 Vincent Square","lat":"51.49413481813229","lng":"-0.1363646878296125","distance":"101","postalCode":"SW1P 2PA","cc":"GB","city":"London","state":"Greater London","country":"United Kingdom"},"categories":[{"id":"4bf58dd8d48988d1fa931735","name":"Hotel","pluralName":"Hotels","shortName":"Hotel","icon":{"prefix":"https:\/\/ss1.4sqi.net\/img\/categories_v2\/travel\/hotel_","suffix":".png"},"primary":"true"}],"verified":"true","restricted":"true","stats":{"checkinsCount":"475","usersCount":"179","tipCount":"7"},"specials":{"count":"0"},"hereNow":{"count":"0"},"storeId":"","referralId":"v-1392478067"},{"id":"4d4b3af218c96ea80a4c9e28","name":"68 Vincent Square","location":{"address":"Vincent Square","lat":"51.49356871437797","lng":"-0.13750246545410924","distance":"82","cc":"GB","city":"London","state":"Greater London","country":"United Kingdom"},"categories":[{"id":"4d954b06a243a5684965b473","name":"Residential Building (Apartment \/ Condo)","pluralName":"Residential Buildings (Apartments \/ Condos)","shortName":"Residential","icon":{"prefix":"https:\/\/ss1.4sqi.net\/img\/categories_v2\/building\/apartment_","suffix":".png"},"primary":"true"}],"verified":"false","restricted":"true","stats":{"checkinsCount":"67","usersCount":"26","tipCount":"0"},"specials":{"count":"0"},"hereNow":{"count":"0"},"referralId":"v-1392478067"},{"id":"4bcf48880ffdce72bd58b2c0","name":"Grange Wellington Hotel","contact":{"twitter":"grangehotels","facebook":"1407377219476804"},"location":{"address":"71\/72 Vincent Square","lat":"51.49464255628691","lng":"-0.13607823851884276","distance":"125","cc":"GB","city":"London","state":"Greater London","country":"United Kingdom"},"categories":[{"id":"4bf58dd8d48988d1fa931735","name":"Hotel","pluralName":"Hotels","shortName":"Hotel","icon":{"prefix":"https:\/\/ss1.4sqi.net\/img\/categories_v2\/travel\/hotel_","suffix":".png"},"primary":"true"}],"verified":"true","restricted":"true","stats":{"checkinsCount":"140","usersCount":"82","tipCount":"7"},"specials":{"count":"0"},"hereNow":{"count":"0"},"referralId":"v-1392478067"},{"id":"4cbceb6676ad9c74913fe8cb","name":"Picante Mexican Grill","contact":{"phone":"+442078340027","formattedPhone":"+44 20 7834 0027","twitter":"picantegrill_uk"},"location":{"address":"18 Greencoat Row","lat":"51.49572976646165","lng":"-0.13680242079877555","distance":"174","postalCode":"SW1P 1PQ","cc":"GB","city":"City of Westminster","state":"Greater London","country":"United Kingdom"},"categories":[{"id":"4bf58dd8d48988d1c1941735","name":"Mexican Restaurant","pluralName":"Mexican Restaurants","shortName":"Mexican","icon":{"prefix":"https:\/\/ss1.4sqi.net\/img\/categories_v2\/food\/mexican_","suffix":".png"},"primary":"true"}],"verified":"true","restricted":"true","stats":{"checkinsCount":"1471","usersCount":"438","tipCount":"21"},"url":"https:\/\/www.facebook.com\/PicanteMexicanGrill?ref=hl","menu":{"type":"Menu","label":"Menu","anchor":"View Menu","url":"https:\/\/foursquare.com\/v\/picante-mexican-grill\/4cbceb6676ad9c74913fe8cb\/menu","mobileUrl":"https:\/\/foursquare.com\/v\/4cbceb6676ad9c74913fe8cb\/device_menu"},"specials":{"count":"0"},"hereNow":{"count":"0"},"venuePage":{"id":"63144062"},"referralId":"v-1392478067"},{"id":"4c15e3f2b7b9c928219bad37","name":"Indian Diner","location":{"address":"54 rochester row","lat":"51.494701","lng":"-0.136665","distance":"91","postalCode":"Sw1p 1ju","cc":"GB","city":"London","state":"Greater London","country":"United Kingdom"},"categories":[{"id":"4bf58dd8d48988d10f941735","name":"Indian Restaurant","pluralName":"Indian Restaurants","shortName":"Indian","icon":{"prefix":"https:\/\/ss1.4sqi.net\/img\/categories_v2\/food\/indian_","suffix":".png"},"primary":"true"}],"verified":"false","restricted":"true","stats":{"checkinsCount":"98","usersCount":"78","tipCount":"1"},"specials":{"count":"0"},"hereNow":{"count":"0"},"referralId":"v-1392478067"},{"id":"4c986a172778224bb2f4a368","name":"Rochester Row","location":{"address":"Rochester Row","lat":"51.49487491875139","lng":"-0.13664680381116473","distance":"103","postalCode":"SW1P 2","cc":"GB","city":"London","state":"Greater London","country":"United Kingdom"},"categories":[{"id":"4bf58dd8d48988d124941735","name":"Office","pluralName":"Offices","shortName":"Office","icon":{"prefix":"https:\/\/ss1.4sqi.net\/img\/categories_v2\/building\/default_","suffix":".png"},"primary":"true"}],"verified":"false","restricted":"true","stats":{"checkinsCount":"92","usersCount":"41","tipCount":"0"},"specials":{"count":"0"},"hereNow":{"count":"0"},"referralId":"v-1392478067"},{"id":"4ad70babf964a520840821e3","name":"PRCA","contact":{"phone":"+442072336026","formattedPhone":"+44 20 7233 6026","twitter":"prca_uk"},"location":{"address":"Willow House, Willow Place","lat":"51.493515","lng":"-0.138256","distance":"91","postalCode":"SW1P 1JH","cc":"GB","city":"London","state":"Greater London","country":"United Kingdom"},"categories":[{"id":"4bf58dd8d48988d124941735","name":"Office","pluralName":"Offices","shortName":"Office","icon":{"prefix":"https:\/\/ss1.4sqi.net\/img\/categories_v2\/building\/default_","suffix":".png"},"primary":"true"}],"verified":"false","restricted":"true","stats":{"checkinsCount":"180","usersCount":"21","tipCount":"1"},"url":"http:\/\/www.prca.org.uk","specials":{"count":"0"},"hereNow":{"count":"0"},"referralId":"v-1392478067"},{"id":"4b1bad24f964a52093fc23e3","name":"The Queens Arms","contact":{"phone":"+442078343313","formattedPhone":"+44 20 7834 3313"},"location":{"address":"11 Warwick Way","crossStreet":"near Vauxhall Bridge Rd.","lat":"51.492611","lng":"-0.138972","distance":"203","postalCode":"SW1V 1QT","cc":"GB","city":"London","state":"Greater London","country":"United Kingdom"},"categories":[{"id":"4bf58dd8d48988d11b941735","name":"Pub","pluralName":"Pubs","shortName":"Pub","icon":{"prefix":"https:\/\/ss1.4sqi.net\/img\/categories_v2\/nightlife\/pub_","suffix":".png"},"primary":"true"}],"verified":"false","restricted":"true","stats":{"checkinsCount":"1047","usersCount":"629","tipCount":"11"},"specials":{"count":"0"},"hereNow":{"count":"0"},"referralId":"v-1392478067"},{"id":"511bee91e4b00262d9abc2d3","name":"The Rochester Pub","location":{"lat":"51.494204","lng":"-0.136754","distance":"73","cc":"GB","country":"United Kingdom"},"categories":[{"id":"4bf58dd8d48988d1c4941735","name":"Restaurant","pluralName":"Restaurants","shortName":"Restaurant","icon":{"prefix":"https:\/\/ss1.4sqi.net\/img\/categories_v2\/food\/default_","suffix":".png"},"primary":"true"}],"verified":"false","restricted":"true","stats":{"checkinsCount":"7","usersCount":"7","tipCount":"0"},"specials":{"count":"0"},"hereNow":{"count":"0"},"referralId":"v-1392478067"},{"id":"4c20f1ca4d4a20a1248b9b70","name":"Westminster Kingsway College","location":{"lat":"51.49476661206487","lng":"-0.1356206016723093","distance":"160","cc":"GB","country":"United Kingdom"},"categories":[{"id":"4bf58dd8d48988d198941735","name":"College Academic Building","pluralName":"College Academic Buildings","shortName":"Academic Building","icon":{"prefix":"https:\/\/ss1.4sqi.net\/img\/categories_v2\/education\/academicbuilding_","suffix":".png"},"primary":"true"}],"verified":"false","restricted":"true","stats":{"checkinsCount":"241","usersCount":"90","tipCount":"1"},"specials":{"count":"0"},"hereNow":{"count":"0"},"referralId":"v-1392478067"},{"id":"51de7a0f454a494f3ea44b0b","name":"110 Rochester Row - HFMA","contact":{"phone":"+442078282888","formattedPhone":"+44 20 7828 2888","twitter":"110rochesterrow"},"location":{"address":"110 Rochester Row","crossStreet":"Willow Row","lat":"51.49311128193031","lng":"-0.13783693226287141","distance":"131","postalCode":"SW1P 1JP","cc":"GB","city":"London","state":"Greater London","country":"United Kingdom"},"categories":[{"id":"4bf58dd8d48988d171941735","name":"Event Space","pluralName":"Event Spaces","shortName":"Event Space","icon":{"prefix":"https:\/\/ss1.4sqi.net\/img\/categories_v2\/building\/eventspace_","suffix":".png"},"primary":"true"}],"verified":"true","restricted":"true","stats":{"checkinsCount":"19","usersCount":"9","tipCount":"3"},"url":"http:\/\/www.110rochesterrow.co.uk","specials":{"count":"0"},"hereNow":{"count":"0"},"venuePage":{"id":"66840405"},"storeId":"","referralId":"v-1392478067"},{"id":"4f9870dee4b00292d58d9b9f","name":"Belle Cour Hotel & Spa","location":{"address":"4 Upper Tachbrook Street","lat":"51.49357121324511","lng":"-0.13963877284940007","distance":"150","cc":"GB","city":"London","state":"Greater London","country":"United Kingdom"},"categories":[{"id":"4bf58dd8d48988d1fa931735","name":"Hotel","pluralName":"Hotels","shortName":"Hotel","icon":{"prefix":"https:\/\/ss1.4sqi.net\/img\/categories_v2\/travel\/hotel_","suffix":".png"},"primary":"true"}],"verified":"false","restricted":"true","stats":{"checkinsCount":"81","usersCount":"26","tipCount":"2"},"specials":{"count":"0"},"hereNow":{"count":"0"},"referralId":"v-1392478067"},{"id":"5293114011d2c28e566aea0d","name":"Premiere Inn Breakfast Room","location":{"lat":"51.494407653808594","lng":"-0.13733039796352386","distance":"35","cc":"GB","country":"United Kingdom"},"categories":[{"id":"4bf58dd8d48988d143941735","name":"Breakfast Spot","pluralName":"Breakfast Spots","shortName":"Breakfast","icon":{"prefix":"https:\/\/ss1.4sqi.net\/img\/categories_v2\/food\/breakfast_","suffix":".png"},"primary":"true"}],"verified":"false","restricted":"true","stats":{"checkinsCount":"1","usersCount":"1","tipCount":"0"},"specials":{"count":"0"},"hereNow":{"count":"0"},"referralId":"v-1392478067"},{"id":"4b8b8672f964a520d2a132e3","name":"Victoria Medical Centre","location":{"address":"29 Upper Tachbrook St.","lat":"51.492715803230425","lng":"-0.1384638028457761","distance":"181","postalCode":"SW1V 1SN","cc":"GB","city":"London","state":"Greater London","country":"United Kingdom"},"categories":[{"id":"4bf58dd8d48988d177941735","name":"Doctor's Office","pluralName":"Doctor's Offices","shortName":"Doctor's Office","icon":{"prefix":"https:\/\/ss1.4sqi.net\/img\/categories_v2\/building\/medical_doctorsoffice_","suffix":".png"},"primary":"true"}],"verified":"false","restricted":"true","stats":{"checkinsCount":"177","usersCount":"26","tipCount":"1"},"specials":{"count":"0"},"hereNow":{"count":"0"},"referralId":"v-1392478067"},{"id":"4cb6e9c89c7ba35d04f49406","name":"The Vincent Rooms","contact":{"phone":"+442078028391","formattedPhone":"+44 20 7802 8391","twitter":"thevincentrooms"},"location":{"address":"Westminster Kingsway College","crossStreet":"76 Vincent Sq","lat":"51.494730558049476","lng":"-0.13572952768602561","distance":"151","postalCode":"SW1P 2PD","cc":"GB","city":"London","state":"Greater London","country":"United Kingdom"},"categories":[{"id":"4bf58dd8d48988d1c4941735","name":"Restaurant","pluralName":"Restaurants","shortName":"Restaurant","icon":{"prefix":"https:\/\/ss1.4sqi.net\/img\/categories_v2\/food\/default_","suffix":".png"},"primary":"true"}],"verified":"false","restricted":"true","stats":{"checkinsCount":"73","usersCount":"49","tipCount":"3"},"url":"http:\/\/www.westking.ac.uk\/The_vincent_rooms\/index.html","menu":{"type":"Menu","label":"Menu","anchor":"View Menu","url":"https:\/\/foursquare.com\/v\/the-vincent-rooms\/4cb6e9c89c7ba35d04f49406\/menu","mobileUrl":"https:\/\/foursquare.com\/v\/4cb6e9c89c7ba35d04f49406\/device_menu"},"specials":{"count":"0"},"hereNow":{"count":"0"},"referralId":"v-1392478067"},{"id":"4cdbd5255aeda1cdf10dbf11","name":"Barclays","contact":{"phone":"+448457555555","formattedPhone":"+44 845 755 5555"},"location":{"address":"1 Churton St.","crossStreet":"Vauxhall Bridge Rd.","lat":"51.49282033577651","lng":"-0.13818740844726562","distance":"165","postalCode":"SW1V 2JX","cc":"GB","city":"London","state":"Greater London","country":"United Kingdom"},"categories":[{"id":"4bf58dd8d48988d10a951735","name":"Bank","pluralName":"Banks","shortName":"Bank","icon":{"prefix":"https:\/\/ss1.4sqi.net\/img\/categories_v2\/shops\/financial_","suffix":".png"},"primary":"true"}],"verified":"false","restricted":"true","stats":{"checkinsCount":"48","usersCount":"21","tipCount":"0"},"url":"http:\/\/www.barclays.co.uk","specials":{"count":"0"},"hereNow":{"count":"0"},"referralId":"v-1392478067"},{"id":"50cb56f9e4b04e1f37557d52","name":"chocolate Hotel","location":{"lat":"51.495731353759766","lng":"-0.1374845951795578","distance":"162","cc":"GB","country":"United Kingdom"},"categories":[{"id":"4bf58dd8d48988d1d0941735","name":"Dessert Shop","pluralName":"Dessert Shops","shortName":"Desserts","icon":{"prefix":"https:\/\/ss1.4sqi.net\/img\/categories_v2\/food\/dessert_","suffix":".png"},"primary":"true"}],"verified":"false","restricted":"true","stats":{"checkinsCount":"2","usersCount":"2","tipCount":"1"},"specials":{"count":"0"},"hereNow":{"count":"0"},"referralId":"v-1392478067"},{"id":"4c07cbb0da13c92813fe6b02","name":"Girl's Day School Trust","location":{"address":"100 Rochester Row","lat":"51.49323105811923","lng":"-0.137739","distance":"117","postalCode":"SW1P 1","cc":"GB","city":"London","state":"Greater London","country":"United Kingdom"},"categories":[{"id":"4bf58dd8d48988d198941735","name":"College Academic Building","pluralName":"College Academic Buildings","shortName":"Academic Building","icon":{"prefix":"https:\/\/ss1.4sqi.net\/img\/categories_v2\/education\/academicbuilding_","suffix":".png"},"primary":"true"}],"verified":"false","restricted":"true","stats":{"checkinsCount":"5","usersCount":"5","tipCount":"0"},"specials":{"count":"0"},"hereNow":{"count":"0"},"referralId":"v-1392478067"},{"id":"4eba7debb80366dce60b1b07","name":"SOE Offices","location":{"address":"22 Greencoat Place","lat":"51.494723050023254","lng":"-0.13779071611057192","distance":"48","cc":"GB","country":"United Kingdom"},"categories":[{"id":"4bf58dd8d48988d124941735","name":"Office","pluralName":"Offices","shortName":"Office","icon":{"prefix":"https:\/\/ss1.4sqi.net\/img\/categories_v2\/building\/default_","suffix":".png"},"primary":"true"}],"verified":"false","restricted":"true","stats":{"checkinsCount":"4","usersCount":"4","tipCount":"0"},"specials":{"count":"0"},"hereNow":{"count":"0"},"referralId":"v-1392478067"},{"id":"528a4333498e34939caf379d","name":"Studio Ex Nihilo","location":{"address":"Greencoat House","crossStreet":"Francis Street","lat":"51.495759","lng":"-0.136975","distance":"173","postalCode":"SW1P 1DH","cc":"GB","city":"London","state":"Greater London","country":"United Kingdom"},"categories":[{"id":"4bf58dd8d48988d1d4941735","name":"Speakeasy","pluralName":"Speakeasies","shortName":"Speakeasy","icon":{"prefix":"https:\/\/ss1.4sqi.net\/img\/categories_v2\/nightlife\/secretbar_","suffix":".png"},"primary":"true"}],"verified":"false","restricted":"true","stats":{"checkinsCount":"13","usersCount":"2","tipCount":"0"},"specials":{"count":"0"},"hereNow":{"count":"0"},"referralId":"v-1392478067"},{"id":"52f63f3b498e96e29e54c085","name":"subway upper tachbrook street","location":{"lat":"51.493302","lng":"-0.139484","distance":"160","cc":"GB","country":"United Kingdom"},"categories":[{"id":"4bf58dd8d48988d146941735","name":"Deli \/ Bodega","pluralName":"Delis \/ Bodegas","shortName":"Deli \/ Bodega","icon":{"prefix":"https:\/\/ss1.4sqi.net\/img\/categories_v2\/food\/deli_","suffix":".png"},"primary":"true"}],"verified":"false","restricted":"true","stats":{"checkinsCount":"2","usersCount":"2","tipCount":"0"},"specials":{"count":"0"},"hereNow":{"count":"0"},"referralId":"v-1392478067"},{"id":"51520270e4b035c117520a4d","name":"Grange Rochester Brasserie","location":{"lat":"51.49423","lng":"-0.136825","distance":"68","cc":"GB","country":"United Kingdom"},"categories":[{"id":"4bf58dd8d48988d116941735","name":"Bar","pluralName":"Bars","shortName":"Bar","icon":{"prefix":"https:\/\/ss1.4sqi.net\/img\/categories_v2\/nightlife\/bar_","suffix":".png"},"primary":"true"}],"verified":"false","restricted":"true","stats":{"checkinsCount":"3","usersCount":"2","tipCount":"0"},"specials":{"count":"0"},"hereNow":{"count":"0"},"referralId":"v-1392478067"},{"id":"4d22f25abdd7a0934c6501cf","name":"Victoria Workplace","location":{"address":"Rochester Row","lat":"51.493872","lng":"-0.13711","distance":"66","postalCode":"SW1P 1","cc":"GB","city":"London","state":"Greater London","country":"United Kingdom"},"categories":[{"id":"4bf58dd8d48988d124941735","name":"Office","pluralName":"Offices","shortName":"Office","icon":{"prefix":"https:\/\/ss1.4sqi.net\/img\/categories_v2\/building\/default_","suffix":".png"},"primary":"true"}],"verified":"false","restricted":"true","stats":{"checkinsCount":"11","usersCount":"2","tipCount":"0"},"specials":{"count":"0"},"hereNow":{"count":"0"},"referralId":"v-1392478067"},{"id":"4ac518f3f964a520a3ae20e3","name":"Shepherds Bookbinders","location":{"address":"76 Rochester Row","lat":"51.493819","lng":"-0.1371318","distance":"70","postalCode":"SW1P 1JU","cc":"GB","city":"London","state":"Greater London","country":"United Kingdom"},"categories":[{"id":"4bf58dd8d48988d1ff941735","name":"Miscellaneous Shop","pluralName":"Miscellaneous Shops","shortName":"Shop","icon":{"prefix":"https:\/\/ss1.4sqi.net\/img\/categories_v2\/shops\/default_","suffix":".png"},"primary":"true"}],"verified":"false","restricted":"true","stats":{"checkinsCount":"6","usersCount":"6","tipCount":"1"},"specials":{"count":"0"},"hereNow":{"count":"0"},"referralId":"v-1392478067"},{"id":"5028db69067de1c8a8d1216c","name":"Colourstat","contact":{"phone":"+442076306364","formattedPhone":"+44 20 7630 6364"},"location":{"address":"68 Rochester Row, Westminster","lat":"51.49427653280656","lng":"-0.13679265975952148","distance":"70","postalCode":"SW1P 1JU","cc":"GB","city":"London","state":"Greater London","country":"United Kingdom"},"categories":[{"id":"4bf58dd8d48988d1f4941735","name":"Design Studio","pluralName":"Design Studios","shortName":"Design","icon":{"prefix":"https:\/\/ss1.4sqi.net\/img\/categories_v2\/shops\/design_","suffix":".png"},"primary":"true"}],"verified":"false","restricted":"true","stats":{"checkinsCount":"3","usersCount":"3","tipCount":"0"},"specials":{"count":"0"},"hereNow":{"count":"0"},"referralId":"v-1392478067"},{"id":"51c2c6ef498e2bd7fadc21f7","name":"Stillington Street","location":{"lat":"51.494788","lng":"-0.138418","distance":"70","cc":"GB","country":"United Kingdom"},"categories":[{"id":"4d954b06a243a5684965b473","name":"Residential Building (Apartment \/ Condo)","pluralName":"Residential Buildings (Apartments \/ Condos)","shortName":"Residential","icon":{"prefix":"https:\/\/ss1.4sqi.net\/img\/categories_v2\/building\/apartment_","suffix":".png"},"primary":"true"}],"verified":"false","restricted":"true","stats":{"checkinsCount":"1","usersCount":"1","tipCount":"1"},"specials":{"count":"0"},"hereNow":{"count":"0"},"referralId":"v-1392478067"}],"confident":"false"}}