{"meta":{"code":"200"},"response":{"venues":[{"id":"5187e675498ecf320ddc9f53","name":"millennium court","location":{"address":"264 Waterloo Road","lat":"51.499306668879754","lng":"-0.1074198526637578","distance":"26","postalCode":"se1 8rq","cc":"GB","city":"London","state":"Greater London","country":"United Kingdom"},"categories":[{"id":"4d954b06a243a5684965b473","name":"Residential Building (Apartment \/ Condo)","pluralName":"Residential Buildings (Apartments \/ Condos)","shortName":"Residential","icon":{"prefix":"https:\/\/ss1.4sqi.net\/img\/categories_v2\/building\/apartment_","suffix":".png"},"primary":"true"}],"verified":"false","restricted":"true","stats":{"checkinsCount":"43","usersCount":"15","tipCount":"0"},"specials":{"count":"0"},"hereNow":{"count":"0"},"referralId":"v-1392478057"},{"id":"5147ac5de4b038d05dd39b39","name":"Westminster Square","location":{"address":"Westminster Bridge Road","lat":"51.498872609871874","lng":"-0.10817067597311437","distance":"52","postalCode":"SE17UN","cc":"GB","city":"London","state":"Greater London","country":"United Kingdom"},"categories":[{"id":"4f2a210c4b9023bd5841ed28","name":"Housing Development","pluralName":"Housing Developments","shortName":"Housing Development","icon":{"prefix":"https:\/\/ss1.4sqi.net\/img\/categories_v2\/building\/housingdevelopment_","suffix":".png"},"primary":"true"}],"verified":"false","restricted":"true","stats":{"checkinsCount":"65","usersCount":"43","tipCount":"0"},"specials":{"count":"0"},"hereNow":{"count":"0"},"referralId":"v-1392478057"},{"id":"4c274bd7a852c9286afbe76c","name":"Travelodge","contact":{"phone":"+448719846291","formattedPhone":"+44 871 984 6291","twitter":"travelodgeuk"},"location":{"address":"195-203 Waterloo Rd.","lat":"51.50008749807709","lng":"-0.1075887680053711","distance":"90","postalCode":"SE1 8UX","cc":"GB","city":"London","state":"Greater London","country":"United Kingdom"},"categories":[{"id":"4bf58dd8d48988d1fa931735","name":"Hotel","pluralName":"Hotels","shortName":"Hotel","icon":{"prefix":"https:\/\/ss1.4sqi.net\/img\/categories_v2\/travel\/hotel_","suffix":".png"},"primary":"true"}],"verified":"false","restricted":"true","stats":{"checkinsCount":"966","usersCount":"428","tipCount":"17"},"specials":{"count":"0"},"hereNow":{"count":"0"},"referralId":"v-1392478057"},{"id":"4bf489502d6295216a236058","name":"H10 London Waterloo","contact":{"phone":"+442079284062","formattedPhone":"+44 20 7928 4062","twitter":"h10_hotels","facebook":"38755122291"},"location":{"address":"284-302 Waterloo Rd.","crossStreet":"Westminster Bridge Rd.","lat":"51.49871831435579","lng":"-0.10620743036270142","distance":"127","postalCode":"SE1 8RQ","cc":"GB","city":"London","state":"Greater London","country":"United Kingdom"},"categories":[{"id":"4bf58dd8d48988d1fa931735","name":"Hotel","pluralName":"Hotels","shortName":"Hotel","icon":{"prefix":"https:\/\/ss1.4sqi.net\/img\/categories_v2\/travel\/hotel_","suffix":".png"},"primary":"true"}],"verified":"true","restricted":"true","stats":{"checkinsCount":"1602","usersCount":"753","tipCount":"26"},"url":"http:\/\/www.hotelh10londonwaterloo.com","menu":{"type":"Menu","label":"Menu","anchor":"View Menu","url":"https:\/\/foursquare.com\/v\/h10-london-waterloo\/4bf489502d6295216a236058\/menu","mobileUrl":"https:\/\/foursquare.com\/v\/4bf489502d6295216a236058\/device_menu"},"specials":{"count":"0"},"hereNow":{"count":"0"},"storeId":"","referralId":"v-1392478057"},{"id":"4feae9c464a4fa28dce56e53","name":"The Gym London Waterloo","contact":{"phone":"+448443843280","formattedPhone":"+44 844 384 3280","twitter":"thegymgroup"},"location":{"address":"195-203 Waterloo Road","lat":"51.500848880008206","lng":"-0.10724544525146484","distance":"177","postalCode":"SE1 8UX","cc":"GB","city":"London","state":"Greater London","country":"United Kingdom"},"categories":[{"id":"4bf58dd8d48988d176941735","name":"Gym","pluralName":"Gyms","shortName":"Gym","icon":{"prefix":"https:\/\/ss1.4sqi.net\/img\/categories_v2\/building\/gym_","suffix":".png"},"primary":"true"}],"verified":"true","restricted":"true","stats":{"checkinsCount":"981","usersCount":"154","tipCount":"3"},"specials":{"count":"0"},"hereNow":{"count":"0"},"referralId":"v-1392478057"},{"id":"4c023878cbd876b0eb06f143","name":"St. George's Cathedral","location":{"address":"Westminster Bridge Rd.","lat":"51.49757618329838","lng":"-0.10737419128417969","distance":"192","postalCode":"SE1 7HY","cc":"GB","city":"Elephant & Castle","state":"Greater London","country":"United Kingdom"},"categories":[{"id":"4bf58dd8d48988d132941735","name":"Church","pluralName":"Churches","shortName":"Church","icon":{"prefix":"https:\/\/ss1.4sqi.net\/img\/categories_v2\/building\/religious_church_","suffix":".png"},"primary":"true"}],"verified":"false","restricted":"true","stats":{"checkinsCount":"644","usersCount":"165","tipCount":"0"},"specials":{"count":"0"},"hereNow":{"count":"1","groups":[{"type":"others","name":"Other people here","count":"1"}]},"referralId":"v-1392478057"},{"id":"4af49eaaf964a52066f421e3","name":"Masters Super Fish","location":{"address":"191 Waterloo Rd.","lat":"51.500544","lng":"-0.107877","distance":"139","postalCode":"SE1 8UX","cc":"GB","city":"Southwark","state":"Greater London","country":"United Kingdom"},"categories":[{"id":"4edd64a0c7ddd24ca188df1a","name":"Fish & Chips Shop","pluralName":"Fish & Chips Shops","shortName":"Fish & Chips","icon":{"prefix":"https:\/\/ss1.4sqi.net\/img\/categories_v2\/food\/fishandchips_","suffix":".png"},"primary":"true"}],"verified":"false","restricted":"true","stats":{"checkinsCount":"620","usersCount":"371","tipCount":"17"},"specials":{"count":"0"},"hereNow":{"count":"0"},"referralId":"v-1392478057"},{"id":"4c8fd5e8b6d1a143ddadbe0f","name":"McLaren House","contact":{"phone":"+442078157360","formattedPhone":"+44 20 7815 7360","twitter":"lsbu"},"location":{"address":"1 St George's Circus","lat":"51.49886134156335","lng":"-0.10542719337074258","distance":"171","postalCode":"SE1 0AP","cc":"GB","city":"London","state":"Greater London","country":"United Kingdom"},"categories":[{"id":"4bf58dd8d48988d1a3941735","name":"College Residence Hall","pluralName":"College Residence Halls","shortName":"Residence Hall","icon":{"prefix":"https:\/\/ss1.4sqi.net\/img\/categories_v2\/education\/residencehall_","suffix":".png"},"primary":"true"}],"verified":"false","restricted":"true","stats":{"checkinsCount":"1490","usersCount":"163","tipCount":"0"},"specials":{"count":"0"},"hereNow":{"count":"0"},"referralId":"v-1392478057"},{"id":"4ad3577cf964a520dee320e3","name":"Morley College","contact":{"phone":"+442079288501","formattedPhone":"+44 20 7928 8501"},"location":{"address":"61 Westminster Bridge Rd","crossStreet":"at King Edward Walk","lat":"51.498242408589434","lng":"-0.10988863533391152","distance":"185","postalCode":"SE17HT","cc":"GB","city":"London","state":"Greater London","country":"United Kingdom"},"categories":[{"id":"4bf58dd8d48988d1a2941735","name":"Community College","pluralName":"Community Colleges","shortName":"Community College","icon":{"prefix":"https:\/\/ss1.4sqi.net\/img\/categories_v2\/education\/communitycollege_","suffix":".png"},"primary":"true"}],"verified":"false","restricted":"true","stats":{"checkinsCount":"675","usersCount":"141","tipCount":"3"},"specials":{"count":"0"},"hereNow":{"count":"0"},"referralId":"v-1392478057"},{"id":"506026e6e4b0ccfa92a69af5","name":"Wellington Lodge","location":{"address":"270-280 Waterloo Road","lat":"51.499178854781356","lng":"-0.10678230992524469","distance":"71","postalCode":"SE1 8RQ","cc":"GB","city":"London","state":"Greater London","country":"United Kingdom"},"categories":[{"id":"4bf58dd8d48988d1a3941735","name":"College Residence Hall","pluralName":"College Residence Halls","shortName":"Residence Hall","icon":{"prefix":"https:\/\/ss1.4sqi.net\/img\/categories_v2\/education\/residencehall_","suffix":".png"},"primary":"true"}],"verified":"false","restricted":"true","stats":{"checkinsCount":"63","usersCount":"12","tipCount":"0"},"specials":{"count":"0"},"hereNow":{"count":"0"},"referralId":"v-1392478057"},{"id":"4df202dcd4c01ff6b2e5e7ee","name":"Flowers of the Forest","contact":{"phone":"+442079284445","formattedPhone":"+44 20 7928 4445"},"location":{"address":"14 Westminster Bridge Rd.","lat":"51.498751709570094","lng":"-0.1062154769897461","distance":"125","postalCode":"SE1 7QX","cc":"GB","country":"United Kingdom"},"categories":[{"id":"4bf58dd8d48988d11b941735","name":"Pub","pluralName":"Pubs","shortName":"Pub","icon":{"prefix":"https:\/\/ss1.4sqi.net\/img\/categories_v2\/nightlife\/pub_","suffix":".png"},"primary":"true"}],"verified":"false","restricted":"true","stats":{"checkinsCount":"148","usersCount":"46","tipCount":"2"},"specials":{"count":"0"},"hereNow":{"count":"0"},"referralId":"v-1392478057"},{"id":"4e9c0e3df5b9d59005277abb","name":"Groundwork London","location":{"lat":"51.49941302678895","lng":"-0.10901560056377078","distance":"85","cc":"GB","country":"United Kingdom"},"categories":[{"id":"4bf58dd8d48988d124941735","name":"Office","pluralName":"Offices","shortName":"Office","icon":{"prefix":"https:\/\/ss1.4sqi.net\/img\/categories_v2\/building\/default_","suffix":".png"},"primary":"true"}],"verified":"false","restricted":"true","stats":{"checkinsCount":"25","usersCount":"5","tipCount":"0"},"specials":{"count":"0"},"hereNow":{"count":"0"},"referralId":"v-1392478057"},{"id":"50db445ce4b0b7ab9da56962","name":"TfL Bus 1","contact":{"twitter":"tflbusalerts"},"location":{"address":"Moving Target!","lat":"51.49869827721546","lng":"-0.10591506958007812","distance":"146","cc":"GB","city":"London","state":"Greater London","country":"United Kingdom"},"categories":[{"id":"4bf58dd8d48988d12b951735","name":"Bus Line","pluralName":"Bus Lines","shortName":"Bus","icon":{"prefix":"https:\/\/ss1.4sqi.net\/img\/categories_v2\/travel\/busstation_","suffix":".png"},"primary":"true"}],"verified":"false","restricted":"true","stats":{"checkinsCount":"93","usersCount":"32","tipCount":"1"},"url":"http:\/\/tfl.gov.uk","specials":{"count":"0"},"hereNow":{"count":"0"},"referralId":"v-1392478057"},{"id":"4e80dfdb722e97ac52f0cc91","name":"302 Restaurant","contact":{"phone":"+442079284062","formattedPhone":"+44 20 7928 4062"},"location":{"address":"284 To 302 Waterloo Road","lat":"51.4988304512629","lng":"-0.10618496202904526","distance":"123","postalCode":"SE1 8RQ","cc":"GB","city":"London","state":"Greater London","country":"United Kingdom"},"categories":[{"id":"4bf58dd8d48988d1c4941735","name":"Restaurant","pluralName":"Restaurants","shortName":"Restaurant","icon":{"prefix":"https:\/\/ss1.4sqi.net\/img\/categories_v2\/food\/default_","suffix":".png"},"primary":"true"}],"verified":"false","restricted":"true","stats":{"checkinsCount":"74","usersCount":"39","tipCount":"1"},"reservations":{"url":"http:\/\/www.toptable.co.uk\/single.aspx?rid=63088&ref=9601"},"specials":{"count":"0"},"hereNow":{"count":"0"},"referralId":"v-1392478057"},{"id":"52f4bb43498ed99c74dd2227","name":"Ai Media UK","location":{"lat":"51.498328","lng":"-0.107731","distance":"107","cc":"GB","country":"United Kingdom"},"categories":[{"id":"4bf58dd8d48988d124941735","name":"Office","pluralName":"Offices","shortName":"Office","icon":{"prefix":"https:\/\/ss1.4sqi.net\/img\/categories_v2\/building\/default_","suffix":".png"},"primary":"true"}],"verified":"false","restricted":"true","stats":{"checkinsCount":"1","usersCount":"1","tipCount":"0"},"specials":{"count":"0"},"hereNow":{"count":"0"},"referralId":"v-1392478057"},{"id":"522461e111d219b375031b34","name":"Wolters Kluwer (UK) Ltd","location":{"address":"250 Waterloo Road","lat":"51.499749","lng":"-0.10731","distance":"61","cc":"GB","country":"United Kingdom"},"categories":[{"id":"4bf58dd8d48988d174941735","name":"Coworking Space","pluralName":"Coworking Spaces","shortName":"Coworking Space","icon":{"prefix":"https:\/\/ss1.4sqi.net\/img\/categories_v2\/building\/office_coworkingspace_","suffix":".png"},"primary":"true"}],"verified":"false","restricted":"true","stats":{"checkinsCount":"13","usersCount":"5","tipCount":"0"},"specials":{"count":"0"},"hereNow":{"count":"0"},"referralId":"v-1392478057"},{"id":"52d7d421498ed582c8a34b43","name":"Cleaning Services London","contact":{"phone":"+442037342987","formattedPhone":"+44 20 3734 2987"},"location":{"address":"4 Frazier St","lat":"51.49939289293945","lng":"-0.10833978652954102","distance":"38","postalCode":"SE1 7BG","cc":"GB","city":"London","state":"Greater London","country":"United Kingdom"},"categories":[{"id":"4bf58dd8d48988d174941735","name":"Coworking Space","pluralName":"Coworking Spaces","shortName":"Coworking Space","icon":{"prefix":"https:\/\/ss1.4sqi.net\/img\/categories_v2\/building\/office_coworkingspace_","suffix":".png"},"primary":"true"}],"verified":"false","restricted":"true","stats":{"checkinsCount":"0","usersCount":"0","tipCount":"0"},"specials":{"count":"0"},"hereNow":{"count":"0"},"referralId":"v-1392478057"},{"id":"4dcfbedf183899ddfaf3ba24","name":"Morley Gallery","contact":{"phone":"+442074501826","formattedPhone":"+44 20 7450 1826"},"location":{"address":"Westminster Bridge Rd.","crossStreet":"at King Edward Walk","lat":"51.498293594258215","lng":"-0.10958096262471953","distance":"165","postalCode":"SE1 7HT","cc":"GB","city":"Lambeth","state":"Greater London","country":"United Kingdom"},"categories":[{"id":"4bf58dd8d48988d171941735","name":"Event Space","pluralName":"Event Spaces","shortName":"Event Space","icon":{"prefix":"https:\/\/ss1.4sqi.net\/img\/categories_v2\/building\/eventspace_","suffix":".png"},"primary":"true"}],"verified":"false","restricted":"true","stats":{"checkinsCount":"25","usersCount":"10","tipCount":"0"},"url":"http:\/\/www.morleycollege.ac.uk\/morley_gallery","specials":{"count":"0"},"hereNow":{"count":"0"},"referralId":"v-1392478057"},{"id":"512fd69be4b0a002622f3317","name":"Pauls Kabouterhuis","location":{"lat":"51.49914","lng":"-0.108606","distance":"58","cc":"GB","country":"United Kingdom"},"categories":[{"id":"4d954b06a243a5684965b473","name":"Residential Building (Apartment \/ Condo)","pluralName":"Residential Buildings (Apartments \/ Condos)","shortName":"Residential","icon":{"prefix":"https:\/\/ss1.4sqi.net\/img\/categories_v2\/building\/apartment_","suffix":".png"},"primary":"true"}],"verified":"false","restricted":"true","stats":{"checkinsCount":"60","usersCount":"3","tipCount":"0"},"specials":{"count":"0"},"hereNow":{"count":"0"},"referralId":"v-1392478057"},{"id":"4e8c705b93adecfdb9654f5f","name":"Circus Lounge","contact":{"phone":"+442079284062","formattedPhone":"+44 20 7928 4062"},"location":{"address":"284 To 302 Waterloo Road","crossStreet":"Westminster Bridge Road","lat":"51.49876362668433","lng":"-0.10627612724826997","distance":"120","postalCode":"SE1 8RQ","cc":"GB","city":"London","state":"Greater London","country":"United Kingdom"},"categories":[{"id":"4bf58dd8d48988d11e941735","name":"Cocktail Bar","pluralName":"Cocktail Bars","shortName":"Cocktail","icon":{"prefix":"https:\/\/ss1.4sqi.net\/img\/categories_v2\/nightlife\/cocktails_","suffix":".png"},"primary":"true"}],"verified":"false","restricted":"true","stats":{"checkinsCount":"46","usersCount":"30","tipCount":"1"},"specials":{"count":"0"},"hereNow":{"count":"0"},"referralId":"v-1392478057"},{"id":"51cafb84498e5830fde72ea9","name":"Clearstream","location":{"address":"11 westferry circus","lat":"51.49914150214501","lng":"-0.10844617037244637","distance":"47","cc":"GB","city":"London","state":"Greater London","country":"United Kingdom"},"categories":[{"id":"4bf58dd8d48988d124941735","name":"Office","pluralName":"Offices","shortName":"Office","icon":{"prefix":"https:\/\/ss1.4sqi.net\/img\/categories_v2\/building\/default_","suffix":".png"},"primary":"true"}],"verified":"false","restricted":"true","stats":{"checkinsCount":"2","usersCount":"1","tipCount":"0"},"specials":{"count":"0"},"hereNow":{"count":"0"},"referralId":"v-1392478057"},{"id":"51e8cb3c498ebc5bd1cdc36e","name":"H10 London Waterloo Fitness Centre","location":{"address":"284-302 Waterloo Road","lat":"51.498805","lng":"-0.106163","distance":"125","cc":"GB","city":"London","state":"Greater London","country":"United Kingdom"},"categories":[{"id":"4bf58dd8d48988d176941735","name":"Gym","pluralName":"Gyms","shortName":"Gym","icon":{"prefix":"https:\/\/ss1.4sqi.net\/img\/categories_v2\/building\/gym_","suffix":".png"},"primary":"true"}],"verified":"false","restricted":"true","stats":{"checkinsCount":"8","usersCount":"4","tipCount":"0"},"specials":{"count":"0"},"hereNow":{"count":"0"},"referralId":"v-1392478057"},{"id":"4f5df37de4b0c5418cf96603","name":"Shaheen Tandori","location":{"address":"215 Waterloo Rd, London, Greater London SE1 8XH","lat":"51.5000815026761","lng":"-0.10749336218840776","distance":"90","postalCode":"SE1 8XH","cc":"GB","city":"London","state":"Greater London","country":"United Kingdom"},"categories":[{"id":"4bf58dd8d48988d10f941735","name":"Indian Restaurant","pluralName":"Indian Restaurants","shortName":"Indian","icon":{"prefix":"https:\/\/ss1.4sqi.net\/img\/categories_v2\/food\/indian_","suffix":".png"},"primary":"true"}],"verified":"false","restricted":"true","stats":{"checkinsCount":"18","usersCount":"14","tipCount":"1"},"menu":{"type":"Menu","label":"Menu","anchor":"View Menu","url":"https:\/\/foursquare.com\/v\/shaheen-tandori\/4f5df37de4b0c5418cf96603\/menu","mobileUrl":"https:\/\/foursquare.com\/v\/4f5df37de4b0c5418cf96603\/device_menu"},"specials":{"count":"0"},"hereNow":{"count":"0"},"referralId":"v-1392478057"},{"id":"4fc3a202e4b0ed7962a4a672","name":"Morley Tandoori","contact":{"phone":"+442074012970","formattedPhone":"+44 20 7401 2970"},"location":{"address":"69 Morley Street","lat":"51.49916458129883","lng":"-0.10859230160713196","distance":"56","postalCode":"SE1 7QZ","cc":"GB","city":"London","state":"Greater London","country":"United Kingdom"},"categories":[{"id":"4bf58dd8d48988d16e941735","name":"Fast Food Restaurant","pluralName":"Fast Food Restaurants","shortName":"Fast Food","icon":{"prefix":"https:\/\/ss1.4sqi.net\/img\/categories_v2\/food\/fastfood_","suffix":".png"},"primary":"true"}],"verified":"false","restricted":"true","stats":{"checkinsCount":"0","usersCount":"0","tipCount":"0"},"specials":{"count":"0"},"hereNow":{"count":"0"},"referralId":"v-1392478057"},{"id":"4d6644b6f75c3704cdc6d59a","name":"Mobisite.co.uk","contact":{"phone":"+442075931848","formattedPhone":"+44 20 7593 1848","twitter":"mobi_site"},"location":{"address":"Unit 1C The Chandlery","crossStreet":"50 Westminster Bridge Road","lat":"51.498965","lng":"-0.10844","distance":"57","postalCode":"SE1 7QY","cc":"GB","city":"London","state":"Greater London","country":"United Kingdom"},"categories":[{"id":"4bf58dd8d48988d125941735","name":"Tech Startup","pluralName":"Tech Startups","shortName":"Tech Startup","icon":{"prefix":"https:\/\/ss1.4sqi.net\/img\/categories_v2\/shops\/technology_","suffix":".png"},"primary":"true"}],"verified":"false","restricted":"true","stats":{"checkinsCount":"3","usersCount":"2","tipCount":"0"},"specials":{"count":"0"},"hereNow":{"count":"0"},"referralId":"v-1392478057"},{"id":"4c2c8b1f8ef52d7f2c0533ba","name":"The Chandlery","location":{"lat":"51.498982","lng":"-0.108345","distance":"50","cc":"GB","country":"United Kingdom"},"categories":[{"id":"4bf58dd8d48988d130941735","name":"Building","pluralName":"Buildings","shortName":"Building","icon":{"prefix":"https:\/\/ss1.4sqi.net\/img\/categories_v2\/building\/default_","suffix":".png"},"primary":"true"}],"verified":"false","restricted":"true","stats":{"checkinsCount":"114","usersCount":"22","tipCount":"0"},"specials":{"count":"0"},"hereNow":{"count":"0"},"referralId":"v-1392478057"},{"id":"4c3c71fba9509c743524395b","name":"Euston Digital","contact":{"phone":"+442075931835","formattedPhone":"+44 20 7593 1835","twitter":"eustondigital"},"location":{"address":"Unit 1C The Chandlery","crossStreet":"50 Westminster Road","lat":"51.498983","lng":"-0.10838762607902594","distance":"52","postalCode":"UK","cc":"GB","city":"SE1 7QY","state":"Greater London","country":"United Kingdom"},"categories":[{"id":"4bf58dd8d48988d125941735","name":"Tech Startup","pluralName":"Tech Startups","shortName":"Tech Startup","icon":{"prefix":"https:\/\/ss1.4sqi.net\/img\/categories_v2\/shops\/technology_","suffix":".png"},"primary":"true"}],"verified":"true","restricted":"true","stats":{"checkinsCount":"89","usersCount":"12","tipCount":"1"},"specials":{"count":"1","items":[{"id":"4c9b2e333bc3199cc9d1b662","type":"frequency","message":"Check in to Euston Digital 3 times and we'll give you \u00a375 of free Google AdWords advertising!","description":"Unlocked every 3 check-ins","icon":"frequency","title":"Loyalty Special","provider":"foursquare","redemption":"standard"}]},"hereNow":{"count":"0"},"referralId":"v-1392478057"},{"id":"4e0c89468877c535e46eb93d","name":"i-KOS London","location":{"lat":"51.498955","lng":"-0.108221","distance":"47","cc":"GB","city":"Camberwell","state":"Greater London","country":"United Kingdom"},"categories":[{"id":"4bf58dd8d48988d124941735","name":"Office","pluralName":"Offices","shortName":"Office","icon":{"prefix":"https:\/\/ss1.4sqi.net\/img\/categories_v2\/building\/default_","suffix":".png"},"primary":"true"}],"verified":"false","restricted":"true","stats":{"checkinsCount":"141","usersCount":"13","tipCount":"0"},"specials":{"count":"0"},"hereNow":{"count":"0"},"referralId":"v-1392478057"},{"id":"4acf3d9af964a520d7d220e3","name":"Nebulas Solutions Group","contact":{"phone":"+442076540080","formattedPhone":"+44 20 7654 0080","twitter":"nebulasgroup"},"location":{"address":"256 Waterloo Road","lat":"51.499678","lng":"-0.107132","distance":"63","postalCode":"SE1 8RF","cc":"GB","city":"London","state":"Greater London","country":"United Kingdom"},"categories":[{"id":"4bf58dd8d48988d124941735","name":"Office","pluralName":"Offices","shortName":"Office","icon":{"prefix":"https:\/\/ss1.4sqi.net\/img\/categories_v2\/building\/default_","suffix":".png"},"primary":"true"}],"verified":"false","restricted":"true","stats":{"checkinsCount":"13","usersCount":"9","tipCount":"0"},"url":"http:\/\/www.nebulas.co.uk","specials":{"count":"0"},"hereNow":{"count":"0"},"referralId":"v-1392478057"},{"id":"52ba6429498ecb500cf8cdea","name":"katyat's dreamflat","location":{"lat":"51.500813","lng":"-0.10758","distance":"170","cc":"GB","country":"United Kingdom"},"categories":[{"id":"5032891291d4c4b30a586d68","name":"Assisted Living","pluralName":"Assisted Living","shortName":"Assisted Living","icon":{"prefix":"https:\/\/ss1.4sqi.net\/img\/categories_v2\/building\/apartment_","suffix":".png"},"primary":"true"}],"verified":"false","restricted":"true","stats":{"checkinsCount":"2","usersCount":"1","tipCount":"0"},"specials":{"count":"0"},"hereNow":{"count":"0"},"referralId":"v-1392478057"}],"confident":"true"}}