{"meta":{"code":"200"},"response":{"venues":[{"id":"4ba66c6bf964a520f85039e3","name":"The Anglesea Arms","contact":{"phone":"+442073737960","formattedPhone":"+44 20 7373 7960"},"location":{"address":"15 Selwood Terrace","crossStreet":"Onslow Gardens","lat":"51.4901482936383","lng":"-0.17700433731079102","distance":"110","postalCode":"SW7 3QG","cc":"GB","city":"London","state":"Greater London","country":"United Kingdom"},"categories":[{"id":"4bf58dd8d48988d155941735","name":"Gastropub","pluralName":"Gastropubs","shortName":"Gastropub","icon":{"prefix":"https:\/\/ss1.4sqi.net\/img\/categories_v2\/food\/gastropub_","suffix":".png"},"primary":"true"}],"verified":"true","restricted":"true","stats":{"checkinsCount":"2229","usersCount":"1246","tipCount":"23"},"url":"http:\/\/www.angleseaarms.com","reservations":{"url":"http:\/\/www.toptable.co.uk\/single.aspx?rid=100467&ref=9601"},"menu":{"type":"Menu","label":"Menu","anchor":"View Menu","url":"https:\/\/foursquare.com\/v\/the-anglesea-arms\/4ba66c6bf964a520f85039e3\/menu","mobileUrl":"https:\/\/foursquare.com\/v\/4ba66c6bf964a520f85039e3\/device_menu"},"specials":{"count":"0"},"hereNow":{"count":"0"},"venuePage":{"id":"76093622"},"storeId":"","referralId":"v-1392478076"},{"id":"4dc1983d1f6e7441cf51b60c","name":"Evelyn Gardens","location":{"address":"Evelyn Gardens","lat":"51.48855904109658","lng":"-0.17924807634652817","distance":"128","postalCode":"SW7","cc":"GB","city":"Kensington","state":"Greater London","country":"United Kingdom"},"categories":[{"id":"4bf58dd8d48988d15a941735","name":"Garden","pluralName":"Gardens","shortName":"Garden","icon":{"prefix":"https:\/\/ss1.4sqi.net\/img\/categories_v2\/parks_outdoors\/garden_","suffix":".png"},"primary":"true"}],"verified":"false","restricted":"true","stats":{"checkinsCount":"787","usersCount":"131","tipCount":"2"},"specials":{"count":"0"},"hereNow":{"count":"0"},"referralId":"v-1392478076"},{"id":"4da193aa7ccc816e3e76557b","name":"St. Yeghiche's Armenian Church","location":{"lat":"51.48937839261524","lng":"-0.17778655737483903","distance":"10","cc":"GB","city":"Kensington","state":"Greater London","country":"United Kingdom"},"categories":[{"id":"4bf58dd8d48988d132941735","name":"Church","pluralName":"Churches","shortName":"Church","icon":{"prefix":"https:\/\/ss1.4sqi.net\/img\/categories_v2\/building\/religious_church_","suffix":".png"},"primary":"true"}],"verified":"false","restricted":"true","stats":{"checkinsCount":"18","usersCount":"13","tipCount":"0"},"specials":{"count":"0"},"hereNow":{"count":"0"},"referralId":"v-1392478076"},{"id":"4fd605d9e4b02bec73b04cbe","name":"Southwell Hall","location":{"address":"51-60 Evelyn Gardens","lat":"51.48826257742188","lng":"-0.17936376777376434","distance":"157","postalCode":"SW7 3BH","cc":"GB","city":"London","state":"Greater London","country":"United Kingdom"},"categories":[{"id":"4bf58dd8d48988d1a3941735","name":"College Residence Hall","pluralName":"College Residence Halls","shortName":"Residence Hall","icon":{"prefix":"https:\/\/ss1.4sqi.net\/img\/categories_v2\/education\/residencehall_","suffix":".png"},"primary":"true"}],"verified":"false","restricted":"true","stats":{"checkinsCount":"160","usersCount":"14","tipCount":"0"},"specials":{"count":"0"},"hereNow":{"count":"0"},"referralId":"v-1392478076"},{"id":"4b30ff6cf964a520ebfd24e3","name":"Sainsbury's Local","contact":{"phone":"+442073524137","formattedPhone":"+44 20 7352 4137"},"location":{"address":"295-297 Fulham Rd.","lat":"51.487458533917085","lng":"-0.17856025682958407","distance":"210","postalCode":"SW10 9PZ","cc":"GB","city":"Kensington","state":"Greater London","country":"United Kingdom"},"categories":[{"id":"4bf58dd8d48988d118951735","name":"Grocery Store","pluralName":"Grocery Stores","shortName":"Grocery Store","icon":{"prefix":"https:\/\/ss1.4sqi.net\/img\/categories_v2\/shops\/food_grocery_","suffix":".png"},"primary":"true"}],"verified":"false","restricted":"true","stats":{"checkinsCount":"626","usersCount":"127","tipCount":"1"},"specials":{"count":"0"},"hereNow":{"count":"0"},"referralId":"v-1392478076"},{"id":"4ac518daf964a520cda820e3","name":"Riccardo's","location":{"address":"126 Fulham Road","lat":"51.489006523021516","lng":"-0.17622709105136874","distance":"113","postalCode":"SW3 6HU","cc":"GB","city":"Chelsea","state":"Greater London","country":"United Kingdom"},"categories":[{"id":"4bf58dd8d48988d110941735","name":"Italian Restaurant","pluralName":"Italian Restaurants","shortName":"Italian","icon":{"prefix":"https:\/\/ss1.4sqi.net\/img\/categories_v2\/food\/italian_","suffix":".png"},"primary":"true"}],"verified":"false","restricted":"true","stats":{"checkinsCount":"296","usersCount":"153","tipCount":"9"},"url":"http:\/\/www.riccardos-italian-restaurant.co.uk","reservations":{"url":"http:\/\/www.toptable.co.uk\/single.aspx?rid=96828&ref=9601"},"menu":{"type":"Menu","label":"Menu","anchor":"View Menu","url":"https:\/\/foursquare.com\/v\/riccardos\/4ac518daf964a520cda820e3\/menu","mobileUrl":"https:\/\/foursquare.com\/v\/4ac518daf964a520cda820e3\/device_menu"},"specials":{"count":"0"},"hereNow":{"count":"0"},"referralId":"v-1392478076"},{"id":"524c3d2911d248adef436546","name":"Green kitchen!","location":{"address":"56 Evelyn Gardens","crossStreet":"Southwell hall, basement","lat":"51.488093767322106","lng":"-0.17943094060036058","distance":"174","cc":"GB","city":"London","state":"Greater London","country":"United Kingdom"},"categories":[{"id":"4bf58dd8d48988d147941735","name":"Diner","pluralName":"Diners","shortName":"Diner","icon":{"prefix":"https:\/\/ss1.4sqi.net\/img\/categories_v2\/food\/diner_","suffix":".png"},"primary":"true"}],"verified":"false","restricted":"true","stats":{"checkinsCount":"102","usersCount":"4","tipCount":"0"},"specials":{"count":"0"},"hereNow":{"count":"0"},"referralId":"v-1392478076"},{"id":"4f4ba41fe4b0eddb54694f34","name":"Lomax","location":{"lat":"51.48742757298705","lng":"-0.17869776378306593","distance":"216","cc":"GB","country":"United Kingdom"},"categories":[{"id":"4bf58dd8d48988d175941735","name":"Gym \/ Fitness Center","pluralName":"Gyms or Fitness Centers","shortName":"Gym \/ Fitness","icon":{"prefix":"https:\/\/ss1.4sqi.net\/img\/categories_v2\/building\/gym_","suffix":".png"},"primary":"true"}],"verified":"false","restricted":"true","stats":{"checkinsCount":"174","usersCount":"42","tipCount":"3"},"specials":{"count":"0"},"hereNow":{"count":"0"},"referralId":"v-1392478076"},{"id":"4ac518b5f964a5209da020e3","name":"Blakes","location":{"address":"33 Roland Gardens","lat":"51.489274","lng":"-0.180209","distance":"166","postalCode":"SW7 3PF","cc":"GB","city":"London","state":"Greater London","country":"United Kingdom"},"categories":[{"id":"4bf58dd8d48988d1fa931735","name":"Hotel","pluralName":"Hotels","shortName":"Hotel","icon":{"prefix":"https:\/\/ss1.4sqi.net\/img\/categories_v2\/travel\/hotel_","suffix":".png"},"primary":"true"}],"verified":"false","restricted":"true","stats":{"checkinsCount":"468","usersCount":"290","tipCount":"18"},"specials":{"count":"0"},"hereNow":{"count":"0"},"referralId":"v-1392478076"},{"id":"4bbf7dfdf8219c74d110b010","name":"Marks & Spencer Simply Food","contact":{"phone":"+442073526073","formattedPhone":"+44 20 7352 6073"},"location":{"address":"289-291 Fulham Rd.","lat":"51.48745849902427","lng":"-0.17868654024821895","distance":"212","postalCode":"SW10 9PZ","cc":"GB","city":"Chelsea","state":"Greater London","country":"United Kingdom"},"categories":[{"id":"4bf58dd8d48988d118951735","name":"Grocery Store","pluralName":"Grocery Stores","shortName":"Grocery Store","icon":{"prefix":"https:\/\/ss1.4sqi.net\/img\/categories_v2\/shops\/food_grocery_","suffix":".png"},"primary":"true"}],"verified":"false","restricted":"true","stats":{"checkinsCount":"577","usersCount":"110","tipCount":"0"},"specials":{"count":"0"},"hereNow":{"count":"0"},"referralId":"v-1392478076"},{"id":"5199ca11498edf67bee2ac0b","name":"Pascucci Bio","location":{"address":"285 Fulham Road","crossStreet":"Beaufort St","lat":"51.487428","lng":"-0.178595","distance":"214","cc":"GB","city":"London","state":"Greater London","country":"United Kingdom"},"categories":[{"id":"4bf58dd8d48988d16d941735","name":"Caf\u00e9","pluralName":"Caf\u00e9s","shortName":"Caf\u00e9","icon":{"prefix":"https:\/\/ss1.4sqi.net\/img\/categories_v2\/food\/cafe_","suffix":".png"},"primary":"true"}],"verified":"false","restricted":"true","stats":{"checkinsCount":"161","usersCount":"28","tipCount":"3"},"specials":{"count":"0"},"hereNow":{"count":"0"},"referralId":"v-1392478076"},{"id":"4b589899f964a520516028e3","name":"The Flower Stall at the Queen's Elm","location":{"address":"Fulham Road","crossStreet":"Old Church St \/ Queen's Elm Parade \/ Selwood Place","lat":"51.48927984622253","lng":"-0.17563104629516602","distance":"150","postalCode":"SW3","cc":"GB","city":"London","state":"Greater London","country":"United Kingdom"},"categories":[{"id":"4bf58dd8d48988d11b951735","name":"Flower Shop","pluralName":"Flower Shops","shortName":"Flower Shop","icon":{"prefix":"https:\/\/ss1.4sqi.net\/img\/categories_v2\/shops\/flowershop_","suffix":".png"},"primary":"true"}],"verified":"false","restricted":"true","stats":{"checkinsCount":"449","usersCount":"57","tipCount":"4"},"specials":{"count":"0"},"hereNow":{"count":"0"},"referralId":"v-1392478076"},{"id":"52fe9610498e5a194e43d998","name":"Marco's Ice Castle","location":{"lat":"51.488474","lng":"-0.178936","distance":"119","cc":"GB","country":"United Kingdom"},"categories":[{"id":"4bf58dd8d48988d181941735","name":"Museum","pluralName":"Museums","shortName":"Museum","icon":{"prefix":"https:\/\/ss1.4sqi.net\/img\/categories_v2\/arts_entertainment\/museum_","suffix":".png"},"primary":"true"}],"verified":"false","restricted":"true","stats":{"checkinsCount":"2","usersCount":"2","tipCount":"0"},"specials":{"count":"0"},"hereNow":{"count":"0"},"referralId":"v-1392478076"},{"id":"4b72ac43f964a52036832de3","name":"Lucio","contact":{"phone":"+442078233007","formattedPhone":"+44 20 7823 3007"},"location":{"address":"257 Fulham Road","crossStreet":"Elm Place","lat":"51.48903262628809","lng":"-0.17609477147284072","distance":"121","postalCode":"WC2H 9HA","cc":"GB","city":"Kensington","state":"Greater London","country":"United Kingdom"},"categories":[{"id":"4bf58dd8d48988d110941735","name":"Italian Restaurant","pluralName":"Italian Restaurants","shortName":"Italian","icon":{"prefix":"https:\/\/ss1.4sqi.net\/img\/categories_v2\/food\/italian_","suffix":".png"},"primary":"true"}],"verified":"false","restricted":"true","stats":{"checkinsCount":"138","usersCount":"68","tipCount":"2"},"url":"http:\/\/www.luciorestaurant.com\u200e","specials":{"count":"0"},"hereNow":{"count":"0"},"referralId":"v-1392478076"},{"id":"4f05929c9adf79d8735389d5","name":"TfL - Barclays Cycle Hire - South Parade","location":{"address":"South Parade","crossStreet":"Ok Church Street","lat":"51.48871006560194","lng":"-0.17563880416088226","distance":"163","postalCode":"SW3","cc":"GB","country":"United Kingdom"},"categories":[{"id":"4e4c9077bd41f78e849722f9","name":"Bike Rental \/ Bike Share","pluralName":"Bike Rentals \/ Bike Shares","shortName":"Bike","icon":{"prefix":"https:\/\/ss1.4sqi.net\/img\/categories_v2\/shops\/bikeshop_","suffix":".png"},"primary":"true"}],"verified":"false","restricted":"true","stats":{"checkinsCount":"308","usersCount":"24","tipCount":"0"},"specials":{"count":"0"},"hereNow":{"count":"0"},"referralId":"v-1392478076"},{"id":"50a4a05ee4b0d699ca7c343c","name":"William Hill","contact":{"phone":"+448705181715","formattedPhone":"+44 870 518 1715","twitter":"williamhillplc"},"location":{"address":"412 Kings Rd","lat":"51.487445","lng":"-0.178652","distance":"213","postalCode":"SW10 0LJ","cc":"GB","city":"Chelsea","state":"Greater London","country":"United Kingdom"},"categories":[{"id":"52f2ab2ebcbc57f1066b8b40","name":"Betting Shop","pluralName":"Betting Shops","shortName":"Betting Shop","icon":{"prefix":"https:\/\/ss1.4sqi.net\/img\/categories_v2\/shops\/financial_","suffix":".png"},"primary":"true"}],"verified":"false","restricted":"true","stats":{"checkinsCount":"127","usersCount":"8","tipCount":"0"},"url":"http:\/\/www.williamhill.com","specials":{"count":"0"},"hereNow":{"count":"0"},"referralId":"v-1392478076"},{"id":"4bd2e7cc41b9ef3b24d9fee5","name":"Chelsea Square","location":{"address":"Chelsea Square","crossStreet":"South Parade","lat":"51.48865848807795","lng":"-0.17546715856386377","distance":"176","postalCode":"SW3","cc":"GB","city":"Kensington & Chelsea","state":"Greater London","country":"United Kingdom"},"categories":[{"id":"4bf58dd8d48988d164941735","name":"Plaza","pluralName":"Plazas","shortName":"Plaza","icon":{"prefix":"https:\/\/ss1.4sqi.net\/img\/categories_v2\/parks_outdoors\/plaza_","suffix":".png"},"primary":"true"}],"verified":"false","restricted":"true","stats":{"checkinsCount":"290","usersCount":"77","tipCount":"1"},"specials":{"count":"0"},"hereNow":{"count":"0"},"referralId":"v-1392478076"},{"id":"4f4cc389e4b05b49b3f7d2f4","name":"Mr Light","location":{"lat":"51.48769994755603","lng":"-0.17843535110622138","distance":"182","cc":"GB","country":"United Kingdom"},"categories":[{"id":"4bf58dd8d48988d1f8941735","name":"Furniture \/ Home Store","pluralName":"Furniture \/ Home Stores","shortName":"Furniture \/ Home","icon":{"prefix":"https:\/\/ss1.4sqi.net\/img\/categories_v2\/shops\/furniture_","suffix":".png"},"primary":"true"}],"verified":"false","restricted":"true","stats":{"checkinsCount":"43","usersCount":"4","tipCount":"0"},"specials":{"count":"0"},"hereNow":{"count":"0"},"referralId":"v-1392478076"},{"id":"4da4d3e4f7b1655826060ab5","name":"333","location":{"address":"333 Fulham Road","lat":"51.489014563545865","lng":"-0.17775454006704175","distance":"30","cc":"GB","city":"London","state":"Greater London","country":"United Kingdom"},"categories":[{"id":"4bf58dd8d48988d121941735","name":"Lounge","pluralName":"Lounges","shortName":"Lounge","icon":{"prefix":"https:\/\/ss1.4sqi.net\/img\/categories_v2\/nightlife\/lounge_","suffix":".png"},"primary":"true"}],"verified":"false","restricted":"true","stats":{"checkinsCount":"17","usersCount":"16","tipCount":"0"},"specials":{"count":"0"},"hereNow":{"count":"0"},"referralId":"v-1392478076"},{"id":"529d19fb11d2d498ab973ce8","name":"Pyjama party in Lucy's room","location":{"lat":"51.488468427732684","lng":"-0.17922136902007849","distance":"134","cc":"GB","country":"United Kingdom"},"categories":[{"id":"5267e4d9e4b0ec79466e48c6","name":"Conference","pluralName":"Conferences","shortName":"Conference","icon":{"prefix":"https:\/\/ss1.4sqi.net\/img\/categories_v2\/event\/default_","suffix":".png"},"primary":"true"}],"verified":"false","restricted":"true","stats":{"checkinsCount":"7","usersCount":"2","tipCount":"0"},"specials":{"count":"0"},"hereNow":{"count":"0"},"referralId":"v-1392478076"},{"id":"51aeaea9c64082261b11281a","name":"Blakes Restaurant","location":{"address":"33 Roland Gardens","lat":"51.489365","lng":"-0.180077","distance":"157","postalCode":"SW7 3PF","cc":"GB","city":"London","state":"Greater London","country":"United Kingdom"},"categories":[{"id":"4bf58dd8d48988d1c4941735","name":"Restaurant","pluralName":"Restaurants","shortName":"Restaurant","icon":{"prefix":"https:\/\/ss1.4sqi.net\/img\/categories_v2\/food\/default_","suffix":".png"},"primary":"true"}],"verified":"false","restricted":"true","stats":{"checkinsCount":"15","usersCount":"14","tipCount":"1"},"url":"http:\/\/www.blakeshotels.com\/dinning\/restaurant","reservations":{"url":"http:\/\/www.toptable.co.uk\/single.aspx?rid=33469&ref=9601"},"menu":{"type":"Menu","label":"Menu","anchor":"View Menu","url":"https:\/\/foursquare.com\/v\/blakes-restaurant\/51aeaea9c64082261b11281a\/menu","mobileUrl":"https:\/\/foursquare.com\/v\/51aeaea9c64082261b11281a\/device_menu"},"specials":{"count":"0"},"hereNow":{"count":"0"},"referralId":"v-1392478076"},{"id":"4c2b6ed357a9c9b64fdef567","name":"TfL Bus 14","contact":{"twitter":"tflbusalerts"},"location":{"address":"Moving Target!","lat":"51.48822432632349","lng":"-0.17578125","distance":"183","cc":"GB","city":"London","state":"Greater London","country":"United Kingdom"},"categories":[{"id":"4bf58dd8d48988d12b951735","name":"Bus Line","pluralName":"Bus Lines","shortName":"Bus","icon":{"prefix":"https:\/\/ss1.4sqi.net\/img\/categories_v2\/travel\/busstation_","suffix":".png"},"primary":"true"}],"verified":"false","restricted":"true","stats":{"checkinsCount":"590","usersCount":"221","tipCount":"3"},"url":"http:\/\/www.tfl.gov.uk","specials":{"count":"0"},"hereNow":{"count":"0"},"referralId":"v-1392478076"},{"id":"4b1ab481f964a520d1ef23e3","name":"The Queen's Elm","location":{"address":"241 Fulham Road","lat":"51.48867394163041","lng":"-0.17564335266776787","distance":"164","postalCode":"SW3 6HY","cc":"GB","city":"London","state":"Greater London","country":"United Kingdom"},"categories":[{"id":"4bf58dd8d48988d130941735","name":"Building","pluralName":"Buildings","shortName":"Building","icon":{"prefix":"https:\/\/ss1.4sqi.net\/img\/categories_v2\/building\/default_","suffix":".png"},"primary":"true"}],"verified":"false","restricted":"true","stats":{"checkinsCount":"244","usersCount":"11","tipCount":"2"},"specials":{"count":"0"},"hereNow":{"count":"0"},"referralId":"v-1392478076"},{"id":"4fb03a5ee4b078fd5bbd0f63","name":"Clarence Avenue","location":{"lat":"51.48983237180097","lng":"-0.17985619888623003","distance":"154","cc":"GB","country":"United Kingdom"},"verified":"false","restricted":"true","stats":{"checkinsCount":"3","usersCount":"3","tipCount":"0"},"specials":{"count":"0"},"hereNow":{"count":"0"},"referralId":"v-1392478076"},{"id":"4cc2bb528062468877282b2f","name":"Ginsen","location":{"lat":"51.48812638801284","lng":"-0.17644793486747284","distance":"159","cc":"GB","country":"United Kingdom"},"categories":[{"id":"4bf58dd8d48988d10f951735","name":"Drugstore \/ Pharmacy","pluralName":"Drugstores \/ Pharmacies","shortName":"Pharmacy","icon":{"prefix":"https:\/\/ss1.4sqi.net\/img\/categories_v2\/shops\/pharmacy_","suffix":".png"},"primary":"true"}],"verified":"false","restricted":"true","stats":{"checkinsCount":"8","usersCount":"5","tipCount":"0"},"specials":{"count":"0"},"hereNow":{"count":"0"},"referralId":"v-1392478076"},{"id":"4c69617c8e7c0f47c26adf0f","name":"Strip Chelsea","location":{"address":"102 Fulham Palace Road","lat":"51.48965332322342","lng":"-0.17530057107493172","distance":"178","cc":"GB","city":"SW3 6HS","state":"Greater London","country":"United Kingdom"},"categories":[{"id":"4bf58dd8d48988d10c951735","name":"Cosmetics Shop","pluralName":"Cosmetics Shops","shortName":"Cosmetics","icon":{"prefix":"https:\/\/ss1.4sqi.net\/img\/categories_v2\/shops\/beauty_cosmetic_","suffix":".png"},"primary":"true"}],"verified":"false","restricted":"true","stats":{"checkinsCount":"91","usersCount":"39","tipCount":"3"},"specials":{"count":"0"},"hereNow":{"count":"0"},"referralId":"v-1392478076"},{"id":"5283dccf498e43d4d07c7177","name":"Maroush Express","location":{"lat":"51.489796","lng":"-0.178996","distance":"100","cc":"GB","country":"United Kingdom"},"categories":[{"id":"4bf58dd8d48988d1c4941735","name":"Restaurant","pluralName":"Restaurants","shortName":"Restaurant","icon":{"prefix":"https:\/\/ss1.4sqi.net\/img\/categories_v2\/food\/default_","suffix":".png"},"primary":"true"}],"verified":"false","restricted":"true","stats":{"checkinsCount":"2","usersCount":"2","tipCount":"0"},"specials":{"count":"0"},"hereNow":{"count":"0"},"referralId":"v-1392478076"},{"id":"4ca74eb8b7106dcb827866a5","name":"Willis Jackson Hall","location":{"address":"Evelyn Gardens","lat":"51.487956293331855","lng":"-0.17877216885499833","distance":"162","postalCode":"SW7 3DQ","cc":"GB","city":"Kensington","state":"Greater London","country":"United Kingdom"},"categories":[{"id":"4bf58dd8d48988d1a3941735","name":"College Residence Hall","pluralName":"College Residence Halls","shortName":"Residence Hall","icon":{"prefix":"https:\/\/ss1.4sqi.net\/img\/categories_v2\/education\/residencehall_","suffix":".png"},"primary":"true"}],"verified":"false","restricted":"true","stats":{"checkinsCount":"16","usersCount":"9","tipCount":"0"},"specials":{"count":"0"},"hereNow":{"count":"0"},"referralId":"v-1392478076"},{"id":"4b601cb8f964a52030d629e3","name":"Patrick Mavros","location":{"address":"106 Fulham Road","crossStreet":"Old Church St","lat":"51.48889482225979","lng":"-0.1755976044819202","distance":"159","cc":"GB","country":"United Kingdom"},"categories":[{"id":"4bf58dd8d48988d111951735","name":"Jewelry Store","pluralName":"Jewelry Stores","shortName":"Jewelry","icon":{"prefix":"https:\/\/ss1.4sqi.net\/img\/categories_v2\/shops\/jewelry_","suffix":".png"},"primary":"true"}],"verified":"false","restricted":"true","stats":{"checkinsCount":"102","usersCount":"15","tipCount":"0"},"specials":{"count":"0"},"hereNow":{"count":"0"},"referralId":"v-1392478076"},{"id":"525b9706498e80ed6941331b","name":"Animal Art Fair","location":{"lat":"51.487747","lng":"-0.178271","distance":"174","cc":"GB","country":"United Kingdom"},"categories":[{"id":"4bf58dd8d48988d1e2931735","name":"Art Gallery","pluralName":"Art Galleries","shortName":"Art Gallery","icon":{"prefix":"https:\/\/ss1.4sqi.net\/img\/categories_v2\/arts_entertainment\/artgallery_","suffix":".png"},"primary":"true"}],"verified":"false","restricted":"true","stats":{"checkinsCount":"9","usersCount":"1","tipCount":"0"},"specials":{"count":"0"},"hereNow":{"count":"0"},"referralId":"v-1392478076"}],"confident":"true"}}