{"meta":{"code":"200"},"response":{"venues":[{"id":"4ccb1efc566aa093cbcf18fd","name":"Old Red Lion","contact":{"phone":"+442077354312","formattedPhone":"+44 20 7735 4312","twitter":"oldredlionkenn"},"location":{"address":"42 Kennington Park Rd","lat":"51.489466343800935","lng":"-0.10501342692326765","distance":"154","postalCode":"SE11 4RS","cc":"GB","city":"Kennington","state":"Greater London","country":"United Kingdom"},"categories":[{"id":"4bf58dd8d48988d11b941735","name":"Pub","pluralName":"Pubs","shortName":"Pub","icon":{"prefix":"https:\/\/ss1.4sqi.net\/img\/categories_v2\/nightlife\/pub_","suffix":".png"},"primary":"true"}],"verified":"false","restricted":"true","stats":{"checkinsCount":"941","usersCount":"390","tipCount":"11"},"url":"http:\/\/www.theoldredlion.com","specials":{"count":"0"},"hereNow":{"count":"1","groups":[{"type":"others","name":"Other people here","count":"1"}]},"referralId":"v-1392478083"},{"id":"4d99c6e9647d8cfad52b0f3e","name":"Tesco Express","contact":{"phone":"+448456756885","formattedPhone":"+44 845 675 6885","twitter":"uktescooffers"},"location":{"address":"38-40 Kennington Park Road","lat":"51.489461","lng":"-0.105003","distance":"153","postalCode":"SE11 4RS","cc":"GB","city":"Kennington","state":"Greater London","country":"United Kingdom"},"categories":[{"id":"4bf58dd8d48988d118951735","name":"Grocery Store","pluralName":"Grocery Stores","shortName":"Grocery Store","icon":{"prefix":"https:\/\/ss1.4sqi.net\/img\/categories_v2\/shops\/food_grocery_","suffix":".png"},"primary":"true"}],"verified":"true","restricted":"true","stats":{"checkinsCount":"429","usersCount":"96","tipCount":"1"},"url":"http:\/\/www.tesco.com","specials":{"count":"0"},"hereNow":{"count":"0"},"storeId":"6231","referralId":"v-1392478083"},{"id":"4b6c8ba9f964a5201b422ce3","name":"Brasserie & Wine Bar Toulouse Lautrec","contact":{"phone":"+442075826800","formattedPhone":"+44 20 7582 6800","twitter":"btlrestaurant"},"location":{"address":"140 Newington Butts","lat":"51.491057","lng":"-0.103726","distance":"206","postalCode":"SE11 4RN","cc":"GB","city":"Kennington","state":"Greater London","country":"United Kingdom"},"categories":[{"id":"4bf58dd8d48988d10c941735","name":"French Restaurant","pluralName":"French Restaurants","shortName":"French","icon":{"prefix":"https:\/\/ss1.4sqi.net\/img\/categories_v2\/food\/french_","suffix":".png"},"primary":"true"}],"verified":"false","restricted":"true","stats":{"checkinsCount":"426","usersCount":"266","tipCount":"14"},"url":"http:\/\/www.brasserietoulouselautrec.co.uk","reservations":{"url":"http:\/\/www.toptable.co.uk\/single.aspx?rid=34174&ref=9601"},"menu":{"type":"Menu","label":"Menu","anchor":"View Menu","url":"https:\/\/foursquare.com\/v\/brasserie--wine-bar-toulouse-lautrec\/4b6c8ba9f964a5201b422ce3\/menu","mobileUrl":"https:\/\/foursquare.com\/v\/4b6c8ba9f964a5201b422ce3\/device_menu"},"specials":{"count":"0"},"hereNow":{"count":"0"},"referralId":"v-1392478083"},{"id":"51313191e4b0dc200472f083","name":"Oaka","contact":{"phone":"+442075825599","formattedPhone":"+44 20 7582 5599","twitter":"oakalondon"},"location":{"address":"46 Kennington Park Rd","lat":"51.48926110437753","lng":"-0.10499546980138214","distance":"152","postalCode":"SE11 4RS","cc":"GB","city":"London","state":"Greater London","country":"United Kingdom"},"categories":[{"id":"4bf58dd8d48988d142941735","name":"Asian Restaurant","pluralName":"Asian Restaurants","shortName":"Asian","icon":{"prefix":"https:\/\/ss1.4sqi.net\/img\/categories_v2\/food\/asian_","suffix":".png"},"primary":"true"}],"verified":"false","restricted":"true","stats":{"checkinsCount":"117","usersCount":"88","tipCount":"11"},"url":"http:\/\/www.oakalondon.com","specials":{"count":"0"},"hereNow":{"count":"0"},"referralId":"v-1392478083"},{"id":"4b58224af964a520d54b28e3","name":"The Electric Elephant Cafe & Gallery","location":{"address":"186a Crampton St","lat":"51.489853","lng":"-0.099204","distance":"257","postalCode":"SE17 3AE","cc":"GB","city":"London","state":"Greater London","country":"United Kingdom"},"categories":[{"id":"4bf58dd8d48988d16d941735","name":"Caf\u00e9","pluralName":"Caf\u00e9s","shortName":"Caf\u00e9","icon":{"prefix":"https:\/\/ss1.4sqi.net\/img\/categories_v2\/food\/cafe_","suffix":".png"},"primary":"true"}],"verified":"false","restricted":"true","stats":{"checkinsCount":"223","usersCount":"145","tipCount":"8"},"specials":{"count":"0"},"hereNow":{"count":"0"},"referralId":"v-1392478083"},{"id":"4b58e17cf964a520997028e3","name":"Dante Road","contact":{"phone":"+442078208052","formattedPhone":"+44 20 7820 8052","twitter":"lsbu"},"location":{"address":"2 Dante Place","lat":"51.491942008747294","lng":"-0.10259674951577101","distance":"295","postalCode":"SE11 4RX","cc":"GB","city":"Southwark","state":"Greater London","country":"United Kingdom"},"categories":[{"id":"4bf58dd8d48988d1a3941735","name":"College Residence Hall","pluralName":"College Residence Halls","shortName":"Residence Hall","icon":{"prefix":"https:\/\/ss1.4sqi.net\/img\/categories_v2\/education\/residencehall_","suffix":".png"},"primary":"true"}],"verified":"false","restricted":"true","stats":{"checkinsCount":"235","usersCount":"40","tipCount":"1"},"url":"http:\/\/www.lsbu.ac.uk","specials":{"count":"0"},"hereNow":{"count":"0"},"referralId":"v-1392478083"},{"id":"4e3b047a1838961aff07476d","name":"Iliffe","location":{"lat":"51.489875681752174","lng":"-0.100530541238136","distance":"170","cc":"GB","city":"Camberwell","state":"Greater London","country":"United Kingdom"},"categories":[{"id":"4d954b06a243a5684965b473","name":"Residential Building (Apartment \/ Condo)","pluralName":"Residential Buildings (Apartments \/ Condos)","shortName":"Residential","icon":{"prefix":"https:\/\/ss1.4sqi.net\/img\/categories_v2\/building\/apartment_","suffix":".png"},"primary":"true"}],"verified":"false","restricted":"true","stats":{"checkinsCount":"46","usersCount":"11","tipCount":"0"},"specials":{"count":"0"},"hereNow":{"count":"0"},"referralId":"v-1392478083"},{"id":"4c5820796418a5932bda800e","name":"Bus Stop KA, Kennington Road","location":{"lat":"51.48876830788779","lng":"-0.10549751472621359","distance":"195","cc":"GB","country":"United Kingdom"},"categories":[{"id":"4bf58dd8d48988d12b951735","name":"Bus Line","pluralName":"Bus Lines","shortName":"Bus","icon":{"prefix":"https:\/\/ss1.4sqi.net\/img\/categories_v2\/travel\/busstation_","suffix":".png"},"primary":"true"}],"verified":"false","restricted":"true","stats":{"checkinsCount":"103","usersCount":"39","tipCount":"1"},"specials":{"count":"0"},"hereNow":{"count":"0"},"referralId":"v-1392478083"},{"id":"4b7b29e0f964a52035552fe3","name":"Kennington Fish Bar","contact":{"phone":"+442077354235","formattedPhone":"+44 20 7735 4235"},"location":{"address":"56 Kennington Park Road","lat":"51.48882972306099","lng":"-0.10553335831887577","distance":"196","postalCode":"SE11 4RS","cc":"GB","city":"London","state":"Greater London","country":"United Kingdom"},"categories":[{"id":"4edd64a0c7ddd24ca188df1a","name":"Fish & Chips Shop","pluralName":"Fish & Chips Shops","shortName":"Fish & Chips","icon":{"prefix":"https:\/\/ss1.4sqi.net\/img\/categories_v2\/food\/fishandchips_","suffix":".png"},"primary":"true"}],"verified":"false","restricted":"true","stats":{"checkinsCount":"181","usersCount":"43","tipCount":"3"},"specials":{"count":"0"},"hereNow":{"count":"0"},"referralId":"v-1392478083"},{"id":"52d7e316498e14acfd4c51e5","name":"Maximo Italian Bistrot","contact":{"phone":"+442078208030","formattedPhone":"+44 20 7820 8030"},"location":{"address":"58 Kennington Park Road","crossStreet":"Othello Close","lat":"51.48905939155363","lng":"-0.10537326335906982","distance":"179","postalCode":"SE11 4RS","cc":"GB","city":"London","state":"Greater London","country":"United Kingdom"},"categories":[{"id":"4bf58dd8d48988d110941735","name":"Italian Restaurant","pluralName":"Italian Restaurants","shortName":"Italian","icon":{"prefix":"https:\/\/ss1.4sqi.net\/img\/categories_v2\/food\/italian_","suffix":".png"},"primary":"true"}],"verified":"false","restricted":"true","stats":{"checkinsCount":"2","usersCount":"2","tipCount":"1"},"reservations":{"url":"http:\/\/www.toptable.co.uk\/single.aspx?rid=100176&ref=9601"},"menu":{"type":"Menu","label":"Menu","anchor":"View Menu","url":"https:\/\/foursquare.com\/v\/maximo-italian-bistrot\/52d7e316498e14acfd4c51e5\/menu","mobileUrl":"https:\/\/foursquare.com\/v\/52d7e316498e14acfd4c51e5\/device_menu"},"specials":{"count":"0"},"hereNow":{"count":"0"},"referralId":"v-1392478083"},{"id":"4ad373b9f964a5207be420e3","name":"Walworth Road Surgery","location":{"address":"1 Manor Place","lat":"51.489798","lng":"-0.102654","distance":"57","postalCode":"SE17 3BD","cc":"GB","city":"London","state":"Greater London","country":"United Kingdom"},"categories":[{"id":"4bf58dd8d48988d177941735","name":"Doctor's Office","pluralName":"Doctor's Offices","shortName":"Doctor's Office","icon":{"prefix":"https:\/\/ss1.4sqi.net\/img\/categories_v2\/building\/medical_doctorsoffice_","suffix":".png"},"primary":"true"}],"verified":"false","restricted":"true","stats":{"checkinsCount":"6","usersCount":"5","tipCount":"0"},"specials":{"count":"0"},"hereNow":{"count":"0"},"referralId":"v-1392478083"},{"id":"4ac518def964a520a9a920e3","name":"The Lobster Pot","location":{"address":"3 Kennington Lane","lat":"51.49112942072866","lng":"-0.10336291367115794","distance":"208","postalCode":"SE11 4RG","cc":"GB","city":"London","state":"Greater London","country":"United Kingdom"},"categories":[{"id":"4bf58dd8d48988d10c941735","name":"French Restaurant","pluralName":"French Restaurants","shortName":"French","icon":{"prefix":"https:\/\/ss1.4sqi.net\/img\/categories_v2\/food\/french_","suffix":".png"},"primary":"true"}],"verified":"false","restricted":"true","stats":{"checkinsCount":"78","usersCount":"64","tipCount":"4"},"url":"http:\/\/www.lobsterpotrestaurant.co.uk","reservations":{"url":"http:\/\/www.toptable.co.uk\/single.aspx?rid=82906&ref=9601"},"menu":{"type":"Menu","label":"Menu","anchor":"View Menu","url":"https:\/\/foursquare.com\/v\/the-lobster-pot\/4ac518def964a520a9a920e3\/menu","mobileUrl":"https:\/\/foursquare.com\/v\/4ac518def964a520a9a920e3\/device_menu"},"specials":{"count":"0"},"hereNow":{"count":"0"},"referralId":"v-1392478083"},{"id":"4c56b9b3b7a31b8da1864eda","name":"Iliffe Yard","location":{"address":"Crampton Street","lat":"51.489937662832645","lng":"-0.09977939920351321","distance":"221","postalCode":"SE17 3QA","cc":"GB","city":"Walworth","state":"Greater London","country":"United Kingdom"},"categories":[{"id":"4bf58dd8d48988d1f4941735","name":"Design Studio","pluralName":"Design Studios","shortName":"Design","icon":{"prefix":"https:\/\/ss1.4sqi.net\/img\/categories_v2\/shops\/design_","suffix":".png"},"primary":"true"}],"verified":"false","restricted":"true","stats":{"checkinsCount":"160","usersCount":"48","tipCount":"1"},"specials":{"count":"0"},"hereNow":{"count":"0"},"referralId":"v-1392478083"},{"id":"4fdca21de4b08aca492df175","name":"Newington News","location":{"lat":"51.48959744400432","lng":"-0.10169821778196315","distance":"83","cc":"GB","country":"United Kingdom"},"categories":[{"id":"4d954b0ea243a5684a65b473","name":"Convenience Store","pluralName":"Convenience Stores","shortName":"Convenience Stores","icon":{"prefix":"https:\/\/ss1.4sqi.net\/img\/categories_v2\/shops\/conveniencestore_","suffix":".png"},"primary":"true"}],"verified":"false","restricted":"true","stats":{"checkinsCount":"13","usersCount":"4","tipCount":"0"},"specials":{"count":"0"},"hereNow":{"count":"0"},"referralId":"v-1392478083"},{"id":"4cafaf02eb65b1f7dfce65cd","name":"Bus Stop BE Penton Place","location":{"address":"Kennington park road","lat":"51.489844","lng":"-0.104043","distance":"105","cc":"GB","city":"London","state":"Greater London","country":"United Kingdom"},"categories":[{"id":"4bf58dd8d48988d1fe931735","name":"Bus Station","pluralName":"Bus Stations","shortName":"Bus Station","icon":{"prefix":"https:\/\/ss1.4sqi.net\/img\/categories_v2\/travel\/busstation_","suffix":".png"},"primary":"true"}],"verified":"false","restricted":"true","stats":{"checkinsCount":"13","usersCount":"3","tipCount":"0"},"specials":{"count":"0"},"hereNow":{"count":"0"},"referralId":"v-1392478083"},{"id":"4cafb037c5e6a1cdb3eacef6","name":"Guinness Trust Kennington Park Road","location":{"lat":"51.48977558186755","lng":"-0.10414891299314426","distance":"107","cc":"GB","country":"United Kingdom"},"categories":[{"id":"4bf58dd8d48988d130941735","name":"Building","pluralName":"Buildings","shortName":"Building","icon":{"prefix":"https:\/\/ss1.4sqi.net\/img\/categories_v2\/building\/default_","suffix":".png"},"primary":"true"}],"verified":"false","restricted":"true","stats":{"checkinsCount":"152","usersCount":"20","tipCount":"0"},"specials":{"count":"0"},"hereNow":{"count":"0"},"referralId":"v-1392478083"},{"id":"4bc8613c92b376b0c73d513a","name":"Dominos","contact":{"twitter":"dominos_uk"},"location":{"address":"146-148 Newington Butts, Elephant And Castle","lat":"51.490956017268594","lng":"-0.10350480483267505","distance":"191","postalCode":"SE11 4RN","cc":"GB","city":"London","state":"Greater London","country":"United Kingdom"},"categories":[{"id":"4bf58dd8d48988d1ca941735","name":"Pizza Place","pluralName":"Pizza Places","shortName":"Pizza","icon":{"prefix":"https:\/\/ss1.4sqi.net\/img\/categories_v2\/food\/pizza_","suffix":".png"},"primary":"true"}],"verified":"true","restricted":"true","stats":{"checkinsCount":"114","usersCount":"61","tipCount":"4"},"specials":{"count":"0"},"hereNow":{"count":"0"},"referralId":"v-1392478083"},{"id":"52d6e3df498efb1990191e0a","name":"JamJar Flowers","contact":{"phone":"+442077387054","formattedPhone":"+44 20 7738 7054","twitter":"jamjarflowers"},"location":{"address":"7a Peacocks Yard","lat":"51.49018369648285","lng":"-0.10030795215416108","distance":"199","postalCode":"SE17 3LH","cc":"GB","city":"London","state":"Greater London","country":"United Kingdom"},"categories":[{"id":"4bf58dd8d48988d11b951735","name":"Flower Shop","pluralName":"Flower Shops","shortName":"Flower Shop","icon":{"prefix":"https:\/\/ss1.4sqi.net\/img\/categories_v2\/shops\/flowershop_","suffix":".png"},"primary":"true"}],"verified":"false","restricted":"true","stats":{"checkinsCount":"1","usersCount":"1","tipCount":"0"},"specials":{"count":"0"},"hereNow":{"count":"0"},"referralId":"v-1392478083"},{"id":"4c160389583c9c741ae03fa4","name":"Journeys London Bridge","contact":{"phone":"+442077356581","formattedPhone":"+44 20 7735 6581"},"location":{"address":"204 Manor Place","lat":"51.487326","lng":"-0.101491","distance":"236","postalCode":"SE17 3BN","cc":"GB","city":"London","state":"Greater London","country":"United Kingdom"},"categories":[{"id":"4bf58dd8d48988d1ee931735","name":"Hostel","pluralName":"Hostels","shortName":"Hostel","icon":{"prefix":"https:\/\/ss1.4sqi.net\/img\/categories_v2\/travel\/hostel_","suffix":".png"},"primary":"true"}],"verified":"false","restricted":"true","stats":{"checkinsCount":"159","usersCount":"84","tipCount":"8"},"specials":{"count":"0"},"hereNow":{"count":"0"},"referralId":"v-1392478083"},{"id":"4d9d9115a1ec8cfa51cb054a","name":"No. 1 Off Licence B.D.Wines","location":{"address":"Braganza Street","lat":"51.487757562469845","lng":"-0.10549346210572333","distance":"252","postalCode":"SE17","cc":"GB","city":"Camberwell","state":"Greater London","country":"United Kingdom"},"categories":[{"id":"4bf58dd8d48988d186941735","name":"Liquor Store","pluralName":"Liquor Stores","shortName":"Liquor Store","icon":{"prefix":"https:\/\/ss1.4sqi.net\/img\/categories_v2\/shops\/food_liquor_","suffix":".png"},"primary":"true"}],"verified":"false","restricted":"true","stats":{"checkinsCount":"20","usersCount":"7","tipCount":"0"},"specials":{"count":"0"},"hereNow":{"count":"0"},"referralId":"v-1392478083"},{"id":"4b6c2d29f964a520c4272ce3","name":"St Mary Newington Church","location":{"address":"57 Kennington Park Road","lat":"51.489332946807764","lng":"-0.10441576204450127","distance":"111","cc":"GB","city":"Camberwell","state":"Greater London","country":"United Kingdom"},"categories":[{"id":"4bf58dd8d48988d132941735","name":"Church","pluralName":"Churches","shortName":"Church","icon":{"prefix":"https:\/\/ss1.4sqi.net\/img\/categories_v2\/building\/religious_church_","suffix":".png"},"primary":"true"}],"verified":"false","restricted":"true","stats":{"checkinsCount":"6","usersCount":"5","tipCount":"0"},"specials":{"count":"0"},"hereNow":{"count":"0"},"referralId":"v-1392478083"},{"id":"4ceffcbc3b03f04d06e941dc","name":"The Tankard","location":{"address":"111","crossStreet":"Kennington Road","lat":"51.490298","lng":"-0.102711","distance":"112","postalCode":"SE17 3AX","cc":"GB","city":"London","state":"Greater London","country":"United Kingdom"},"categories":[{"id":"4bf58dd8d48988d116941735","name":"Bar","pluralName":"Bars","shortName":"Bar","icon":{"prefix":"https:\/\/ss1.4sqi.net\/img\/categories_v2\/nightlife\/bar_","suffix":".png"},"primary":"true"}],"verified":"false","restricted":"true","stats":{"checkinsCount":"1","usersCount":"1","tipCount":"0"},"specials":{"count":"0"},"hereNow":{"count":"0"},"referralId":"v-1392478083"},{"id":"4fbd1fbce4b0d4cb24298b88","name":"Bus Stop BK Penton Place","location":{"address":"Kennington park road","lat":"51.48976475749656","lng":"-0.10426328320540981","distance":"114","cc":"GB","city":"Camberwell","state":"Greater London","country":"United Kingdom"},"categories":[{"id":"4bf58dd8d48988d1fe931735","name":"Bus Station","pluralName":"Bus Stations","shortName":"Bus Station","icon":{"prefix":"https:\/\/ss1.4sqi.net\/img\/categories_v2\/travel\/busstation_","suffix":".png"},"primary":"true"}],"verified":"false","restricted":"true","stats":{"checkinsCount":"9","usersCount":"1","tipCount":"0"},"specials":{"count":"0"},"hereNow":{"count":"0"},"referralId":"v-1392478083"},{"id":"4ca20f5519e4236ab33e6f89","name":"Tai Won Mein Noodle House","contact":{"phone":"+442072771338","formattedPhone":"+44 20 7277 1338"},"location":{"address":"6 elephant and castle","lat":"51.490083","lng":"-0.103864","distance":"114","postalCode":"Se1 6te","cc":"GB","city":"London","state":"Greater London","country":"United Kingdom"},"categories":[{"id":"4bf58dd8d48988d145941735","name":"Chinese Restaurant","pluralName":"Chinese Restaurants","shortName":"Chinese","icon":{"prefix":"https:\/\/ss1.4sqi.net\/img\/categories_v2\/food\/chinese_","suffix":".png"},"primary":"true"}],"verified":"false","restricted":"true","stats":{"checkinsCount":"14","usersCount":"14","tipCount":"4"},"specials":{"count":"0"},"hereNow":{"count":"0"},"referralId":"v-1392478083"},{"id":"4c5bc47a94fd0f4714e1c645","name":"Forever Hair Salon","location":{"address":"Elephant and castle","crossStreet":"Shopping centre","lat":"51.490363","lng":"-0.102562","distance":"120","postalCode":"SE1","cc":"GB","city":"London","state":"Greater London","country":"United Kingdom"},"categories":[{"id":"4bf58dd8d48988d10c951735","name":"Cosmetics Shop","pluralName":"Cosmetics Shops","shortName":"Cosmetics","icon":{"prefix":"https:\/\/ss1.4sqi.net\/img\/categories_v2\/shops\/beauty_cosmetic_","suffix":".png"},"primary":"true"}],"verified":"false","restricted":"true","stats":{"checkinsCount":"1","usersCount":"1","tipCount":"0"},"specials":{"count":"0"},"hereNow":{"count":"0"},"referralId":"v-1392478083"},{"id":"4c621fb8e1621b8d99ef2253","name":"Yard","location":{"address":"Amelia street","lat":"51.488571","lng":"-0.104082","distance":"119","postalCode":"Se17","cc":"GB","city":"London","country":"United Kingdom"},"verified":"false","restricted":"true","stats":{"checkinsCount":"9","usersCount":"2","tipCount":"0"},"specials":{"count":"0"},"hereNow":{"count":"0"},"referralId":"v-1392478083"},{"id":"4ec28667722e0f78defa02a7","name":"Rod Morris Studio","location":{"address":"Liffe Street","lat":"51.489527","lng":"-0.101042","distance":"124","cc":"GB","city":"Camberwell","state":"Greater London","country":"United Kingdom"},"categories":[{"id":"4bf58dd8d48988d1e2931735","name":"Art Gallery","pluralName":"Art Galleries","shortName":"Art Gallery","icon":{"prefix":"https:\/\/ss1.4sqi.net\/img\/categories_v2\/arts_entertainment\/artgallery_","suffix":".png"},"primary":"true"}],"verified":"false","restricted":"true","stats":{"checkinsCount":"4","usersCount":"3","tipCount":"0"},"specials":{"count":"0"},"hereNow":{"count":"0"},"referralId":"v-1392478083"},{"id":"4c631724edd320a1568bae29","name":"Palace of Kennington","location":{"lat":"51.487919","lng":"-0.103408","distance":"158","cc":"GB","city":"Kennington","state":"Greater London","country":"United Kingdom"},"categories":[{"id":"4deefb944765f83613cdba6e","name":"Historic Site","pluralName":"Historic Sites","shortName":"Historic Site","icon":{"prefix":"https:\/\/ss1.4sqi.net\/img\/categories_v2\/arts_entertainment\/historicsite_","suffix":".png"},"primary":"true"}],"verified":"false","restricted":"true","stats":{"checkinsCount":"174","usersCount":"15","tipCount":"0"},"specials":{"count":"0"},"hereNow":{"count":"0"},"referralId":"v-1392478083"},{"id":"4d34acd0eefa8cfa4c0f4db3","name":"Husky Studio","location":{"crossStreet":"Amelia Street","lat":"51.489457108426805","lng":"-0.09829663309528738","distance":"312","postalCode":"SE17 1","cc":"GB","city":"Camberwell","state":"Greater London","country":"United Kingdom"},"categories":[{"id":"4bf58dd8d48988d134941735","name":"Dance Studio","pluralName":"Dance Studios","shortName":"Dance Studio","icon":{"prefix":"https:\/\/ss1.4sqi.net\/img\/categories_v2\/arts_entertainment\/performingarts_dancestudio_","suffix":".png"},"primary":"true"}],"verified":"false","restricted":"true","stats":{"checkinsCount":"116","usersCount":"37","tipCount":"2"},"specials":{"count":"0"},"hereNow":{"count":"0"},"referralId":"v-1392478083"},{"id":"4e63925ea80951b318faac90","name":"Newington Estate Children's Playground","location":{"lat":"51.49035078022826","lng":"-0.10154767193626957","distance":"146","cc":"GB","city":"London","state":"Greater London","country":"United Kingdom"},"categories":[{"id":"4bf58dd8d48988d1e7941735","name":"Playground","pluralName":"Playgrounds","shortName":"Playground","icon":{"prefix":"https:\/\/ss1.4sqi.net\/img\/categories_v2\/parks_outdoors\/playground_","suffix":".png"},"primary":"true"}],"verified":"false","restricted":"true","stats":{"checkinsCount":"11","usersCount":"6","tipCount":"0"},"specials":{"count":"0"},"hereNow":{"count":"0"},"referralId":"v-1392478083"}],"confident":"false"}}