{"meta":{"code":"200"},"response":{"venues":[{"id":"4b155f6bf964a520cfab23e3","name":"Camberwell Green","contact":{"phone":"+442075252000","formattedPhone":"+44 20 7525 2000"},"location":{"address":"Camberwell Church St","lat":"51.474423493982954","lng":"-0.09283661842346191","distance":"15","postalCode":"SE5 7BT","cc":"GB","city":"Camberwell","state":"Greater London","country":"United Kingdom"},"categories":[{"id":"4bf58dd8d48988d163941735","name":"Park","pluralName":"Parks","shortName":"Park","icon":{"prefix":"https:\/\/ss1.4sqi.net\/img\/categories_v2\/parks_outdoors\/park_","suffix":".png"},"primary":"true"}],"verified":"false","restricted":"true","stats":{"checkinsCount":"3508","usersCount":"644","tipCount":"12"},"specials":{"count":"0"},"hereNow":{"count":"1","groups":[{"type":"others","name":"Other people here","count":"1"}]},"referralId":"v-1392478123"},{"id":"4ffc4c21e4b075d51e31f51a","name":"I \u2665 Aytas Boutique","location":{"address":"Camberwell","lat":"51.47407407999968","lng":"-0.09313829747015906","distance":"33","cc":"GB","city":"London","state":"Greater London","country":"United Kingdom"},"categories":[{"id":"4bf58dd8d48988d104951735","name":"Boutique","pluralName":"Boutiques","shortName":"Boutique","icon":{"prefix":"https:\/\/ss1.4sqi.net\/img\/categories_v2\/shops\/apparel_boutique_","suffix":".png"},"primary":"true"}],"verified":"false","restricted":"true","stats":{"checkinsCount":"46","usersCount":"3","tipCount":"0"},"specials":{"count":"0"},"hereNow":{"count":"1","groups":[{"type":"others","name":"Other people here","count":"1"}]},"referralId":"v-1392478123"},{"id":"4b9694e6f964a52057d634e3","name":"The Tiger","contact":{"phone":"+442077033020","formattedPhone":"+44 20 7703 3020","twitter":"camberwelltiger"},"location":{"address":"18 Camberwell Gn","crossStreet":"cnr Church St & Denmark Hill","lat":"51.47384210364713","lng":"-0.09278297424316406","distance":"49","postalCode":"SE5 7AA","cc":"GB","city":"Camberwell","state":"Greater London","country":"United Kingdom"},"categories":[{"id":"4bf58dd8d48988d11b941735","name":"Pub","pluralName":"Pubs","shortName":"Pub","icon":{"prefix":"https:\/\/ss1.4sqi.net\/img\/categories_v2\/nightlife\/pub_","suffix":".png"},"primary":"true"}],"verified":"false","restricted":"true","stats":{"checkinsCount":"975","usersCount":"474","tipCount":"20"},"url":"http:\/\/www.thetigerpub.com","menu":{"type":"Menu","label":"Menu","anchor":"View Menu","url":"https:\/\/foursquare.com\/v\/the-tiger\/4b9694e6f964a52057d634e3\/menu","mobileUrl":"https:\/\/foursquare.com\/v\/4b9694e6f964a52057d634e3\/device_menu"},"specials":{"count":"0"},"hereNow":{"count":"0"},"referralId":"v-1392478123"},{"id":"4e5cfd39cc3f288d990922cf","name":"Camberwell","location":{"address":"Everywhere!","lat":"51.475101773342985","lng":"-0.0926971435546875","distance":"90","postalCode":"SE5","cc":"GB","city":"Camberwell","state":"Greater London","country":"United Kingdom"},"categories":[{"id":"4f2a25ac4b909258e854f55f","name":"Neighborhood","pluralName":"Neighborhoods","shortName":"Neighborhood","icon":{"prefix":"https:\/\/ss1.4sqi.net\/img\/categories_v2\/parks_outdoors\/neighborhood_","suffix":".png"},"primary":"true"}],"verified":"false","restricted":"true","stats":{"checkinsCount":"2847","usersCount":"373","tipCount":"5"},"specials":{"count":"0"},"hereNow":{"count":"0"},"referralId":"v-1392478123"},{"id":"4fdc6ae3e4b0523373a297d4","name":"Camberwell Green Farmers Market","location":{"address":"Camberwell Green","lat":"51.47410000211811","lng":"-0.09288905141509496","distance":"21","cc":"GB","country":"United Kingdom"},"categories":[{"id":"4bf58dd8d48988d1fa941735","name":"Farmers Market","pluralName":"Farmers Markets","shortName":"Farmer's Market","icon":{"prefix":"https:\/\/ss1.4sqi.net\/img\/categories_v2\/shops\/food_farmersmarket_","suffix":".png"},"primary":"true"}],"verified":"false","restricted":"true","stats":{"checkinsCount":"25","usersCount":"9","tipCount":"0"},"specials":{"count":"0"},"hereNow":{"count":"0"},"referralId":"v-1392478123"},{"id":"4c599a4cd3aee21e1f976855","name":"Butterfly Walk","location":{"address":"Denmark Hill","lat":"51.47326908270287","lng":"-0.09263673810663454","distance":"114","postalCode":"SE5 8RW","cc":"GB","city":"Camberwell","state":"Greater London","country":"United Kingdom"},"categories":[{"id":"4bf58dd8d48988d1fd941735","name":"Mall","pluralName":"Malls","shortName":"Mall","icon":{"prefix":"https:\/\/ss1.4sqi.net\/img\/categories_v2\/shops\/mall_","suffix":".png"},"primary":"true"}],"verified":"false","restricted":"true","stats":{"checkinsCount":"773","usersCount":"109","tipCount":"1"},"specials":{"count":"0"},"hereNow":{"count":"0"},"referralId":"v-1392478123"},{"id":"4d3b0ba6039eb60c0157f19c","name":"The Old Dispensary","contact":{"phone":"+442077017660","formattedPhone":"+44 20 7701 7660","twitter":"olddispensary"},"location":{"address":"325 Camberwell New Rd.","lat":"51.47422241928078","lng":"-0.0936887664866265","distance":"61","postalCode":"SE5 0TF","cc":"GB","city":"Camberwell","state":"Greater London","country":"United Kingdom"},"categories":[{"id":"4bf58dd8d48988d11b941735","name":"Pub","pluralName":"Pubs","shortName":"Pub","icon":{"prefix":"https:\/\/ss1.4sqi.net\/img\/categories_v2\/nightlife\/pub_","suffix":".png"},"primary":"true"}],"verified":"false","restricted":"true","stats":{"checkinsCount":"70","usersCount":"48","tipCount":"1"},"url":"http:\/\/www.olddispensaryirishbar.com","specials":{"count":"0"},"hereNow":{"count":"0"},"referralId":"v-1392478123"},{"id":"4c4c413146240f47cc8185f4","name":"Morrisons","contact":{"phone":"+442077033038","formattedPhone":"+44 20 7703 3038","twitter":"morrisonsoffers","facebook":"132649753459881"},"location":{"address":"Butterfly Walk","lat":"51.472903176022236","lng":"-0.09205341339111328","distance":"162","postalCode":"SE5 8RW","cc":"GB","city":"Camberwell","state":"Greater London","country":"United Kingdom"},"categories":[{"id":"4bf58dd8d48988d118951735","name":"Grocery Store","pluralName":"Grocery Stores","shortName":"Grocery Store","icon":{"prefix":"https:\/\/ss1.4sqi.net\/img\/categories_v2\/shops\/food_grocery_","suffix":".png"},"primary":"true"}],"verified":"true","restricted":"true","stats":{"checkinsCount":"655","usersCount":"156","tipCount":"3"},"url":"http:\/\/www.morrisons.co.uk","specials":{"count":"0"},"hereNow":{"count":"0"},"storeId":"483","referralId":"v-1392478123"},{"id":"4d70323fb73bb1f78f15b672","name":"Golden Grill","contact":{"phone":"+442077034498","formattedPhone":"+44 20 7703 4498"},"location":{"address":"20 Camberwell Green","lat":"51.47387217574276","lng":"-0.0926971435546875","distance":"46","postalCode":"SE5 7AA","cc":"GB","city":"Camberwell","state":"Greater London","country":"United Kingdom"},"categories":[{"id":"4bf58dd8d48988d16e941735","name":"Fast Food Restaurant","pluralName":"Fast Food Restaurants","shortName":"Fast Food","icon":{"prefix":"https:\/\/ss1.4sqi.net\/img\/categories_v2\/food\/fastfood_","suffix":".png"},"primary":"true"}],"verified":"false","restricted":"true","stats":{"checkinsCount":"86","usersCount":"46","tipCount":"6"},"specials":{"count":"0"},"hereNow":{"count":"0"},"referralId":"v-1392478123"},{"id":"4dc5b1b1b0fb5556ccf8285c","name":"Jono's Snooker Club","contact":{"phone":"+442077030501","formattedPhone":"+44 20 7703 0501"},"location":{"address":"315-317 Camberwell New Rd.","lat":"51.47474032020539","lng":"-0.09407991792029452","distance":"101","postalCode":"SE5 0TF","cc":"GB","city":"Camberwell","state":"Greater London","country":"United Kingdom"},"categories":[{"id":"4bf58dd8d48988d1e3931735","name":"Pool Hall","pluralName":"Pool Halls","shortName":"Billiards","icon":{"prefix":"https:\/\/ss1.4sqi.net\/img\/categories_v2\/arts_entertainment\/billiards_","suffix":".png"},"primary":"true"}],"verified":"false","restricted":"true","stats":{"checkinsCount":"49","usersCount":"16","tipCount":"1"},"specials":{"count":"0"},"hereNow":{"count":"0"},"referralId":"v-1392478123"},{"id":"4eca3983b634b2fd7796257e","name":"Santander","location":{"address":"Denmark Hill","lat":"51.47407440608561","lng":"-0.09286247823092725","distance":"24","cc":"GB","city":"Camberwell","state":"Greater London","country":"United Kingdom"},"categories":[{"id":"4bf58dd8d48988d10a951735","name":"Bank","pluralName":"Banks","shortName":"Bank","icon":{"prefix":"https:\/\/ss1.4sqi.net\/img\/categories_v2\/shops\/financial_","suffix":".png"},"primary":"true"}],"verified":"false","restricted":"true","stats":{"checkinsCount":"8","usersCount":"5","tipCount":"0"},"specials":{"count":"0"},"hereNow":{"count":"0"},"referralId":"v-1392478123"},{"id":"4e91fa310aafb4070c82f04c","name":"Stormbird","contact":{"phone":"+442077084460","formattedPhone":"+44 20 7708 4460","twitter":"stormbirdse5"},"location":{"address":"25 Church St.","lat":"51.473963449024524","lng":"-0.0904455520998304","distance":"167","postalCode":"SE5 8TR","cc":"GB","city":"Camberwell","state":"Greater London","country":"United Kingdom"},"categories":[{"id":"4bf58dd8d48988d116941735","name":"Bar","pluralName":"Bars","shortName":"Bar","icon":{"prefix":"https:\/\/ss1.4sqi.net\/img\/categories_v2\/nightlife\/bar_","suffix":".png"},"primary":"true"}],"verified":"false","restricted":"true","stats":{"checkinsCount":"771","usersCount":"238","tipCount":"14"},"menu":{"type":"Menu","label":"Menu","anchor":"View Menu","url":"https:\/\/foursquare.com\/v\/stormbird\/4e91fa310aafb4070c82f04c\/menu","mobileUrl":"https:\/\/foursquare.com\/v\/4e91fa310aafb4070c82f04c\/device_menu"},"specials":{"count":"0"},"hereNow":{"count":"0"},"referralId":"v-1392478123"},{"id":"4becfda791380f471a589f18","name":"Camberwell Green Surgery","contact":{"phone":"+442077033788","formattedPhone":"+44 20 7703 3788"},"location":{"address":"17 Camberwell Green","lat":"51.47440678746752","lng":"-0.09344816207885742","distance":"46","postalCode":"SE5 7AF","cc":"GB","city":"Camberwell","state":"Greater London","country":"United Kingdom"},"categories":[{"id":"4bf58dd8d48988d177941735","name":"Doctor's Office","pluralName":"Doctor's Offices","shortName":"Doctor's Office","icon":{"prefix":"https:\/\/ss1.4sqi.net\/img\/categories_v2\/building\/medical_doctorsoffice_","suffix":".png"},"primary":"true"}],"verified":"false","restricted":"true","stats":{"checkinsCount":"82","usersCount":"25","tipCount":"0"},"specials":{"count":"0"},"hereNow":{"count":"0"},"referralId":"v-1392478123"},{"id":"4c0bd246a1b32d7fb9899bf0","name":"Joiner's Arms","contact":{"phone":"+442077011957","formattedPhone":"+44 20 7701 1957","twitter":"joinersarmsse51"},"location":{"address":"35 Denmark Hill","crossStreet":"Joiners Yard","lat":"51.47242226842146","lng":"-0.09306953580424523","distance":"208","postalCode":"SE5 8RS","cc":"GB","city":"Camberwell","state":"Greater London","country":"United Kingdom"},"categories":[{"id":"4bf58dd8d48988d11b941735","name":"Pub","pluralName":"Pubs","shortName":"Pub","icon":{"prefix":"https:\/\/ss1.4sqi.net\/img\/categories_v2\/nightlife\/pub_","suffix":".png"},"primary":"true"}],"verified":"false","restricted":"true","stats":{"checkinsCount":"165","usersCount":"51","tipCount":"1"},"specials":{"count":"0"},"hereNow":{"count":"2","groups":[{"type":"others","name":"Other people here","count":"2"}]},"referralId":"v-1392478123"},{"id":"4acf9693f964a520bcd420e3","name":"Hermit's Cave","contact":{"phone":"+442077033188","formattedPhone":"+44 20 7703 3188"},"location":{"address":"28 Church St","lat":"51.47390224781858","lng":"-0.0905996561050415","distance":"158","postalCode":"SE5 8QU","cc":"GB","city":"Camberwell","state":"Greater London","country":"United Kingdom"},"categories":[{"id":"4bf58dd8d48988d11b941735","name":"Pub","pluralName":"Pubs","shortName":"Pub","icon":{"prefix":"https:\/\/ss1.4sqi.net\/img\/categories_v2\/nightlife\/pub_","suffix":".png"},"primary":"true"}],"verified":"false","restricted":"true","stats":{"checkinsCount":"543","usersCount":"209","tipCount":"10"},"specials":{"count":"0"},"hereNow":{"count":"0"},"referralId":"v-1392478123"},{"id":"4ac518faf964a5203ab020e3","name":"Camberwell Leisure Centre","location":{"address":"Artichoke Place","lat":"51.47438395563543","lng":"-0.09035938694201658","distance":"169","postalCode":"SE5 8TS","cc":"GB","city":"Camberwell","state":"Greater London","country":"United Kingdom"},"categories":[{"id":"4bf58dd8d48988d175941735","name":"Gym \/ Fitness Center","pluralName":"Gyms or Fitness Centers","shortName":"Gym \/ Fitness","icon":{"prefix":"https:\/\/ss1.4sqi.net\/img\/categories_v2\/building\/gym_","suffix":".png"},"primary":"true"}],"verified":"false","restricted":"true","stats":{"checkinsCount":"627","usersCount":"71","tipCount":"6"},"specials":{"count":"0"},"hereNow":{"count":"0"},"referralId":"v-1392478123"},{"id":"4b6931b1f964a5206d9b2be3","name":"McDonald's","contact":{"phone":"+442077038514","formattedPhone":"+44 20 7703 8514"},"location":{"address":"16 Butterfly Walk","crossStreet":"Denmark Hill","lat":"51.47326852093104","lng":"-0.09302714935541233","distance":"114","postalCode":"SE5 8RW","cc":"GB","city":"Camberwell","state":"Greater London","country":"United Kingdom"},"categories":[{"id":"4bf58dd8d48988d16e941735","name":"Fast Food Restaurant","pluralName":"Fast Food Restaurants","shortName":"Fast Food","icon":{"prefix":"https:\/\/ss1.4sqi.net\/img\/categories_v2\/food\/fastfood_","suffix":".png"},"primary":"true"}],"verified":"false","restricted":"true","stats":{"checkinsCount":"397","usersCount":"165","tipCount":"9"},"specials":{"count":"0"},"hereNow":{"count":"0"},"referralId":"v-1392478123"},{"id":"4be5be4a2457a5939beeab15","name":"Noodles City","contact":{"phone":"+442072772020","formattedPhone":"+44 20 7277 2020"},"location":{"address":"21-22 Camberwell Green","lat":"51.474367927517505","lng":"-0.09282320275842729","distance":"8","postalCode":"SE5 7AA","cc":"GB","city":"Camberwell","state":"Greater London","country":"United Kingdom"},"categories":[{"id":"4bf58dd8d48988d145941735","name":"Chinese Restaurant","pluralName":"Chinese Restaurants","shortName":"Chinese","icon":{"prefix":"https:\/\/ss1.4sqi.net\/img\/categories_v2\/food\/chinese_","suffix":".png"},"primary":"true"}],"verified":"false","restricted":"true","stats":{"checkinsCount":"43","usersCount":"35","tipCount":"2"},"specials":{"count":"0"},"hereNow":{"count":"0"},"referralId":"v-1392478123"},{"id":"4ec2bf40be7bfa775658b272","name":"Bolu Kebab","location":{"address":"7 Camberwell Church Street","lat":"51.47411127266053","lng":"-0.09144807019270948","distance":"96","postalCode":"SE5 8TR","cc":"GB","city":"Camberwell","state":"Greater London","country":"United Kingdom"},"categories":[{"id":"4bf58dd8d48988d1c4941735","name":"Restaurant","pluralName":"Restaurants","shortName":"Restaurant","icon":{"prefix":"https:\/\/ss1.4sqi.net\/img\/categories_v2\/food\/default_","suffix":".png"},"primary":"true"}],"verified":"false","restricted":"true","stats":{"checkinsCount":"31","usersCount":"10","tipCount":"1"},"specials":{"count":"0"},"hereNow":{"count":"0"},"referralId":"v-1392478123"},{"id":"50bcd5b3e4b00d33140143a5","name":"Chicks","contact":{"phone":"+442077033330","formattedPhone":"+44 20 7703 3330"},"location":{"address":"5 Camberwell Church St","lat":"51.47418341829785","lng":"-0.09132800749935657","distance":"102","postalCode":"SE5 8TR","cc":"GB","city":"London","state":"Greater London","country":"United Kingdom"},"categories":[{"id":"4bf58dd8d48988d16e941735","name":"Fast Food Restaurant","pluralName":"Fast Food Restaurants","shortName":"Fast Food","icon":{"prefix":"https:\/\/ss1.4sqi.net\/img\/categories_v2\/food\/fastfood_","suffix":".png"},"primary":"true"}],"verified":"false","restricted":"true","stats":{"checkinsCount":"14","usersCount":"4","tipCount":"0"},"specials":{"count":"0"},"hereNow":{"count":"0"},"referralId":"v-1392478123"},{"id":"52b7646b498e57050aee3191","name":"London food And Wine","location":{"address":"12 Camberwell Church St","lat":"51.47415766137001","lng":"-0.09122469879312459","distance":"110","cc":"GB","city":"Camberwell","state":"Greater London","country":"United Kingdom"},"categories":[{"id":"4d954b0ea243a5684a65b473","name":"Convenience Store","pluralName":"Convenience Stores","shortName":"Convenience Stores","icon":{"prefix":"https:\/\/ss1.4sqi.net\/img\/categories_v2\/shops\/conveniencestore_","suffix":".png"},"primary":"true"}],"verified":"false","restricted":"true","stats":{"checkinsCount":"12","usersCount":"1","tipCount":"0"},"specials":{"count":"0"},"hereNow":{"count":"0"},"referralId":"v-1392478123"},{"id":"4e5f4f87fa768fe5f2d2fd59","name":"Greggs","location":{"address":"Denmark Hill","lat":"51.47363824885505","lng":"-0.0931645692639777","distance":"76","cc":"GB","city":"Camberwell","state":"Greater London","country":"United Kingdom"},"categories":[{"id":"4bf58dd8d48988d16a941735","name":"Bakery","pluralName":"Bakeries","shortName":"Bakery","icon":{"prefix":"https:\/\/ss1.4sqi.net\/img\/categories_v2\/food\/bakery_","suffix":".png"},"primary":"true"}],"verified":"false","restricted":"true","stats":{"checkinsCount":"162","usersCount":"39","tipCount":"0"},"specials":{"count":"0"},"hereNow":{"count":"0"},"referralId":"v-1392478123"},{"id":"4c9e522346978cfa1691a07f","name":"Wuli Wuli","contact":{"phone":"+442077085024","formattedPhone":"+44 20 7708 5024"},"location":{"address":"Church St","lat":"51.474043","lng":"-0.091095","distance":"121","postalCode":"SE5 8TR","cc":"GB","city":"Camberwell","state":"Greater London","country":"United Kingdom"},"categories":[{"id":"4bf58dd8d48988d145941735","name":"Chinese Restaurant","pluralName":"Chinese Restaurants","shortName":"Chinese","icon":{"prefix":"https:\/\/ss1.4sqi.net\/img\/categories_v2\/food\/chinese_","suffix":".png"},"primary":"true"}],"verified":"false","restricted":"true","stats":{"checkinsCount":"99","usersCount":"47","tipCount":"3"},"specials":{"count":"0"},"hereNow":{"count":"0"},"referralId":"v-1392478123"},{"id":"4e94147ae5faf79bbd9749ca","name":"Bus Stop \"E\"","location":{"address":"Camberwell Green, Southwark, London SE5","lat":"51.47494600743602","lng":"-0.09318645625028649","distance":"77","postalCode":"SE5","cc":"GB","city":"London","state":"Greater London","country":"United Kingdom"},"categories":[{"id":"4bf58dd8d48988d1fe931735","name":"Bus Station","pluralName":"Bus Stations","shortName":"Bus Station","icon":{"prefix":"https:\/\/ss1.4sqi.net\/img\/categories_v2\/travel\/busstation_","suffix":".png"},"primary":"true"}],"verified":"false","restricted":"true","stats":{"checkinsCount":"75","usersCount":"10","tipCount":"0"},"specials":{"count":"0"},"hereNow":{"count":"0"},"referralId":"v-1392478123"},{"id":"52cddb4a498e0e5a14212ea7","name":"Denmark food And Wine","location":{"address":"74 Denmark Hill","lat":"51.47234344482422","lng":"-0.09312230348587036","distance":"217","postalCode":"SE5 8RZ","cc":"GB","city":"London","state":"Greater London","country":"United Kingdom"},"categories":[{"id":"4d954b0ea243a5684a65b473","name":"Convenience Store","pluralName":"Convenience Stores","shortName":"Convenience Stores","icon":{"prefix":"https:\/\/ss1.4sqi.net\/img\/categories_v2\/shops\/conveniencestore_","suffix":".png"},"primary":"true"}],"verified":"false","restricted":"true","stats":{"checkinsCount":"25","usersCount":"2","tipCount":"0"},"specials":{"count":"0"},"hereNow":{"count":"0"},"referralId":"v-1392478123"},{"id":"4c247b33905a0f477bcd5f60","name":"NatWest","contact":{"phone":"+448457888444","formattedPhone":"+44 845 788 8444","twitter":"natwest_help"},"location":{"address":"70 Denmark Hill","lat":"51.47251973709268","lng":"-0.0931031632399253","distance":"198","postalCode":"SE5 8SD","cc":"GB","city":"Camberwell","state":"Greater London","country":"United Kingdom"},"categories":[{"id":"4bf58dd8d48988d10a951735","name":"Bank","pluralName":"Banks","shortName":"Bank","icon":{"prefix":"https:\/\/ss1.4sqi.net\/img\/categories_v2\/shops\/financial_","suffix":".png"},"primary":"true"}],"verified":"false","restricted":"true","stats":{"checkinsCount":"77","usersCount":"14","tipCount":"0"},"url":"https:\/\/www.natwest.com","specials":{"count":"0"},"hereNow":{"count":"0"},"referralId":"v-1392478123"},{"id":"4d8a0b0d401a224b0e009918","name":"99p Stores","contact":{"phone":"+442077036286","formattedPhone":"+44 20 7703 6286"},"location":{"address":"Butterfly Walk","lat":"51.473270730063305","lng":"-0.09212851524353027","distance":"122","postalCode":"SE5 8RW","cc":"GB","city":"Camberwell","state":"Greater London","country":"United Kingdom"},"categories":[{"id":"4bf58dd8d48988d1ff941735","name":"Miscellaneous Shop","pluralName":"Miscellaneous Shops","shortName":"Shop","icon":{"prefix":"https:\/\/ss1.4sqi.net\/img\/categories_v2\/shops\/default_","suffix":".png"},"primary":"true"}],"verified":"false","restricted":"true","stats":{"checkinsCount":"120","usersCount":"34","tipCount":"0"},"specials":{"count":"0"},"hereNow":{"count":"0"},"referralId":"v-1392478123"},{"id":"521f8b0b11d26a12b96aae90","name":"Top Snaps","location":{"lat":"51.47444792768286","lng":"-0.0927022550644122","distance":"19","cc":"GB","country":"United Kingdom"},"categories":[{"id":"4eb1bdde3b7b55596b4a7490","name":"Photography Lab","pluralName":"Photography Labs","shortName":"Photography Lab","icon":{"prefix":"https:\/\/ss1.4sqi.net\/img\/categories_v2\/shops\/photographylab_","suffix":".png"},"primary":"true"}],"verified":"false","restricted":"true","stats":{"checkinsCount":"2","usersCount":"2","tipCount":"0"},"specials":{"count":"0"},"hereNow":{"count":"0"},"referralId":"v-1392478123"},{"id":"5076e369e4b0068fd251b95b","name":"Chitter Chatter","contact":{"phone":"+442077032469","formattedPhone":"+44 20 7703 2469","twitter":"camberwellcct"},"location":{"address":"11 Butterfly Walk","crossStreet":"Denmark Hill","lat":"51.47304344461863","lng":"-0.09252302210900873","distance":"140","postalCode":"SE5 8RW","cc":"GB","country":"United Kingdom"},"categories":[{"id":"4f04afc02fb6e1c99f3db0bc","name":"Mobile Phone Shop","pluralName":"Mobile Phone Shops","shortName":"Mobile Phone","icon":{"prefix":"https:\/\/ss1.4sqi.net\/img\/categories_v2\/shops\/mobilephoneshop_","suffix":".png"},"primary":"true"}],"verified":"false","restricted":"true","stats":{"checkinsCount":"69","usersCount":"3","tipCount":"0"},"specials":{"count":"0"},"hereNow":{"count":"0"},"referralId":"v-1392478123"},{"id":"4da99170a86e771ea70d86f8","name":"Sophocles","contact":{"phone":"+442072526316","formattedPhone":"+44 20 7252 6316"},"location":{"address":"24 Camberwell Church St.","lat":"51.473805348836635","lng":"-0.09102344512939453","distance":"134","postalCode":"SE5 8QU","cc":"GB","city":"Camberwell","state":"Greater London","country":"United Kingdom"},"categories":[{"id":"4bf58dd8d48988d16a941735","name":"Bakery","pluralName":"Bakeries","shortName":"Bakery","icon":{"prefix":"https:\/\/ss1.4sqi.net\/img\/categories_v2\/food\/bakery_","suffix":".png"},"primary":"true"}],"verified":"false","restricted":"true","stats":{"checkinsCount":"117","usersCount":"38","tipCount":"3"},"specials":{"count":"0"},"hereNow":{"count":"0"},"referralId":"v-1392478123"}],"confident":"true"}}