{"meta":{"code":"200"},"response":{"venues":[{"id":"4ba4e7d4f964a52062c138e3","name":"Michael's Barber Shop","location":{"address":"54c Kenway Road","lat":"51.49435964299214","lng":"-0.1920488394782868","distance":"52","postalCode":"SW5","cc":"GB","city":"Kensington","state":"Greater London","country":"United Kingdom"},"categories":[{"id":"4bf58dd8d48988d110951735","name":"Salon \/ Barbershop","pluralName":"Salons \/ Barbershops","shortName":"Salon \/ Barbershop","icon":{"prefix":"https:\/\/ss1.4sqi.net\/img\/categories_v2\/shops\/salon_barber_","suffix":".png"},"primary":"true"}],"verified":"false","restricted":"true","stats":{"checkinsCount":"147","usersCount":"29","tipCount":"1"},"specials":{"count":"0"},"hereNow":{"count":"1","groups":[{"type":"others","name":"Other people here","count":"1"}]},"referralId":"v-1392478062"},{"id":"517ea355e4b0f7d85a69747f","name":"Park Grand London Kensington","location":{"address":"27-32, Hogarth Road","lat":"51.49387266747571","lng":"-0.19161964565132328","distance":"94","cc":"GB","city":"London","state":"Greater London","country":"United Kingdom"},"categories":[{"id":"4bf58dd8d48988d1fa931735","name":"Hotel","pluralName":"Hotels","shortName":"Hotel","icon":{"prefix":"https:\/\/ss1.4sqi.net\/img\/categories_v2\/travel\/hotel_","suffix":".png"},"primary":"true"}],"verified":"false","restricted":"true","stats":{"checkinsCount":"253","usersCount":"135","tipCount":"1"},"specials":{"count":"0"},"hereNow":{"count":"0"},"referralId":"v-1392478062"},{"id":"4b5a4790f964a520c0b928e3","name":"The Rockwell","location":{"lat":"51.494697","lng":"-0.192862","distance":"45","postalCode":"SW5 0","cc":"GB","city":"Kensington","state":"Greater London","country":"United Kingdom"},"categories":[{"id":"4bf58dd8d48988d1fa931735","name":"Hotel","pluralName":"Hotels","shortName":"Hotel","icon":{"prefix":"https:\/\/ss1.4sqi.net\/img\/categories_v2\/travel\/hotel_","suffix":".png"},"primary":"true"}],"verified":"false","restricted":"true","stats":{"checkinsCount":"470","usersCount":"185","tipCount":"6"},"specials":{"count":"0"},"hereNow":{"count":"0"},"referralId":"v-1392478062"},{"id":"52309dae498ec7f3ba3f4445","name":"Sherborne Court","location":{"address":"180-186 Cromwell Road","lat":"51.49491882324219","lng":"-0.19308620691299438","distance":"72","postalCode":"SW5 0ST","cc":"GB","city":"London","state":"Greater London","country":"United Kingdom"},"categories":[{"id":"4d954b06a243a5684965b473","name":"Residential Building (Apartment \/ Condo)","pluralName":"Residential Buildings (Apartments \/ Condos)","shortName":"Residential","icon":{"prefix":"https:\/\/ss1.4sqi.net\/img\/categories_v2\/building\/apartment_","suffix":".png"},"primary":"true"}],"verified":"false","restricted":"true","stats":{"checkinsCount":"86","usersCount":"11","tipCount":"0"},"specials":{"count":"0"},"hereNow":{"count":"0"},"referralId":"v-1392478062"},{"id":"4b93fdb2f964a5208c5f34e3","name":"Bobo's Bubbles Laundry","location":{"lat":"51.494472491433854","lng":"-0.1920491219148795","distance":"56","cc":"GB","city":"Kensington","state":"Greater London","country":"United Kingdom"},"categories":[{"id":"4bf58dd8d48988d1fc941735","name":"Laundry Service","pluralName":"Laundry Services","shortName":"Laundry","icon":{"prefix":"https:\/\/ss1.4sqi.net\/img\/categories_v2\/shops\/laundry_","suffix":".png"},"primary":"true"}],"verified":"false","restricted":"true","stats":{"checkinsCount":"395","usersCount":"114","tipCount":"1"},"specials":{"count":"0"},"hereNow":{"count":"0"},"referralId":"v-1392478062"},{"id":"4b4c4130f964a5202ab026e3","name":"Bupa Cromwell Hospital","location":{"address":"Cromwell Road","lat":"51.49513551252181","lng":"-0.19155494842576118","distance":"127","postalCode":"SW5 0TU","cc":"GB","city":"London","state":"Greater London","country":"United Kingdom"},"categories":[{"id":"4bf58dd8d48988d196941735","name":"Hospital","pluralName":"Hospitals","shortName":"Hospital","icon":{"prefix":"https:\/\/ss1.4sqi.net\/img\/categories_v2\/building\/medical_hospital_","suffix":".png"},"primary":"true"}],"verified":"false","restricted":"true","stats":{"checkinsCount":"1076","usersCount":"413","tipCount":"6"},"specials":{"count":"0"},"hereNow":{"count":"0"},"referralId":"v-1392478062"},{"id":"4ae760f0f964a520caaa21e3","name":"Kings Head","location":{"address":"17 Hogarth Place","lat":"51.4934195232831","lng":"-0.19254777806331064","distance":"98","postalCode":"SW5 0QT","cc":"GB","city":"London","state":"Greater London","country":"United Kingdom"},"categories":[{"id":"4bf58dd8d48988d11b941735","name":"Pub","pluralName":"Pubs","shortName":"Pub","icon":{"prefix":"https:\/\/ss1.4sqi.net\/img\/categories_v2\/nightlife\/pub_","suffix":".png"},"primary":"true"}],"verified":"false","restricted":"true","stats":{"checkinsCount":"937","usersCount":"564","tipCount":"9"},"specials":{"count":"0"},"hereNow":{"count":"0"},"referralId":"v-1392478062"},{"id":"4bc4121df8219c7497f6b610","name":"NH Kensington","contact":{"phone":"+442072441441","formattedPhone":"+44 20 7244 1441","twitter":"nh_hoteles"},"location":{"address":"Cromwell Road 202-220","lat":"51.49483288028301","lng":"-0.19451732619188467","distance":"133","postalCode":"SW5 0SW","cc":"GB","city":"London","state":"Greater London","country":"United Kingdom"},"categories":[{"id":"4bf58dd8d48988d1fa931735","name":"Hotel","pluralName":"Hotels","shortName":"Hotel","icon":{"prefix":"https:\/\/ss1.4sqi.net\/img\/categories_v2\/travel\/hotel_","suffix":".png"},"primary":"true"}],"verified":"true","restricted":"true","stats":{"checkinsCount":"664","usersCount":"318","tipCount":"8"},"url":"http:\/\/www.nh-hotels.com\/nh\/en\/hotels\/united-kingdom\/london\/nh-kensington.html","specials":{"count":"0"},"hereNow":{"count":"0"},"storeId":"751","referralId":"v-1392478062"},{"id":"4bc78ad793bdeee15c7f37ae","name":"Enterprise Hotel London","location":{"address":"15-25 Hogarth Road","lat":"51.49355421136072","lng":"-0.19190521696293786","distance":"102","cc":"GB","city":"London","state":"Greater London","country":"United Kingdom"},"categories":[{"id":"4bf58dd8d48988d1fa931735","name":"Hotel","pluralName":"Hotels","shortName":"Hotel","icon":{"prefix":"https:\/\/ss1.4sqi.net\/img\/categories_v2\/travel\/hotel_","suffix":".png"},"primary":"true"}],"verified":"false","restricted":"true","stats":{"checkinsCount":"288","usersCount":"142","tipCount":"9"},"specials":{"count":"0"},"hereNow":{"count":"0"},"referralId":"v-1392478062"},{"id":"501ad78be4b0e2d06f8c2044","name":"Ping","location":{"address":"Earls Court","lat":"51.493175457852516","lng":"-0.19443657215785634","distance":"167","cc":"GB","city":"London","state":"Greater London","country":"United Kingdom"},"categories":[{"id":"4bf58dd8d48988d11d941735","name":"Sports Bar","pluralName":"Sports Bars","shortName":"Sports Bar","icon":{"prefix":"https:\/\/ss1.4sqi.net\/img\/categories_v2\/nightlife\/sportsbar_","suffix":".png"},"primary":"true"}],"verified":"false","restricted":"true","stats":{"checkinsCount":"535","usersCount":"462","tipCount":"11"},"menu":{"type":"Menu","label":"Menu","anchor":"View Menu","url":"https:\/\/foursquare.com\/v\/ping\/501ad78be4b0e2d06f8c2044\/menu","mobileUrl":"https:\/\/foursquare.com\/v\/501ad78be4b0e2d06f8c2044\/device_menu"},"specials":{"count":"0"},"hereNow":{"count":"0"},"referralId":"v-1392478062"},{"id":"50427be6e4b02607d0dfb347","name":"The Jade Hotel","contact":{"phone":"+442073736297","formattedPhone":"+44 20 7373 6297"},"location":{"address":"52 Hogarth Rd","lat":"51.49367306079533","lng":"-0.19172025392733072","distance":"101","postalCode":"SW5 0PU","cc":"GB","city":"London","state":"Greater London","country":"United Kingdom"},"categories":[{"id":"4bf58dd8d48988d1fa931735","name":"Hotel","pluralName":"Hotels","shortName":"Hotel","icon":{"prefix":"https:\/\/ss1.4sqi.net\/img\/categories_v2\/travel\/hotel_","suffix":".png"},"primary":"true"}],"verified":"false","restricted":"true","stats":{"checkinsCount":"93","usersCount":"51","tipCount":"3"},"specials":{"count":"0"},"hereNow":{"count":"0"},"referralId":"v-1392478062"},{"id":"4c44bc3b429a0f479329491e","name":"Bistro Benito","location":{"address":"166 Earls Court Road","crossStreet":"Earls Court","lat":"51.493878","lng":"-0.194991","distance":"158","cc":"GB","city":"Kensington","state":"Greater London","country":"United Kingdom"},"categories":[{"id":"4bf58dd8d48988d110941735","name":"Italian Restaurant","pluralName":"Italian Restaurants","shortName":"Italian","icon":{"prefix":"https:\/\/ss1.4sqi.net\/img\/categories_v2\/food\/italian_","suffix":".png"},"primary":"true"}],"verified":"false","restricted":"true","stats":{"checkinsCount":"125","usersCount":"108","tipCount":"9"},"specials":{"count":"0"},"hereNow":{"count":"1","groups":[{"type":"others","name":"Other people here","count":"1"}]},"referralId":"v-1392478062"},{"id":"4c3eda116faac9b63dbf0e76","name":"Lexham Gardens","location":{"address":"Lexham Gardens","lat":"51.49564645625943","lng":"-0.19186983352060352","distance":"164","cc":"GB","city":"Kensington","state":"Greater London","country":"United Kingdom"},"categories":[{"id":"4bf58dd8d48988d163941735","name":"Park","pluralName":"Parks","shortName":"Park","icon":{"prefix":"https:\/\/ss1.4sqi.net\/img\/categories_v2\/parks_outdoors\/park_","suffix":".png"},"primary":"true"}],"verified":"false","restricted":"true","stats":{"checkinsCount":"575","usersCount":"152","tipCount":"1"},"specials":{"count":"0"},"hereNow":{"count":"0"},"referralId":"v-1392478062"},{"id":"4bc78b1993bdeee1817f37ae","name":"Oliver Hotel London","location":{"address":"198 Cromwell Road","lat":"51.494882","lng":"-0.194154","distance":"114","cc":"GB","city":"London","state":"Greater London","country":"United Kingdom"},"categories":[{"id":"4bf58dd8d48988d1fa931735","name":"Hotel","pluralName":"Hotels","shortName":"Hotel","icon":{"prefix":"https:\/\/ss1.4sqi.net\/img\/categories_v2\/travel\/hotel_","suffix":".png"},"primary":"true"}],"verified":"false","restricted":"true","stats":{"checkinsCount":"129","usersCount":"81","tipCount":"2"},"specials":{"count":"0"},"hereNow":{"count":"0"},"referralId":"v-1392478062"},{"id":"4b7ae82ff964a52039452fe3","name":"The Little French Restaurant","location":{"address":"18 Hogarth Place","lat":"51.493273973464966","lng":"-0.19247","distance":"115","postalCode":"SW5 0QY","cc":"GB","city":"London","state":"Greater London","country":"United Kingdom"},"categories":[{"id":"4bf58dd8d48988d10c941735","name":"French Restaurant","pluralName":"French Restaurants","shortName":"French","icon":{"prefix":"https:\/\/ss1.4sqi.net\/img\/categories_v2\/food\/french_","suffix":".png"},"primary":"true"}],"verified":"false","restricted":"true","stats":{"checkinsCount":"221","usersCount":"159","tipCount":"10"},"specials":{"count":"0"},"hereNow":{"count":"0"},"referralId":"v-1392478062"},{"id":"4d5a7e15e092a35dcd4e0b0c","name":"Best Western Kensington Shaftesbury","location":{"address":"37 Laverton Pl","lat":"51.49377498043641","lng":"-0.19169303963556814","distance":"95","postalCode":"SW5 0QQ","cc":"GB","city":"Kensington","state":"Greater London","country":"United Kingdom"},"categories":[{"id":"4bf58dd8d48988d1fa931735","name":"Hotel","pluralName":"Hotels","shortName":"Hotel","icon":{"prefix":"https:\/\/ss1.4sqi.net\/img\/categories_v2\/travel\/hotel_","suffix":".png"},"primary":"true"}],"verified":"false","restricted":"true","stats":{"checkinsCount":"362","usersCount":"189","tipCount":"5"},"specials":{"count":"0"},"hereNow":{"count":"0"},"referralId":"v-1392478062"},{"id":"4bf7ce274a67c928112a24cf","name":"Lutong Pinoy","contact":{"phone":"+442072440007","formattedPhone":"+44 20 7244 0007"},"location":{"address":"10 Kenway Road","lat":"51.492863877020405","lng":"-0.1933945331963118","distance":"163","postalCode":"SW5 0RR","cc":"GB","city":"Earl's Court","state":"Greater London","country":"United Kingdom"},"categories":[{"id":"4eb1bd1c3b7b55596b4a748f","name":"Filipino Restaurant","pluralName":"Filipino Restaurants","shortName":"Filipino","icon":{"prefix":"https:\/\/ss1.4sqi.net\/img\/categories_v2\/food\/default_","suffix":".png"},"primary":"true"}],"verified":"false","restricted":"true","stats":{"checkinsCount":"129","usersCount":"85","tipCount":"5"},"specials":{"count":"0"},"hereNow":{"count":"0"},"referralId":"v-1392478062"},{"id":"52c89bf6498e5d8891e892d9","name":"\u041e\u0442\u0435\u043b\u044c \u0414\u043b\u044f \u041a\u0430\u0440\u043b\u0438\u043a\u043e\u0432 \u041a\u043b\u0430\u0443\u0441\u0442\u0440\u0430\u0444\u043e\u0431\u043e\u0432","location":{"address":"Cramwill Road","lat":"51.495219","lng":"-0.194101","distance":"137","cc":"GB","country":"United Kingdom"},"categories":[{"id":"4bf58dd8d48988d1f8931735","name":"Bed & Breakfast","pluralName":"Bed & Breakfasts","shortName":"B & B","icon":{"prefix":"https:\/\/ss1.4sqi.net\/img\/categories_v2\/travel\/bedandbreakfast_","suffix":".png"},"primary":"true"}],"verified":"false","restricted":"true","stats":{"checkinsCount":"6","usersCount":"3","tipCount":"0"},"specials":{"count":"0"},"hereNow":{"count":"0"},"referralId":"v-1392478062"},{"id":"50222717e4b048003e55c62d","name":"NHS Earl's Court Health & Wellbeing Centre","contact":{"phone":"+442073410300","formattedPhone":"+44 20 7341 0300"},"location":{"address":"2 Hogarth Rd","lat":"51.49244940770165","lng":"-0.19260982585167508","distance":"205","postalCode":"SW5 0PT","cc":"GB","city":"London","state":"Greater London","country":"United Kingdom"},"categories":[{"id":"4bf58dd8d48988d104941735","name":"Medical Center","pluralName":"Medical Centers","shortName":"Medical","icon":{"prefix":"https:\/\/ss1.4sqi.net\/img\/categories_v2\/building\/medical_","suffix":".png"},"primary":"true"}],"verified":"false","restricted":"true","stats":{"checkinsCount":"46","usersCount":"28","tipCount":"0"},"url":"http:\/\/www.echwc.nhs.uk","specials":{"count":"0"},"hereNow":{"count":"0"},"referralId":"v-1392478062"},{"id":"504bbd31e4b01028dc87e4e5","name":"Redfield Lane","location":{"address":"Earl's Court","lat":"51.494103","lng":"-0.192937","distance":"22","cc":"GB","country":"United Kingdom"},"categories":[{"id":"4f2a210c4b9023bd5841ed28","name":"Housing Development","pluralName":"Housing Developments","shortName":"Housing Development","icon":{"prefix":"https:\/\/ss1.4sqi.net\/img\/categories_v2\/building\/housingdevelopment_","suffix":".png"},"primary":"true"}],"verified":"false","restricted":"true","stats":{"checkinsCount":"2","usersCount":"1","tipCount":"0"},"specials":{"count":"0"},"hereNow":{"count":"0"},"referralId":"v-1392478062"},{"id":"4c7b9e26bd346dcb5c99fbef","name":"No. 10 Restaurant","location":{"lat":"51.492941225","lng":"-0.192698275","distance":"150","cc":"GB","country":"United Kingdom"},"categories":[{"id":"4bf58dd8d48988d145941735","name":"Chinese Restaurant","pluralName":"Chinese Restaurants","shortName":"Chinese","icon":{"prefix":"https:\/\/ss1.4sqi.net\/img\/categories_v2\/food\/chinese_","suffix":".png"},"primary":"true"}],"verified":"false","restricted":"true","stats":{"checkinsCount":"111","usersCount":"76","tipCount":"3"},"menu":{"type":"Menu","label":"Menu","anchor":"View Menu","url":"https:\/\/foursquare.com\/v\/no-10-restaurant\/4c7b9e26bd346dcb5c99fbef\/menu","mobileUrl":"https:\/\/foursquare.com\/v\/4c7b9e26bd346dcb5c99fbef\/device_menu"},"specials":{"count":"0"},"hereNow":{"count":"0"},"referralId":"v-1392478062"},{"id":"4b9ff396f964a5201d4d37e3","name":"Kappa","location":{"address":"139 Earls Court road","lat":"51.49320423603058","lng":"-0.194437","distance":"165","postalCode":"SW59RH","cc":"GB","city":"Earls Court","state":"Greater London","country":"United Kingdom"},"categories":[{"id":"4bf58dd8d48988d111941735","name":"Japanese Restaurant","pluralName":"Japanese Restaurants","shortName":"Japanese","icon":{"prefix":"https:\/\/ss1.4sqi.net\/img\/categories_v2\/food\/japanese_","suffix":".png"},"primary":"true"}],"verified":"false","restricted":"true","stats":{"checkinsCount":"332","usersCount":"196","tipCount":"3"},"specials":{"count":"0"},"hereNow":{"count":"0"},"referralId":"v-1392478062"},{"id":"520d45f211d2af267d452627","name":"Siam Secret Thai Food","location":{"address":"4 Hogarth Rd","lat":"51.49277247334551","lng":"-0.1929327982193319","distance":"169","cc":"GB","city":"Kensington","state":"Greater London","country":"United Kingdom"},"categories":[{"id":"4bf58dd8d48988d149941735","name":"Thai Restaurant","pluralName":"Thai Restaurants","shortName":"Thai","icon":{"prefix":"https:\/\/ss1.4sqi.net\/img\/categories_v2\/food\/thai_","suffix":".png"},"primary":"true"}],"verified":"false","restricted":"true","stats":{"checkinsCount":"35","usersCount":"26","tipCount":"4"},"specials":{"count":"0"},"hereNow":{"count":"0"},"referralId":"v-1392478062"},{"id":"4c5f2c7eb6f3be9a458e5c73","name":"Ashbee's","location":{"address":"22-24 Hogarth Placep","lat":"51.494395704921594","lng":"-0.19201425669002134","distance":"55","postalCode":"SW5 0QY","cc":"GB","city":"Kensington","state":"Greater London","country":"United Kingdom"},"categories":[{"id":"4bf58dd8d48988d158941735","name":"Swiss Restaurant","pluralName":"Swiss Restaurants","shortName":"Swiss","icon":{"prefix":"https:\/\/ss1.4sqi.net\/img\/categories_v2\/food\/default_","suffix":".png"},"primary":"true"}],"verified":"false","restricted":"true","stats":{"checkinsCount":"42","usersCount":"31","tipCount":"1"},"specials":{"count":"0"},"hereNow":{"count":"0"},"referralId":"v-1392478062"},{"id":"528fe77311d2738c61bb80ff","name":"\u0411\u0435\u0440\u043b\u043e\u0433\u0430 \u041c\u0435\u0434\u0432\u0435\u0436\u0430 \u0418 \u041e\u043b\u0438","location":{"lat":"51.495074","lng":"-0.192571","distance":"88","cc":"GB","country":"United Kingdom"},"categories":[{"id":"4d954b06a243a5684965b473","name":"Residential Building (Apartment \/ Condo)","pluralName":"Residential Buildings (Apartments \/ Condos)","shortName":"Residential","icon":{"prefix":"https:\/\/ss1.4sqi.net\/img\/categories_v2\/building\/apartment_","suffix":".png"},"primary":"true"}],"verified":"false","restricted":"true","stats":{"checkinsCount":"7","usersCount":"2","tipCount":"0"},"specials":{"count":"0"},"hereNow":{"count":"0"},"referralId":"v-1392478062"},{"id":"523f34bb11d202b54acda604","name":"Kensington apartotel","location":{"address":"8 Knaresborough Place","lat":"51.49403762817383","lng":"-0.1910219043493271","distance":"126","cc":"GB","country":"United Kingdom"},"categories":[{"id":"4bf58dd8d48988d1fa931735","name":"Hotel","pluralName":"Hotels","shortName":"Hotel","icon":{"prefix":"https:\/\/ss1.4sqi.net\/img\/categories_v2\/travel\/hotel_","suffix":".png"},"primary":"true"}],"verified":"false","restricted":"true","stats":{"checkinsCount":"16","usersCount":"7","tipCount":"0"},"specials":{"count":"0"},"hereNow":{"count":"0"},"referralId":"v-1392478062"},{"id":"4dab76bd0cb6a89c62847b62","name":"\u0e48Bramham Playground","location":{"address":"Bramham Gardens","lat":"51.494522520381636","lng":"-0.19313715397571796","distance":"34","postalCode":"SW5","cc":"GB","city":"London","state":"Greater London","country":"United Kingdom"},"categories":[{"id":"4bf58dd8d48988d1e7941735","name":"Playground","pluralName":"Playgrounds","shortName":"Playground","icon":{"prefix":"https:\/\/ss1.4sqi.net\/img\/categories_v2\/parks_outdoors\/playground_","suffix":".png"},"primary":"true"}],"verified":"false","restricted":"true","stats":{"checkinsCount":"5","usersCount":"3","tipCount":"0"},"specials":{"count":"0"},"hereNow":{"count":"0"},"referralId":"v-1392478062"},{"id":"50ec7290e4b0f893710deb06","name":"AA Noble House Dry Cleaners","location":{"address":"5 Hogarth Place","lat":"51.49296729355042","lng":"-0.1927542686462402","distance":"147","postalCode":"SW5 0QT","cc":"GB","city":"London","state":"Greater London","country":"United Kingdom"},"categories":[{"id":"4bf58dd8d48988d1fc941735","name":"Laundry Service","pluralName":"Laundry Services","shortName":"Laundry","icon":{"prefix":"https:\/\/ss1.4sqi.net\/img\/categories_v2\/shops\/laundry_","suffix":".png"},"primary":"true"}],"verified":"false","restricted":"true","stats":{"checkinsCount":"14","usersCount":"3","tipCount":"0"},"specials":{"count":"0"},"hereNow":{"count":"0"},"referralId":"v-1392478062"},{"id":"4e999d8b9a52ceeb88430add","name":"Earls Court News","location":{"lat":"51.49435972741996","lng":"-0.19219330607948434","distance":"42","cc":"GB","country":"United Kingdom"},"categories":[{"id":"4d954b0ea243a5684a65b473","name":"Convenience Store","pluralName":"Convenience Stores","shortName":"Convenience Stores","icon":{"prefix":"https:\/\/ss1.4sqi.net\/img\/categories_v2\/shops\/conveniencestore_","suffix":".png"},"primary":"true"}],"verified":"false","restricted":"true","stats":{"checkinsCount":"33","usersCount":"7","tipCount":"0"},"specials":{"count":"0"},"hereNow":{"count":"0"},"referralId":"v-1392478062"},{"id":"4d8b582776e1236afddc2c43","name":"Vertu's office","location":{"lat":"51.494709","lng":"-0.193023","distance":"49","cc":"GB","city":"Church Crookham","state":"Hampshire","country":"United Kingdom"},"verified":"false","restricted":"true","stats":{"checkinsCount":"1","usersCount":"1","tipCount":"0"},"specials":{"count":"0"},"hereNow":{"count":"0"},"referralId":"v-1392478062"}],"confident":"true"}}