{"meta":{"code":"200"},"response":{"venues":[{"id":"4bb0b068f964a5201d553ce3","name":"Belgrave Square","location":{"address":"Belgrave Sq","lat":"51.49916246870442","lng":"-0.1535135507583618","distance":"51","cc":"GB","city":"Belgravia","state":"Greater London","country":"United Kingdom"},"categories":[{"id":"4bf58dd8d48988d164941735","name":"Plaza","pluralName":"Plazas","shortName":"Plaza","icon":{"prefix":"https:\/\/ss1.4sqi.net\/img\/categories_v2\/parks_outdoors\/plaza_","suffix":".png"},"primary":"true"}],"verified":"false","restricted":"true","stats":{"checkinsCount":"2092","usersCount":"703","tipCount":"2"},"specials":{"count":"0"},"hereNow":{"count":"0"},"referralId":"v-1392478052"},{"id":"4ac518d3f964a52051a720e3","name":"Italian Cultural Institute in London","location":{"address":"39 Belgrave Square","lat":"51.49956055494012","lng":"-0.1520826593477616","distance":"58","postalCode":"SW1X 8NX","cc":"GB","city":"London","state":"Greater London","country":"United Kingdom"},"categories":[{"id":"4bf58dd8d48988d171941735","name":"Event Space","pluralName":"Event Spaces","shortName":"Event Space","icon":{"prefix":"https:\/\/ss1.4sqi.net\/img\/categories_v2\/building\/eventspace_","suffix":".png"},"primary":"true"}],"verified":"false","restricted":"true","stats":{"checkinsCount":"277","usersCount":"114","tipCount":"2"},"specials":{"count":"0"},"hereNow":{"count":"0"},"referralId":"v-1392478052"},{"id":"4cdbc960a1bba35d928b96e5","name":"High Commission of Malaysia","contact":{"phone":"+442072358033","formattedPhone":"+44 20 7235 8033"},"location":{"address":"45 Belgrave Sq","lat":"51.49990716891454","lng":"-0.1526176929473877","distance":"70","postalCode":"SW1X 8QT","cc":"GB","city":"Belgravia","state":"Greater London","country":"United Kingdom"},"categories":[{"id":"4bf58dd8d48988d12c951735","name":"Embassy \/ Consulate","pluralName":"Embassies \/ Consulates","shortName":"Embassy","icon":{"prefix":"https:\/\/ss1.4sqi.net\/img\/categories_v2\/travel\/embassy_","suffix":".png"},"primary":"true"}],"verified":"false","restricted":"true","stats":{"checkinsCount":"526","usersCount":"365","tipCount":"10"},"specials":{"count":"0"},"hereNow":{"count":"0"},"referralId":"v-1392478052"},{"id":"4addf6a6f964a520cd6621e3","name":"IPA","contact":{"phone":"+442072357020","formattedPhone":"+44 20 7235 7020","twitter":"ipa_updates"},"location":{"address":"44 Belgrave Square","lat":"51.49991","lng":"-0.1527","distance":"69","postalCode":"SW1X 8QS","cc":"GB","city":"London","state":"Greater London","country":"United Kingdom"},"categories":[{"id":"4bf58dd8d48988d124941735","name":"Office","pluralName":"Offices","shortName":"Office","icon":{"prefix":"https:\/\/ss1.4sqi.net\/img\/categories_v2\/building\/default_","suffix":".png"},"primary":"true"}],"verified":"true","restricted":"true","stats":{"checkinsCount":"638","usersCount":"381","tipCount":"5"},"url":"http:\/\/www.ipa.co.uk","specials":{"count":"0"},"hereNow":{"count":"0"},"storeId":"","referralId":"v-1392478052"},{"id":"50704c90e4b0e25028eee2de","name":"BELGRAVIA","location":{"address":"Belgravia town","lat":"51.49828417434326","lng":"-0.15361547470092773","distance":"125","cc":"GB","city":"London","state":"Greater London","country":"United Kingdom"},"categories":[{"id":"4f2a25ac4b909258e854f55f","name":"Neighborhood","pluralName":"Neighborhoods","shortName":"Neighborhood","icon":{"prefix":"https:\/\/ss1.4sqi.net\/img\/categories_v2\/parks_outdoors\/neighborhood_","suffix":".png"},"primary":"true"}],"verified":"false","restricted":"true","stats":{"checkinsCount":"129","usersCount":"70","tipCount":"0"},"specials":{"count":"0"},"hereNow":{"count":"0"},"referralId":"v-1392478052"},{"id":"4e4e48e9fa7626401e987648","name":"Mexican Consulate","contact":{"phone":"+442078115040","formattedPhone":"+44 20 7811 5040"},"location":{"address":"8 Halkin Street","lat":"51.50035465108041","lng":"-0.15277862548828125","distance":"118","postalCode":"SW1X 7DW","cc":"GB","city":"London","state":"Greater London","country":"United Kingdom"},"categories":[{"id":"4bf58dd8d48988d12c951735","name":"Embassy \/ Consulate","pluralName":"Embassies \/ Consulates","shortName":"Embassy","icon":{"prefix":"https:\/\/ss1.4sqi.net\/img\/categories_v2\/travel\/embassy_","suffix":".png"},"primary":"true"}],"verified":"false","restricted":"true","stats":{"checkinsCount":"95","usersCount":"23","tipCount":"0"},"specials":{"count":"0"},"hereNow":{"count":"0"},"referralId":"v-1392478052"},{"id":"4ac518b4f964a52073a020e3","name":"The Halkin by COMO","location":{"address":"Halkin St","lat":"51.50074549840833","lng":"-0.15211155804830068","distance":"169","postalCode":"SW1X 7DJ","cc":"GB","city":"London","state":"Greater London","country":"United Kingdom"},"categories":[{"id":"4bf58dd8d48988d1fa931735","name":"Hotel","pluralName":"Hotels","shortName":"Hotel","icon":{"prefix":"https:\/\/ss1.4sqi.net\/img\/categories_v2\/travel\/hotel_","suffix":".png"},"primary":"true"}],"verified":"true","restricted":"true","stats":{"checkinsCount":"371","usersCount":"200","tipCount":"7"},"specials":{"count":"0"},"hereNow":{"count":"0"},"referralId":"v-1392478052"},{"id":"4bbee832f353d13aadd77d10","name":"The Old English Coffee House","contact":{"phone":"+442072353643","formattedPhone":"+44 20 7235 3643"},"location":{"address":"1 Montrose Place","lat":"51.49998731529709","lng":"-0.1511746644973755","distance":"137","postalCode":"SW1X 7DU","cc":"GB","city":"London","state":"Greater London","country":"United Kingdom"},"categories":[{"id":"4bf58dd8d48988d16d941735","name":"Caf\u00e9","pluralName":"Caf\u00e9s","shortName":"Caf\u00e9","icon":{"prefix":"https:\/\/ss1.4sqi.net\/img\/categories_v2\/food\/cafe_","suffix":".png"},"primary":"true"}],"verified":"false","restricted":"true","stats":{"checkinsCount":"138","usersCount":"44","tipCount":"2"},"specials":{"count":"0"},"hereNow":{"count":"0"},"referralId":"v-1392478052"},{"id":"50bc9ba1e4b0248c73606ae4","name":"Turkish Embassy","location":{"lat":"51.500447613357096","lng":"-0.152428694351487","distance":"131","cc":"GB","city":"London","state":"Greater London","country":"United Kingdom"},"categories":[{"id":"4bf58dd8d48988d12c951735","name":"Embassy \/ Consulate","pluralName":"Embassies \/ Consulates","shortName":"Embassy","icon":{"prefix":"https:\/\/ss1.4sqi.net\/img\/categories_v2\/travel\/embassy_","suffix":".png"},"primary":"true"}],"verified":"false","restricted":"true","stats":{"checkinsCount":"109","usersCount":"62","tipCount":"3"},"specials":{"count":"0"},"hereNow":{"count":"0"},"referralId":"v-1392478052"},{"id":"4d49b87e4509721e065d27b0","name":"Serbian Embassy","location":{"address":"Belgrave Square","lat":"51.49909867461286","lng":"-0.1528977401044072","distance":"22","postalCode":"SW1X 8","cc":"GB","city":"London","state":"Greater London","country":"United Kingdom"},"categories":[{"id":"4bf58dd8d48988d130941735","name":"Building","pluralName":"Buildings","shortName":"Building","icon":{"prefix":"https:\/\/ss1.4sqi.net\/img\/categories_v2\/building\/default_","suffix":".png"},"primary":"true"}],"verified":"false","restricted":"true","stats":{"checkinsCount":"19","usersCount":"14","tipCount":"0"},"specials":{"count":"0"},"hereNow":{"count":"0"},"referralId":"v-1392478052"},{"id":"4b24fe37f964a520156b24e3","name":"The Star","location":{"address":"Belgrave Mews West","lat":"51.4985003","lng":"-0.155555","distance":"209","cc":"GB","city":"London","state":"Greater London","country":"United Kingdom"},"categories":[{"id":"4bf58dd8d48988d11b941735","name":"Pub","pluralName":"Pubs","shortName":"Pub","icon":{"prefix":"https:\/\/ss1.4sqi.net\/img\/categories_v2\/nightlife\/pub_","suffix":".png"},"primary":"true"}],"verified":"false","restricted":"true","stats":{"checkinsCount":"457","usersCount":"355","tipCount":"6"},"menu":{"type":"Menu","label":"Menu","anchor":"View Menu","url":"https:\/\/foursquare.com\/v\/the-star\/4b24fe37f964a520156b24e3\/menu","mobileUrl":"https:\/\/foursquare.com\/v\/4b24fe37f964a520156b24e3\/device_menu"},"specials":{"count":"0"},"events":{"count":"1","summary":"Polar, Heights, Eagleburner and Howls","items":[{"id":"52f984af11d2ef4ecca714bc","name":"Polar, Heights, Eagleburner and Howls","categories":[{"id":"4e0a4b91bd41eda0d6092f89","name":"Concert","pluralName":"Concerts","shortName":"Concert","icon":{"prefix":"https:\/\/ss1.4sqi.net\/img\/categories_v2\/arts_entertainment\/musicvenue_","suffix":".png"},"primary":"true"}],"allDay":"true","date":"1392440400","timeZone":"Europe\/London","text":"","url":"http:\/\/www.songkick.com\/concerts\/19518259-polar-at-star-inn?utm_source=4436&utm_medium=partner","provider":{"name":"songkick","iconUrl":{"prefix":"https:\/\/playfoursquare.s3.amazonaws.com\/events\/images\/partners\/sk\/","sizes":["20","40"],"name":"\/logo.png"},"urlText":"more info"},"stats":{"checkinsCount":"0","usersCount":"0"}}]},"hereNow":{"count":"0"},"referralId":"v-1392478052"},{"id":"4b03ff8bf964a520cf5022e3","name":"Embassy of the Federal Republic of Germany","location":{"address":"13 Belgrave Square","lat":"51.49808823991602","lng":"-0.1547311997249354","distance":"189","cc":"GB","city":"London","state":"Greater London","country":"United Kingdom"},"categories":[{"id":"4bf58dd8d48988d12c951735","name":"Embassy \/ Consulate","pluralName":"Embassies \/ Consulates","shortName":"Embassy","icon":{"prefix":"https:\/\/ss1.4sqi.net\/img\/categories_v2\/travel\/embassy_","suffix":".png"},"primary":"true"}],"verified":"false","restricted":"true","stats":{"checkinsCount":"421","usersCount":"217","tipCount":"1"},"specials":{"count":"0"},"hereNow":{"count":"0"},"referralId":"v-1392478052"},{"id":"4d274242b818a35d5ce1898a","name":"Horse & Groom","contact":{"phone":"+442072356980","formattedPhone":"+44 20 7235 6980","facebook":"8029823489"},"location":{"address":"7 Groom Pl","lat":"51.49917702815647","lng":"-0.15085766934548187","distance":"135","postalCode":"SW1X 7BA","cc":"GB","city":"London","state":"Greater London","country":"United Kingdom"},"categories":[{"id":"4bf58dd8d48988d11b941735","name":"Pub","pluralName":"Pubs","shortName":"Pub","icon":{"prefix":"https:\/\/ss1.4sqi.net\/img\/categories_v2\/nightlife\/pub_","suffix":".png"},"primary":"true"}],"verified":"true","restricted":"true","stats":{"checkinsCount":"409","usersCount":"182","tipCount":"4"},"specials":{"count":"0"},"hereNow":{"count":"0"},"storeId":"","referralId":"v-1392478052"},{"id":"4c3e132a6faac9b6cbb60d76","name":"35 Belgrave Sq","location":{"lat":"51.499149","lng":"-0.152466","distance":"28","cc":"GB","country":"United Kingdom"},"categories":[{"id":"4bf58dd8d48988d1f1931735","name":"General Entertainment","pluralName":"General Entertainment","shortName":"Entertainment","icon":{"prefix":"https:\/\/ss1.4sqi.net\/img\/categories_v2\/arts_entertainment\/default_","suffix":".png"},"primary":"true"}],"verified":"false","restricted":"true","stats":{"checkinsCount":"16","usersCount":"15","tipCount":"0"},"specials":{"count":"0"},"hereNow":{"count":"0"},"referralId":"v-1392478052"},{"id":"50ef8fe8067d32769d618377","name":"Ametsa with Arzak Instruction","contact":{"phone":"+442073331234","formattedPhone":"+44 20 7333 1234","twitter":"ametsaarzak"},"location":{"address":"5 Halkin Street","lat":"51.500848880008206","lng":"-0.15204906463623047","distance":"181","postalCode":"SW1X 7DJ","cc":"GB","city":"London","state":"Greater London","country":"United Kingdom"},"categories":[{"id":"4bf58dd8d48988d150941735","name":"Spanish Restaurant","pluralName":"Spanish Restaurants","shortName":"Spanish","icon":{"prefix":"https:\/\/ss1.4sqi.net\/img\/categories_v2\/food\/default_","suffix":".png"},"primary":"true"}],"verified":"true","restricted":"true","stats":{"checkinsCount":"102","usersCount":"79","tipCount":"6"},"url":"http:\/\/www.ametsa.co.uk","menu":{"type":"Menu","label":"Menu","anchor":"View Menu","url":"https:\/\/foursquare.com\/v\/ametsa-with-arzak-instruction\/50ef8fe8067d32769d618377\/menu","mobileUrl":"https:\/\/foursquare.com\/v\/50ef8fe8067d32769d618377\/device_menu"},"specials":{"count":"0"},"hereNow":{"count":"0"},"venuePage":{"id":"45997407"},"storeId":"","referralId":"v-1392478052"},{"id":"4f2d23c1e4b09d49e8241737","name":"Romanian Embassy","location":{"address":"1 Belgrave Square","lat":"51.500368987978966","lng":"-0.15367204396430978","distance":"134","cc":"GB","country":"United Kingdom"},"categories":[{"id":"4bf58dd8d48988d126941735","name":"Government Building","pluralName":"Government Buildings","shortName":"Government","icon":{"prefix":"https:\/\/ss1.4sqi.net\/img\/categories_v2\/building\/government_","suffix":".png"},"primary":"true"}],"verified":"false","restricted":"true","stats":{"checkinsCount":"26","usersCount":"22","tipCount":"0"},"specials":{"count":"0"},"hereNow":{"count":"0"},"referralId":"v-1392478052"},{"id":"4f9643e3754af8efd4261e47","name":"Statue of Jos\u00e9 de San Mart\u00edn","location":{"address":"Belgrave Sq.","lat":"51.49994056325773","lng":"-0.15342235565185547","distance":"84","postalCode":"SW1","cc":"GB","city":"London","state":"Greater London","country":"United Kingdom"},"categories":[{"id":"4bf58dd8d48988d12d941735","name":"Monument \/ Landmark","pluralName":"Monuments \/ Landmarks","shortName":"Landmark","icon":{"prefix":"https:\/\/ss1.4sqi.net\/img\/categories_v2\/building\/government_monument_","suffix":".png"},"primary":"true"}],"verified":"false","restricted":"true","stats":{"checkinsCount":"3","usersCount":"3","tipCount":"0"},"specials":{"count":"0"},"hereNow":{"count":"0"},"referralId":"v-1392478052"},{"id":"4bd533f829eb9c74230a93e1","name":"Belgian Embassy","contact":{"phone":"+442074703700","formattedPhone":"+44 20 7470 3700"},"location":{"address":"17 Grosvenor Crescent","lat":"51.5008755949327","lng":"-0.15335798263549805","distance":"180","postalCode":"SW1X 7EE","cc":"GB","city":"London","state":"Greater London","country":"United Kingdom"},"categories":[{"id":"4bf58dd8d48988d12c951735","name":"Embassy \/ Consulate","pluralName":"Embassies \/ Consulates","shortName":"Embassy","icon":{"prefix":"https:\/\/ss1.4sqi.net\/img\/categories_v2\/travel\/embassy_","suffix":".png"},"primary":"true"}],"verified":"false","restricted":"true","stats":{"checkinsCount":"119","usersCount":"91","tipCount":"1"},"specials":{"count":"0"},"hereNow":{"count":"0"},"referralId":"v-1392478052"},{"id":"4d8218ac0d5b8cfaa07e4c28","name":"Portuguese Embassy","location":{"address":"11 Belgrave Square","lat":"51.499498","lng":"-0.155209","distance":"168","postalCode":"SW1X 8PP","cc":"GB","city":"London","state":"Greater London","country":"United Kingdom"},"categories":[{"id":"4bf58dd8d48988d12c951735","name":"Embassy \/ Consulate","pluralName":"Embassies \/ Consulates","shortName":"Embassy","icon":{"prefix":"https:\/\/ss1.4sqi.net\/img\/categories_v2\/travel\/embassy_","suffix":".png"},"primary":"true"}],"verified":"false","restricted":"true","stats":{"checkinsCount":"56","usersCount":"41","tipCount":"0"},"specials":{"count":"0"},"hereNow":{"count":"0"},"referralId":"v-1392478052"},{"id":"528e1a3911d2a3208e8476eb","name":"Caledonian Club","location":{"lat":"51.50086311293644","lng":"-0.15254234669338282","distance":"176","cc":"GB","country":"United Kingdom"},"categories":[{"id":"4bf58dd8d48988d171941735","name":"Event Space","pluralName":"Event Spaces","shortName":"Event Space","icon":{"prefix":"https:\/\/ss1.4sqi.net\/img\/categories_v2\/building\/eventspace_","suffix":".png"},"primary":"true"}],"verified":"false","restricted":"true","stats":{"checkinsCount":"4","usersCount":"4","tipCount":"0"},"specials":{"count":"0"},"hereNow":{"count":"0"},"referralId":"v-1392478052"},{"id":"4d4d3680d6f3224b076199a6","name":"Istituto italiano","location":{"address":"39 Belgrave Square","lat":"51.49966","lng":"-0.152779","distance":"41","postalCode":"SW1X","cc":"GB","city":"London","state":"Greater London","country":"United Kingdom"},"verified":"false","restricted":"true","stats":{"checkinsCount":"15","usersCount":"7","tipCount":"0"},"specials":{"count":"0"},"hereNow":{"count":"0"},"referralId":"v-1392478052"},{"id":"4b5b7470f964a52047ff28e3","name":"The Caledonian Club","contact":{"phone":"+442072355162","formattedPhone":"+44 20 7235 5162"},"location":{"address":"9 Halkin St","lat":"51.50071945090673","lng":"-0.15274311888407974","distance":"159","postalCode":"SW1X 7DR","cc":"GB","city":"London","state":"Greater London","country":"United Kingdom"},"categories":[{"id":"4bf58dd8d48988d121941735","name":"Lounge","pluralName":"Lounges","shortName":"Lounge","icon":{"prefix":"https:\/\/ss1.4sqi.net\/img\/categories_v2\/nightlife\/lounge_","suffix":".png"},"primary":"true"}],"verified":"false","restricted":"true","stats":{"checkinsCount":"194","usersCount":"147","tipCount":"1"},"url":"http:\/\/www.caledonianclub.com","menu":{"type":"Menu","label":"Menu","anchor":"View Menu","url":"https:\/\/foursquare.com\/v\/the-caledonian-club\/4b5b7470f964a52047ff28e3\/menu","mobileUrl":"https:\/\/foursquare.com\/v\/4b5b7470f964a52047ff28e3\/device_menu"},"specials":{"count":"0"},"hereNow":{"count":"0"},"referralId":"v-1392478052"},{"id":"4c582e6b30d82d7f1e70db62","name":"Fly Mobile HQ London","contact":{"phone":"+442072454600","formattedPhone":"+44 20 7245 4600"},"location":{"address":"Belgrave square 47","lat":"51.49966","lng":"-0.152779","distance":"41","postalCode":"SW1X 8","cc":"GB","city":"London","state":"Greater London","country":"United Kingdom"},"categories":[{"id":"4bf58dd8d48988d124941735","name":"Office","pluralName":"Offices","shortName":"Office","icon":{"prefix":"https:\/\/ss1.4sqi.net\/img\/categories_v2\/building\/default_","suffix":".png"},"primary":"true"}],"verified":"false","restricted":"true","stats":{"checkinsCount":"12","usersCount":"6","tipCount":"0"},"specials":{"count":"0"},"hereNow":{"count":"0"},"referralId":"v-1392478052"},{"id":"4ddada0ee4cd1a49b7d0fb95","name":"95 Eaton sq","location":{"lat":"51.499139","lng":"-0.15353","distance":"53","cc":"GB","city":"London","state":"Greater London","country":"United Kingdom"},"categories":[{"id":"4bf58dd8d48988d163941735","name":"Park","pluralName":"Parks","shortName":"Park","icon":{"prefix":"https:\/\/ss1.4sqi.net\/img\/categories_v2\/parks_outdoors\/park_","suffix":".png"},"primary":"true"}],"verified":"false","restricted":"true","stats":{"checkinsCount":"11","usersCount":"4","tipCount":"0"},"specials":{"count":"0"},"hereNow":{"count":"0"},"referralId":"v-1392478052"},{"id":"4ca26e9ea73cb60cf5231078","name":"Royal College of Defence Studies","location":{"address":"37 Belgrave Square","lat":"51.498831857984555","lng":"-0.15239238739013672","distance":"58","postalCode":"SW1X 8NS","cc":"GB","city":"London","state":"Greater London","country":"United Kingdom"},"categories":[{"id":"4bf58dd8d48988d1a8941735","name":"General College & University","pluralName":"General Colleges & Universities","shortName":"Education","icon":{"prefix":"https:\/\/ss1.4sqi.net\/img\/categories_v2\/education\/other_","suffix":".png"},"primary":"true"}],"verified":"false","restricted":"true","stats":{"checkinsCount":"19","usersCount":"5","tipCount":"0"},"specials":{"count":"0"},"hereNow":{"count":"0"},"referralId":"v-1392478052"},{"id":"4d9c288a6e16a1434ca597b8","name":"Finnish Embassy","contact":{"phone":"+442078386200","formattedPhone":"+44 20 7838 6200"},"location":{"address":"38 Chesham Pl.","lat":"51.497925484878216","lng":"-0.15423351266888138","distance":"181","postalCode":"SW1X 8HW","cc":"GB","city":"London","state":"Greater London","country":"United Kingdom"},"categories":[{"id":"4bf58dd8d48988d12c951735","name":"Embassy \/ Consulate","pluralName":"Embassies \/ Consulates","shortName":"Embassy","icon":{"prefix":"https:\/\/ss1.4sqi.net\/img\/categories_v2\/travel\/embassy_","suffix":".png"},"primary":"true"}],"verified":"false","restricted":"true","stats":{"checkinsCount":"136","usersCount":"88","tipCount":"1"},"specials":{"count":"0"},"hereNow":{"count":"0"},"referralId":"v-1392478052"},{"id":"4c40cb273735be9a866a17a4","name":"Courvoisier Revolutionary spirit","location":{"address":"35 belgrave square","lat":"51.499139","lng":"-0.15353","distance":"53","cc":"GB","city":"London","state":"Greater London","country":"United Kingdom"},"categories":[{"id":"4bf58dd8d48988d1f1931735","name":"General Entertainment","pluralName":"General Entertainment","shortName":"Entertainment","icon":{"prefix":"https:\/\/ss1.4sqi.net\/img\/categories_v2\/arts_entertainment\/default_","suffix":".png"},"primary":"true"}],"verified":"false","restricted":"true","stats":{"checkinsCount":"6","usersCount":"4","tipCount":"0"},"specials":{"count":"0"},"hereNow":{"count":"0"},"referralId":"v-1392478052"},{"id":"5187b095498e33fb760770ef","name":"Boris Bike Station - Belgrave Square","location":{"lat":"51.499631","lng":"-0.152231","distance":"54","cc":"GB","country":"United Kingdom"},"categories":[{"id":"4e4c9077bd41f78e849722f9","name":"Bike Rental \/ Bike Share","pluralName":"Bike Rentals \/ Bike Shares","shortName":"Bike","icon":{"prefix":"https:\/\/ss1.4sqi.net\/img\/categories_v2\/shops\/bikeshop_","suffix":".png"},"primary":"true"}],"verified":"false","restricted":"true","stats":{"checkinsCount":"2","usersCount":"2","tipCount":"0"},"specials":{"count":"0"},"hereNow":{"count":"0"},"referralId":"v-1392478052"},{"id":"4b58b6e7f964a5200f6728e3","name":"man ho","location":{"address":"35 Lavender Hill","lat":"51.499152","lng":"-0.153576","distance":"55","postalCode":"Sw11 5qw","cc":"GB","country":"United Kingdom"},"verified":"false","restricted":"true","stats":{"checkinsCount":"4","usersCount":"3","tipCount":"0"},"specials":{"count":"0"},"hereNow":{"count":"0"},"referralId":"v-1392478052"},{"id":"4b6c0031f964a5200d1f2ce3","name":"Syrian Embassy","location":{"address":"8 Belgrave Square","lat":"51.499783000394885","lng":"-0.15361210211819423","distance":"78","postalCode":"SW1X 8PH","cc":"GB","city":"London","state":"Greater London","country":"United Kingdom"},"categories":[{"id":"4bf58dd8d48988d12c951735","name":"Embassy \/ Consulate","pluralName":"Embassies \/ Consulates","shortName":"Embassy","icon":{"prefix":"https:\/\/ss1.4sqi.net\/img\/categories_v2\/travel\/embassy_","suffix":".png"},"primary":"true"}],"verified":"false","restricted":"true","stats":{"checkinsCount":"34","usersCount":"24","tipCount":"1"},"specials":{"count":"0"},"hereNow":{"count":"0"},"referralId":"v-1392478052"}],"confident":"true"}}