{"meta":{"code":"200"},"response":{"venues":[{"id":"51bb98b5498ea2cd7760ffc5","name":"Bethak Shisha Lounge","contact":{"phone":"+447771332538","formattedPhone":"+44 7771 332538"},"location":{"address":"263,queenstown road","lat":"51.47444992628702","lng":"-0.14695460780257003","distance":"61","postalCode":"sw83np","cc":"GB","city":"London","state":"Greater London","country":"United Kingdom"},"verified":"false","restricted":"true","stats":{"checkinsCount":"23","usersCount":"10","tipCount":"2"},"specials":{"count":"0"},"hereNow":{"count":"1","groups":[{"type":"others","name":"Other people here","count":"1"}]},"referralId":"v-1392478118"},{"id":"4b7c080bf964a52068792fe3","name":"Queenstown Road Railway Station (QRB)","contact":{"phone":"+448457484950","formattedPhone":"+44 845 748 4950","twitter":"nationalrailenq","facebook":"94740547473"},"location":{"address":"Queenstown Rd.","lat":"51.47507838456744","lng":"-0.14635741710662842","distance":"133","postalCode":"SW8 4LP","cc":"GB","city":"London","state":"Greater London","country":"United Kingdom"},"categories":[{"id":"4bf58dd8d48988d129951735","name":"Train Station","pluralName":"Train Stations","shortName":"Train Station","icon":{"prefix":"https:\/\/ss1.4sqi.net\/img\/categories_v2\/travel\/trainstation_","suffix":".png"},"primary":"true"}],"verified":"true","restricted":"true","stats":{"checkinsCount":"2450","usersCount":"1040","tipCount":"12"},"url":"http:\/\/www.nationalrail.co.uk\/stations\/qrb\/details.html","specials":{"count":"0"},"hereNow":{"count":"0"},"storeId":"QRB","referralId":"v-1392478118"},{"id":"4b671fc0f964a520413c2be3","name":"Victoria","contact":{"phone":"+442078199888","formattedPhone":"+44 20 7819 9888"},"location":{"address":"166 Queenstown Rd","lat":"51.472873","lng":"-0.148349","distance":"162","postalCode":"SW8 3QH","cc":"GB","city":"London","state":"Greater London","country":"United Kingdom"},"categories":[{"id":"4bf58dd8d48988d11b941735","name":"Pub","pluralName":"Pubs","shortName":"Pub","icon":{"prefix":"https:\/\/ss1.4sqi.net\/img\/categories_v2\/nightlife\/pub_","suffix":".png"},"primary":"true"}],"verified":"false","restricted":"true","stats":{"checkinsCount":"845","usersCount":"406","tipCount":"12"},"url":"http:\/\/www.victoriabattersea.com","specials":{"count":"0"},"hereNow":{"count":"0"},"referralId":"v-1392478118"},{"id":"4ad82178f964a520c81021e3","name":"Battersea Park Railway Station (BAK)","contact":{"phone":"+448457484950","formattedPhone":"+44 845 748 4950","twitter":"nationalrailenq","facebook":"94740547473"},"location":{"address":"Battersea Park Rd","lat":"51.47681246269551","lng":"-0.14745712280273438","distance":"281","postalCode":"SW8 4LJ","cc":"GB","city":"London","state":"Greater London","country":"United Kingdom"},"categories":[{"id":"4bf58dd8d48988d129951735","name":"Train Station","pluralName":"Train Stations","shortName":"Train Station","icon":{"prefix":"https:\/\/ss1.4sqi.net\/img\/categories_v2\/travel\/trainstation_","suffix":".png"},"primary":"true"}],"verified":"true","restricted":"true","stats":{"checkinsCount":"3232","usersCount":"1399","tipCount":"8"},"url":"http:\/\/www.nationalrail.co.uk\/stations\/bak\/details.html","specials":{"count":"0"},"hereNow":{"count":"0"},"storeId":"BAK","referralId":"v-1392478118"},{"id":"4d13048012916dcb14c0da8a","name":"Coffee Affair","contact":{"twitter":"mycoffeeaffair"},"location":{"address":"Queenstown Road Station","crossStreet":"at Queenstown Rd","lat":"51.475161915853654","lng":"-0.14635205268859863","distance":"139","postalCode":"SW8 4LP","cc":"GB","city":"Nine Elms","state":"Greater London","country":"United Kingdom"},"categories":[{"id":"4bf58dd8d48988d1e0931735","name":"Coffee Shop","pluralName":"Coffee Shops","shortName":"Coffee Shop","icon":{"prefix":"https:\/\/ss1.4sqi.net\/img\/categories_v2\/food\/coffeeshop_","suffix":".png"},"primary":"true"}],"verified":"false","restricted":"true","stats":{"checkinsCount":"406","usersCount":"66","tipCount":"9"},"specials":{"count":"0"},"hereNow":{"count":"0"},"referralId":"v-1392478118"},{"id":"4cd5a1b4b2a437040f757f44","name":"The Magic Garden","contact":{"phone":"+442076224844","formattedPhone":"+44 20 7622 4844","twitter":"magic_pub"},"location":{"address":"231 Battersea Park Rd","lat":"51.475234","lng":"-0.150683","distance":"225","postalCode":"SW11 4LG","cc":"GB","city":"London","state":"Greater London","country":"United Kingdom"},"categories":[{"id":"4bf58dd8d48988d116941735","name":"Bar","pluralName":"Bars","shortName":"Bar","icon":{"prefix":"https:\/\/ss1.4sqi.net\/img\/categories_v2\/nightlife\/bar_","suffix":".png"},"primary":"true"}],"verified":"false","restricted":"true","stats":{"checkinsCount":"864","usersCount":"555","tipCount":"20"},"specials":{"count":"0"},"events":{"count":"1","summary":"Chainska Brassika","items":[{"id":"52d0a670498e9648d6fdcfd2","name":"Chainska Brassika","categories":[{"id":"4e0a4b91bd41eda0d6092f89","name":"Concert","pluralName":"Concerts","shortName":"Concert","icon":{"prefix":"https:\/\/ss1.4sqi.net\/img\/categories_v2\/arts_entertainment\/musicvenue_","suffix":".png"},"primary":"true"}],"allDay":"true","date":"1392440400","timeZone":"Europe\/London","text":"","url":"http:\/\/www.songkick.com\/concerts\/19159524-chainska-brassika-at-magic-garden?utm_source=4436&utm_medium=partner","provider":{"name":"songkick","iconUrl":{"prefix":"https:\/\/playfoursquare.s3.amazonaws.com\/events\/images\/partners\/sk\/","sizes":["20","40"],"name":"\/logo.png"},"urlText":"more info"},"stats":{"checkinsCount":"1","usersCount":"1"}}]},"hereNow":{"count":"0"},"referralId":"v-1392478118"},{"id":"4b7bff21f964a520a7772fe3","name":"Unit 1 Building","location":{"address":"237 Queenstown Road","lat":"51.474192","lng":"-0.147786","distance":"10","cc":"GB","city":"London","state":"Greater London","country":"United Kingdom"},"categories":[{"id":"4bf58dd8d48988d125941735","name":"Tech Startup","pluralName":"Tech Startups","shortName":"Tech Startup","icon":{"prefix":"https:\/\/ss1.4sqi.net\/img\/categories_v2\/shops\/technology_","suffix":".png"},"primary":"true"}],"verified":"false","restricted":"true","stats":{"checkinsCount":"24","usersCount":"2","tipCount":"0"},"specials":{"count":"0"},"hereNow":{"count":"0"},"referralId":"v-1392478118"},{"id":"4ac518bcf964a52092a220e3","name":"The Mason's Arms","contact":{"phone":"+442076222007","formattedPhone":"+44 20 7622 2007","twitter":"masonsbattersea"},"location":{"address":"169 Battersea Park Rd","lat":"51.47692286022314","lng":"-0.14685910248668327","distance":"300","postalCode":"SW8 4BT","cc":"GB","city":"London","state":"Greater London","country":"United Kingdom"},"categories":[{"id":"4bf58dd8d48988d11b941735","name":"Pub","pluralName":"Pubs","shortName":"Pub","icon":{"prefix":"https:\/\/ss1.4sqi.net\/img\/categories_v2\/nightlife\/pub_","suffix":".png"},"primary":"true"}],"verified":"false","restricted":"true","stats":{"checkinsCount":"989","usersCount":"422","tipCount":"12"},"url":"http:\/\/masons-arms-battersea.co.uk","menu":{"type":"Menu","label":"Menu","anchor":"View Menu","url":"https:\/\/foursquare.com\/v\/the-masons-arms\/4ac518bcf964a52092a220e3\/menu","mobileUrl":"https:\/\/foursquare.com\/v\/4ac518bcf964a52092a220e3\/device_menu"},"specials":{"count":"0"},"hereNow":{"count":"0"},"referralId":"v-1392478118"},{"id":"4d9a4387a2adf04d64ba1b49","name":"Turpin House","location":{"lat":"51.475495","lng":"-0.148496","distance":"142","postalCode":"SW11 5HE","cc":"GB","city":"London","state":"Greater London","country":"United Kingdom"},"categories":[{"id":"4d954b06a243a5684965b473","name":"Residential Building (Apartment \/ Condo)","pluralName":"Residential Buildings (Apartments \/ Condos)","shortName":"Residential","icon":{"prefix":"https:\/\/ss1.4sqi.net\/img\/categories_v2\/building\/apartment_","suffix":".png"},"primary":"true"}],"verified":"false","restricted":"true","stats":{"checkinsCount":"40","usersCount":"12","tipCount":"0"},"specials":{"count":"0"},"hereNow":{"count":"0"},"referralId":"v-1392478118"},{"id":"4fba53f6e4b08e9fbc5aa3d1","name":"DeAgostini Publishing UK","location":{"lat":"51.47266004324945","lng":"-0.14669130337006317","distance":"197","cc":"GB","country":"United Kingdom"},"categories":[{"id":"4bf58dd8d48988d124941735","name":"Office","pluralName":"Offices","shortName":"Office","icon":{"prefix":"https:\/\/ss1.4sqi.net\/img\/categories_v2\/building\/default_","suffix":".png"},"primary":"true"}],"verified":"false","restricted":"true","stats":{"checkinsCount":"142","usersCount":"13","tipCount":"0"},"specials":{"count":"0"},"hereNow":{"count":"0"},"referralId":"v-1392478118"},{"id":"4ad82c8cf964a520d31021e3","name":"Battersea Studios","location":{"address":"80 Silverthorne Rd.","lat":"51.47235673290639","lng":"-0.146783299392729","distance":"226","postalCode":"SW8 3HE","cc":"GB","city":"London","state":"Greater London","country":"United Kingdom"},"categories":[{"id":"4bf58dd8d48988d174941735","name":"Coworking Space","pluralName":"Coworking Spaces","shortName":"Coworking Space","icon":{"prefix":"https:\/\/ss1.4sqi.net\/img\/categories_v2\/building\/office_coworkingspace_","suffix":".png"},"primary":"true"}],"verified":"false","restricted":"true","stats":{"checkinsCount":"716","usersCount":"122","tipCount":"4"},"specials":{"count":"0"},"hereNow":{"count":"0"},"referralId":"v-1392478118"},{"id":"4da416b9b3e7236ad7013f79","name":"Farr Vintners","location":{"lat":"51.474738","lng":"-0.146429","distance":"107","cc":"GB","city":"Wandsworth","state":"Greater London","country":"United Kingdom"},"verified":"false","restricted":"true","stats":{"checkinsCount":"2","usersCount":"2","tipCount":"0"},"specials":{"count":"0"},"hereNow":{"count":"0"},"referralId":"v-1392478118"},{"id":"5182d6fe498e37849827458b","name":"Victoria Bus Station","location":{"lat":"51.474275145020854","lng":"-0.14883460270891033","distance":"71","cc":"GB","country":"United Kingdom"},"categories":[{"id":"4bf58dd8d48988d1fe931735","name":"Bus Station","pluralName":"Bus Stations","shortName":"Bus Station","icon":{"prefix":"https:\/\/ss1.4sqi.net\/img\/categories_v2\/travel\/busstation_","suffix":".png"},"primary":"true"}],"verified":"false","restricted":"true","stats":{"checkinsCount":"60","usersCount":"48","tipCount":"0"},"specials":{"count":"0"},"hereNow":{"count":"0"},"referralId":"v-1392478118"},{"id":"52ef7593498efbd596e2c8e0","name":"Julius Rutherfoord","location":{"lat":"51.474518","lng":"-0.14543","distance":"166","cc":"GB","country":"United Kingdom"},"categories":[{"id":"4bf58dd8d48988d124941735","name":"Office","pluralName":"Offices","shortName":"Office","icon":{"prefix":"https:\/\/ss1.4sqi.net\/img\/categories_v2\/building\/default_","suffix":".png"},"primary":"true"}],"verified":"false","restricted":"true","stats":{"checkinsCount":"4","usersCount":"1","tipCount":"0"},"specials":{"count":"0"},"hereNow":{"count":"0"},"referralId":"v-1392478118"},{"id":"4f5611d2e4b006538ab5f8f9","name":"Julian Hand Car Wash","location":{"lat":"51.474325884000656","lng":"-0.1472765956733242","distance":"36","cc":"GB","country":"United Kingdom"},"categories":[{"id":"4bf58dd8d48988d124951735","name":"Automotive Shop","pluralName":"Automotive Shops","shortName":"Automotive","icon":{"prefix":"https:\/\/ss1.4sqi.net\/img\/categories_v2\/shops\/automotive_","suffix":".png"},"primary":"true"}],"verified":"false","restricted":"true","stats":{"checkinsCount":"36","usersCount":"17","tipCount":"2"},"specials":{"count":"0"},"hereNow":{"count":"0"},"referralId":"v-1392478118"},{"id":"4b785ce7f964a52089c82ee3","name":"San Gennaro","contact":{"phone":"+442076220475","formattedPhone":"+44 20 7622 0475"},"location":{"address":"22 Battersea Park Rd","lat":"51.47631129081887","lng":"-0.14855682849884033","distance":"231","postalCode":"SW11 4HY","cc":"GB","city":"Wandsworth","state":"Greater London","country":"United Kingdom"},"categories":[{"id":"4bf58dd8d48988d110941735","name":"Italian Restaurant","pluralName":"Italian Restaurants","shortName":"Italian","icon":{"prefix":"https:\/\/ss1.4sqi.net\/img\/categories_v2\/food\/italian_","suffix":".png"},"primary":"true"}],"verified":"false","restricted":"true","stats":{"checkinsCount":"297","usersCount":"123","tipCount":"15"},"menu":{"type":"Menu","label":"Menu","anchor":"View Menu","url":"https:\/\/foursquare.com\/v\/san-gennaro\/4b785ce7f964a52089c82ee3\/menu","mobileUrl":"https:\/\/foursquare.com\/v\/4b785ce7f964a52089c82ee3\/device_menu"},"specials":{"count":"0"},"hereNow":{"count":"0"},"referralId":"v-1392478118"},{"id":"4f5f0e99e4b0b97ed944e966","name":"Auto Stop","location":{"lat":"51.47473695236053","lng":"-0.14727169777118598","distance":"61","cc":"GB","country":"United Kingdom"},"categories":[{"id":"4bf58dd8d48988d130941735","name":"Building","pluralName":"Buildings","shortName":"Building","icon":{"prefix":"https:\/\/ss1.4sqi.net\/img\/categories_v2\/building\/default_","suffix":".png"},"primary":"true"}],"verified":"false","restricted":"true","stats":{"checkinsCount":"3","usersCount":"3","tipCount":"0"},"specials":{"count":"0"},"hereNow":{"count":"0"},"referralId":"v-1392478118"},{"id":"4babd54ef964a5207ccd3ae3","name":"New City","location":{"lat":"51.47585020782898","lng":"-0.14901280403137207","distance":"192","cc":"GB","city":"Wandsworth","state":"Greater London","country":"United Kingdom"},"categories":[{"id":"4bf58dd8d48988d145941735","name":"Chinese Restaurant","pluralName":"Chinese Restaurants","shortName":"Chinese","icon":{"prefix":"https:\/\/ss1.4sqi.net\/img\/categories_v2\/food\/chinese_","suffix":".png"},"primary":"true"}],"verified":"false","restricted":"true","stats":{"checkinsCount":"97","usersCount":"39","tipCount":"1"},"specials":{"count":"0"},"hereNow":{"count":"0"},"referralId":"v-1392478118"},{"id":"4b9aaa5cf964a5202acb35e3","name":"Kew","location":{"lat":"51.474804","lng":"-0.14824","distance":"64","cc":"GB","country":"United Kingdom"},"categories":[{"id":"4bf58dd8d48988d114951735","name":"Bookstore","pluralName":"Bookstores","shortName":"Bookstore","icon":{"prefix":"https:\/\/ss1.4sqi.net\/img\/categories_v2\/shops\/bookstore_","suffix":".png"},"primary":"true"}],"verified":"false","restricted":"true","stats":{"checkinsCount":"2","usersCount":"2","tipCount":"0"},"specials":{"count":"0"},"hereNow":{"count":"0"},"referralId":"v-1392478118"},{"id":"4c78f2b981bca093d4aafb14","name":"Safestore Self Storage","contact":{"phone":"+442076221000","formattedPhone":"+44 20 7622 1000","twitter":"safestoreltd"},"location":{"address":"Ingate Pl","lat":"51.47529490730484","lng":"-0.1443082679259932","distance":"266","postalCode":"SW8 3NS","cc":"GB","city":"Wandsworth","state":"Greater London","country":"United Kingdom"},"categories":[{"id":"4f04b1572fb6e1c99f3db0bf","name":"Storage Facility","pluralName":"Storage Facilities","shortName":"Storage","icon":{"prefix":"https:\/\/ss1.4sqi.net\/img\/categories_v2\/shops\/storage_","suffix":".png"},"primary":"true"}],"verified":"false","restricted":"true","stats":{"checkinsCount":"16","usersCount":"12","tipCount":"0"},"url":"http:\/\/www.safestore.co.uk","specials":{"count":"0"},"hereNow":{"count":"0"},"referralId":"v-1392478118"},{"id":"4b853d96f964a5205d5231e3","name":"Kucci Cafe","location":{"lat":"51.47683061589094","lng":"-0.14761614862809128","distance":"283","cc":"GB","city":"London","state":"Greater London","country":"United Kingdom"},"categories":[{"id":"4bf58dd8d48988d16d941735","name":"Caf\u00e9","pluralName":"Caf\u00e9s","shortName":"Caf\u00e9","icon":{"prefix":"https:\/\/ss1.4sqi.net\/img\/categories_v2\/food\/cafe_","suffix":".png"},"primary":"true"}],"verified":"false","restricted":"true","stats":{"checkinsCount":"15","usersCount":"8","tipCount":"0"},"specials":{"count":"0"},"hereNow":{"count":"0"},"referralId":"v-1392478118"},{"id":"511898b0e4b0127187040cba","name":"Bus Stop D @ Battersea Park Station","location":{"lat":"51.477115631103516","lng":"-0.14837980270385742","distance":"317","cc":"GB","country":"United Kingdom"},"categories":[{"id":"4bf58dd8d48988d1fe931735","name":"Bus Station","pluralName":"Bus Stations","shortName":"Bus Station","icon":{"prefix":"https:\/\/ss1.4sqi.net\/img\/categories_v2\/travel\/busstation_","suffix":".png"},"primary":"true"}],"verified":"false","restricted":"true","stats":{"checkinsCount":"15","usersCount":"8","tipCount":"0"},"specials":{"count":"0"},"hereNow":{"count":"0"},"referralId":"v-1392478118"},{"id":"4cc1e68bc844721e2c08d901","name":"Paya and Horse","contact":{"phone":"+442076225011","formattedPhone":"+44 20 7622 5011"},"location":{"address":"181 Battersea Park Road","lat":"51.47587693740494","lng":"-0.14883041381835938","distance":"190","postalCode":"SW11 4LB","cc":"GB","city":"London","state":"Greater London","country":"United Kingdom"},"categories":[{"id":"4bf58dd8d48988d11b941735","name":"Pub","pluralName":"Pubs","shortName":"Pub","icon":{"prefix":"https:\/\/ss1.4sqi.net\/img\/categories_v2\/nightlife\/pub_","suffix":".png"},"primary":"true"}],"verified":"false","restricted":"true","stats":{"checkinsCount":"116","usersCount":"47","tipCount":"4"},"specials":{"count":"0"},"hereNow":{"count":"0"},"referralId":"v-1392478118"},{"id":"4c5adf5e6407d13aa8a7b528","name":"Total Wardrobe Care","contact":{"phone":"+442074984360","formattedPhone":"+44 20 7498 4360"},"location":{"address":"220a Queenstown Rd","lat":"51.474861206495525","lng":"-0.14719151765286945","distance":"76","postalCode":"SW8 4LP","cc":"GB","city":"London","state":"Greater London","country":"United Kingdom"},"categories":[{"id":"5032781d91d4c4b30a586d5b","name":"Tailor Shop","pluralName":"Tailor Shops","shortName":"Tailor","icon":{"prefix":"https:\/\/ss1.4sqi.net\/img\/categories_v2\/shops\/apparel_","suffix":".png"},"primary":"true"}],"verified":"false","restricted":"true","stats":{"checkinsCount":"7","usersCount":"3","tipCount":"0"},"specials":{"count":"0"},"hereNow":{"count":"0"},"referralId":"v-1392478118"},{"id":"517a1d7f498e8b8334f074e2","name":"Gerratts Carpet Planners","location":{"address":"Southolm Street","lat":"51.475","lng":"-0.148139","distance":"82","postalCode":"SW11","cc":"GB","country":"United Kingdom"},"categories":[{"id":"4bf58dd8d48988d1f4941735","name":"Design Studio","pluralName":"Design Studios","shortName":"Design","icon":{"prefix":"https:\/\/ss1.4sqi.net\/img\/categories_v2\/shops\/design_","suffix":".png"},"primary":"true"}],"verified":"false","restricted":"true","stats":{"checkinsCount":"1","usersCount":"1","tipCount":"0"},"specials":{"count":"0"},"hereNow":{"count":"0"},"referralId":"v-1392478118"},{"id":"4f58d7fde4b0c19b5f124292","name":"Santa Cruz","location":{"address":"173 Battersea Park Road","crossStreet":"Queenstown Road","lat":"51.47600187808908","lng":"-0.1481460493265872","distance":"192","postalCode":"SW8 4LR","cc":"GB","city":"London","state":"Greater London","country":"United Kingdom"},"categories":[{"id":"4bf58dd8d48988d146941735","name":"Deli \/ Bodega","pluralName":"Delis \/ Bodegas","shortName":"Deli \/ Bodega","icon":{"prefix":"https:\/\/ss1.4sqi.net\/img\/categories_v2\/food\/deli_","suffix":".png"},"primary":"true"}],"verified":"false","restricted":"true","stats":{"checkinsCount":"26","usersCount":"11","tipCount":"0"},"specials":{"count":"0"},"hereNow":{"count":"0"},"referralId":"v-1392478118"},{"id":"4c13c3af77cea593535ecf60","name":"Good Food House","contact":{"phone":"+442077202881","formattedPhone":"+44 20 7720 2881"},"location":{"address":"46 Battersea Park Road","lat":"51.47568314762441","lng":"-0.15054702758789062","distance":"245","postalCode":"SW11 4JP","cc":"GB","city":"London","state":"Greater London","country":"United Kingdom"},"categories":[{"id":"4bf58dd8d48988d145941735","name":"Chinese Restaurant","pluralName":"Chinese Restaurants","shortName":"Chinese","icon":{"prefix":"https:\/\/ss1.4sqi.net\/img\/categories_v2\/food\/chinese_","suffix":".png"},"primary":"true"}],"verified":"false","restricted":"true","stats":{"checkinsCount":"84","usersCount":"12","tipCount":"1"},"specials":{"count":"0"},"hereNow":{"count":"0"},"referralId":"v-1392478118"},{"id":"4c0d241bd64c0f47e23e265d","name":"INPS","location":{"lat":"51.472426","lng":"-0.149168","distance":"227","cc":"GB","city":"Wandsworth","state":"Greater London","country":"United Kingdom"},"categories":[{"id":"4bf58dd8d48988d124941735","name":"Office","pluralName":"Offices","shortName":"Office","icon":{"prefix":"https:\/\/ss1.4sqi.net\/img\/categories_v2\/building\/default_","suffix":".png"},"primary":"true"}],"verified":"false","restricted":"true","stats":{"checkinsCount":"103","usersCount":"11","tipCount":"1"},"specials":{"count":"0"},"hereNow":{"count":"0"},"referralId":"v-1392478118"},{"id":"50b872e6e4b0cdd4ba67c67a","name":"Handpicked Collection","location":{"lat":"51.474744125995294","lng":"-0.14620067132313072","distance":"122","cc":"GB","country":"United Kingdom"},"categories":[{"id":"4bf58dd8d48988d124941735","name":"Office","pluralName":"Offices","shortName":"Office","icon":{"prefix":"https:\/\/ss1.4sqi.net\/img\/categories_v2\/building\/default_","suffix":".png"},"primary":"true"}],"verified":"false","restricted":"true","stats":{"checkinsCount":"8","usersCount":"2","tipCount":"0"},"specials":{"count":"0"},"hereNow":{"count":"0"},"referralId":"v-1392478118"},{"id":"4f73071fe4b0c861bc6971dc","name":"Park Court","location":{"lat":"51.475012252585714","lng":"-0.14897176834984285","distance":"114","cc":"GB","country":"United Kingdom"},"categories":[{"id":"4d954b06a243a5684965b473","name":"Residential Building (Apartment \/ Condo)","pluralName":"Residential Buildings (Apartments \/ Condos)","shortName":"Residential","icon":{"prefix":"https:\/\/ss1.4sqi.net\/img\/categories_v2\/building\/apartment_","suffix":".png"},"primary":"true"}],"verified":"false","restricted":"true","stats":{"checkinsCount":"10","usersCount":"8","tipCount":"0"},"specials":{"count":"0"},"hereNow":{"count":"0"},"referralId":"v-1392478118"}],"confident":"true"}}