{"meta":{"code":"200"},"response":{"venues":[{"id":"4ac518b7f964a5202ba120e3","name":"Jumeirah Lowndes Hotel","contact":{"phone":"+442078231234","formattedPhone":"+44 20 7823 1234","twitter":"jumeirahlh","facebook":"77051771428"},"location":{"address":"21 Lowndes St","lat":"51.499276181440614","lng":"-0.15768694244217857","distance":"8","postalCode":"SW1X 9ES","cc":"GB","city":"Knightsbridge","state":"Greater London","country":"United Kingdom"},"categories":[{"id":"4bf58dd8d48988d1fa931735","name":"Hotel","pluralName":"Hotels","shortName":"Hotel","icon":{"prefix":"https:\/\/ss1.4sqi.net\/img\/categories_v2\/travel\/hotel_","suffix":".png"},"primary":"true"}],"verified":"true","restricted":"true","stats":{"checkinsCount":"1270","usersCount":"388","tipCount":"8"},"url":"http:\/\/www.jumeirah.com\/jlh","specials":{"count":"0"},"hereNow":{"count":"0"},"venuePage":{"id":"43669497"},"storeId":"","referralId":"v-1392478052"},{"id":"4ac518dff964a52004aa20e3","name":"Amaya Restaurant","contact":{"phone":"+442078231166","formattedPhone":"+44 20 7823 1166"},"location":{"address":"Halkin Arcade, Motcomb Street","lat":"51.49930704255905","lng":"-0.15728431897942827","distance":"36","postalCode":"SW1X  8JT","cc":"GB","city":"London","state":"Greater London","country":"United Kingdom"},"categories":[{"id":"4bf58dd8d48988d10f941735","name":"Indian Restaurant","pluralName":"Indian Restaurants","shortName":"Indian","icon":{"prefix":"https:\/\/ss1.4sqi.net\/img\/categories_v2\/food\/indian_","suffix":".png"},"primary":"true"}],"verified":"true","restricted":"true","stats":{"checkinsCount":"1519","usersCount":"1220","tipCount":"39"},"url":"http:\/\/www.realindianfood.com","reservations":{"url":"http:\/\/www.toptable.co.uk\/single.aspx?rid=83032&ref=9601"},"specials":{"count":"0"},"hereNow":{"count":"0"},"referralId":"v-1392478052"},{"id":"4c2201b9aa8e9c74235bf4d4","name":"Lowndes Bar & Kitchen","contact":{"phone":"+442078237223","formattedPhone":"+44 20 7823 7223","twitter":"lowndesdining"},"location":{"address":"21 Lowndes Street","lat":"51.49933681844489","lng":"-0.1580596940468013","distance":"18","postalCode":"SW1X9ES","cc":"GB","city":"London","state":"Greater London","country":"United Kingdom"},"categories":[{"id":"4bf58dd8d48988d1c4941735","name":"Restaurant","pluralName":"Restaurants","shortName":"Restaurant","icon":{"prefix":"https:\/\/ss1.4sqi.net\/img\/categories_v2\/food\/default_","suffix":".png"},"primary":"true"}],"verified":"true","restricted":"true","stats":{"checkinsCount":"327","usersCount":"106","tipCount":"1"},"url":"http:\/\/www.lowndesbarandkitchen.co.uk","reservations":{"url":"http:\/\/www.toptable.co.uk\/single.aspx?rid=85078&ref=9601"},"menu":{"type":"Menu","label":"Menu","anchor":"View Menu","url":"https:\/\/foursquare.com\/v\/lowndes-bar--kitchen\/4c2201b9aa8e9c74235bf4d4\/menu","mobileUrl":"https:\/\/foursquare.com\/v\/4c2201b9aa8e9c74235bf4d4\/device_menu"},"specials":{"count":"0"},"hereNow":{"count":"0"},"venuePage":{"id":"43669463"},"storeId":"","referralId":"v-1392478052"},{"id":"4ac518d5f964a5200ba820e3","name":"Zafferano","contact":{"phone":"+442072355800","formattedPhone":"+44 20 7235 5800"},"location":{"address":"15 Lowndes St","lat":"51.49909","lng":"-0.157798","distance":"22","postalCode":"SW1X 9EY","cc":"GB","city":"Belgravia","state":"Greater London","country":"United Kingdom"},"categories":[{"id":"4bf58dd8d48988d110941735","name":"Italian Restaurant","pluralName":"Italian Restaurants","shortName":"Italian","icon":{"prefix":"https:\/\/ss1.4sqi.net\/img\/categories_v2\/food\/italian_","suffix":".png"},"primary":"true"}],"verified":"false","restricted":"true","stats":{"checkinsCount":"778","usersCount":"593","tipCount":"28"},"url":"http:\/\/www.zafferanorestaurant.com","reservations":{"url":"http:\/\/www.toptable.co.uk\/single.aspx?rid=24820&ref=9601"},"menu":{"type":"Menu","label":"Menu","anchor":"View Menu","url":"https:\/\/foursquare.com\/v\/zafferano\/4ac518d5f964a5200ba820e3\/menu","mobileUrl":"https:\/\/foursquare.com\/v\/4ac518d5f964a5200ba820e3\/device_menu"},"specials":{"count":"0"},"hereNow":{"count":"0"},"referralId":"v-1392478052"},{"id":"4b2cfdbcf964a520efcb24e3","name":"Waitrose","contact":{"phone":"+442072354958","formattedPhone":"+44 20 7235 4958","twitter":"waitroseuk"},"location":{"address":"27 Motcomb St.","lat":"51.4989828","lng":"-0.156892","distance":"71","postalCode":"SW1X 8GG","cc":"GB","city":"Belgravia","state":"Greater London","country":"United Kingdom"},"categories":[{"id":"4bf58dd8d48988d118951735","name":"Grocery Store","pluralName":"Grocery Stores","shortName":"Grocery Store","icon":{"prefix":"https:\/\/ss1.4sqi.net\/img\/categories_v2\/shops\/food_grocery_","suffix":".png"},"primary":"true"}],"verified":"false","restricted":"true","stats":{"checkinsCount":"1122","usersCount":"404","tipCount":"6"},"url":"http:\/\/www.waitrose.com","specials":{"count":"0"},"hereNow":{"count":"3","groups":[{"type":"others","name":"Other people here","count":"3"}]},"referralId":"v-1392478052"},{"id":"4ac518b4f964a52080a020e3","name":"Jumeirah Carlton Tower","contact":{"phone":"+442072351234","formattedPhone":"+44 20 7235 1234","twitter":"jumeirahct"},"location":{"address":"Cadogan Place","lat":"51.49842804323518","lng":"-0.15851658431562354","distance":"107","postalCode":"SW1X 9PY","cc":"GB","city":"London","state":"Greater London","country":"United Kingdom"},"categories":[{"id":"4bf58dd8d48988d1fa931735","name":"Hotel","pluralName":"Hotels","shortName":"Hotel","icon":{"prefix":"https:\/\/ss1.4sqi.net\/img\/categories_v2\/travel\/hotel_","suffix":".png"},"primary":"true"}],"verified":"true","restricted":"true","stats":{"checkinsCount":"4113","usersCount":"1688","tipCount":"38"},"url":"http:\/\/www.facebook.com\/jumeirahcarltontower","specials":{"count":"0"},"hereNow":{"count":"0"},"venuePage":{"id":"44478538"},"storeId":"","referralId":"v-1392478052"},{"id":"50f68e92e4b0507e7689e659","name":"L'Eto Caffe","contact":{"twitter":"letocaffe"},"location":{"address":"10 West Halkin St","lat":"51.49864520207961","lng":"-0.15705104627712063","distance":"88","postalCode":"SW1X 8JL","cc":"GB","city":"Belgravia","state":"Greater London","country":"United Kingdom"},"categories":[{"id":"4bf58dd8d48988d16a941735","name":"Bakery","pluralName":"Bakeries","shortName":"Bakery","icon":{"prefix":"https:\/\/ss1.4sqi.net\/img\/categories_v2\/food\/bakery_","suffix":".png"},"primary":"true"}],"verified":"true","restricted":"true","stats":{"checkinsCount":"506","usersCount":"289","tipCount":"18"},"url":"https:\/\/www.facebook.com\/letocaffe","specials":{"count":"0"},"hereNow":{"count":"2","groups":[{"type":"others","name":"Other people here","count":"2"}]},"venuePage":{"id":"71612006"},"referralId":"v-1392478052"},{"id":"518a9ef6498e1f44449739fd","name":"Zuma","location":{"lat":"51.49925993874713","lng":"-0.1579386527698733","distance":"9","cc":"GB","country":"United Kingdom"},"categories":[{"id":"4bf58dd8d48988d121941735","name":"Lounge","pluralName":"Lounges","shortName":"Lounge","icon":{"prefix":"https:\/\/ss1.4sqi.net\/img\/categories_v2\/nightlife\/lounge_","suffix":".png"},"primary":"true"}],"verified":"false","restricted":"true","stats":{"checkinsCount":"25","usersCount":"24","tipCount":"0"},"specials":{"count":"0"},"hereNow":{"count":"0"},"referralId":"v-1392478052"},{"id":"4b9a851ef964a5203fbd35e3","name":"Ottolenghi","contact":{"phone":"+442078232707","formattedPhone":"+44 20 7823 2707","twitter":"ottolenghi"},"location":{"address":"13 Motcomb St","lat":"51.499410884832436","lng":"-0.15664211042611548","distance":"81","postalCode":"SW1X 8LB","cc":"GB","city":"London","state":"Greater London","country":"United Kingdom"},"categories":[{"id":"4bf58dd8d48988d146941735","name":"Deli \/ Bodega","pluralName":"Delis \/ Bodegas","shortName":"Deli \/ Bodega","icon":{"prefix":"https:\/\/ss1.4sqi.net\/img\/categories_v2\/food\/deli_","suffix":".png"},"primary":"true"}],"verified":"false","restricted":"true","stats":{"checkinsCount":"774","usersCount":"465","tipCount":"20"},"url":"http:\/\/www.ottolenghi.co.uk","menu":{"type":"Menu","label":"Menu","anchor":"View Menu","url":"https:\/\/foursquare.com\/v\/ottolenghi\/4b9a851ef964a5203fbd35e3\/menu","mobileUrl":"https:\/\/foursquare.com\/v\/4b9a851ef964a5203fbd35e3\/device_menu"},"specials":{"count":"0"},"hereNow":{"count":"1","groups":[{"type":"others","name":"Other people here","count":"1"}]},"referralId":"v-1392478052"},{"id":"4bfa96e18f32ef3b69ea04aa","name":"Starbucks","contact":{"twitter":"starbucksuk"},"location":{"address":"19a Motcomb St","crossStreet":"at The Halkins","lat":"51.499155","lng":"-0.157081","distance":"52","postalCode":"SW1X 8LB","cc":"GB","city":"City of Westminster","state":"Greater London","country":"United Kingdom"},"categories":[{"id":"4bf58dd8d48988d1e0931735","name":"Coffee Shop","pluralName":"Coffee Shops","shortName":"Coffee Shop","icon":{"prefix":"https:\/\/ss1.4sqi.net\/img\/categories_v2\/food\/coffeeshop_","suffix":".png"},"primary":"true"}],"verified":"true","restricted":"true","stats":{"checkinsCount":"1161","usersCount":"524","tipCount":"10"},"url":"http:\/\/starbucks.co.uk","specials":{"count":"0"},"hereNow":{"count":"0"},"storeId":"12523","referralId":"v-1392478052"},{"id":"4afb17c2f964a5201b1b22e3","name":"The Pantechnicon","contact":{"phone":"+442077306074","formattedPhone":"+44 20 7730 6074","twitter":"thepantechnicon"},"location":{"address":"110 Motcomb St","crossStreet":"Kinnerton St","lat":"51.49956456256871","lng":"-0.1565326481333678","distance":"93","postalCode":"SW1X 8LA","cc":"GB","city":"Belgravia","state":"Greater London","country":"United Kingdom"},"categories":[{"id":"4bf58dd8d48988d155941735","name":"Gastropub","pluralName":"Gastropubs","shortName":"Gastropub","icon":{"prefix":"https:\/\/ss1.4sqi.net\/img\/categories_v2\/food\/gastropub_","suffix":".png"},"primary":"true"}],"verified":"false","restricted":"true","stats":{"checkinsCount":"908","usersCount":"632","tipCount":"9"},"url":"http:\/\/www.thepantechnicon.com","reservations":{"url":"http:\/\/www.toptable.co.uk\/single.aspx?rid=31483&ref=9601"},"menu":{"type":"Menu","label":"Menu","anchor":"View Menu","url":"https:\/\/foursquare.com\/v\/the-pantechnicon\/4afb17c2f964a5201b1b22e3\/menu","mobileUrl":"https:\/\/foursquare.com\/v\/4afb17c2f964a5201b1b22e3\/device_menu"},"specials":{"count":"0"},"hereNow":{"count":"2","groups":[{"type":"others","name":"Other people here","count":"2"}]},"referralId":"v-1392478052"},{"id":"4cac669d44a8224b28d43240","name":"Pierre Herm\u00e9","contact":{"phone":"+442072450317","formattedPhone":"+44 20 7245 0317"},"location":{"address":"13 Lowndes Street","lat":"51.498615","lng":"-0.157558","distance":"76","postalCode":"SW1X 9EX","cc":"GB","city":"London","state":"Greater London","country":"United Kingdom"},"categories":[{"id":"4bf58dd8d48988d1d0941735","name":"Dessert Shop","pluralName":"Dessert Shops","shortName":"Desserts","icon":{"prefix":"https:\/\/ss1.4sqi.net\/img\/categories_v2\/food\/dessert_","suffix":".png"},"primary":"true"}],"verified":"false","restricted":"true","stats":{"checkinsCount":"318","usersCount":"205","tipCount":"6"},"specials":{"count":"0"},"hereNow":{"count":"1","groups":[{"type":"others","name":"Other people here","count":"1"}]},"referralId":"v-1392478052"},{"id":"4ac518f1f964a520f3ad20e3","name":"Christian Louboutin","location":{"address":"23 Motcomb Street","lat":"51.498849","lng":"-0.157594","distance":"51","postalCode":"SW1X 8LB","cc":"GB","city":"London","state":"Greater London","country":"United Kingdom"},"categories":[{"id":"4bf58dd8d48988d107951735","name":"Shoe Store","pluralName":"Shoe Stores","shortName":"Shoes","icon":{"prefix":"https:\/\/ss1.4sqi.net\/img\/categories_v2\/shops\/apparel_shoestore_","suffix":".png"},"primary":"true"}],"verified":"false","restricted":"true","stats":{"checkinsCount":"423","usersCount":"334","tipCount":"6"},"specials":{"count":"0"},"hereNow":{"count":"0"},"referralId":"v-1392478052"},{"id":"4bb375f8715eef3b885786bb","name":"P\u00e9trus","contact":{"phone":"+442075921609","formattedPhone":"+44 20 7592 1609","twitter":"gr_petrus"},"location":{"address":"1 Kinnerton St","lat":"51.499619976553","lng":"-0.15689849853515625","distance":"72","postalCode":"SW1X 8ED","cc":"GB","city":"Knightsbridge","state":"Greater London","country":"United Kingdom"},"categories":[{"id":"4bf58dd8d48988d10c941735","name":"French Restaurant","pluralName":"French Restaurants","shortName":"French","icon":{"prefix":"https:\/\/ss1.4sqi.net\/img\/categories_v2\/food\/french_","suffix":".png"},"primary":"true"}],"verified":"true","restricted":"true","stats":{"checkinsCount":"542","usersCount":"497","tipCount":"23"},"url":"http:\/\/www.gordonramsay.com\/petrus","reservations":{"url":"http:\/\/www.toptable.co.uk\/single.aspx?rid=80209&ref=9601"},"menu":{"type":"Menu","label":"Menu","anchor":"View Menu","url":"https:\/\/foursquare.com\/v\/p%C3%A9trus\/4bb375f8715eef3b885786bb\/menu","mobileUrl":"https:\/\/foursquare.com\/v\/4bb375f8715eef3b885786bb\/device_menu"},"specials":{"count":"0"},"hereNow":{"count":"0"},"storeId":"","referralId":"v-1392478052"},{"id":"4ac518f6f964a52061af20e3","name":"The Peak Health Club & Spa","contact":{"phone":"+442078587300","formattedPhone":"+44 20 7858 7300","twitter":"peakhealthclub","facebook":"146215295412242"},"location":{"address":"Cadogan Pl","crossStreet":"at Sloane St","lat":"51.49857157505252","lng":"-0.15842749426657823","distance":"90","postalCode":"SW1X 9PY","cc":"GB","city":"London","state":"Greater London","country":"United Kingdom"},"categories":[{"id":"4bf58dd8d48988d175941735","name":"Gym \/ Fitness Center","pluralName":"Gyms or Fitness Centers","shortName":"Gym \/ Fitness","icon":{"prefix":"https:\/\/ss1.4sqi.net\/img\/categories_v2\/building\/gym_","suffix":".png"},"primary":"true"}],"verified":"true","restricted":"true","stats":{"checkinsCount":"556","usersCount":"101","tipCount":"3"},"url":"http:\/\/www.jumeirah.com\/Hotels-and-Resorts\/Destinations\/London\/Jumeirah-Carlton-Tower\/Health-Spa\/","specials":{"count":"0"},"hereNow":{"count":"0"},"venuePage":{"id":"44478537"},"storeId":"","referralId":"v-1392478052"},{"id":"4be6b3312457a5933d0dad15","name":"Prada","contact":{"phone":"+442072350008","formattedPhone":"+44 20 7235 0008"},"location":{"address":"43-45 Sloane St.","lat":"51.49860633491331","lng":"-0.15925000644621842","distance":"125","postalCode":"SW1X 9LU","cc":"GB","city":"Kensington","state":"Greater London","country":"United Kingdom"},"categories":[{"id":"4bf58dd8d48988d104951735","name":"Boutique","pluralName":"Boutiques","shortName":"Boutique","icon":{"prefix":"https:\/\/ss1.4sqi.net\/img\/categories_v2\/shops\/apparel_boutique_","suffix":".png"},"primary":"true"}],"verified":"false","restricted":"true","stats":{"checkinsCount":"581","usersCount":"293","tipCount":"3"},"specials":{"count":"0"},"hereNow":{"count":"0"},"referralId":"v-1392478052"},{"id":"4c1c90f8b306c9281a1664b7","name":"Errol Douglas","contact":{"phone":"+442072350110","formattedPhone":"+44 20 7235 0110"},"location":{"address":"18 Motcomb Street","lat":"51.499322","lng":"-0.15716","distance":"44","postalCode":"sw1x 8lb","cc":"GB","city":"City of Westminster","state":"Greater London","country":"United Kingdom"},"categories":[{"id":"4bf58dd8d48988d110951735","name":"Salon \/ Barbershop","pluralName":"Salons \/ Barbershops","shortName":"Salon \/ Barbershop","icon":{"prefix":"https:\/\/ss1.4sqi.net\/img\/categories_v2\/shops\/salon_barber_","suffix":".png"},"primary":"true"}],"verified":"true","restricted":"true","stats":{"checkinsCount":"155","usersCount":"36","tipCount":"2"},"specials":{"count":"0"},"hereNow":{"count":"0"},"venuePage":{"id":"41170514"},"storeId":"","referralId":"v-1392478052"},{"id":"4bf7edeb92d19521e81f5a1f","name":"Rococo Chocolates","contact":{"phone":"+442072450993","formattedPhone":"+44 20 7245 0993"},"location":{"address":"5 Motcomb St.","lat":"51.499487597599185","lng":"-0.15655585031639419","distance":"89","postalCode":"SW1X 8JU","cc":"GB","city":"London","state":"Greater London","country":"United Kingdom"},"categories":[{"id":"4bf58dd8d48988d117951735","name":"Candy Store","pluralName":"Candy Stores","shortName":"Candy Store","icon":{"prefix":"https:\/\/ss1.4sqi.net\/img\/categories_v2\/shops\/candystore_","suffix":".png"},"primary":"true"}],"verified":"false","restricted":"true","stats":{"checkinsCount":"140","usersCount":"112","tipCount":"2"},"specials":{"count":"0"},"hereNow":{"count":"1","groups":[{"type":"others","name":"Other people here","count":"1"}]},"referralId":"v-1392478052"},{"id":"4ee37e7f9adf3982fe8c0f82","name":"Baku Restaurant","contact":{"phone":"+442072355399","formattedPhone":"+44 20 7235 5399"},"location":{"address":"164-165 Sloane St.","lat":"51.49874682418193","lng":"-0.15933105468551687","distance":"121","postalCode":"SW1X 9QB","cc":"GB","city":"London","state":"Greater London","country":"United Kingdom"},"categories":[{"id":"4bf58dd8d48988d115941735","name":"Middle Eastern Restaurant","pluralName":"Middle Eastern Restaurants","shortName":"Middle Eastern","icon":{"prefix":"https:\/\/ss1.4sqi.net\/img\/categories_v2\/food\/default_","suffix":".png"},"primary":"true"}],"verified":"false","restricted":"true","stats":{"checkinsCount":"709","usersCount":"478","tipCount":"13"},"url":"http:\/\/www.bakulondon.com","reservations":{"url":"http:\/\/www.toptable.co.uk\/single.aspx?rid=67459&ref=9601"},"menu":{"type":"Menu","label":"Menu","anchor":"View Menu","url":"https:\/\/foursquare.com\/v\/baku-restaurant\/4ee37e7f9adf3982fe8c0f82\/menu","mobileUrl":"https:\/\/foursquare.com\/v\/4ee37e7f9adf3982fe8c0f82\/device_menu"},"specials":{"count":"0"},"hereNow":{"count":"0"},"referralId":"v-1392478052"},{"id":"50b89ef3498e6c9d5e7341d0","name":"Motcomb Street","location":{"lat":"51.49942084321747","lng":"-0.15714697731205973","distance":"47","cc":"GB","country":"United Kingdom"},"categories":[{"id":"4f2a25ac4b909258e854f55f","name":"Neighborhood","pluralName":"Neighborhoods","shortName":"Neighborhood","icon":{"prefix":"https:\/\/ss1.4sqi.net\/img\/categories_v2\/parks_outdoors\/neighborhood_","suffix":".png"},"primary":"true"}],"verified":"false","restricted":"true","stats":{"checkinsCount":"134","usersCount":"61","tipCount":"0"},"specials":{"count":"0"},"hereNow":{"count":"0"},"referralId":"v-1392478052"},{"id":"5216760311d2bf8014fe407e","name":"Jumeirah Carlton Lobby","location":{"lat":"51.498376","lng":"-0.158365","distance":"108","cc":"GB","country":"United Kingdom"},"categories":[{"id":"4bf58dd8d48988d16d941735","name":"Caf\u00e9","pluralName":"Caf\u00e9s","shortName":"Caf\u00e9","icon":{"prefix":"https:\/\/ss1.4sqi.net\/img\/categories_v2\/food\/cafe_","suffix":".png"},"primary":"true"}],"verified":"false","restricted":"true","stats":{"checkinsCount":"116","usersCount":"76","tipCount":"1"},"specials":{"count":"0"},"hereNow":{"count":"0"},"referralId":"v-1392478052"},{"id":"4b9b9181f964a520231036e3","name":"CHANEL Boutique","contact":{"phone":"+442072356631","formattedPhone":"+44 20 7235 6631","twitter":"chanel"},"location":{"address":"167-169 Sloane Street","lat":"51.498970906184745","lng":"-0.15940126206585442","distance":"116","postalCode":"SW1X 9QF","cc":"GB","city":"London","state":"Greater London","country":"United Kingdom"},"categories":[{"id":"4bf58dd8d48988d104951735","name":"Boutique","pluralName":"Boutiques","shortName":"Boutique","icon":{"prefix":"https:\/\/ss1.4sqi.net\/img\/categories_v2\/shops\/apparel_boutique_","suffix":".png"},"primary":"true"}],"verified":"true","restricted":"true","stats":{"checkinsCount":"440","usersCount":"340","tipCount":"2"},"specials":{"count":"0"},"hereNow":{"count":"0"},"storeId":"151","referralId":"v-1392478052"},{"id":"4f770760e4b07024fa20f8e8","name":"Jumeirah Carlton Terrace","location":{"address":"Cadogan Place","lat":"51.49843842303543","lng":"-0.158932265621438","distance":"122","cc":"GB","city":"London","state":"Greater London","country":"United Kingdom"},"categories":[{"id":"4bf58dd8d48988d1c7941735","name":"Snack Place","pluralName":"Snack Places","shortName":"Snacks","icon":{"prefix":"https:\/\/ss1.4sqi.net\/img\/categories_v2\/food\/snacks_","suffix":".png"},"primary":"true"}],"verified":"false","restricted":"true","stats":{"checkinsCount":"89","usersCount":"45","tipCount":"0"},"specials":{"count":"0"},"hereNow":{"count":"1","groups":[{"type":"others","name":"Other people here","count":"1"}]},"referralId":"v-1392478052"},{"id":"4ac518bdf964a520b0a220e3","name":"Patisserie Valerie","contact":{"phone":"+442072456161","formattedPhone":"+44 20 7245 6161"},"location":{"address":"17 Motcomb St.","lat":"51.49933946133651","lng":"-0.15694141387939453","distance":"59","postalCode":"SW1X 8LB","cc":"GB","city":"Belgravia","state":"Greater London","country":"United Kingdom"},"categories":[{"id":"4bf58dd8d48988d16a941735","name":"Bakery","pluralName":"Bakeries","shortName":"Bakery","icon":{"prefix":"https:\/\/ss1.4sqi.net\/img\/categories_v2\/food\/bakery_","suffix":".png"},"primary":"true"}],"verified":"false","restricted":"true","stats":{"checkinsCount":"378","usersCount":"270","tipCount":"8"},"specials":{"count":"0"},"hereNow":{"count":"0"},"referralId":"v-1392478052"},{"id":"4ac518dcf964a52044a920e3","name":"The Rib Room Bar & Restaurant","contact":{"phone":"+442078587250","formattedPhone":"+44 20 7858 7250","twitter":"ribroomsw1"},"location":{"address":"Jumeirah Carlton Tower, 2 Cadogan Pl","lat":"51.498351","lng":"-0.158754","distance":"123","postalCode":"SW1X 9PY","cc":"GB","city":"Knightsbridge","state":"Greater London","country":"United Kingdom"},"categories":[{"id":"4bf58dd8d48988d1c4941735","name":"Restaurant","pluralName":"Restaurants","shortName":"Restaurant","icon":{"prefix":"https:\/\/ss1.4sqi.net\/img\/categories_v2\/food\/default_","suffix":".png"},"primary":"true"}],"verified":"true","restricted":"true","stats":{"checkinsCount":"371","usersCount":"235","tipCount":"8"},"url":"http:\/\/www.theribroom.co.uk","reservations":{"url":"http:\/\/www.toptable.co.uk\/single.aspx?rid=63211&ref=9601"},"menu":{"type":"Menu","label":"Menu","anchor":"View Menu","url":"https:\/\/foursquare.com\/v\/the-rib-room-bar--restaurant\/4ac518dcf964a52044a920e3\/menu","mobileUrl":"https:\/\/foursquare.com\/v\/4ac518dcf964a52044a920e3\/device_menu"},"specials":{"count":"0"},"hereNow":{"count":"0"},"venuePage":{"id":"44478536"},"storeId":"","referralId":"v-1392478052"},{"id":"4badff6af964a52055793be3","name":"FENDI","location":{"address":"20-22 Sloane Street","lat":"51.499709198206475","lng":"-0.1598944936497247","distance":"152","postalCode":"SW1X","cc":"GB","city":"Paddington","state":"Greater London","country":"United Kingdom"},"categories":[{"id":"4bf58dd8d48988d108951735","name":"Women's Store","pluralName":"Women's Stores","shortName":"Women's Store","icon":{"prefix":"https:\/\/ss1.4sqi.net\/img\/categories_v2\/shops\/apparel_women_","suffix":".png"},"primary":"true"}],"verified":"false","restricted":"true","stats":{"checkinsCount":"77","usersCount":"58","tipCount":"1"},"specials":{"count":"0"},"hereNow":{"count":"1","groups":[{"type":"others","name":"Other people here","count":"1"}]},"referralId":"v-1392478052"},{"id":"5093be24e4b0d8a7b270392f","name":"Pakistan High Commission","contact":{"phone":"+442076649204","formattedPhone":"+44 20 7664 9204"},"location":{"address":"34 \u2013 36 Lowndes Square","lat":"51.49946400452627","lng":"-0.1587943539627619","distance":"71","postalCode":"SW1X 9JN","cc":"GB","city":"London","state":"Greater London","country":"United Kingdom"},"categories":[{"id":"4bf58dd8d48988d12c951735","name":"Embassy \/ Consulate","pluralName":"Embassies \/ Consulates","shortName":"Embassy","icon":{"prefix":"https:\/\/ss1.4sqi.net\/img\/categories_v2\/travel\/embassy_","suffix":".png"},"primary":"true"}],"verified":"false","restricted":"true","stats":{"checkinsCount":"29","usersCount":"22","tipCount":"0"},"specials":{"count":"0"},"hereNow":{"count":"0"},"referralId":"v-1392478052"},{"id":"4e5f46bfc65bba7166a3a6f2","name":"50 Sloane Street","location":{"lat":"51.4987344390869","lng":"-0.15958131908113288","distance":"137","cc":"GB","city":"Kensington","state":"Greater London","country":"United Kingdom"},"categories":[{"id":"4d954b06a243a5684965b473","name":"Residential Building (Apartment \/ Condo)","pluralName":"Residential Buildings (Apartments \/ Condos)","shortName":"Residential","icon":{"prefix":"https:\/\/ss1.4sqi.net\/img\/categories_v2\/building\/apartment_","suffix":".png"},"primary":"true"}],"verified":"false","restricted":"true","stats":{"checkinsCount":"229","usersCount":"133","tipCount":"0"},"specials":{"count":"0"},"hereNow":{"count":"0"},"referralId":"v-1392478052"},{"id":"4ac518ebf964a52050ac20e3","name":"Giorgio Armani","location":{"address":"37 Sloane Street","lat":"51.499010644447104","lng":"-0.15932774278682585","distance":"110","postalCode":"SW1X 9LP","cc":"GB","city":"London","state":"Greater London","country":"United Kingdom"},"categories":[{"id":"4bf58dd8d48988d102951735","name":"Accessories Store","pluralName":"Accessories Stores","shortName":"Accessories","icon":{"prefix":"https:\/\/ss1.4sqi.net\/img\/categories_v2\/shops\/apparel_accessories_","suffix":".png"},"primary":"true"}],"verified":"true","restricted":"true","stats":{"checkinsCount":"108","usersCount":"67","tipCount":"2"},"specials":{"count":"0"},"hereNow":{"count":"0"},"referralId":"v-1392478052"},{"id":"4ac518ebf964a52063ac20e3","name":"Herm\u00e8s","contact":{"phone":"+442078231014","formattedPhone":"+44 20 7823 1014"},"location":{"address":"179 Sloane St","crossStreet":"at Hans Cres","lat":"51.49969415276543","lng":"-0.15969265122042348","distance":"138","postalCode":"SW1X 9QP","cc":"GB","city":"London","state":"Greater London","country":"United Kingdom"},"categories":[{"id":"4bf58dd8d48988d104951735","name":"Boutique","pluralName":"Boutiques","shortName":"Boutique","icon":{"prefix":"https:\/\/ss1.4sqi.net\/img\/categories_v2\/shops\/apparel_boutique_","suffix":".png"},"primary":"true"}],"verified":"false","restricted":"true","stats":{"checkinsCount":"370","usersCount":"269","tipCount":"2"},"url":"http:\/\/www.hermes.com","specials":{"count":"0"},"hereNow":{"count":"0"},"referralId":"v-1392478052"}],"confident":"true"}}