{"meta":{"code":"200"},"response":{"venues":[{"id":"4ac518bff964a52045a320e3","name":"The Lost Angel","contact":{"phone":"+442076222112","formattedPhone":"+44 20 7622 2112"},"location":{"address":"339 Battersea Park Rd","lat":"51.47418626089026","lng":"-0.15703260898590088","distance":"54","postalCode":"SW11 4LS","cc":"GB","city":"London","state":"Greater London","country":"United Kingdom"},"categories":[{"id":"4bf58dd8d48988d116941735","name":"Bar","pluralName":"Bars","shortName":"Bar","icon":{"prefix":"https:\/\/ss1.4sqi.net\/img\/categories_v2\/nightlife\/bar_","suffix":".png"},"primary":"true"}],"verified":"true","restricted":"true","stats":{"checkinsCount":"718","usersCount":"528","tipCount":"18"},"url":"http:\/\/www.lostangel.co.uk","reservations":{"url":"http:\/\/www.toptable.co.uk\/single.aspx?rid=50155&ref=9601"},"menu":{"type":"Menu","label":"Menu","anchor":"View Menu","url":"https:\/\/foursquare.com\/v\/the-lost-angel-london-greater-london\/4ac518bff964a52045a320e3\/menu","mobileUrl":"https:\/\/foursquare.com\/v\/4ac518bff964a52045a320e3\/device_menu"},"specials":{"count":"0"},"hereNow":{"count":"0"},"storeId":"","referralId":"v-1392478117"},{"id":"4b71aad9f964a520cd542de3","name":"Tesco Metro","contact":{"phone":"+448456719420","formattedPhone":"+44 845 671 9420","twitter":"uktescooffers"},"location":{"address":"275-277 Battersea Park Road","lat":"51.47477149433845","lng":"-0.1532989740371704","distance":"316","postalCode":"SW11 4LU","cc":"GB","city":"London","state":"Greater London","country":"United Kingdom"},"categories":[{"id":"4bf58dd8d48988d118951735","name":"Grocery Store","pluralName":"Grocery Stores","shortName":"Grocery Store","icon":{"prefix":"https:\/\/ss1.4sqi.net\/img\/categories_v2\/shops\/food_grocery_","suffix":".png"},"primary":"true"}],"verified":"true","restricted":"true","stats":{"checkinsCount":"474","usersCount":"169","tipCount":"3"},"url":"http:\/\/www.tesco.com","specials":{"count":"0"},"hereNow":{"count":"0"},"storeId":"6133","referralId":"v-1392478117"},{"id":"527a1c3711d2bc2d21020f2d","name":"Nousha Photography","location":{"lat":"51.47444152832031","lng":"-0.1580388993024826","distance":"23","cc":"GB","country":"United Kingdom"},"categories":[{"id":"4eb1bdde3b7b55596b4a7490","name":"Photography Lab","pluralName":"Photography Labs","shortName":"Photography Lab","icon":{"prefix":"https:\/\/ss1.4sqi.net\/img\/categories_v2\/shops\/photographylab_","suffix":".png"},"primary":"true"}],"verified":"false","restricted":"true","stats":{"checkinsCount":"3","usersCount":"2","tipCount":"0"},"specials":{"count":"0"},"hereNow":{"count":"0"},"referralId":"v-1392478117"},{"id":"4fbe70c3e4b09f409c0b12db","name":"The Gaslight Grill","location":{"address":"339 Battersea Park Road","lat":"51.47410360895851","lng":"-0.15701029789727183","distance":"58","cc":"GB","city":"London","state":"Greater London","country":"United Kingdom"},"categories":[{"id":"4bf58dd8d48988d116941735","name":"Bar","pluralName":"Bars","shortName":"Bar","icon":{"prefix":"https:\/\/ss1.4sqi.net\/img\/categories_v2\/nightlife\/bar_","suffix":".png"},"primary":"true"}],"verified":"false","restricted":"true","stats":{"checkinsCount":"21","usersCount":"19","tipCount":"2"},"specials":{"count":"0"},"hereNow":{"count":"0"},"referralId":"v-1392478117"},{"id":"4b4393cbf964a5209ae325e3","name":"The Lighthouse","contact":{"twitter":"lighthousesw11"},"location":{"address":"441 Battersea Park Rd","lat":"51.472823585353815","lng":"-0.16262635628680888","distance":"372","postalCode":"SW11 4LR","cc":"GB","city":"London","state":"Greater London","country":"United Kingdom"},"categories":[{"id":"4bf58dd8d48988d11b941735","name":"Pub","pluralName":"Pubs","shortName":"Pub","icon":{"prefix":"https:\/\/ss1.4sqi.net\/img\/categories_v2\/nightlife\/pub_","suffix":".png"},"primary":"true"}],"verified":"false","restricted":"true","stats":{"checkinsCount":"1079","usersCount":"400","tipCount":"18"},"url":"http:\/\/www.thelighthousebattersea.com","reservations":{"url":"http:\/\/www.toptable.co.uk\/single.aspx?rid=67525&ref=9601"},"menu":{"type":"Menu","label":"Menu","anchor":"View Menu","url":"https:\/\/foursquare.com\/v\/the-lighthouse\/4b4393cbf964a5209ae325e3\/menu","mobileUrl":"https:\/\/foursquare.com\/v\/4b4393cbf964a5209ae325e3\/device_menu"},"specials":{"count":"0"},"hereNow":{"count":"0"},"referralId":"v-1392478117"},{"id":"50e1661ae4b0f6dd198d0044","name":"Hotel So Park","location":{"lat":"51.47441367534487","lng":"-0.1569385896849311","distance":"61","postalCode":"SW114NB","cc":"GB","country":"United Kingdom"},"categories":[{"id":"4bf58dd8d48988d1fb931735","name":"Motel","pluralName":"Motels","shortName":"Motel","icon":{"prefix":"https:\/\/ss1.4sqi.net\/img\/categories_v2\/travel\/hotel_","suffix":".png"},"primary":"true"}],"verified":"false","restricted":"true","stats":{"checkinsCount":"61","usersCount":"30","tipCount":"0"},"specials":{"count":"0"},"hereNow":{"count":"0"},"referralId":"v-1392478117"},{"id":"522b02ca11d21a4d7969f66d","name":"Battersea Park School Swimming Pool","location":{"lat":"51.473483","lng":"-0.158182","distance":"93","cc":"GB","country":"United Kingdom"},"categories":[{"id":"4bf58dd8d48988d15e941735","name":"Pool","pluralName":"Pools","shortName":"Pool","icon":{"prefix":"https:\/\/ss1.4sqi.net\/img\/categories_v2\/parks_outdoors\/pool_","suffix":".png"},"primary":"true"}],"verified":"false","restricted":"true","stats":{"checkinsCount":"5","usersCount":"1","tipCount":"0"},"specials":{"count":"0"},"hereNow":{"count":"0"},"referralId":"v-1392478117"},{"id":"4b5c1f9df964a520d02429e3","name":"Battersea Car Boot Sale","contact":{"phone":"+447941383588","formattedPhone":"+44 7941 383588"},"location":{"address":"401 Battersea Park Rd","crossStreet":"Battersea Park School","lat":"51.47332777110826","lng":"-0.158173332990603","distance":"110","postalCode":"SW11 5AP","cc":"GB","city":"London","state":"Greater London","country":"United Kingdom"},"categories":[{"id":"4bf58dd8d48988d1f7941735","name":"Flea Market","pluralName":"Flea Markets","shortName":"Flea Market","icon":{"prefix":"https:\/\/ss1.4sqi.net\/img\/categories_v2\/shops\/fleamarket_","suffix":".png"},"primary":"true"}],"verified":"false","restricted":"true","stats":{"checkinsCount":"122","usersCount":"99","tipCount":"5"},"url":"http:\/\/www.batterseaboot.com","specials":{"count":"0"},"hereNow":{"count":"0"},"referralId":"v-1392478117"},{"id":"4c9b9b51292a6dcb6f28d976","name":"Park Kindergarden","location":{"address":"Battersea park road","lat":"51.474038","lng":"-0.158077","distance":"33","cc":"GB","city":"Wandsworth","state":"Greater London","country":"United Kingdom"},"categories":[{"id":"4bf58dd8d48988d198941735","name":"College Academic Building","pluralName":"College Academic Buildings","shortName":"Academic Building","icon":{"prefix":"https:\/\/ss1.4sqi.net\/img\/categories_v2\/education\/academicbuilding_","suffix":".png"},"primary":"true"}],"verified":"false","restricted":"true","stats":{"checkinsCount":"1","usersCount":"1","tipCount":"0"},"specials":{"count":"0"},"hereNow":{"count":"0"},"referralId":"v-1392478117"},{"id":"4bc5889d0a30d13ac8215a9c","name":"Captain Correlli's","location":{"address":"132 Battersea Park Road","lat":"51.4745872175105","lng":"-0.15517115592956543","distance":"185","cc":"GB","city":"Wandsworth","state":"Greater London","country":"United Kingdom"},"categories":[{"id":"4bf58dd8d48988d110941735","name":"Italian Restaurant","pluralName":"Italian Restaurants","shortName":"Italian","icon":{"prefix":"https:\/\/ss1.4sqi.net\/img\/categories_v2\/food\/italian_","suffix":".png"},"primary":"true"}],"verified":"false","restricted":"true","stats":{"checkinsCount":"205","usersCount":"57","tipCount":"9"},"specials":{"count":"0"},"hereNow":{"count":"0"},"referralId":"v-1392478117"},{"id":"4ebadec329c29ddd4285f72e","name":"Battersea 5-a-side","location":{"lat":"51.47398802601827","lng":"-0.15785706923361517","distance":"33","cc":"GB","country":"United Kingdom"},"categories":[{"id":"4cce455aebf7b749d5e191f5","name":"Soccer Field","pluralName":"Soccer Fields","shortName":"Soccer Field","icon":{"prefix":"https:\/\/ss1.4sqi.net\/img\/categories_v2\/arts_entertainment\/stadium_soccer_","suffix":".png"},"primary":"true"}],"verified":"false","restricted":"true","stats":{"checkinsCount":"46","usersCount":"16","tipCount":"1"},"specials":{"count":"0"},"hereNow":{"count":"0"},"referralId":"v-1392478117"},{"id":"4f02b8d1f9abd5b3933c2a46","name":"Imran's News","location":{"address":"184 Battersea Park Rd, London Borough of Wandsworth, London SW11 4ND","lat":"51.47402494280846","lng":"-0.15828941688465786","distance":"44","postalCode":"SW11","cc":"GB","city":"London","state":"Greater London","country":"United Kingdom"},"categories":[{"id":"4d954b0ea243a5684a65b473","name":"Convenience Store","pluralName":"Convenience Stores","shortName":"Convenience Stores","icon":{"prefix":"https:\/\/ss1.4sqi.net\/img\/categories_v2\/shops\/conveniencestore_","suffix":".png"},"primary":"true"}],"verified":"false","restricted":"true","stats":{"checkinsCount":"2","usersCount":"1","tipCount":"0"},"specials":{"count":"0"},"hereNow":{"count":"0"},"referralId":"v-1392478117"},{"id":"50964b66e4b0baf4e1fbf788","name":"Milk +","location":{"address":"71-73 Warriner Gardens","lat":"51.474023","lng":"-0.158395","distance":"50","cc":"GB","city":"London","state":"Greater London","country":"United Kingdom"},"categories":[{"id":"4bf58dd8d48988d124941735","name":"Office","pluralName":"Offices","shortName":"Office","icon":{"prefix":"https:\/\/ss1.4sqi.net\/img\/categories_v2\/building\/default_","suffix":".png"},"primary":"true"}],"verified":"false","restricted":"true","stats":{"checkinsCount":"6","usersCount":"6","tipCount":"0"},"specials":{"count":"0"},"hereNow":{"count":"0"},"referralId":"v-1392478117"},{"id":"4ca6e67cd971b1f765f304e1","name":"Battersea Park All Weather Pitches","location":{"address":"Battersea Park","lat":"51.47625114982365","lng":"-0.15964508056640625","distance":"253","postalCode":"SW11 4NJ","cc":"GB","city":"London","state":"Greater London","country":"United Kingdom"},"categories":[{"id":"4cce455aebf7b749d5e191f5","name":"Soccer Field","pluralName":"Soccer Fields","shortName":"Soccer Field","icon":{"prefix":"https:\/\/ss1.4sqi.net\/img\/categories_v2\/arts_entertainment\/stadium_soccer_","suffix":".png"},"primary":"true"}],"verified":"false","restricted":"true","stats":{"checkinsCount":"192","usersCount":"93","tipCount":"1"},"specials":{"count":"0"},"hereNow":{"count":"0"},"referralId":"v-1392478117"},{"id":"4bffd20e369476b0f7558e1f","name":"Purple Dragon","contact":{"phone":"+448448803580","formattedPhone":"+44 844 880 3580"},"location":{"address":"142 Battersea Park Rd.","lat":"51.47451370906064","lng":"-0.1560401916503906","distance":"124","postalCode":"SW11 4ND","cc":"GB","city":"London","state":"Greater London","country":"United Kingdom"},"categories":[{"id":"4f4533814b9074f6e4fb0107","name":"Nursery School","pluralName":"Nursery Schools","shortName":"Nursery School","icon":{"prefix":"https:\/\/ss1.4sqi.net\/img\/categories_v2\/building\/school_","suffix":".png"},"primary":"true"}],"verified":"false","restricted":"true","stats":{"checkinsCount":"12","usersCount":"10","tipCount":"0"},"url":"http:\/\/www.purpledragonplay.com","specials":{"count":"0"},"hereNow":{"count":"0"},"referralId":"v-1392478117"},{"id":"4be85066c5220f473c96a9ca","name":"Holy Cow","contact":{"phone":"+442086738000","formattedPhone":"+44 20 8673 8000"},"location":{"address":"166 Battersea Park Rd","lat":"51.4737853007457","lng":"-0.1598811149597168","distance":"154","postalCode":"SW11 4ND","cc":"GB","city":"Wandsworth","state":"Greater London","country":"United Kingdom"},"categories":[{"id":"4bf58dd8d48988d10f941735","name":"Indian Restaurant","pluralName":"Indian Restaurants","shortName":"Indian","icon":{"prefix":"https:\/\/ss1.4sqi.net\/img\/categories_v2\/food\/indian_","suffix":".png"},"primary":"true"}],"verified":"false","restricted":"true","stats":{"checkinsCount":"42","usersCount":"27","tipCount":"2"},"specials":{"count":"0"},"hereNow":{"count":"0"},"referralId":"v-1392478117"},{"id":"50fd297de4b0b777180abf89","name":"London Dental Implant","contact":{"phone":"+448005677439","formattedPhone":"+44 800 567 7439"},"location":{"address":"158-160 Battersea Park Road","lat":"51.47407462259103","lng":"-0.15935063194522028","distance":"109","postalCode":"SW11 4ND","cc":"GB","city":"London","state":"Greater London","country":"United Kingdom"},"categories":[{"id":"4bf58dd8d48988d178941735","name":"Dentist's Office","pluralName":"Dentist's Offices","shortName":"Dentist's Office","icon":{"prefix":"https:\/\/ss1.4sqi.net\/img\/categories_v2\/building\/medical_dentist_","suffix":".png"},"primary":"true"}],"verified":"true","restricted":"true","stats":{"checkinsCount":"16","usersCount":"5","tipCount":"0"},"specials":{"count":"0"},"hereNow":{"count":"0"},"venuePage":{"id":"48300546"},"storeId":"","referralId":"v-1392478117"},{"id":"4e1ee38662e19e27e24de8eb","name":"Caffettino","contact":{"phone":"+442077203833","formattedPhone":"+44 20 7720 3833"},"location":{"address":"230-232 Battersea Park Rd.","lat":"51.472931","lng":"-0.16194909811019897","distance":"324","postalCode":"SW11 4ND","cc":"GB","city":"London","state":"Greater London","country":"United Kingdom"},"categories":[{"id":"4bf58dd8d48988d16d941735","name":"Caf\u00e9","pluralName":"Caf\u00e9s","shortName":"Caf\u00e9","icon":{"prefix":"https:\/\/ss1.4sqi.net\/img\/categories_v2\/food\/cafe_","suffix":".png"},"primary":"true"}],"verified":"false","restricted":"true","stats":{"checkinsCount":"256","usersCount":"85","tipCount":"10"},"specials":{"count":"0"},"hereNow":{"count":"0"},"referralId":"v-1392478117"},{"id":"4e67924618a8bf0571a7ce5e","name":"Baroncelli","contact":{"phone":"+442077206556","formattedPhone":"+44 20 7720 6556","twitter":"baroncelli_"},"location":{"address":"Unit C3, The Imperial Laundry, 71 Warriner Gardens","lat":"51.474096","lng":"-0.158848","distance":"75","postalCode":"SW11 4XW","cc":"GB","city":"London","state":"Greater London","country":"United Kingdom"},"categories":[{"id":"4bf58dd8d48988d1f4941735","name":"Design Studio","pluralName":"Design Studios","shortName":"Design","icon":{"prefix":"https:\/\/ss1.4sqi.net\/img\/categories_v2\/shops\/design_","suffix":".png"},"primary":"true"}],"verified":"false","restricted":"true","stats":{"checkinsCount":"8","usersCount":"4","tipCount":"1"},"specials":{"count":"0"},"hereNow":{"count":"0"},"referralId":"v-1392478117"},{"id":"4e548d836284ed0e1c173bb5","name":"Bus Stop Battersea Park L","location":{"lat":"51.47467409098039","lng":"-0.15316486358642578","distance":"324","cc":"GB","city":"Wandsworth","state":"Greater London","country":"United Kingdom"},"categories":[{"id":"4bf58dd8d48988d1fe931735","name":"Bus Station","pluralName":"Bus Stations","shortName":"Bus Station","icon":{"prefix":"https:\/\/ss1.4sqi.net\/img\/categories_v2\/travel\/busstation_","suffix":".png"},"primary":"true"}],"verified":"false","restricted":"true","stats":{"checkinsCount":"105","usersCount":"27","tipCount":"0"},"specials":{"count":"0"},"hereNow":{"count":"0"},"referralId":"v-1392478117"},{"id":"4b71dc8af964a520c5602de3","name":"Battersea Park Library","contact":{"phone":"+442088717468","formattedPhone":"+44 20 8871 7468"},"location":{"address":"Battersea Park Rd.","lat":"51.4744802960897","lng":"-0.15450596809387207","distance":"229","postalCode":"SW11 4NF","cc":"GB","city":"Wandsworth","state":"Greater London","country":"United Kingdom"},"categories":[{"id":"4bf58dd8d48988d12f941735","name":"Library","pluralName":"Libraries","shortName":"Library","icon":{"prefix":"https:\/\/ss1.4sqi.net\/img\/categories_v2\/building\/library_","suffix":".png"},"primary":"true"}],"verified":"false","restricted":"true","stats":{"checkinsCount":"30","usersCount":"20","tipCount":"0"},"specials":{"count":"0"},"hereNow":{"count":"0"},"referralId":"v-1392478117"},{"id":"4c8cf23e8018a1cdd4dbf0d2","name":"Cornners","location":{"lat":"51.47356690794322","lng":"-0.16043735765970343","distance":"199","cc":"GB","country":"United Kingdom"},"categories":[{"id":"4bf58dd8d48988d118951735","name":"Grocery Store","pluralName":"Grocery Stores","shortName":"Grocery Store","icon":{"prefix":"https:\/\/ss1.4sqi.net\/img\/categories_v2\/shops\/food_grocery_","suffix":".png"},"primary":"true"}],"verified":"false","restricted":"true","stats":{"checkinsCount":"26","usersCount":"6","tipCount":"1"},"specials":{"count":"0"},"hereNow":{"count":"0"},"referralId":"v-1392478117"},{"id":"4cfa42c7c6cca35d641d8532","name":"Starburger","location":{"address":"Battersea Park Road","lat":"51.474696397138956","lng":"-0.15487914094640756","distance":"207","cc":"GB","city":"Wandsworth","state":"Greater London","country":"United Kingdom"},"categories":[{"id":"4bf58dd8d48988d16c941735","name":"Burger Joint","pluralName":"Burger Joints","shortName":"Burgers","icon":{"prefix":"https:\/\/ss1.4sqi.net\/img\/categories_v2\/food\/burger_","suffix":".png"},"primary":"true"}],"verified":"false","restricted":"true","stats":{"checkinsCount":"23","usersCount":"15","tipCount":"1"},"specials":{"count":"0"},"hereNow":{"count":"0"},"referralId":"v-1392478117"},{"id":"50b09dc2498e8cffe1d6b963","name":"Chesterton Primary School","location":{"lat":"51.473856","lng":"-0.156607","distance":"95","cc":"GB","country":"United Kingdom"},"categories":[{"id":"4bf58dd8d48988d1a2941735","name":"Community College","pluralName":"Community Colleges","shortName":"Community College","icon":{"prefix":"https:\/\/ss1.4sqi.net\/img\/categories_v2\/education\/communitycollege_","suffix":".png"},"primary":"true"}],"verified":"false","restricted":"true","stats":{"checkinsCount":"1","usersCount":"1","tipCount":"0"},"specials":{"count":"0"},"hereNow":{"count":"0"},"referralId":"v-1392478117"},{"id":"4d31b12ef8c9224beb62a9d2","name":"Battersea Park Adventure Playground","location":{"address":"Off Prince of Wales \/ Albert Bridge Rd","lat":"51.476052868242704","lng":"-0.1614373299369366","distance":"319","cc":"GB","city":"Wandsworth","state":"Greater London","country":"United Kingdom"},"categories":[{"id":"4bf58dd8d48988d1e7941735","name":"Playground","pluralName":"Playgrounds","shortName":"Playground","icon":{"prefix":"https:\/\/ss1.4sqi.net\/img\/categories_v2\/parks_outdoors\/playground_","suffix":".png"},"primary":"true"}],"verified":"false","restricted":"true","stats":{"checkinsCount":"155","usersCount":"120","tipCount":"1"},"specials":{"count":"0"},"hereNow":{"count":"0"},"referralId":"v-1392478117"},{"id":"4f4905fa108184d2b39f9272","name":"Sean O'Casey's plaque","contact":{"twitter":"openplaques"},"location":{"address":"49 Overstrand Mansions, Prince of Wales Drive, Battersea Park, Wandsworth","lat":"51.47519889226645","lng":"-0.15751004219055176","distance":"103","postalCode":"SW11 4EZ","cc":"GB","city":"London","state":"Greater London","country":"United Kingdom"},"categories":[{"id":"4deefb944765f83613cdba6e","name":"Historic Site","pluralName":"Historic Sites","shortName":"Historic Site","icon":{"prefix":"https:\/\/ss1.4sqi.net\/img\/categories_v2\/arts_entertainment\/historicsite_","suffix":".png"},"primary":"true"}],"verified":"false","restricted":"true","stats":{"checkinsCount":"1","usersCount":"1","tipCount":"0"},"specials":{"count":"0"},"hereNow":{"count":"0"},"referralId":"v-1392478117"},{"id":"4ce57b63b31737048974aaf6","name":"Golden City","contact":{"phone":"+442076270342","formattedPhone":"+44 20 7627 0342"},"location":{"address":"162 Battersea Park Rd","lat":"51.47378240561439","lng":"-0.15935557945709242","distance":"121","postalCode":"SW11 4ND","cc":"GB","city":"London","state":"Greater London","country":"United Kingdom"},"categories":[{"id":"4bf58dd8d48988d145941735","name":"Chinese Restaurant","pluralName":"Chinese Restaurants","shortName":"Chinese","icon":{"prefix":"https:\/\/ss1.4sqi.net\/img\/categories_v2\/food\/chinese_","suffix":".png"},"primary":"true"}],"verified":"false","restricted":"true","stats":{"checkinsCount":"12","usersCount":"5","tipCount":"0"},"specials":{"count":"0"},"hereNow":{"count":"0"},"referralId":"v-1392478117"},{"id":"4eddd2e29a5286d92360bcba","name":"Bus Stop LT","location":{"lat":"51.474034056564236","lng":"-0.15917963024092535","distance":"99","cc":"GB","country":"United Kingdom"},"categories":[{"id":"4bf58dd8d48988d12b951735","name":"Bus Line","pluralName":"Bus Lines","shortName":"Bus","icon":{"prefix":"https:\/\/ss1.4sqi.net\/img\/categories_v2\/travel\/busstation_","suffix":".png"},"primary":"true"}],"verified":"false","restricted":"true","stats":{"checkinsCount":"90","usersCount":"12","tipCount":"0"},"specials":{"count":"0"},"hereNow":{"count":"0"},"referralId":"v-1392478117"},{"id":"4d36c56a4754f04d65009d7e","name":"Newcombe House","location":{"lat":"51.474332","lng":"-0.156029","distance":"123","cc":"GB","city":"Wandsworth","state":"Greater London","country":"United Kingdom"},"categories":[{"id":"4bf58dd8d48988d130941735","name":"Building","pluralName":"Buildings","shortName":"Building","icon":{"prefix":"https:\/\/ss1.4sqi.net\/img\/categories_v2\/building\/default_","suffix":".png"},"primary":"true"}],"verified":"false","restricted":"true","stats":{"checkinsCount":"26","usersCount":"3","tipCount":"0"},"specials":{"count":"0"},"hereNow":{"count":"0"},"referralId":"v-1392478117"},{"id":"50eebeb0e4b00427f0a043e7","name":"Nero Roasting Company","location":{"address":"Parkfield Industrial Estate","crossStreet":"Culvert Rd.","lat":"51.4718264695807","lng":"-0.1528949360990099","distance":"436","postalCode":"SW11","cc":"GB","city":"London","state":"Greater London","country":"United Kingdom"},"categories":[{"id":"4eb1bea83b7b6f98df247e06","name":"Factory","pluralName":"Factories","shortName":"Factory","icon":{"prefix":"https:\/\/ss1.4sqi.net\/img\/categories_v2\/building\/factory_","suffix":".png"},"primary":"true"}],"verified":"false","restricted":"true","stats":{"checkinsCount":"17","usersCount":"9","tipCount":"0"},"specials":{"count":"0"},"hereNow":{"count":"0"},"referralId":"v-1392478117"}],"confident":"true"}}