{"meta":{"code":"200"},"response":{"venues":[{"id":"4b52fb99f964a520f08b27e3","name":"Chelsea and Westminster Hospital","contact":{"phone":"+442087468000","formattedPhone":"+44 20 8746 8000","twitter":"chelwestft"},"location":{"address":"369 Fulham Rd","lat":"51.48475369465448","lng":"-0.18189973745727236","distance":"81","postalCode":"SW10 9NH","cc":"GB","city":"Fulham","state":"Greater London","country":"United Kingdom"},"categories":[{"id":"4bf58dd8d48988d196941735","name":"Hospital","pluralName":"Hospitals","shortName":"Hospital","icon":{"prefix":"https:\/\/ss1.4sqi.net\/img\/categories_v2\/building\/medical_hospital_","suffix":".png"},"primary":"true"}],"verified":"false","restricted":"true","stats":{"checkinsCount":"3479","usersCount":"1159","tipCount":"27"},"url":"http:\/\/www.chelwest.nhs.uk","specials":{"count":"0"},"hereNow":{"count":"0"},"referralId":"v-1392478088"},{"id":"4b9fbf67f964a520003b37e3","name":"Carluccio's","contact":{"phone":"+442073765960","formattedPhone":"+44 20 7376 5960","twitter":"carluccioscaffe"},"location":{"address":"236 Fulham Rd.","lat":"51.4851645166356","lng":"-0.18269062042236328","distance":"97","postalCode":"SW10 9NB","cc":"GB","city":"Chelsea","state":"Greater London","country":"United Kingdom"},"categories":[{"id":"4bf58dd8d48988d110941735","name":"Italian Restaurant","pluralName":"Italian Restaurants","shortName":"Italian","icon":{"prefix":"https:\/\/ss1.4sqi.net\/img\/categories_v2\/food\/italian_","suffix":".png"},"primary":"true"}],"verified":"false","restricted":"true","stats":{"checkinsCount":"560","usersCount":"316","tipCount":"3"},"url":"http:\/\/www.carluccios.com","specials":{"count":"0"},"hereNow":{"count":"0"},"referralId":"v-1392478088"},{"id":"4c1b64c1b306c928a70d62b7","name":"Starbucks","contact":{"twitter":"starbucksuk"},"location":{"address":"Unit A and B, 369 Fulham Road","crossStreet":"At Chelsea & Westminster Hospital","lat":"51.48516974080778","lng":"-0.18216937559607982","distance":"107","postalCode":"SW10 9TR","cc":"GB","city":"London","state":"Greater London","country":"United Kingdom"},"categories":[{"id":"4bf58dd8d48988d1e0931735","name":"Coffee Shop","pluralName":"Coffee Shops","shortName":"Coffee Shop","icon":{"prefix":"https:\/\/ss1.4sqi.net\/img\/categories_v2\/food\/coffeeshop_","suffix":".png"},"primary":"true"}],"verified":"true","restricted":"true","stats":{"checkinsCount":"524","usersCount":"299","tipCount":"1"},"url":"http:\/\/starbucks.co.uk","specials":{"count":"0"},"hereNow":{"count":"0"},"storeId":"12151","referralId":"v-1392478088"},{"id":"4d5015d1bd6ff04df95ee40c","name":"Boots","location":{"address":"Fulham Rd.","crossStreet":"Hollywood Rd.","lat":"51.48491063673794","lng":"-0.18256187438964844","distance":"71","cc":"GB","country":"United Kingdom"},"categories":[{"id":"4bf58dd8d48988d10f951735","name":"Drugstore \/ Pharmacy","pluralName":"Drugstores \/ Pharmacies","shortName":"Pharmacy","icon":{"prefix":"https:\/\/ss1.4sqi.net\/img\/categories_v2\/shops\/pharmacy_","suffix":".png"},"primary":"true"}],"verified":"false","restricted":"true","stats":{"checkinsCount":"75","usersCount":"50","tipCount":"0"},"specials":{"count":"0"},"hereNow":{"count":"0"},"referralId":"v-1392478088"},{"id":"4f32da72e4b05255bda547b1","name":"Made in Italy","contact":{"phone":"+442073528484","formattedPhone":"+44 20 7352 8484","twitter":"madeinitalygrp"},"location":{"address":"2 Hollywood Rd","lat":"51.48595160451192","lng":"-0.18429360145520166","distance":"211","postalCode":"SW109HL","cc":"GB","city":"London","state":"Greater London","country":"United Kingdom"},"categories":[{"id":"4bf58dd8d48988d110941735","name":"Italian Restaurant","pluralName":"Italian Restaurants","shortName":"Italian","icon":{"prefix":"https:\/\/ss1.4sqi.net\/img\/categories_v2\/food\/italian_","suffix":".png"},"primary":"true"}],"verified":"true","restricted":"true","stats":{"checkinsCount":"119","usersCount":"86","tipCount":"2"},"url":"http:\/\/www.madeinitalygroup.co.uk","menu":{"type":"Menu","label":"Menu","anchor":"View Menu","url":"https:\/\/foursquare.com\/v\/made-in-italy\/4f32da72e4b05255bda547b1\/menu","mobileUrl":"https:\/\/foursquare.com\/v\/4f32da72e4b05255bda547b1\/device_menu"},"specials":{"count":"0"},"hereNow":{"count":"2","groups":[{"type":"others","name":"Other people here","count":"2"}]},"venuePage":{"id":"34210786"},"storeId":"https:\/\/it.foursquare.com\/madeinitalygrp\/","referralId":"v-1392478088"},{"id":"4e9c18feb63497cdaa74cbf3","name":"Earls Court & West Brompton Delivery Offiice","location":{"lat":"51.48440767345523","lng":"-0.18390449325691774","distance":"77","cc":"GB","city":"\u041a\u0435\u043d\u0441\u0438\u043d\u0433\u0442\u043e\u043d","country":"United Kingdom"},"categories":[{"id":"4bf58dd8d48988d172941735","name":"Post Office","pluralName":"Post Offices","shortName":"Post Office","icon":{"prefix":"https:\/\/ss1.4sqi.net\/img\/categories_v2\/building\/postoffice_","suffix":".png"},"primary":"true"}],"verified":"false","restricted":"true","stats":{"checkinsCount":"19","usersCount":"13","tipCount":"0"},"specials":{"count":"0"},"hereNow":{"count":"0"},"referralId":"v-1392478088"},{"id":"4b23fa7ef964a520425e24e3","name":"Rossopomodoro","contact":{"phone":"+442073527677","formattedPhone":"+44 20 7352 7677"},"location":{"address":"214 Fulham Rd","lat":"51.48546810623377","lng":"-0.18162595479865337","distance":"154","postalCode":"SW10 9NB","cc":"GB","city":"London","state":"Greater London","country":"United Kingdom"},"categories":[{"id":"4bf58dd8d48988d110941735","name":"Italian Restaurant","pluralName":"Italian Restaurants","shortName":"Italian","icon":{"prefix":"https:\/\/ss1.4sqi.net\/img\/categories_v2\/food\/italian_","suffix":".png"},"primary":"true"}],"verified":"false","restricted":"true","stats":{"checkinsCount":"383","usersCount":"256","tipCount":"17"},"url":"http:\/\/www.rossopomodoro.co.uk\/index.php?s=res&p=che","menu":{"type":"Menu","label":"Menu","anchor":"View Menu","url":"https:\/\/foursquare.com\/v\/rossopomodoro\/4b23fa7ef964a520425e24e3\/menu","mobileUrl":"https:\/\/foursquare.com\/v\/4b23fa7ef964a520425e24e3\/device_menu"},"specials":{"count":"0"},"hereNow":{"count":"0"},"referralId":"v-1392478088"},{"id":"52613d1d11d292805ae57662","name":"Subway","location":{"lat":"51.484758102786515","lng":"-0.18171069735982467","distance":"91","cc":"GB","country":"United Kingdom"},"categories":[{"id":"4bf58dd8d48988d1c5941735","name":"Sandwich Place","pluralName":"Sandwich Places","shortName":"Sandwiches","icon":{"prefix":"https:\/\/ss1.4sqi.net\/img\/categories_v2\/food\/sandwiches_","suffix":".png"},"primary":"true"}],"verified":"false","restricted":"true","stats":{"checkinsCount":"7","usersCount":"6","tipCount":"1"},"specials":{"count":"0"},"hereNow":{"count":"0"},"referralId":"v-1392478088"},{"id":"4ca07b370e9bb1f73cb0f85f","name":"Post Office","location":{"address":"369 Fulham rd.","lat":"51.484778035972866","lng":"-0.18330389309920453","distance":"64","postalCode":"SW10","cc":"GB","country":"United Kingdom"},"categories":[{"id":"4bf58dd8d48988d172941735","name":"Post Office","pluralName":"Post Offices","shortName":"Post Office","icon":{"prefix":"https:\/\/ss1.4sqi.net\/img\/categories_v2\/building\/postoffice_","suffix":".png"},"primary":"true"}],"verified":"false","restricted":"true","stats":{"checkinsCount":"70","usersCount":"39","tipCount":"0"},"specials":{"count":"0"},"hereNow":{"count":"0"},"referralId":"v-1392478088"},{"id":"4b9f7375f964a520842337e3","name":"Richer Sounds","contact":{"phone":"+442073528496","formattedPhone":"+44 20 7352 8496"},"location":{"address":"258A Fulham Road","lat":"51.484320521212844","lng":"-0.1838592239967509","distance":"73","postalCode":"SW10 9EL","cc":"GB","city":"London","state":"Greater London","country":"United Kingdom"},"categories":[{"id":"4bf58dd8d48988d122951735","name":"Electronics Store","pluralName":"Electronics Stores","shortName":"Electronics","icon":{"prefix":"https:\/\/ss1.4sqi.net\/img\/categories_v2\/shops\/technology_","suffix":".png"},"primary":"true"}],"verified":"false","restricted":"true","stats":{"checkinsCount":"61","usersCount":"36","tipCount":"0"},"specials":{"count":"0"},"hereNow":{"count":"0"},"referralId":"v-1392478088"},{"id":"505e4835e4b0c1f8b710bbc1","name":"Dukebox","contact":{"phone":"+442073526200","formattedPhone":"+44 20 7352 6200","twitter":"dukebox_london"},"location":{"address":"266 Fulham Rd","lat":"51.48436070448602","lng":"-0.1844095870124917","distance":"111","postalCode":"SW10 9EL","cc":"GB","city":"Chelsea","state":"Greater London","country":"United Kingdom"},"categories":[{"id":"4bf58dd8d48988d11f941735","name":"Nightclub","pluralName":"Nightclubs","shortName":"Nightclub","icon":{"prefix":"https:\/\/ss1.4sqi.net\/img\/categories_v2\/nightlife\/nightclub_","suffix":".png"},"primary":"true"}],"verified":"false","restricted":"true","stats":{"checkinsCount":"121","usersCount":"102","tipCount":"2"},"url":"http:\/\/www.dukebox.uk.com","specials":{"count":"0"},"hereNow":{"count":"0"},"referralId":"v-1392478088"},{"id":"4bf700d15efe2d7f6f2e6834","name":"PizzaExpress","contact":{"phone":"+442073525300","formattedPhone":"+44 20 7352 5300","twitter":"pizzaexpress"},"location":{"address":"363 Fulham Road","lat":"51.48565382","lng":"-0.181081","distance":"193","postalCode":"SW10 9TN","cc":"GB","city":"Chelsea","state":"Greater London","country":"United Kingdom"},"categories":[{"id":"4bf58dd8d48988d1ca941735","name":"Pizza Place","pluralName":"Pizza Places","shortName":"Pizza","icon":{"prefix":"https:\/\/ss1.4sqi.net\/img\/categories_v2\/food\/pizza_","suffix":".png"},"primary":"true"}],"verified":"true","restricted":"true","stats":{"checkinsCount":"161","usersCount":"120","tipCount":"0"},"url":"http:\/\/www.pizzaexpress.com","specials":{"count":"0"},"hereNow":{"count":"0"},"storeId":"","referralId":"v-1392478088"},{"id":"52f24c99498e24c61b1872cc","name":"Post Office (Londis)","location":{"address":"Fulham Road","lat":"51.4852619545354","lng":"-0.1822675442286745","distance":"114","cc":"GB","city":"London","state":"Greater London","country":"United Kingdom"},"categories":[{"id":"4bf58dd8d48988d172941735","name":"Post Office","pluralName":"Post Offices","shortName":"Post Office","icon":{"prefix":"https:\/\/ss1.4sqi.net\/img\/categories_v2\/building\/postoffice_","suffix":".png"},"primary":"true"}],"verified":"false","restricted":"true","stats":{"checkinsCount":"1","usersCount":"1","tipCount":"0"},"specials":{"count":"0"},"hereNow":{"count":"0"},"referralId":"v-1392478088"},{"id":"51680de5e4b08b494c5b9a21","name":"Smiles Dental","location":{"address":"242-244 Fulham Road, Chelsea","lat":"51.48477323616386","lng":"-0.18309136362376985","distance":"57","postalCode":"SW10 9NA","cc":"GB","city":"London","state":"Greater London","country":"United Kingdom"},"categories":[{"id":"4bf58dd8d48988d178941735","name":"Dentist's Office","pluralName":"Dentist's Offices","shortName":"Dentist's Office","icon":{"prefix":"https:\/\/ss1.4sqi.net\/img\/categories_v2\/building\/medical_dentist_","suffix":".png"},"primary":"true"}],"verified":"false","restricted":"true","stats":{"checkinsCount":"5","usersCount":"4","tipCount":"0"},"specials":{"count":"0"},"hereNow":{"count":"0"},"referralId":"v-1392478088"},{"id":"50f67c49e4b06699befd70f7","name":"Pret A Manger","location":{"address":"200 Fulham Road","crossStreet":"Seymour Walk","lat":"51.485539","lng":"-0.181633","distance":"161","cc":"GB","city":"London","state":"Greater London","country":"United Kingdom"},"categories":[{"id":"4bf58dd8d48988d1c5941735","name":"Sandwich Place","pluralName":"Sandwich Places","shortName":"Sandwiches","icon":{"prefix":"https:\/\/ss1.4sqi.net\/img\/categories_v2\/food\/sandwiches_","suffix":".png"},"primary":"true"}],"verified":"false","restricted":"true","stats":{"checkinsCount":"76","usersCount":"51","tipCount":"1"},"specials":{"count":"0"},"hereNow":{"count":"0"},"referralId":"v-1392478088"},{"id":"4feb594be4b0676927b32ba2","name":"Orchid","location":{"lat":"51.485946292818305","lng":"-0.18093267625241313","distance":"225","cc":"GB","country":"United Kingdom"},"categories":[{"id":"4bf58dd8d48988d14a941735","name":"Vietnamese Restaurant","pluralName":"Vietnamese Restaurants","shortName":"Vietnamese","icon":{"prefix":"https:\/\/ss1.4sqi.net\/img\/categories_v2\/food\/default_","suffix":".png"},"primary":"true"}],"verified":"false","restricted":"true","stats":{"checkinsCount":"92","usersCount":"67","tipCount":"5"},"specials":{"count":"0"},"hereNow":{"count":"0"},"referralId":"v-1392478088"},{"id":"4b729b2df964a5204d802de3","name":"Cyclopedia","location":{"address":"256 Fulham Rd","lat":"51.48458814066356","lng":"-0.18338193789763066","distance":"52","postalCode":"SW10 9EL","cc":"GB","city":"London","state":"Greater London","country":"United Kingdom"},"categories":[{"id":"4bf58dd8d48988d115951735","name":"Bike Shop","pluralName":"Bike Shops","shortName":"Bike shop","icon":{"prefix":"https:\/\/ss1.4sqi.net\/img\/categories_v2\/shops\/bikeshop_","suffix":".png"},"primary":"true"}],"verified":"false","restricted":"true","stats":{"checkinsCount":"84","usersCount":"40","tipCount":"1"},"specials":{"count":"0"},"hereNow":{"count":"0"},"referralId":"v-1392478088"},{"id":"4bcf001bb6c49c7475f59791","name":"Yumenoki","contact":{"phone":"+442073512777","formattedPhone":"+44 20 7351 2777"},"location":{"address":"204 fulham rd","lat":"51.48568674444444","lng":"-0.181281","distance":"187","postalCode":"SW109PJ","cc":"GB","city":"London","state":"Greater London","country":"United Kingdom"},"categories":[{"id":"4bf58dd8d48988d111941735","name":"Japanese Restaurant","pluralName":"Japanese Restaurants","shortName":"Japanese","icon":{"prefix":"https:\/\/ss1.4sqi.net\/img\/categories_v2\/food\/japanese_","suffix":".png"},"primary":"true"}],"verified":"false","restricted":"true","stats":{"checkinsCount":"130","usersCount":"86","tipCount":"10"},"url":"http:\/\/www.yumenoki.co.uk","reservations":{"url":"http:\/\/www.toptable.co.uk\/single.aspx?rid=92367&ref=9601"},"menu":{"type":"Menu","label":"Menu","anchor":"View Menu","url":"https:\/\/foursquare.com\/v\/yumenoki\/4bcf001bb6c49c7475f59791\/menu","mobileUrl":"https:\/\/foursquare.com\/v\/4bcf001bb6c49c7475f59791\/device_menu"},"specials":{"count":"0"},"hereNow":{"count":"0"},"referralId":"v-1392478088"},{"id":"4db94d3b0437609120fe7c3f","name":"The Penny Black Restaurant & Bar","location":{"address":"212 Fulham Road","lat":"51.48566318776585","lng":"-0.1816262552335811","distance":"173","postalCode":"SW10 9PJ","cc":"GB","city":"London","state":"Greater London","country":"United Kingdom"},"categories":[{"id":"4bf58dd8d48988d1c4941735","name":"Restaurant","pluralName":"Restaurants","shortName":"Restaurant","icon":{"prefix":"https:\/\/ss1.4sqi.net\/img\/categories_v2\/food\/default_","suffix":".png"},"primary":"true"}],"verified":"false","restricted":"true","stats":{"checkinsCount":"61","usersCount":"58","tipCount":"5"},"url":"http:\/\/www.thepennyblack.com","reservations":{"url":"http:\/\/www.toptable.co.uk\/single.aspx?rid=96912&ref=9601"},"menu":{"type":"Menu","label":"Menu","anchor":"View Menu","url":"https:\/\/foursquare.com\/v\/the-penny-black-restaurant--bar\/4db94d3b0437609120fe7c3f\/menu","mobileUrl":"https:\/\/foursquare.com\/v\/4db94d3b0437609120fe7c3f\/device_menu"},"specials":{"count":"0"},"hereNow":{"count":"0"},"referralId":"v-1392478088"},{"id":"4e767b6e52b1c8e519eb3c75","name":"Chelsea Kichen","location":{"address":"Fulham Rd","lat":"51.4833788442057","lng":"-0.18547587109095945","distance":"211","postalCode":"SW10 9UZ","cc":"GB","city":"Kensington","state":"Greater London","country":"United Kingdom"},"categories":[{"id":"4bf58dd8d48988d110941735","name":"Italian Restaurant","pluralName":"Italian Restaurants","shortName":"Italian","icon":{"prefix":"https:\/\/ss1.4sqi.net\/img\/categories_v2\/food\/italian_","suffix":".png"},"primary":"true"}],"verified":"false","restricted":"true","stats":{"checkinsCount":"178","usersCount":"140","tipCount":"5"},"url":"http:\/\/www.thechelseakitchen.co.uk","reservations":{"url":"http:\/\/www.toptable.co.uk\/single.aspx?rid=92328&ref=9601"},"menu":{"type":"Menu","label":"Menu","anchor":"View Menu","url":"https:\/\/foursquare.com\/v\/chelsea-kichen\/4e767b6e52b1c8e519eb3c75\/menu","mobileUrl":"https:\/\/foursquare.com\/v\/4e767b6e52b1c8e519eb3c75\/device_menu"},"specials":{"count":"0"},"hereNow":{"count":"0"},"referralId":"v-1392478088"},{"id":"4c2a33542219c9285fb8a248","name":"Naya Hair","location":{"address":"260 Fulham Road","lat":"51.484571","lng":"-0.183518","distance":"58","postalCode":"SW10 9EL","cc":"GB","city":"London","state":"Greater London","country":"United Kingdom"},"categories":[{"id":"4bf58dd8d48988d110951735","name":"Salon \/ Barbershop","pluralName":"Salons \/ Barbershops","shortName":"Salon \/ Barbershop","icon":{"prefix":"https:\/\/ss1.4sqi.net\/img\/categories_v2\/shops\/salon_barber_","suffix":".png"},"primary":"true"}],"verified":"false","restricted":"true","stats":{"checkinsCount":"30","usersCount":"10","tipCount":"1"},"specials":{"count":"0"},"hereNow":{"count":"0"},"referralId":"v-1392478088"},{"id":"5174e910e4b0199b43032406","name":"IAVI Core Laboratory C&W Hospital","location":{"lat":"51.48367256743643","lng":"-0.18149911726221277","distance":"113","cc":"GB","country":"United Kingdom"},"categories":[{"id":"4f4531b14b9074f6e4fb0103","name":"Laboratory","pluralName":"Laboratories","shortName":"Lab","icon":{"prefix":"https:\/\/ss1.4sqi.net\/img\/categories_v2\/building\/medical_laboratory_","suffix":".png"},"primary":"true"}],"verified":"false","restricted":"true","stats":{"checkinsCount":"3","usersCount":"1","tipCount":"0"},"specials":{"count":"0"},"hereNow":{"count":"0"},"referralId":"v-1392478088"},{"id":"50ba8a16e4b063c7492ca5a2","name":"Honky Tonk","contact":{"phone":"+442073511588","formattedPhone":"+44 20 7351 1588","twitter":"honkytonklondon"},"location":{"address":"6 Hollywood Rd","lat":"51.48586897799364","lng":"-0.184551652446556","distance":"213","postalCode":"SW10 9HY","cc":"GB","city":"London","state":"Greater London","country":"United Kingdom"},"categories":[{"id":"4bf58dd8d48988d11e941735","name":"Cocktail Bar","pluralName":"Cocktail Bars","shortName":"Cocktail","icon":{"prefix":"https:\/\/ss1.4sqi.net\/img\/categories_v2\/nightlife\/cocktails_","suffix":".png"},"primary":"true"}],"verified":"false","restricted":"true","stats":{"checkinsCount":"113","usersCount":"100","tipCount":"4"},"url":"http:\/\/www.honkytonklondon.com","reservations":{"url":"http:\/\/www.toptable.co.uk\/single.aspx?rid=92628&ref=9601"},"specials":{"count":"0"},"hereNow":{"count":"0"},"referralId":"v-1392478088"},{"id":"4f0c3c78e4b0261c93f92aa1","name":"Kobler","location":{"lat":"51.48474814465977","lng":"-0.18280760204003574","distance":"51","postalCode":"Sw10","cc":"GB","country":"United Kingdom"},"categories":[{"id":"4bf58dd8d48988d196941735","name":"Hospital","pluralName":"Hospitals","shortName":"Hospital","icon":{"prefix":"https:\/\/ss1.4sqi.net\/img\/categories_v2\/building\/medical_hospital_","suffix":".png"},"primary":"true"}],"verified":"false","restricted":"true","stats":{"checkinsCount":"30","usersCount":"6","tipCount":"0"},"specials":{"count":"0"},"hereNow":{"count":"0"},"referralId":"v-1392478088"},{"id":"51ebc534498efc31a61ea260","name":"Bus Stop HB @ Edith Grove","location":{"address":"Fulham Road","crossStreet":"Edith Grove","lat":"51.484351","lng":"-0.183603","distance":"55","cc":"GB","city":"London","state":"Greater London","country":"United Kingdom"},"categories":[{"id":"4bf58dd8d48988d1fe931735","name":"Bus Station","pluralName":"Bus Stations","shortName":"Bus Station","icon":{"prefix":"https:\/\/ss1.4sqi.net\/img\/categories_v2\/travel\/busstation_","suffix":".png"},"primary":"true"}],"verified":"false","restricted":"true","stats":{"checkinsCount":"1","usersCount":"1","tipCount":"0"},"specials":{"count":"0"},"hereNow":{"count":"0"},"referralId":"v-1392478088"},{"id":"4bdadbd82a3a0f472144acb6","name":"John Hunter Clinic","location":{"lat":"51.48475261434314","lng":"-0.18315440330181246","distance":"57","cc":"GB","country":"United Kingdom"},"categories":[{"id":"4bf58dd8d48988d104941735","name":"Medical Center","pluralName":"Medical Centers","shortName":"Medical","icon":{"prefix":"https:\/\/ss1.4sqi.net\/img\/categories_v2\/building\/medical_","suffix":".png"},"primary":"true"}],"verified":"false","restricted":"true","stats":{"checkinsCount":"14","usersCount":"5","tipCount":"1"},"specials":{"count":"0"},"hereNow":{"count":"0"},"referralId":"v-1392478088"},{"id":"504a23abe4b031ae5632a158","name":"EC Electroclinic","contact":{"phone":"+442073512801","formattedPhone":"+44 20 7351 2801","twitter":"electroclinic"},"location":{"address":"369D Fulham Rd","lat":"51.484595447940656","lng":"-0.18205761358889155","distance":"61","postalCode":"SW1O 9TR","cc":"GB","city":"London","state":"Greater London","country":"United Kingdom"},"categories":[{"id":"4bf58dd8d48988d122951735","name":"Electronics Store","pluralName":"Electronics Stores","shortName":"Electronics","icon":{"prefix":"https:\/\/ss1.4sqi.net\/img\/categories_v2\/shops\/technology_","suffix":".png"},"primary":"true"}],"verified":"false","restricted":"true","stats":{"checkinsCount":"9","usersCount":"5","tipCount":"1"},"url":"http:\/\/www.electroclinic.co.uk","specials":{"count":"0"},"hereNow":{"count":"0"},"referralId":"v-1392478088"},{"id":"4de605508877a085f8bea940","name":"Imperial College School Of Medicine","location":{"address":"Chelsea and Westminster Campus","crossStreet":"Chelsea and Westminster Hospital","lat":"51.484805573009766","lng":"-0.18277952437633804","distance":"57","cc":"GB","city":"Kensington","state":"Greater London","country":"United Kingdom"},"categories":[{"id":"4bf58dd8d48988d1b3941735","name":"Medical School","pluralName":"Medical Schools","shortName":"Medical School","icon":{"prefix":"https:\/\/ss1.4sqi.net\/img\/categories_v2\/building\/medical_","suffix":".png"},"primary":"true"}],"verified":"false","restricted":"true","stats":{"checkinsCount":"34","usersCount":"15","tipCount":"0"},"specials":{"count":"0"},"hereNow":{"count":"0"},"referralId":"v-1392478088"},{"id":"50e6f05ae4b0ee666c4d392d","name":"Oriental Supermarket","location":{"lat":"51.484773","lng":"-0.182115","distance":"71","cc":"GB","country":"United Kingdom"},"categories":[{"id":"4bf58dd8d48988d1f9941735","name":"Food & Drink Shop","pluralName":"Food & Drink Shops","shortName":"Food & Drink","icon":{"prefix":"https:\/\/ss1.4sqi.net\/img\/categories_v2\/shops\/foodanddrink_","suffix":".png"},"primary":"true"}],"verified":"false","restricted":"true","stats":{"checkinsCount":"4","usersCount":"4","tipCount":"0"},"specials":{"count":"0"},"hereNow":{"count":"0"},"referralId":"v-1392478088"},{"id":"4ac518bbf964a5203aa220e3","name":"Ad Lib","location":{"address":"246 Fulham Road","lat":"51.484824","lng":"-0.182997","distance":"61","postalCode":"SW10 9NA","cc":"GB","city":"London","state":"Greater London","country":"United Kingdom"},"categories":[{"id":"4bf58dd8d48988d116941735","name":"Bar","pluralName":"Bars","shortName":"Bar","icon":{"prefix":"https:\/\/ss1.4sqi.net\/img\/categories_v2\/nightlife\/bar_","suffix":".png"},"primary":"true"}],"verified":"false","restricted":"true","stats":{"checkinsCount":"3","usersCount":"2","tipCount":"0"},"specials":{"count":"0"},"hereNow":{"count":"0"},"referralId":"v-1392478088"}],"confident":"true"}}