{"meta":{"code":"200"},"response":{"venues":[{"id":"4b7736e8f964a5207f882ee3","name":"Club Colosseum","contact":{"phone":"+442076271283","formattedPhone":"+44 20 7627 1283"},"location":{"address":"1 Nine Elms Lane","lat":"51.484376148122536","lng":"-0.12754440307617188","distance":"20","postalCode":"SW8 5NQ","cc":"GB","city":"Vauxhall","state":"Greater London","country":"United Kingdom"},"categories":[{"id":"4bf58dd8d48988d11f941735","name":"Nightclub","pluralName":"Nightclubs","shortName":"Nightclub","icon":{"prefix":"https:\/\/ss1.4sqi.net\/img\/categories_v2\/nightlife\/nightclub_","suffix":".png"},"primary":"true"}],"verified":"false","restricted":"true","stats":{"checkinsCount":"323","usersCount":"208","tipCount":"7"},"specials":{"count":"0"},"hereNow":{"count":"0"},"referralId":"v-1392478094"},{"id":"4d374d41e4b4a093260b2c36","name":"St. George Wharf","location":{"address":"Vauxhall Bridge","lat":"51.485729628840126","lng":"-0.1258910193880459","distance":"208","postalCode":"SW8 2LR","cc":"GB","city":"London","state":"Greater London","country":"United Kingdom"},"categories":[{"id":"4f2a210c4b9023bd5841ed28","name":"Housing Development","pluralName":"Housing Developments","shortName":"Housing Development","icon":{"prefix":"https:\/\/ss1.4sqi.net\/img\/categories_v2\/building\/housingdevelopment_","suffix":".png"},"primary":"true"}],"verified":"false","restricted":"true","stats":{"checkinsCount":"1957","usersCount":"408","tipCount":"3"},"specials":{"count":"0"},"hereNow":{"count":"2","groups":[{"type":"others","name":"Other people here","count":"2"}]},"referralId":"v-1392478094"},{"id":"4c343b51a0ced13ac6db176e","name":"Brunswick House Cafe","contact":{"phone":"+442077202926","formattedPhone":"+44 20 7720 2926"},"location":{"address":"30 Wandsworth Rd.","lat":"51.48477367462722","lng":"-0.12633204460144043","distance":"115","postalCode":"SW8 2LG","cc":"GB","city":"Vauxhall","state":"Greater London","country":"United Kingdom"},"categories":[{"id":"4bf58dd8d48988d16d941735","name":"Caf\u00e9","pluralName":"Caf\u00e9s","shortName":"Caf\u00e9","icon":{"prefix":"https:\/\/ss1.4sqi.net\/img\/categories_v2\/food\/cafe_","suffix":".png"},"primary":"true"}],"verified":"false","restricted":"true","stats":{"checkinsCount":"829","usersCount":"519","tipCount":"26"},"url":"http:\/\/www.brunswickhousecafe.co.uk","reservations":{"url":"http:\/\/www.toptable.co.uk\/single.aspx?rid=95529&ref=9601"},"menu":{"type":"Menu","label":"Menu","anchor":"View Menu","url":"https:\/\/foursquare.com\/v\/brunswick-house-cafe\/4c343b51a0ced13ac6db176e\/menu","mobileUrl":"https:\/\/foursquare.com\/v\/4c343b51a0ced13ac6db176e\/device_menu"},"specials":{"count":"0"},"hereNow":{"count":"1","groups":[{"type":"others","name":"Other people here","count":"1"}]},"referralId":"v-1392478094"},{"id":"527ae4d3498e86f2ec5d8005","name":"The Tower St George Wharf","location":{"address":"The Tower 1 St George Wharf","lat":"51.4849287702985","lng":"-0.1274847670138436","distance":"74","postalCode":"SW8 2DU","cc":"GB","city":"London","state":"Greater London","country":"United Kingdom"},"categories":[{"id":"4d954b06a243a5684965b473","name":"Residential Building (Apartment \/ Condo)","pluralName":"Residential Buildings (Apartments \/ Condos)","shortName":"Residential","icon":{"prefix":"https:\/\/ss1.4sqi.net\/img\/categories_v2\/building\/apartment_","suffix":".png"},"primary":"true"}],"verified":"false","restricted":"true","stats":{"checkinsCount":"63","usersCount":"7","tipCount":"0"},"specials":{"count":"0"},"hereNow":{"count":"0"},"referralId":"v-1392478094"},{"id":"4b83313bf964a520c1fc30e3","name":"The Gym","contact":{"phone":"+448448716700","formattedPhone":"+44 844 871 6700","twitter":"thegymgroup"},"location":{"address":"St George Wharf","crossStreet":"Wandsworth Rd.","lat":"51.48540165099741","lng":"-0.1257756435610718","distance":"187","postalCode":"SW8","cc":"GB","city":"Vauxhall","state":"Greater London","country":"United Kingdom"},"categories":[{"id":"4bf58dd8d48988d176941735","name":"Gym","pluralName":"Gyms","shortName":"Gym","icon":{"prefix":"https:\/\/ss1.4sqi.net\/img\/categories_v2\/building\/gym_","suffix":".png"},"primary":"true"}],"verified":"true","restricted":"true","stats":{"checkinsCount":"3493","usersCount":"390","tipCount":"21"},"url":"http:\/\/www.thegymgroup.com\/gyms\/vauxhall\/","specials":{"count":"0"},"hereNow":{"count":"1","groups":[{"type":"others","name":"Other people here","count":"1"}]},"storeId":"","referralId":"v-1392478094"},{"id":"4b55c8d9f964a520dfef27e3","name":"Capgemini","location":{"lat":"51.48417","lng":"-0.126573","distance":"86","cc":"GB","country":"United Kingdom"},"categories":[{"id":"4bf58dd8d48988d124941735","name":"Office","pluralName":"Offices","shortName":"Office","icon":{"prefix":"https:\/\/ss1.4sqi.net\/img\/categories_v2\/building\/default_","suffix":".png"},"primary":"true"}],"verified":"false","restricted":"true","stats":{"checkinsCount":"348","usersCount":"100","tipCount":"1"},"specials":{"count":"0"},"hereNow":{"count":"0"},"referralId":"v-1392478094"},{"id":"4bc4b0482a89ef3bcea9f688","name":"The Riverside","contact":{"phone":"+442077358129","formattedPhone":"+44 20 7735 8129","twitter":"riversideldn"},"location":{"address":"5 St. George Wharf","lat":"51.48560546257204","lng":"-0.12672901153564453","distance":"164","postalCode":"SW8 2LA","cc":"GB","city":"Lambeth","state":"Greater London","country":"United Kingdom"},"categories":[{"id":"4bf58dd8d48988d116941735","name":"Bar","pluralName":"Bars","shortName":"Bar","icon":{"prefix":"https:\/\/ss1.4sqi.net\/img\/categories_v2\/nightlife\/bar_","suffix":".png"},"primary":"true"}],"verified":"false","restricted":"true","stats":{"checkinsCount":"1166","usersCount":"756","tipCount":"19"},"menu":{"type":"Menu","label":"Menu","anchor":"View Menu","url":"https:\/\/foursquare.com\/v\/the-riverside\/4bc4b0482a89ef3bcea9f688\/menu","mobileUrl":"https:\/\/foursquare.com\/v\/4bc4b0482a89ef3bcea9f688\/device_menu"},"specials":{"count":"0"},"hereNow":{"count":"0"},"referralId":"v-1392478094"},{"id":"51add8cb498e9c11a89d8aff","name":"St George Wharf","location":{"lat":"51.484944169192694","lng":"-0.12747287214642203","distance":"76","cc":"GB","country":"United Kingdom"},"verified":"false","restricted":"true","stats":{"checkinsCount":"11","usersCount":"2","tipCount":"0"},"specials":{"count":"0"},"hereNow":{"count":"0"},"referralId":"v-1392478094"},{"id":"4bc8150f0050b7134fdcb93b","name":"New Covent Garden Flower Market","location":{"lat":"51.483290636379834","lng":"-0.12875599496357368","distance":"129","cc":"GB","country":"United Kingdom"},"categories":[{"id":"50be8ee891d4fa8dcc7199a7","name":"Market","pluralName":"Markets","shortName":"Market","icon":{"prefix":"https:\/\/ss1.4sqi.net\/img\/categories_v2\/shops\/default_","suffix":".png"},"primary":"true"}],"verified":"true","restricted":"true","stats":{"checkinsCount":"324","usersCount":"153","tipCount":"2"},"specials":{"count":"0"},"hereNow":{"count":"0"},"referralId":"v-1392478094"},{"id":"4dbea241ec8eb49ed3350336","name":"The Garden Party Flower Service","contact":{"phone":"+442074988989","formattedPhone":"+44 20 7498 8989","twitter":"officeflowers"},"location":{"address":"276 - 277 The Flower Market","crossStreet":"New Covent Garden Market,","lat":"51.484565073735084","lng":"-0.12761101881129622","distance":"33","postalCode":"SW8 5NB","cc":"GB","city":"London","state":"Greater London","country":"United Kingdom"},"categories":[{"id":"4bf58dd8d48988d11b951735","name":"Flower Shop","pluralName":"Flower Shops","shortName":"Flower Shop","icon":{"prefix":"https:\/\/ss1.4sqi.net\/img\/categories_v2\/shops\/flowershop_","suffix":".png"},"primary":"true"}],"verified":"true","restricted":"true","stats":{"checkinsCount":"8","usersCount":"3","tipCount":"1"},"specials":{"count":"0"},"hereNow":{"count":"0"},"referralId":"v-1392478094"},{"id":"4be93fd29a54a593becf0a11","name":"LASSCO","contact":{"phone":"+442073942100","formattedPhone":"+44 20 7394 2100","twitter":"lasscobrunswick"},"location":{"address":"Brunswick House, 30 Wandsworth Rd","lat":"51.484803739516046","lng":"-0.12599945068359375","distance":"137","postalCode":"SW8 2LG","cc":"GB","city":"Vauxhall","state":"Greater London","country":"United Kingdom"},"categories":[{"id":"4bf58dd8d48988d116951735","name":"Antique Shop","pluralName":"Antique Shops","shortName":"Antiques","icon":{"prefix":"https:\/\/ss1.4sqi.net\/img\/categories_v2\/shops\/antique_","suffix":".png"},"primary":"true"}],"verified":"false","restricted":"true","stats":{"checkinsCount":"183","usersCount":"145","tipCount":"6"},"specials":{"count":"0"},"hereNow":{"count":"0"},"referralId":"v-1392478094"},{"id":"4d72b31cd145a1cd37fab8f3","name":"Roller Disco","contact":{"phone":"+442077209140","formattedPhone":"+44 20 7720 9140"},"location":{"address":"Miles Street","lat":"51.48211","lng":"-0.126659","distance":"255","postalCode":"SW8 1RZ","cc":"GB","city":"Vauxhall","state":"Greater London","country":"United Kingdom"},"categories":[{"id":"4bf58dd8d48988d11f941735","name":"Nightclub","pluralName":"Nightclubs","shortName":"Nightclub","icon":{"prefix":"https:\/\/ss1.4sqi.net\/img\/categories_v2\/nightlife\/nightclub_","suffix":".png"},"primary":"true"}],"verified":"false","restricted":"true","stats":{"checkinsCount":"634","usersCount":"531","tipCount":"7"},"url":"http:\/\/www.rollerdisco.com","specials":{"count":"0"},"hereNow":{"count":"0"},"referralId":"v-1392478094"},{"id":"51313f9de4b0303ccea4df16","name":"Hvd","location":{"lat":"51.484236","lng":"-0.128015","distance":"15","cc":"GB","country":"United Kingdom"},"categories":[{"id":"4bf58dd8d48988d11f941735","name":"Nightclub","pluralName":"Nightclubs","shortName":"Nightclub","icon":{"prefix":"https:\/\/ss1.4sqi.net\/img\/categories_v2\/nightlife\/nightclub_","suffix":".png"},"primary":"true"}],"verified":"false","restricted":"true","stats":{"checkinsCount":"1","usersCount":"1","tipCount":"0"},"specials":{"count":"0"},"hereNow":{"count":"0"},"referralId":"v-1392478094"},{"id":"4e5e73b118a8c46e0835d07b","name":"St George Wharf Pier","location":{"lat":"51.48609981897579","lng":"-0.1263536287637402","distance":"225","cc":"GB","city":"London","state":"Greater London","country":"United Kingdom"},"categories":[{"id":"4bf58dd8d48988d12d951735","name":"Boat or Ferry","pluralName":"Boats or Ferries","shortName":"Boat \/ Ferry","icon":{"prefix":"https:\/\/ss1.4sqi.net\/img\/categories_v2\/travel\/boat_","suffix":".png"},"primary":"true"}],"verified":"false","restricted":"true","stats":{"checkinsCount":"467","usersCount":"110","tipCount":"1"},"specials":{"count":"0"},"hereNow":{"count":"0"},"referralId":"v-1392478094"},{"id":"52c739f2498e50cf45830090","name":"Club Antichrist","location":{"lat":"51.484702","lng":"-0.128161","distance":"52","cc":"GB","country":"United Kingdom"},"categories":[{"id":"4bf58dd8d48988d11f941735","name":"Nightclub","pluralName":"Nightclubs","shortName":"Nightclub","icon":{"prefix":"https:\/\/ss1.4sqi.net\/img\/categories_v2\/nightlife\/nightclub_","suffix":".png"},"primary":"true"}],"verified":"false","restricted":"true","stats":{"checkinsCount":"2","usersCount":"2","tipCount":"0"},"specials":{"count":"0"},"hereNow":{"count":"0"},"referralId":"v-1392478094"},{"id":"4b5a0596f964a5204ba828e3","name":"Aqua River Brasserie","contact":{"phone":"+442078203609","formattedPhone":"+44 20 7820 3609"},"location":{"address":"Unit 12 Flagstaff House 9 St. Georges Wharf","lat":"51.48584597674016","lng":"-0.12651443481445312","distance":"194","postalCode":"SW8 2LE","cc":"GB","city":"London","state":"Greater London","country":"United Kingdom"},"categories":[{"id":"4bf58dd8d48988d116941735","name":"Bar","pluralName":"Bars","shortName":"Bar","icon":{"prefix":"https:\/\/ss1.4sqi.net\/img\/categories_v2\/nightlife\/bar_","suffix":".png"},"primary":"true"}],"verified":"false","restricted":"true","stats":{"checkinsCount":"739","usersCount":"425","tipCount":"23"},"url":"http:\/\/www.aquabrasserie.com","menu":{"type":"Menu","label":"Menu","anchor":"View Menu","url":"https:\/\/foursquare.com\/v\/aqua-river-brasserie-london-greater-london\/4b5a0596f964a5204ba828e3\/menu","mobileUrl":"https:\/\/foursquare.com\/v\/4b5a0596f964a5204ba828e3\/device_menu"},"specials":{"count":"0"},"hereNow":{"count":"0"},"referralId":"v-1392478094"},{"id":"4b1ac189f964a52013f123e3","name":"El rincon Latino","location":{"address":"Manor street","lat":"51.48499","lng":"-0.127556","distance":"79","cc":"GB","city":"London","state":"Greater London","country":"United Kingdom"},"verified":"false","restricted":"true","stats":{"checkinsCount":"10","usersCount":"7","tipCount":"0"},"specials":{"count":"0"},"hereNow":{"count":"0"},"referralId":"v-1392478094"},{"id":"4cf03fa17bf3b60ccf61587f","name":"VOX","location":{"address":"1 Nine Elm Lane","lat":"51.485008","lng":"-0.12755","distance":"81","postalCode":"SW8","cc":"GB","city":"Vauxhall","state":"Greater London","country":"United Kingdom"},"categories":[{"id":"4bf58dd8d48988d11f941735","name":"Nightclub","pluralName":"Nightclubs","shortName":"Nightclub","icon":{"prefix":"https:\/\/ss1.4sqi.net\/img\/categories_v2\/nightlife\/nightclub_","suffix":".png"},"primary":"true"}],"verified":"false","restricted":"true","stats":{"checkinsCount":"35","usersCount":"24","tipCount":"1"},"specials":{"count":"0"},"hereNow":{"count":"0"},"referralId":"v-1392478094"},{"id":"4b5deacaf964a520957329e3","name":"Tesco Express","contact":{"phone":"+448456719274","formattedPhone":"+44 845 671 9274","twitter":"uktescooffers"},"location":{"address":"Unit 16, 22 Wandsworth Road","lat":"51.48510001045283","lng":"-0.1255239350894185","distance":"181","postalCode":"SW8 2JW","cc":"GB","city":"London","state":"Greater London","country":"United Kingdom"},"categories":[{"id":"4bf58dd8d48988d118951735","name":"Grocery Store","pluralName":"Grocery Stores","shortName":"Grocery Store","icon":{"prefix":"https:\/\/ss1.4sqi.net\/img\/categories_v2\/shops\/food_grocery_","suffix":".png"},"primary":"true"}],"verified":"true","restricted":"true","stats":{"checkinsCount":"553","usersCount":"165","tipCount":"3"},"url":"http:\/\/www.tesco.com","specials":{"count":"0"},"hereNow":{"count":"0"},"storeId":"5342","referralId":"v-1392478094"},{"id":"4caadf6ea6e08cfa80b3a094","name":"Riverside Medical Centre","contact":{"phone":"+442030494500","formattedPhone":"+44 20 3049 4500"},"location":{"address":"St George Wharf","lat":"51.485331342343784","lng":"-0.12544265731851195","distance":"200","postalCode":"SW8 2JW","cc":"GB","city":"Vauxhall","state":"Greater London","country":"United Kingdom"},"categories":[{"id":"4bf58dd8d48988d177941735","name":"Doctor's Office","pluralName":"Doctor's Offices","shortName":"Doctor's Office","icon":{"prefix":"https:\/\/ss1.4sqi.net\/img\/categories_v2\/building\/medical_doctorsoffice_","suffix":".png"},"primary":"true"}],"verified":"false","restricted":"true","stats":{"checkinsCount":"106","usersCount":"46","tipCount":"0"},"specials":{"count":"0"},"hereNow":{"count":"0"},"referralId":"v-1392478094"},{"id":"529b8f0011d2163451f0a55c","name":"Above The Stag Theatre","contact":{"twitter":"abovethestag"},"location":{"address":"Miles Street","lat":"51.48295597531675","lng":"-0.12527759921447362","distance":"229","postalCode":"SW81RZ","cc":"GB","country":"United Kingdom"},"categories":[{"id":"4bf58dd8d48988d137941735","name":"Theater","pluralName":"Theaters","shortName":"Theater","icon":{"prefix":"https:\/\/ss1.4sqi.net\/img\/categories_v2\/arts_entertainment\/performingarts_theater_","suffix":".png"},"primary":"true"}],"verified":"false","restricted":"true","stats":{"checkinsCount":"29","usersCount":"26","tipCount":"0"},"specials":{"count":"0"},"hereNow":{"count":"0"},"referralId":"v-1392478094"},{"id":"4c7f6372fb74236a2df4f9b9","name":"Market Towers","location":{"address":"1 Nine Elms Lane","lat":"51.48426760193951","lng":"-0.12729642845321917","distance":"35","postalCode":"SW8 5NQ","cc":"GB","city":"London","state":"Greater London","country":"United Kingdom"},"categories":[{"id":"4bf58dd8d48988d130941735","name":"Building","pluralName":"Buildings","shortName":"Building","icon":{"prefix":"https:\/\/ss1.4sqi.net\/img\/categories_v2\/building\/default_","suffix":".png"},"primary":"true"}],"verified":"false","restricted":"true","stats":{"checkinsCount":"46","usersCount":"15","tipCount":"1"},"specials":{"count":"0"},"hereNow":{"count":"0"},"referralId":"v-1392478094"},{"id":"4e656a0eb61cd78089d64e24","name":"Bus Stop G (77, 87, 196 & N87)","location":{"lat":"51.48501312194262","lng":"-0.12536184173930628","distance":"187","cc":"GB","country":"United Kingdom"},"categories":[{"id":"4bf58dd8d48988d12b951735","name":"Bus Line","pluralName":"Bus Lines","shortName":"Bus","icon":{"prefix":"https:\/\/ss1.4sqi.net\/img\/categories_v2\/travel\/busstation_","suffix":".png"},"primary":"true"}],"verified":"false","restricted":"true","stats":{"checkinsCount":"181","usersCount":"26","tipCount":"0"},"specials":{"count":"0"},"hereNow":{"count":"0"},"referralId":"v-1392478094"},{"id":"4d4125d91bd2a1434781fa7c","name":"@Vauxhall","location":{"lat":"51.48505971530032","lng":"-0.1248103335949186","distance":"224","postalCode":"SW8 1","cc":"GB","city":"Lambeth","state":"Greater London","country":"United Kingdom"},"categories":[{"id":"4bf58dd8d48988d1e2931735","name":"Art Gallery","pluralName":"Art Galleries","shortName":"Art Gallery","icon":{"prefix":"https:\/\/ss1.4sqi.net\/img\/categories_v2\/arts_entertainment\/artgallery_","suffix":".png"},"primary":"true"}],"verified":"false","restricted":"true","stats":{"checkinsCount":"148","usersCount":"59","tipCount":"0"},"specials":{"count":"0"},"hereNow":{"count":"0"},"referralId":"v-1392478094"},{"id":"4d47eef0c3e5a35d2566984f","name":"Nick's Work","location":{"lat":"51.484273","lng":"-0.127246","distance":"38","cc":"GB","country":"United Kingdom"},"verified":"false","restricted":"true","stats":{"checkinsCount":"3","usersCount":"1","tipCount":"0"},"specials":{"count":"0"},"hereNow":{"count":"0"},"referralId":"v-1392478094"},{"id":"5167b372e4b0d2ed2c0a6cab","name":"Work XLN","location":{"lat":"51.484283","lng":"-0.12463","distance":"219","cc":"GB","country":"United Kingdom"},"categories":[{"id":"4bf58dd8d48988d174941735","name":"Coworking Space","pluralName":"Coworking Spaces","shortName":"Coworking Space","icon":{"prefix":"https:\/\/ss1.4sqi.net\/img\/categories_v2\/building\/office_coworkingspace_","suffix":".png"},"primary":"true"}],"verified":"false","restricted":"true","stats":{"checkinsCount":"29","usersCount":"4","tipCount":"0"},"specials":{"count":"0"},"hereNow":{"count":"0"},"referralId":"v-1392478094"},{"id":"4d7366144ab5224b6e1ccd97","name":"St George Wharf - Aquarius Piazza","location":{"address":"Aquarius Piazza, St George Wharf","crossStreet":"St George Wharf","lat":"51.48598859182009","lng":"-0.1251087212409419","distance":"265","postalCode":"SW8 2LE","cc":"GB","city":"London","state":"Greater London","country":"United Kingdom"},"categories":[{"id":"4bf58dd8d48988d164941735","name":"Plaza","pluralName":"Plazas","shortName":"Plaza","icon":{"prefix":"https:\/\/ss1.4sqi.net\/img\/categories_v2\/parks_outdoors\/plaza_","suffix":".png"},"primary":"true"}],"verified":"false","restricted":"true","stats":{"checkinsCount":"257","usersCount":"44","tipCount":"0"},"specials":{"count":"0"},"hereNow":{"count":"0"},"referralId":"v-1392478094"},{"id":"4b98fde6f964a520d15a35e3","name":"Market Intelligence","location":{"address":"Market Towers","lat":"51.484582","lng":"-0.128277","distance":"46","postalCode":"SW8 5NN","cc":"GB","city":"Wandsworth","state":"Greater London","country":"United Kingdom"},"verified":"false","restricted":"true","stats":{"checkinsCount":"9","usersCount":"2","tipCount":"1"},"specials":{"count":"0"},"hereNow":{"count":"0"},"referralId":"v-1392478094"},{"id":"4ecf6c177ee5be8449f9db71","name":"Bus Stop J","location":{"lat":"51.484786522257245","lng":"-0.12616423573891825","distance":"126","cc":"GB","country":"United Kingdom"},"categories":[{"id":"4bf58dd8d48988d12b951735","name":"Bus Line","pluralName":"Bus Lines","shortName":"Bus","icon":{"prefix":"https:\/\/ss1.4sqi.net\/img\/categories_v2\/travel\/busstation_","suffix":".png"},"primary":"true"}],"verified":"false","restricted":"true","stats":{"checkinsCount":"13","usersCount":"9","tipCount":"0"},"specials":{"count":"0"},"hereNow":{"count":"0"},"referralId":"v-1392478094"},{"id":"5254440211d2cc877cedd561","name":"Aloha","location":{"lat":"51.48571244211879","lng":"-0.12750148464445232","distance":"159","cc":"GB","country":"United Kingdom"},"categories":[{"id":"4bf58dd8d48988d116941735","name":"Bar","pluralName":"Bars","shortName":"Bar","icon":{"prefix":"https:\/\/ss1.4sqi.net\/img\/categories_v2\/nightlife\/bar_","suffix":".png"},"primary":"true"}],"verified":"false","restricted":"true","stats":{"checkinsCount":"7","usersCount":"5","tipCount":"0"},"specials":{"count":"0"},"hereNow":{"count":"0"},"referralId":"v-1392478094"}],"confident":"true"}}