{"meta":{"code":"200"},"response":{"venues":[{"id":"4c3d7625b36ac9288d7b0586","name":"London Borough of Southwark","location":{"address":"Everywhere!","lat":"51.49931274551157","lng":"-0.09643077850341797","distance":"95","postalCode":"SE1","cc":"GB","city":"Southwark","state":"Greater London","country":"United Kingdom"},"categories":[{"id":"4f2a25ac4b909258e854f55f","name":"Neighborhood","pluralName":"Neighborhoods","shortName":"Neighborhood","icon":{"prefix":"https:\/\/ss1.4sqi.net\/img\/categories_v2\/parks_outdoors\/neighborhood_","suffix":".png"},"primary":"true"}],"verified":"false","restricted":"true","stats":{"checkinsCount":"1222","usersCount":"363","tipCount":"0"},"specials":{"count":"0"},"hereNow":{"count":"0"},"referralId":"v-1392478058"},{"id":"4b81954af964a52092b030e3","name":"The Ship","location":{"address":"68 Borough Road","lat":"51.499338","lng":"-0.09684383869171143","distance":"66","postalCode":"SE1 1DX","cc":"GB","city":"Southwark","state":"Greater London","country":"United Kingdom"},"categories":[{"id":"4bf58dd8d48988d11b941735","name":"Pub","pluralName":"Pubs","shortName":"Pub","icon":{"prefix":"https:\/\/ss1.4sqi.net\/img\/categories_v2\/nightlife\/pub_","suffix":".png"},"primary":"true"}],"verified":"false","restricted":"true","stats":{"checkinsCount":"393","usersCount":"211","tipCount":"8"},"specials":{"count":"0"},"hereNow":{"count":"1","groups":[{"type":"others","name":"Other people here","count":"1"}]},"referralId":"v-1392478058"},{"id":"4ac518b9f964a520bba120e3","name":"Ministry of Sound","contact":{"phone":"+448700600010","formattedPhone":"+44 870 060 0010","twitter":"ministryofsound"},"location":{"address":"103 Gaunt St","lat":"51.49770717640276","lng":"-0.09954862006625136","distance":"213","postalCode":"SE1 6DP","cc":"GB","city":"Borough","state":"Greater London","country":"United Kingdom"},"categories":[{"id":"4bf58dd8d48988d11f941735","name":"Nightclub","pluralName":"Nightclubs","shortName":"Nightclub","icon":{"prefix":"https:\/\/ss1.4sqi.net\/img\/categories_v2\/nightlife\/nightclub_","suffix":".png"},"primary":"true"}],"verified":"true","restricted":"true","stats":{"checkinsCount":"5367","usersCount":"3554","tipCount":"64"},"url":"http:\/\/www.ministryofsound.com\/club\/","specials":{"count":"1","items":[{"id":"4bc7b46c86ba62b5d85f88b3","type":"regular","message":"Free entry to people who check in more than 3 times a month! Just show your checkin screen at the box office.","description":"Unlocked for checking in 3 times in 30 days","icon":"frequency","title":"Loyalty Special","provider":"foursquare","redemption":"standard"}]},"hereNow":{"count":"0"},"venuePage":{"id":"47174568"},"referralId":"v-1392478058"},{"id":"4aedceb6f964a52017cf21e3","name":"The Libertine","contact":{"phone":"+442073787877","formattedPhone":"+44 20 7378 7877","twitter":"thelibertinepub"},"location":{"address":"125 Great Suffolk St","lat":"51.500426","lng":"-0.0972139835357666","distance":"132","postalCode":"SE1 1PQ","cc":"GB","city":"Borough","state":"Greater London","country":"United Kingdom"},"categories":[{"id":"4bf58dd8d48988d11b941735","name":"Pub","pluralName":"Pubs","shortName":"Pub","icon":{"prefix":"https:\/\/ss1.4sqi.net\/img\/categories_v2\/nightlife\/pub_","suffix":".png"},"primary":"true"}],"verified":"false","restricted":"true","stats":{"checkinsCount":"507","usersCount":"260","tipCount":"7"},"url":"http:\/\/www.thelibertine.co.uk","specials":{"count":"0"},"hereNow":{"count":"0"},"referralId":"v-1392478058"},{"id":"4c88715894f5a093d80dd01e","name":"The Ring Boxing Club","contact":{"phone":"+442076201666","formattedPhone":"+44 20 7620 1666"},"location":{"address":"69 to 70 Ewer St (by Southwark tube)","lat":"51.498102421743766","lng":"-0.09596735253912965","distance":"183","cc":"GB","city":"London","state":"Greater London","country":"United Kingdom"},"categories":[{"id":"4bf58dd8d48988d176941735","name":"Gym","pluralName":"Gyms","shortName":"Gym","icon":{"prefix":"https:\/\/ss1.4sqi.net\/img\/categories_v2\/building\/gym_","suffix":".png"},"primary":"true"}],"verified":"false","restricted":"true","stats":{"checkinsCount":"250","usersCount":"34","tipCount":"2"},"url":"http:\/\/www.cityboxer.com","specials":{"count":"0"},"hereNow":{"count":"0"},"referralId":"v-1392478058"},{"id":"4afddfcdf964a520a52b22e3","name":"Ruse","contact":{"phone":"+442073786123","formattedPhone":"+44 20 7378 6123"},"location":{"address":"280 High St.","crossStreet":"at Gt. Suffolk St.","lat":"51.500065","lng":"-0.095871","distance":"159","postalCode":"SE1 1JS","cc":"GB","city":"Borough","state":"Greater London","country":"United Kingdom"},"categories":[{"id":"4bf58dd8d48988d11b941735","name":"Pub","pluralName":"Pubs","shortName":"Pub","icon":{"prefix":"https:\/\/ss1.4sqi.net\/img\/categories_v2\/nightlife\/pub_","suffix":".png"},"primary":"true"}],"verified":"false","restricted":"true","stats":{"checkinsCount":"226","usersCount":"108","tipCount":"4"},"url":"http:\/\/www.ruse.uk.com","menu":{"type":"Menu","label":"Menu","anchor":"View Menu","url":"https:\/\/foursquare.com\/v\/ruse\/4afddfcdf964a520a52b22e3\/menu","mobileUrl":"https:\/\/foursquare.com\/v\/4afddfcdf964a520a52b22e3\/device_menu"},"specials":{"count":"0"},"hereNow":{"count":"0"},"referralId":"v-1392478058"},{"id":"4bb4b0f086a8d13a94b6de7f","name":"El Vergel","contact":{"phone":"+442074012308","formattedPhone":"+44 20 7401 2308"},"location":{"address":"132 Webber St.","lat":"51.500694798450695","lng":"-0.0989343864126415","distance":"175","postalCode":"SE1 0QL","cc":"GB","city":"Borough","state":"Greater London","country":"United Kingdom"},"categories":[{"id":"4bf58dd8d48988d1be941735","name":"Latin American Restaurant","pluralName":"Latin American Restaurants","shortName":"Latin American","icon":{"prefix":"https:\/\/ss1.4sqi.net\/img\/categories_v2\/food\/latinamerican_","suffix":".png"},"primary":"true"}],"verified":"false","restricted":"true","stats":{"checkinsCount":"745","usersCount":"322","tipCount":"29"},"url":"http:\/\/www.elvergel.co.uk","specials":{"count":"0"},"hereNow":{"count":"0"},"referralId":"v-1392478058"},{"id":"4addbd10f964a5208f6521e3","name":"The Giggling Sausage","contact":{"phone":"+442077710954","formattedPhone":"+44 20 7771 0954"},"location":{"address":"105 Gt. Suffolk St.","lat":"51.50072090581476","lng":"-0.09786726783312998","distance":"159","postalCode":"SE1 1PQ","cc":"GB","city":"Borough","state":"Greater London","country":"United Kingdom"},"categories":[{"id":"4bf58dd8d48988d16d941735","name":"Caf\u00e9","pluralName":"Caf\u00e9s","shortName":"Caf\u00e9","icon":{"prefix":"https:\/\/ss1.4sqi.net\/img\/categories_v2\/food\/cafe_","suffix":".png"},"primary":"true"}],"verified":"false","restricted":"true","stats":{"checkinsCount":"134","usersCount":"34","tipCount":"1"},"specials":{"count":"0"},"hereNow":{"count":"0"},"referralId":"v-1392478058"},{"id":"4b7d9187f964a5203ac72fe3","name":"Duke Of York","contact":{"phone":"+442074033590","formattedPhone":"+44 20 7403 3590","facebook":"8029823489"},"location":{"address":"48 Borough Rd.","lat":"51.499222579486734","lng":"-0.09967625141143799","distance":"130","postalCode":"SE1 1DR","cc":"GB","city":"Southwark","state":"Greater London","country":"United Kingdom"},"categories":[{"id":"4bf58dd8d48988d11b941735","name":"Pub","pluralName":"Pubs","shortName":"Pub","icon":{"prefix":"https:\/\/ss1.4sqi.net\/img\/categories_v2\/nightlife\/pub_","suffix":".png"},"primary":"true"}],"verified":"true","restricted":"true","stats":{"checkinsCount":"179","usersCount":"133","tipCount":"3"},"url":"http:\/\/www.dukeofyork-london.co.uk","specials":{"count":"0"},"hereNow":{"count":"0"},"storeId":"","referralId":"v-1392478058"},{"id":"51f24567498ee3eadebe5dac","name":"BigChoice Group","contact":{"phone":"+442073783530","formattedPhone":"+44 20 7378 3530","twitter":"bigchoicegroup"},"location":{"address":"The BigCampus","crossStreet":"127-129 Great Suffolk Street","lat":"51.50066056584794","lng":"-0.09671449027943319","distance":"170","postalCode":"SE1 1PP","cc":"GB","city":"London","state":"Greater London","country":"United Kingdom"},"categories":[{"id":"4bf58dd8d48988d124941735","name":"Office","pluralName":"Offices","shortName":"Office","icon":{"prefix":"https:\/\/ss1.4sqi.net\/img\/categories_v2\/building\/default_","suffix":".png"},"primary":"true"}],"verified":"false","restricted":"true","stats":{"checkinsCount":"104","usersCount":"3","tipCount":"0"},"specials":{"count":"0"},"hereNow":{"count":"0"},"referralId":"v-1392478058"},{"id":"5197d0e2498e82099af17bdd","name":"Southwark Playhouse","contact":{"phone":"+442074070234","formattedPhone":"+44 20 7407 0234","twitter":"swkplay"},"location":{"address":"77-85 Newington Causeway","lat":"51.497595596474675","lng":"-0.09874624626897004","distance":"199","postalCode":"SE1 6BD","cc":"GB","city":"London","state":"Greater London","country":"United Kingdom"},"categories":[{"id":"4bf58dd8d48988d137941735","name":"Theater","pluralName":"Theaters","shortName":"Theater","icon":{"prefix":"https:\/\/ss1.4sqi.net\/img\/categories_v2\/arts_entertainment\/performingarts_theater_","suffix":".png"},"primary":"true"}],"verified":"true","restricted":"true","stats":{"checkinsCount":"214","usersCount":"161","tipCount":"6"},"url":"http:\/\/www.facebook.com\/southwark.playhouse","specials":{"count":"0"},"hereNow":{"count":"0"},"venuePage":{"id":"59883356"},"storeId":"","referralId":"v-1392478058"},{"id":"4fa816f2e4b0fc2afcee5267","name":"The Co-operative Food","contact":{"twitter":"cooperativefood"},"location":{"address":"136 Southwark Bridge Rd.","lat":"51.50048924364795","lng":"-0.09895645866406994","distance":"155","postalCode":"SE1 0EY","cc":"GB","city":"Southwark","state":"Greater London","country":"United Kingdom"},"categories":[{"id":"4bf58dd8d48988d1f9941735","name":"Food & Drink Shop","pluralName":"Food & Drink Shops","shortName":"Food & Drink","icon":{"prefix":"https:\/\/ss1.4sqi.net\/img\/categories_v2\/shops\/foodanddrink_","suffix":".png"},"primary":"true"}],"verified":"false","restricted":"true","stats":{"checkinsCount":"162","usersCount":"33","tipCount":"3"},"specials":{"count":"0"},"hereNow":{"count":"0"},"referralId":"v-1392478058"},{"id":"52136de111d25dfa3dc947ce","name":"London School of Commerce","location":{"address":"Pocock house","crossStreet":"Borough","lat":"51.498381","lng":"-0.099932","distance":"178","cc":"GB","country":"United Kingdom"},"categories":[{"id":"4bf58dd8d48988d1a8941735","name":"General College & University","pluralName":"General Colleges & Universities","shortName":"Education","icon":{"prefix":"https:\/\/ss1.4sqi.net\/img\/categories_v2\/education\/other_","suffix":".png"},"primary":"true"}],"verified":"false","restricted":"true","stats":{"checkinsCount":"36","usersCount":"17","tipCount":"0"},"specials":{"count":"0"},"hereNow":{"count":"0"},"referralId":"v-1392478058"},{"id":"50051b1de4b046ca4e385166","name":"79 Borough Road Southwark","location":{"lat":"51.499257","lng":"-0.098118","distance":"22","cc":"GB","country":"United Kingdom"},"categories":[{"id":"4bf58dd8d48988d174941735","name":"Coworking Space","pluralName":"Coworking Spaces","shortName":"Coworking Space","icon":{"prefix":"https:\/\/ss1.4sqi.net\/img\/categories_v2\/building\/office_coworkingspace_","suffix":".png"},"primary":"true"}],"verified":"false","restricted":"true","stats":{"checkinsCount":"0","usersCount":"0","tipCount":"0"},"specials":{"count":"0"},"hereNow":{"count":"0"},"referralId":"v-1392478058"},{"id":"51ecee885019e26f990a0a03","name":"Ipsos Mori Borough","contact":{"phone":"+442073473000","formattedPhone":"+44 20 7347 3000","twitter":"ipsosmori"},"location":{"address":"79-81 Borough Road","lat":"51.49900217289732","lng":"-0.09841024875640869","distance":"52","postalCode":"SE1 1FY","cc":"GB","city":"London","state":"Greater London","country":"United Kingdom"},"categories":[{"id":"4bf58dd8d48988d124941735","name":"Office","pluralName":"Offices","shortName":"Office","icon":{"prefix":"https:\/\/ss1.4sqi.net\/img\/categories_v2\/building\/default_","suffix":".png"},"primary":"true"}],"verified":"false","restricted":"true","stats":{"checkinsCount":"24","usersCount":"8","tipCount":"0"},"specials":{"count":"0"},"hereNow":{"count":"0"},"referralId":"v-1392478058"},{"id":"4ba0b1c4f964a520f57737e3","name":"Terry's Cafe","location":{"address":"Great Suffolk St.","lat":"51.50078245781318","lng":"-0.09827512172402005","distance":"169","postalCode":"SE1","cc":"GB","city":"Borough","state":"Greater London","country":"United Kingdom"},"categories":[{"id":"4bf58dd8d48988d147941735","name":"Diner","pluralName":"Diners","shortName":"Diner","icon":{"prefix":"https:\/\/ss1.4sqi.net\/img\/categories_v2\/food\/diner_","suffix":".png"},"primary":"true"}],"verified":"false","restricted":"true","stats":{"checkinsCount":"335","usersCount":"137","tipCount":"6"},"specials":{"count":"0"},"hereNow":{"count":"0"},"referralId":"v-1392478058"},{"id":"4d5e85ac338bb60c6d8610bd","name":"Pocock House","contact":{"phone":"+442078157815","formattedPhone":"+44 20 7815 7815","twitter":"lsbu"},"location":{"address":"London South Bank University","crossStreet":"Borough Rd","lat":"51.498376","lng":"-0.099844","distance":"174","postalCode":"SE1 OAA","cc":"GB","city":"London","state":"Greater London","country":"United Kingdom"},"categories":[{"id":"4bf58dd8d48988d197941735","name":"College Administrative Building","pluralName":"College Administrative Buildings","shortName":"Administrative Building","icon":{"prefix":"https:\/\/ss1.4sqi.net\/img\/categories_v2\/education\/administrativebuilding_","suffix":".png"},"primary":"true"}],"verified":"false","restricted":"true","stats":{"checkinsCount":"91","usersCount":"35","tipCount":"1"},"specials":{"count":"0"},"hereNow":{"count":"0"},"referralId":"v-1392478058"},{"id":"501d39e1e4b0f36f03ecc262","name":"MyBase","location":{"address":"130 Webber Street","lat":"51.50071010325608","lng":"-0.0988600315240783","distance":"174","postalCode":"Se1 0jn","cc":"GB","city":"London","state":"Greater London","country":"United Kingdom"},"categories":[{"id":"4d954b06a243a5684965b473","name":"Residential Building (Apartment \/ Condo)","pluralName":"Residential Buildings (Apartments \/ Condos)","shortName":"Residential","icon":{"prefix":"https:\/\/ss1.4sqi.net\/img\/categories_v2\/building\/apartment_","suffix":".png"},"primary":"true"}],"verified":"false","restricted":"true","stats":{"checkinsCount":"218","usersCount":"12","tipCount":"1"},"specials":{"count":"0"},"hereNow":{"count":"0"},"referralId":"v-1392478058"},{"id":"50982dcae4b024b7d999beb7","name":"202 Great Suffolk Street","location":{"lat":"51.5001","lng":"-0.095875","distance":"161","cc":"GB","country":"United Kingdom"},"categories":[{"id":"4d954b06a243a5684965b473","name":"Residential Building (Apartment \/ Condo)","pluralName":"Residential Buildings (Apartments \/ Condos)","shortName":"Residential","icon":{"prefix":"https:\/\/ss1.4sqi.net\/img\/categories_v2\/building\/apartment_","suffix":".png"},"primary":"true"}],"verified":"false","restricted":"true","stats":{"checkinsCount":"12","usersCount":"2","tipCount":"0"},"specials":{"count":"0"},"hereNow":{"count":"0"},"referralId":"v-1392478058"},{"id":"516bc688e4b0510f202596d6","name":"London School Of Commerce  Library","location":{"lat":"51.498374325654","lng":"-0.09968347647309941","distance":"165","cc":"GB","country":"United Kingdom"},"categories":[{"id":"4bf58dd8d48988d1a7941735","name":"College Library","pluralName":"College Libraries","shortName":"Library","icon":{"prefix":"https:\/\/ss1.4sqi.net\/img\/categories_v2\/building\/library_","suffix":".png"},"primary":"true"}],"verified":"false","restricted":"true","stats":{"checkinsCount":"48","usersCount":"26","tipCount":"0"},"specials":{"count":"0"},"hereNow":{"count":"0"},"referralId":"v-1392478058"},{"id":"4c87716051ada1cd2faa4710","name":"etc.venues","contact":{"phone":"+442079407370","formattedPhone":"+44 20 7940 7370","twitter":"etcvenues"},"location":{"address":"Avonmouth Street","lat":"51.498017009203224","lng":"-0.09786844253540039","distance":"141","postalCode":"SE1 6NX","cc":"GB","city":"Borough","state":"Greater London","country":"United Kingdom"},"categories":[{"id":"4bf58dd8d48988d100941735","name":"Meeting Room","pluralName":"Meeting Rooms","shortName":"Meeting Room","icon":{"prefix":"https:\/\/ss1.4sqi.net\/img\/categories_v2\/building\/conventioncenter_meetingroom_","suffix":".png"},"primary":"true"}],"verified":"true","restricted":"true","stats":{"checkinsCount":"230","usersCount":"115","tipCount":"2"},"url":"http:\/\/www.etcvenues.co.uk\/venues\/avonmouth-house","specials":{"count":"0"},"hereNow":{"count":"0"},"storeId":"","referralId":"v-1392478058"},{"id":"5264f16a11d282d55e5f9c69","name":"ITF - International Transport Workers Federation","contact":{"phone":"+442074032733","formattedPhone":"+44 20 7403 2733"},"location":{"address":"49-60 Borough Road","lat":"51.499175175803295","lng":"-0.0993765829643419","distance":"109","cc":"GB","city":"London","state":"Greater London","country":"United Kingdom"},"categories":[{"id":"50328a8e91d4c4b30a586d6c","name":"Non-Profit","pluralName":"Non-Profits","shortName":"Non-Profit","icon":{"prefix":"https:\/\/ss1.4sqi.net\/img\/categories_v2\/building\/default_","suffix":".png"},"primary":"true"}],"verified":"false","restricted":"true","stats":{"checkinsCount":"7","usersCount":"4","tipCount":"0"},"specials":{"count":"0"},"hereNow":{"count":"0"},"referralId":"v-1392478058"},{"id":"4adf2b28f964a520fa7721e3","name":"LSBU Students' Union","contact":{"phone":"+442078156060","formattedPhone":"+44 20 7815 6060","twitter":"lsbu_su"},"location":{"address":"Student Centre, Borough Rd.","lat":"51.49868491911701","lng":"-0.10106563568115234","distance":"235","postalCode":"SE1","cc":"GB","city":"Borough","state":"Greater London","country":"United Kingdom"},"categories":[{"id":"4bf58dd8d48988d1ab941735","name":"Student Center","pluralName":"Student Centers","shortName":"Student Center","icon":{"prefix":"https:\/\/ss1.4sqi.net\/img\/categories_v2\/education\/studentcenter_","suffix":".png"},"primary":"true"}],"verified":"false","restricted":"true","stats":{"checkinsCount":"150","usersCount":"59","tipCount":"0"},"url":"http:\/\/www.londonsouthbanksu.com","specials":{"count":"0"},"hereNow":{"count":"0"},"referralId":"v-1392478058"},{"id":"50982e68e4b07ba8c8032491","name":"Scott's Den des Iniquit\u00e9s","contact":{"twitter":"scottwestron"},"location":{"address":"202 Great Suffolk Street","lat":"51.500049","lng":"-0.096045","distance":"148","postalCode":"SE1 1NY","cc":"GB","city":"London","state":"Greater London","country":"United Kingdom"},"categories":[{"id":"5032891291d4c4b30a586d68","name":"Assisted Living","pluralName":"Assisted Living","shortName":"Assisted Living","icon":{"prefix":"https:\/\/ss1.4sqi.net\/img\/categories_v2\/building\/apartment_","suffix":".png"},"primary":"true"}],"verified":"false","restricted":"true","stats":{"checkinsCount":"56","usersCount":"6","tipCount":"1"},"specials":{"count":"0"},"hereNow":{"count":"0"},"referralId":"v-1392478058"},{"id":"4e899fc8823198c1a525fbc4","name":"Tesco Express","contact":{"twitter":"uktesco"},"location":{"address":"44 Borough Rd","lat":"51.498785","lng":"-0.100616","distance":"202","postalCode":"SE1 0AJ","cc":"GB","city":"Borough","state":"Greater London","country":"United Kingdom"},"categories":[{"id":"4bf58dd8d48988d118951735","name":"Grocery Store","pluralName":"Grocery Stores","shortName":"Grocery Store","icon":{"prefix":"https:\/\/ss1.4sqi.net\/img\/categories_v2\/shops\/food_grocery_","suffix":".png"},"primary":"true"}],"verified":"false","restricted":"true","stats":{"checkinsCount":"273","usersCount":"103","tipCount":"1"},"url":"http:\/\/www.tesco.com","specials":{"count":"0"},"hereNow":{"count":"0"},"referralId":"v-1392478058"},{"id":"4f8419e1e4b03669d2706958","name":"Jeff's Barbers","contact":{"phone":"+442036202612","formattedPhone":"+44 20 3620 2612"},"location":{"address":"160 Great Suffolk Street","lat":"51.50081171652104","lng":"-0.09829817550843555","distance":"172","postalCode":"SE1 1PE","cc":"GB","city":"London","state":"Greater London","country":"United Kingdom"},"categories":[{"id":"4bf58dd8d48988d110951735","name":"Salon \/ Barbershop","pluralName":"Salons \/ Barbershops","shortName":"Salon \/ Barbershop","icon":{"prefix":"https:\/\/ss1.4sqi.net\/img\/categories_v2\/shops\/salon_barber_","suffix":".png"},"primary":"true"}],"verified":"false","restricted":"true","stats":{"checkinsCount":"40","usersCount":"15","tipCount":"5"},"specials":{"count":"0"},"hereNow":{"count":"0"},"referralId":"v-1392478058"},{"id":"4bda9b012a3a0f47bf85abb6","name":"Borough Dental Practice","location":{"address":"305 Borough High Street","lat":"51.49989662126749","lng":"-0.09506849698584047","distance":"201","postalCode":"SE1","cc":"GB","city":"Borough","state":"Greater London","country":"United Kingdom"},"categories":[{"id":"4bf58dd8d48988d178941735","name":"Dentist's Office","pluralName":"Dentist's Offices","shortName":"Dentist's Office","icon":{"prefix":"https:\/\/ss1.4sqi.net\/img\/categories_v2\/building\/medical_dentist_","suffix":".png"},"primary":"true"}],"verified":"false","restricted":"true","stats":{"checkinsCount":"61","usersCount":"30","tipCount":"0"},"specials":{"count":"0"},"hereNow":{"count":"0"},"referralId":"v-1392478058"},{"id":"4ea9da6a4690ef1f6ba151f2","name":"Zombie Disco","location":{"lat":"51.49785308574868","lng":"-0.09821796250310802","distance":"162","cc":"GB","city":"Camberwell","state":"Greater London","country":"United Kingdom"},"categories":[{"id":"4bf58dd8d48988d11a941735","name":"Other Nightlife","pluralName":"Other Nightlife","shortName":"Nightlife","icon":{"prefix":"https:\/\/ss1.4sqi.net\/img\/categories_v2\/nightlife\/default_","suffix":".png"},"primary":"true"}],"verified":"false","restricted":"true","stats":{"checkinsCount":"8","usersCount":"8","tipCount":"0"},"specials":{"count":"0"},"hereNow":{"count":"0"},"referralId":"v-1392478058"},{"id":"4d8757d78de9721ec97a6b51","name":"Mustard","contact":{"phone":"+442073780484","formattedPhone":"+44 20 7378 0484"},"location":{"address":"109 Great Suffolk St.","lat":"51.500700702427864","lng":"-0.09799404211177805","distance":"157","postalCode":"SE1 1PQ","cc":"GB","city":"London","state":"Greater London","country":"United Kingdom"},"categories":[{"id":"4bf58dd8d48988d1c5941735","name":"Sandwich Place","pluralName":"Sandwich Places","shortName":"Sandwiches","icon":{"prefix":"https:\/\/ss1.4sqi.net\/img\/categories_v2\/food\/sandwiches_","suffix":".png"},"primary":"true"}],"verified":"false","restricted":"true","stats":{"checkinsCount":"77","usersCount":"22","tipCount":"0"},"specials":{"count":"0"},"hereNow":{"count":"0"},"referralId":"v-1392478058"},{"id":"52dfb59c11d2cee5881cc732","name":"In The Mix","location":{"lat":"51.498674","lng":"-0.099389","distance":"129","cc":"GB","country":"United Kingdom"},"categories":[{"id":"50aa9e094b90af0d42d5de0d","name":"City","pluralName":"Cities","shortName":"City","icon":{"prefix":"https:\/\/ss1.4sqi.net\/img\/categories_v2\/parks_outdoors\/neighborhood_","suffix":".png"},"primary":"true"}],"verified":"false","restricted":"true","stats":{"checkinsCount":"1","usersCount":"1","tipCount":"0"},"specials":{"count":"0"},"hereNow":{"count":"0"},"referralId":"v-1392478058"}],"confident":"true"}}