{"meta":{"code":"200"},"response":{"venues":[{"id":"4ac518baf964a520eca120e3","name":"Muffin Man","location":{"address":"12 Wright's Ln","lat":"51.499383626272106","lng":"-0.1924853584814848","distance":"24","postalCode":"W8 6TA","cc":"GB","city":"Kensington","state":"Greater London","country":"United Kingdom"},"categories":[{"id":"4bf58dd8d48988d143941735","name":"Breakfast Spot","pluralName":"Breakfast Spots","shortName":"Breakfast","icon":{"prefix":"https:\/\/ss1.4sqi.net\/img\/categories_v2\/food\/breakfast_","suffix":".png"},"primary":"true"}],"verified":"false","restricted":"true","stats":{"checkinsCount":"807","usersCount":"549","tipCount":"22"},"specials":{"count":"0"},"hereNow":{"count":"0"},"referralId":"v-1392478048"},{"id":"4b581777f964a520af4a28e3","name":"Copthorne Tara Hotel London Kensington","contact":{"phone":"+442079377211","formattedPhone":"+44 20 7937 7211","twitter":"millenniumeu","facebook":"456685494411593"},"location":{"address":"Scarsdale Place","crossStreet":"High Street Kensington","lat":"51.49889903140087","lng":"-0.19146656191082675","distance":"102","postalCode":"W8 5SR","cc":"GB","city":"Kensington","state":"Greater London","country":"United Kingdom"},"categories":[{"id":"4bf58dd8d48988d1fa931735","name":"Hotel","pluralName":"Hotels","shortName":"Hotel","icon":{"prefix":"https:\/\/ss1.4sqi.net\/img\/categories_v2\/travel\/hotel_","suffix":".png"},"primary":"true"}],"verified":"true","restricted":"true","stats":{"checkinsCount":"3353","usersCount":"1491","tipCount":"57"},"url":"http:\/\/www.millenniumhotels.co.uk","specials":{"count":"0"},"hereNow":{"count":"0"},"storeId":"","referralId":"v-1392478048"},{"id":"4d21afe05acaa35d18fbd135","name":"High Street Kensington Station Bus Stop","location":{"address":"Kensington","lat":"51.50023041057776","lng":"-0.1921284419981983","distance":"114","postalCode":"W8 4SG","cc":"GB","city":"London","state":"Greater London","country":"United Kingdom"},"categories":[{"id":"4bf58dd8d48988d1fe931735","name":"Bus Station","pluralName":"Bus Stations","shortName":"Bus Station","icon":{"prefix":"https:\/\/ss1.4sqi.net\/img\/categories_v2\/travel\/busstation_","suffix":".png"},"primary":"true"}],"verified":"false","restricted":"true","stats":{"checkinsCount":"2500","usersCount":"1702","tipCount":"1"},"specials":{"count":"0"},"hereNow":{"count":"1","groups":[{"type":"others","name":"Other people here","count":"1"}]},"referralId":"v-1392478048"},{"id":"4b993bc6f964a520196c35e3","name":"Kensington Close Hotel","contact":{"phone":"+448707517770","formattedPhone":"+44 870 751 7770","twitter":"ausbrewer"},"location":{"address":"14 Wrights Ln","lat":"51.49835727315209","lng":"-0.1917473936953825","distance":"126","postalCode":"W8 5SP","cc":"GB","city":"London","state":"Greater London","country":"United Kingdom"},"categories":[{"id":"4bf58dd8d48988d1fa931735","name":"Hotel","pluralName":"Hotels","shortName":"Hotel","icon":{"prefix":"https:\/\/ss1.4sqi.net\/img\/categories_v2\/travel\/hotel_","suffix":".png"},"primary":"true"}],"verified":"true","restricted":"true","stats":{"checkinsCount":"2586","usersCount":"1257","tipCount":"50"},"url":"http:\/\/www.kensingtonclosehotel.com","menu":{"type":"Menu","label":"Menu","anchor":"View Menu","url":"https:\/\/foursquare.com\/v\/kensington-close-hotel\/4b993bc6f964a520196c35e3\/menu","mobileUrl":"https:\/\/foursquare.com\/v\/4b993bc6f964a520196c35e3\/device_menu"},"specials":{"count":"0"},"hereNow":{"count":"0"},"venuePage":{"id":"33320184"},"storeId":"","referralId":"v-1392478048"},{"id":"4bf5968dbfeac92842c79236","name":"Thai Terrace restaurant","location":{"lat":"51.499147028926465","lng":"-0.19239759382283086","distance":"32","cc":"GB","city":"Kensington","state":"Greater London","country":"United Kingdom"},"categories":[{"id":"4bf58dd8d48988d149941735","name":"Thai Restaurant","pluralName":"Thai Restaurants","shortName":"Thai","icon":{"prefix":"https:\/\/ss1.4sqi.net\/img\/categories_v2\/food\/thai_","suffix":".png"},"primary":"true"}],"verified":"false","restricted":"true","stats":{"checkinsCount":"242","usersCount":"156","tipCount":"9"},"menu":{"type":"Menu","label":"Menu","anchor":"View Menu","url":"https:\/\/foursquare.com\/v\/thai-terrace-restaurant\/4bf5968dbfeac92842c79236\/menu","mobileUrl":"https:\/\/foursquare.com\/v\/4bf5968dbfeac92842c79236\/device_menu"},"specials":{"count":"0"},"hereNow":{"count":"0"},"referralId":"v-1392478048"},{"id":"4b9decf7f964a52006c336e3","name":"STA Travel","contact":{"twitter":"statravel_uk"},"location":{"address":"6 Wright's Lane","lat":"51.49998790616707","lng":"-0.19288007190261525","distance":"77","postalCode":"W8 6TA","cc":"GB","city":"London","state":"Greater London","country":"United Kingdom"},"categories":[{"id":"4bf58dd8d48988d124941735","name":"Office","pluralName":"Offices","shortName":"Office","icon":{"prefix":"https:\/\/ss1.4sqi.net\/img\/categories_v2\/building\/default_","suffix":".png"},"primary":"true"}],"verified":"true","restricted":"true","stats":{"checkinsCount":"311","usersCount":"44","tipCount":"0"},"url":"http:\/\/www.statravel.co.uk","specials":{"count":"0"},"hereNow":{"count":"0"},"referralId":"v-1392478048"},{"id":"4bba13781261d13ac62eea98","name":"Pret A Manger","contact":{"phone":"+442079325254","formattedPhone":"+44 20 7932 5254","twitter":"pret","facebook":"162638680417951"},"location":{"address":"Unit 14, Kensington Arcade","lat":"51.500883907231","lng":"-0.192821905636607","distance":"177","postalCode":"W8 5SF","cc":"GB","city":"Kensington","state":"Greater London","country":"United Kingdom"},"categories":[{"id":"4bf58dd8d48988d1c5941735","name":"Sandwich Place","pluralName":"Sandwich Places","shortName":"Sandwiches","icon":{"prefix":"https:\/\/ss1.4sqi.net\/img\/categories_v2\/food\/sandwiches_","suffix":".png"},"primary":"true"}],"verified":"true","restricted":"true","stats":{"checkinsCount":"1173","usersCount":"594","tipCount":"6"},"url":"http:\/\/www.pret.com","specials":{"count":"0"},"hereNow":{"count":"1","groups":[{"type":"others","name":"Other people here","count":"1"}]},"storeId":"54","referralId":"v-1392478048"},{"id":"4ac518c6f964a5200ea520e3","name":"Kensington Roof Gardens","location":{"address":"99 Kensington High St.","lat":"51.50092905882357","lng":"-0.1916910095867962","distance":"198","postalCode":"W8 5SA","cc":"GB","city":"Kensington","state":"Greater London","country":"United Kingdom"},"categories":[{"id":"4bf58dd8d48988d15a941735","name":"Garden","pluralName":"Gardens","shortName":"Garden","icon":{"prefix":"https:\/\/ss1.4sqi.net\/img\/categories_v2\/parks_outdoors\/garden_","suffix":".png"},"primary":"true"}],"verified":"false","restricted":"true","stats":{"checkinsCount":"3483","usersCount":"2830","tipCount":"37"},"url":"http:\/\/velvet-pr.com\/guestlists\/kensington-roof-gardens-guestlist\/","menu":{"type":"Menu","label":"Menu","anchor":"View Menu","url":"https:\/\/foursquare.com\/v\/kensington-roof-gardens\/4ac518c6f964a5200ea520e3\/menu","mobileUrl":"https:\/\/foursquare.com\/v\/4ac518c6f964a5200ea520e3\/device_menu"},"specials":{"count":"0"},"hereNow":{"count":"0"},"referralId":"v-1392478048"},{"id":"4b5ec8b5f964a520999829e3","name":"Boots","contact":{"phone":"+442079379533","formattedPhone":"+44 20 7937 9533"},"location":{"address":"127a Kensington High Street","lat":"51.50059318786129","lng":"-0.1929557099755144","distance":"145","postalCode":"W8 5SF","cc":"GB","city":"London","state":"Greater London","country":"United Kingdom"},"categories":[{"id":"4bf58dd8d48988d10f951735","name":"Drugstore \/ Pharmacy","pluralName":"Drugstores \/ Pharmacies","shortName":"Pharmacy","icon":{"prefix":"https:\/\/ss1.4sqi.net\/img\/categories_v2\/shops\/pharmacy_","suffix":".png"},"primary":"true"}],"verified":"false","restricted":"true","stats":{"checkinsCount":"1074","usersCount":"556","tipCount":"3"},"specials":{"count":"0"},"hereNow":{"count":"0"},"referralId":"v-1392478048"},{"id":"4bbf3d8cf353d13a483d7e10","name":"Caff\u00e8 Nero","location":{"address":"1 Wright's Lane","lat":"51.500567253693134","lng":"-0.19321218532137974","distance":"145","postalCode":"W8 5RY","cc":"GB","city":"London","state":"Greater London","country":"United Kingdom"},"categories":[{"id":"4bf58dd8d48988d1e0931735","name":"Coffee Shop","pluralName":"Coffee Shops","shortName":"Coffee Shop","icon":{"prefix":"https:\/\/ss1.4sqi.net\/img\/categories_v2\/food\/coffeeshop_","suffix":".png"},"primary":"true"}],"verified":"false","restricted":"true","stats":{"checkinsCount":"1574","usersCount":"840","tipCount":"17"},"url":"http:\/\/caffenero.com","specials":{"count":"0"},"hereNow":{"count":"1","groups":[{"type":"others","name":"Other people here","count":"1"}]},"referralId":"v-1392478048"},{"id":"51e8ed54498e22d75746417b","name":"Cafe Nero High St Kensington Station","location":{"lat":"51.49889089584352","lng":"-0.19255895076807752","distance":"47","cc":"GB","country":"United Kingdom"},"categories":[{"id":"4bf58dd8d48988d1e0931735","name":"Coffee Shop","pluralName":"Coffee Shops","shortName":"Coffee Shop","icon":{"prefix":"https:\/\/ss1.4sqi.net\/img\/categories_v2\/food\/coffeeshop_","suffix":".png"},"primary":"true"}],"verified":"false","restricted":"true","stats":{"checkinsCount":"11","usersCount":"10","tipCount":"0"},"specials":{"count":"0"},"hereNow":{"count":"0"},"referralId":"v-1392478048"},{"id":"4ac518bef964a520efa220e3","name":"The Britannia","contact":{"phone":"+442079376905","formattedPhone":"+44 20 7937 6905"},"location":{"address":"1 Allen St","lat":"51.49897827952461","lng":"-0.19519553905908113","distance":"169","postalCode":"W8 6UX","cc":"GB","city":"Kensington","state":"Greater London","country":"United Kingdom"},"categories":[{"id":"4bf58dd8d48988d116941735","name":"Bar","pluralName":"Bars","shortName":"Bar","icon":{"prefix":"https:\/\/ss1.4sqi.net\/img\/categories_v2\/nightlife\/bar_","suffix":".png"},"primary":"true"}],"verified":"false","restricted":"true","stats":{"checkinsCount":"2162","usersCount":"463","tipCount":"21"},"url":"http:\/\/www.britanniakensington.co.uk\u200e","menu":{"type":"Menu","label":"Menu","anchor":"View Menu","url":"https:\/\/foursquare.com\/v\/the-britannia\/4ac518bef964a520efa220e3\/menu","mobileUrl":"https:\/\/foursquare.com\/v\/4ac518bef964a520efa220e3\/device_menu"},"specials":{"count":"0"},"hereNow":{"count":"0"},"referralId":"v-1392478048"},{"id":"4e3fdd0fa809ba757c28a66b","name":"Wrights Lane","location":{"lat":"51.49907032189499","lng":"-0.19224189044195342","distance":"45","cc":"GB","city":"Kensington","state":"Greater London","country":"United Kingdom"},"categories":[{"id":"4d954b06a243a5684965b473","name":"Residential Building (Apartment \/ Condo)","pluralName":"Residential Buildings (Apartments \/ Condos)","shortName":"Residential","icon":{"prefix":"https:\/\/ss1.4sqi.net\/img\/categories_v2\/building\/apartment_","suffix":".png"},"primary":"true"}],"verified":"false","restricted":"true","stats":{"checkinsCount":"141","usersCount":"47","tipCount":"0"},"specials":{"count":"0"},"hereNow":{"count":"0"},"referralId":"v-1392478048"},{"id":"4ac518dbf964a5201ea920e3","name":"Babylon at The Roof Gardens","location":{"address":"99 Kensington High St.","lat":"51.500936","lng":"-0.1917189359664917","distance":"198","postalCode":"W8 5JA","cc":"GB","city":"London","state":"Greater London","country":"United Kingdom"},"categories":[{"id":"4bf58dd8d48988d1c4941735","name":"Restaurant","pluralName":"Restaurants","shortName":"Restaurant","icon":{"prefix":"https:\/\/ss1.4sqi.net\/img\/categories_v2\/food\/default_","suffix":".png"},"primary":"true"}],"verified":"false","restricted":"true","stats":{"checkinsCount":"961","usersCount":"761","tipCount":"22"},"url":"http:\/\/www.roofgardens.com","reservations":{"url":"http:\/\/www.toptable.co.uk\/single.aspx?rid=81349&ref=9601"},"menu":{"type":"Menu","label":"Menu","anchor":"View Menu","url":"https:\/\/foursquare.com\/v\/babylon-at-the-roof-gardens\/4ac518dbf964a5201ea920e3\/menu","mobileUrl":"https:\/\/foursquare.com\/v\/4ac518dbf964a5201ea920e3\/device_menu"},"specials":{"count":"0"},"hereNow":{"count":"1","groups":[{"type":"others","name":"Other people here","count":"1"}]},"referralId":"v-1392478048"},{"id":"523eec3111d2c579d914ee4d","name":"Bill's","contact":{"twitter":"billsrestaurant"},"location":{"address":"10 Kensington Arcade","crossStreet":"Kensington High Street","lat":"51.50096315171983","lng":"-0.19273829421780442","distance":"186","postalCode":"W8 5SF","cc":"GB","city":"London","state":"Greater London","country":"United Kingdom"},"categories":[{"id":"4bf58dd8d48988d147941735","name":"Diner","pluralName":"Diners","shortName":"Diner","icon":{"prefix":"https:\/\/ss1.4sqi.net\/img\/categories_v2\/food\/diner_","suffix":".png"},"primary":"true"}],"verified":"true","restricted":"true","stats":{"checkinsCount":"247","usersCount":"204","tipCount":"8"},"specials":{"count":"0"},"hereNow":{"count":"0"},"referralId":"v-1392478048"},{"id":"4eaaa298e3000d1f0583e35a","name":"Leonidas","location":{"address":"Kensington Arcade","lat":"51.49877984147058","lng":"-0.19178028863421911","distance":"90","cc":"GB","city":"Kensington","state":"Greater London","country":"United Kingdom"},"categories":[{"id":"4bf58dd8d48988d117951735","name":"Candy Store","pluralName":"Candy Stores","shortName":"Candy Store","icon":{"prefix":"https:\/\/ss1.4sqi.net\/img\/categories_v2\/shops\/candystore_","suffix":".png"},"primary":"true"}],"verified":"false","restricted":"true","stats":{"checkinsCount":"110","usersCount":"62","tipCount":"0"},"specials":{"count":"0"},"hereNow":{"count":"0"},"referralId":"v-1392478048"},{"id":"500c17e0e4b01eff31a8055a","name":"Calzedonia High Street Kensington","location":{"lat":"51.49913271239114","lng":"-0.19205787665579566","distance":"54","cc":"GB","country":"United Kingdom"},"categories":[{"id":"4bf58dd8d48988d109951735","name":"Lingerie Store","pluralName":"Lingerie Stores","shortName":"Lingerie","icon":{"prefix":"https:\/\/ss1.4sqi.net\/img\/categories_v2\/shops\/apparel_lingerie_","suffix":".png"},"primary":"true"}],"verified":"false","restricted":"true","stats":{"checkinsCount":"52","usersCount":"24","tipCount":"1"},"specials":{"count":"0"},"hereNow":{"count":"0"},"referralId":"v-1392478048"},{"id":"4b0593d3f964a52060df22e3","name":"Ben's Cookies","location":{"address":"High Street Kensington","lat":"51.500676186969365","lng":"-0.19260432910015063","distance":"155","cc":"GB","city":"London","state":"Greater London","country":"United Kingdom"},"categories":[{"id":"4bf58dd8d48988d16a941735","name":"Bakery","pluralName":"Bakeries","shortName":"Bakery","icon":{"prefix":"https:\/\/ss1.4sqi.net\/img\/categories_v2\/food\/bakery_","suffix":".png"},"primary":"true"}],"verified":"false","restricted":"true","stats":{"checkinsCount":"508","usersCount":"269","tipCount":"2"},"specials":{"count":"0"},"hereNow":{"count":"0"},"referralId":"v-1392478048"},{"id":"4bba166a98c7ef3b10ac3202","name":"Tesco Metro","contact":{"phone":"+448450269531","formattedPhone":"+44 845 026 9531","twitter":"uktescooffers"},"location":{"address":"146-158 High Street","lat":"51.50038136629462","lng":"-0.19483566284179688","distance":"186","postalCode":"W8 6SU","cc":"GB","city":"London","state":"Greater London","country":"United Kingdom"},"categories":[{"id":"4bf58dd8d48988d118951735","name":"Grocery Store","pluralName":"Grocery Stores","shortName":"Grocery Store","icon":{"prefix":"https:\/\/ss1.4sqi.net\/img\/categories_v2\/shops\/food_grocery_","suffix":".png"},"primary":"true"}],"verified":"true","restricted":"true","stats":{"checkinsCount":"828","usersCount":"349","tipCount":"1"},"url":"http:\/\/www.tesco.com","specials":{"count":"0"},"hereNow":{"count":"0"},"storeId":"5589","referralId":"v-1392478048"},{"id":"4be288ca21d5a59346be1611","name":"EMI Music","contact":{"phone":"+442077957000","formattedPhone":"+44 20 7795 7000","twitter":"emimusic"},"location":{"address":"27 Wrights Lane","lat":"51.50019943043388","lng":"-0.19299835423549788","distance":"102","postalCode":"W8 5SW","cc":"GB","city":"London","state":"Greater London","country":"United Kingdom"},"categories":[{"id":"4bf58dd8d48988d174941735","name":"Coworking Space","pluralName":"Coworking Spaces","shortName":"Coworking Space","icon":{"prefix":"https:\/\/ss1.4sqi.net\/img\/categories_v2\/building\/office_coworkingspace_","suffix":".png"},"primary":"true"}],"verified":"false","restricted":"true","stats":{"checkinsCount":"1263","usersCount":"471","tipCount":"4"},"specials":{"count":"0"},"hereNow":{"count":"0"},"referralId":"v-1392478048"},{"id":"52b0935c498e23137f6cffab","name":"Kamps","location":{"address":"High Street Kensington 125","crossStreet":"Kensington Arcade \/ Unit 8","lat":"51.50074781042468","lng":"-0.1924889186222811","distance":"163","postalCode":"W8 5SF","cc":"GB","city":"London","state":"Greater London","country":"United Kingdom"},"categories":[{"id":"4bf58dd8d48988d16a941735","name":"Bakery","pluralName":"Bakeries","shortName":"Bakery","icon":{"prefix":"https:\/\/ss1.4sqi.net\/img\/categories_v2\/food\/bakery_","suffix":".png"},"primary":"true"}],"verified":"false","restricted":"true","stats":{"checkinsCount":"22","usersCount":"17","tipCount":"0"},"url":"http:\/\/www.kamps.co.uk","specials":{"count":"0"},"hereNow":{"count":"0"},"referralId":"v-1392478048"},{"id":"4dee08fad164f9a5c685d9a5","name":"Cafexpress","location":{"lat":"51.49889614503113","lng":"-0.1919592936459902","distance":"73","cc":"GB","city":"Kensington","state":"Greater London","country":"United Kingdom"},"categories":[{"id":"4bf58dd8d48988d16d941735","name":"Caf\u00e9","pluralName":"Caf\u00e9s","shortName":"Caf\u00e9","icon":{"prefix":"https:\/\/ss1.4sqi.net\/img\/categories_v2\/food\/cafe_","suffix":".png"},"primary":"true"}],"verified":"false","restricted":"true","stats":{"checkinsCount":"44","usersCount":"16","tipCount":"0"},"specials":{"count":"0"},"hereNow":{"count":"0"},"referralId":"v-1392478048"},{"id":"50bc37fce4b060d019b6821a","name":"Platform 4","location":{"address":"High Street Kensington Station","lat":"51.5003662109375","lng":"-0.19237050414085388","distance":"123","cc":"GB","city":"London","state":"Greater London","country":"United Kingdom"},"categories":[{"id":"4f4531504b9074f6e4fb0102","name":"Platform","pluralName":"Platforms","shortName":"Platform","icon":{"prefix":"https:\/\/ss1.4sqi.net\/img\/categories_v2\/travel\/trainstation_","suffix":".png"},"primary":"true"}],"verified":"false","restricted":"true","stats":{"checkinsCount":"16","usersCount":"11","tipCount":"0"},"specials":{"count":"0"},"hereNow":{"count":"0"},"referralId":"v-1392478048"},{"id":"521a372911d2aa1b30d7ea0c","name":"D Sotto's Ice Cream","location":{"crossStreet":"Kensington","lat":"51.49874749674868","lng":"-0.1919293232911176","distance":"85","cc":"GB","city":"London","state":"Greater London","country":"United Kingdom"},"categories":[{"id":"4bf58dd8d48988d16d941735","name":"Caf\u00e9","pluralName":"Caf\u00e9s","shortName":"Caf\u00e9","icon":{"prefix":"https:\/\/ss1.4sqi.net\/img\/categories_v2\/food\/cafe_","suffix":".png"},"primary":"true"}],"verified":"false","restricted":"true","stats":{"checkinsCount":"3","usersCount":"3","tipCount":"0"},"specials":{"count":"0"},"hereNow":{"count":"0"},"referralId":"v-1392478048"},{"id":"4c49cb776594be9a80439125","name":"MMW8","location":{"address":"Kensington, London W8 6TQ","lat":"51.49936258792877","lng":"-0.19300406","distance":"16","postalCode":"W8 6TQ","cc":"GB","city":"London","state":"Greater London","country":"United Kingdom"},"categories":[{"id":"4bf58dd8d48988d1d8941735","name":"Gay Bar","pluralName":"Gay Bars","shortName":"Gay Bar","icon":{"prefix":"https:\/\/ss1.4sqi.net\/img\/categories_v2\/nightlife\/gaybar_","suffix":".png"},"primary":"true"}],"verified":"false","restricted":"true","stats":{"checkinsCount":"4","usersCount":"2","tipCount":"3"},"specials":{"count":"0"},"hereNow":{"count":"0"},"referralId":"v-1392478048"},{"id":"52e3cfe811d285c94b459c61","name":"Boost Juice","location":{"address":"Unit 6, Kensington Arcade","lat":"51.500042","lng":"-0.192219","distance":"93","postalCode":"W8 5SF","cc":"GB","city":"London","state":"Greater London","country":"United Kingdom"},"categories":[{"id":"4bf58dd8d48988d112941735","name":"Juice Bar","pluralName":"Juice Bars","shortName":"Juice Bar","icon":{"prefix":"https:\/\/ss1.4sqi.net\/img\/categories_v2\/food\/juicebar_","suffix":".png"},"primary":"true"}],"verified":"false","restricted":"true","stats":{"checkinsCount":"3","usersCount":"3","tipCount":"0"},"url":"http:\/\/www.boostjuicebars.co.uk","specials":{"count":"0"},"hereNow":{"count":"0"},"referralId":"v-1392478048"},{"id":"4c49cbf8fbafc9287b8b68db","name":"Orsini Vintage","location":{"address":"Earls Court Road","crossStreet":"High Street Kensington","lat":"51.49880437929738","lng":"-0.19201842358707638","distance":"76","postalCode":"W8 6","cc":"GB","city":"Kensington","state":"Greater London","country":"United Kingdom"},"categories":[{"id":"4bf58dd8d48988d104951735","name":"Boutique","pluralName":"Boutiques","shortName":"Boutique","icon":{"prefix":"https:\/\/ss1.4sqi.net\/img\/categories_v2\/shops\/apparel_boutique_","suffix":".png"},"primary":"true"}],"verified":"false","restricted":"true","stats":{"checkinsCount":"33","usersCount":"19","tipCount":"0"},"specials":{"count":"0"},"hereNow":{"count":"0"},"referralId":"v-1392478048"},{"id":"51e7e178498e6b9850dde62c","name":"NBA UK LTD","location":{"address":"Kensington High Street","lat":"51.500598367120816","lng":"-0.193034082348151","distance":"146","cc":"GB","city":"London","state":"Greater London","country":"United Kingdom"},"categories":[{"id":"4bf58dd8d48988d124941735","name":"Office","pluralName":"Offices","shortName":"Office","icon":{"prefix":"https:\/\/ss1.4sqi.net\/img\/categories_v2\/building\/default_","suffix":".png"},"primary":"true"}],"verified":"false","restricted":"true","stats":{"checkinsCount":"42","usersCount":"8","tipCount":"0"},"specials":{"count":"0"},"hereNow":{"count":"0"},"referralId":"v-1392478048"},{"id":"5040b6fde4b0364d84bbfd58","name":"Fordham University London Centre","location":{"lat":"51.499895","lng":"-0.191402","distance":"118","cc":"GB","country":"United Kingdom"},"categories":[{"id":"4bf58dd8d48988d198941735","name":"College Academic Building","pluralName":"College Academic Buildings","shortName":"Academic Building","icon":{"prefix":"https:\/\/ss1.4sqi.net\/img\/categories_v2\/education\/academicbuilding_","suffix":".png"},"primary":"true"}],"verified":"false","restricted":"true","stats":{"checkinsCount":"66","usersCount":"11","tipCount":"0"},"specials":{"count":"0"},"hereNow":{"count":"0"},"referralId":"v-1392478048"},{"id":"51288ff0e4b0d9d0fad12c68","name":"Airmnm","location":{"lat":"51.499176025390625","lng":"-0.19246871769428253","distance":"26","cc":"GB","country":"United Kingdom"},"categories":[{"id":"4d954b06a243a5684965b473","name":"Residential Building (Apartment \/ Condo)","pluralName":"Residential Buildings (Apartments \/ Condos)","shortName":"Residential","icon":{"prefix":"https:\/\/ss1.4sqi.net\/img\/categories_v2\/building\/apartment_","suffix":".png"},"primary":"true"}],"verified":"false","restricted":"true","stats":{"checkinsCount":"1","usersCount":"1","tipCount":"0"},"specials":{"count":"0"},"hereNow":{"count":"0"},"referralId":"v-1392478048"}],"confident":"true"}}