{"meta":{"code":"200"},"response":{"venues":[{"id":"5077e95c498e98df0dc602b1","name":"National Heart And Lung Institute","location":{"lat":"51.49003404999516","lng":"-0.1719036549751353","distance":"103","cc":"GB","country":"United Kingdom"},"categories":[{"id":"4bf58dd8d48988d173941735","name":"Auditorium","pluralName":"Auditoriums","shortName":"Auditorium","icon":{"prefix":"https:\/\/ss1.4sqi.net\/img\/categories_v2\/building\/auditorium_","suffix":".png"},"primary":"true"}],"verified":"false","restricted":"true","stats":{"checkinsCount":"103","usersCount":"8","tipCount":"0"},"specials":{"count":"0"},"hereNow":{"count":"0"},"referralId":"v-1392478076"},{"id":"4b601d5df964a52048d629e3","name":"The Royal Marsden","location":{"address":"203 Fulham Rd.","lat":"51.490583367197495","lng":"-0.17310264640229026","distance":"145","postalCode":"SW3 6JJ","cc":"GB","city":"London","state":"Greater London","country":"United Kingdom"},"categories":[{"id":"4bf58dd8d48988d196941735","name":"Hospital","pluralName":"Hospitals","shortName":"Hospital","icon":{"prefix":"https:\/\/ss1.4sqi.net\/img\/categories_v2\/building\/medical_hospital_","suffix":".png"},"primary":"true"}],"verified":"false","restricted":"true","stats":{"checkinsCount":"943","usersCount":"248","tipCount":"10"},"specials":{"count":"0"},"hereNow":{"count":"0"},"referralId":"v-1392478076"},{"id":"4db2f5726e8179a9135de531","name":"The Crown, Dovehouse Street","location":{"lat":"51.489585098807446","lng":"-0.1738002849020155","distance":"76","cc":"GB","city":"Kensington","state":"Greater London","country":"United Kingdom"},"categories":[{"id":"4bf58dd8d48988d11b941735","name":"Pub","pluralName":"Pubs","shortName":"Pub","icon":{"prefix":"https:\/\/ss1.4sqi.net\/img\/categories_v2\/nightlife\/pub_","suffix":".png"},"primary":"true"}],"verified":"false","restricted":"true","stats":{"checkinsCount":"125","usersCount":"38","tipCount":"0"},"specials":{"count":"0"},"hereNow":{"count":"0"},"referralId":"v-1392478076"},{"id":"4bbb14251261d13a523beb98","name":"Royal Brompton Hospital","location":{"address":"Sydney street","lat":"51.48939401719584","lng":"-0.17072094685102135","distance":"144","cc":"GB","country":"United Kingdom"},"categories":[{"id":"4bf58dd8d48988d196941735","name":"Hospital","pluralName":"Hospitals","shortName":"Hospital","icon":{"prefix":"https:\/\/ss1.4sqi.net\/img\/categories_v2\/building\/medical_hospital_","suffix":".png"},"primary":"true"}],"verified":"false","restricted":"true","stats":{"checkinsCount":"779","usersCount":"264","tipCount":"2"},"specials":{"count":"0"},"hereNow":{"count":"0"},"referralId":"v-1392478076"},{"id":"4ac518dbf964a520e7a820e3","name":"Colombier (Le)","location":{"address":"145 Dovehouse Street","lat":"51.489992065959505","lng":"-0.17292932363206018","distance":"78","postalCode":"SW3 6LB","cc":"GB","city":"London","state":"Greater London","country":"United Kingdom"},"categories":[{"id":"4bf58dd8d48988d10c941735","name":"French Restaurant","pluralName":"French Restaurants","shortName":"French","icon":{"prefix":"https:\/\/ss1.4sqi.net\/img\/categories_v2\/food\/french_","suffix":".png"},"primary":"true"}],"verified":"false","restricted":"true","stats":{"checkinsCount":"87","usersCount":"49","tipCount":"2"},"menu":{"type":"Menu","label":"Menu","anchor":"View Menu","url":"https:\/\/foursquare.com\/v\/colombier-le\/4ac518dbf964a520e7a820e3\/menu","mobileUrl":"https:\/\/foursquare.com\/v\/4ac518dbf964a520e7a820e3\/device_menu"},"specials":{"count":"0"},"hereNow":{"count":"0"},"referralId":"v-1392478076"},{"id":"4bc22283abf49521cf06c293","name":"The Sydney Arms","location":{"address":"Sydney street","lat":"51.488735","lng":"-0.169638","distance":"227","postalCode":"Sw3","cc":"GB","city":"Chelsea","state":"Greater London","country":"United Kingdom"},"categories":[{"id":"4bf58dd8d48988d11b941735","name":"Pub","pluralName":"Pubs","shortName":"Pub","icon":{"prefix":"https:\/\/ss1.4sqi.net\/img\/categories_v2\/nightlife\/pub_","suffix":".png"},"primary":"true"}],"verified":"false","restricted":"true","stats":{"checkinsCount":"502","usersCount":"336","tipCount":"5"},"specials":{"count":"0"},"hereNow":{"count":"0"},"referralId":"v-1392478076"},{"id":"4bf80ae5508c0f4787333e31","name":"The Crown","location":{"lat":"51.49008819949149","lng":"-0.17369314434489963","distance":"108","cc":"GB","country":"United Kingdom"},"categories":[{"id":"4bf58dd8d48988d11b941735","name":"Pub","pluralName":"Pubs","shortName":"Pub","icon":{"prefix":"https:\/\/ss1.4sqi.net\/img\/categories_v2\/nightlife\/pub_","suffix":".png"},"primary":"true"}],"verified":"false","restricted":"true","stats":{"checkinsCount":"200","usersCount":"87","tipCount":"3"},"specials":{"count":"0"},"hereNow":{"count":"0"},"referralId":"v-1392478076"},{"id":"4ec13e9e6da15b4ddfa4cecb","name":"Royal Brompton Hospital | Heart and Lung Specialists","contact":{"phone":"+442073528121","formattedPhone":"+44 20 7352 8121"},"location":{"address":"Fulham Road","crossStreet":"Fulham Wing","lat":"51.490272527151696","lng":"-0.1737261347269301","distance":"126","postalCode":"SW3 6NP","cc":"GB","city":"Kensington","state":"Greater London","country":"United Kingdom"},"categories":[{"id":"4bf58dd8d48988d196941735","name":"Hospital","pluralName":"Hospitals","shortName":"Hospital","icon":{"prefix":"https:\/\/ss1.4sqi.net\/img\/categories_v2\/building\/medical_hospital_","suffix":".png"},"primary":"true"}],"verified":"false","restricted":"true","stats":{"checkinsCount":"177","usersCount":"70","tipCount":"0"},"specials":{"count":"0"},"hereNow":{"count":"0"},"referralId":"v-1392478076"},{"id":"4b589899f964a520516028e3","name":"The Flower Stall at the Queen's Elm","location":{"address":"Fulham Road","crossStreet":"Old Church St \/ Queen's Elm Parade \/ Selwood Place","lat":"51.48927984622253","lng":"-0.17563104629516602","distance":"196","postalCode":"SW3","cc":"GB","city":"London","state":"Greater London","country":"United Kingdom"},"categories":[{"id":"4bf58dd8d48988d11b951735","name":"Flower Shop","pluralName":"Flower Shops","shortName":"Flower Shop","icon":{"prefix":"https:\/\/ss1.4sqi.net\/img\/categories_v2\/shops\/flowershop_","suffix":".png"},"primary":"true"}],"verified":"false","restricted":"true","stats":{"checkinsCount":"449","usersCount":"57","tipCount":"4"},"specials":{"count":"0"},"hereNow":{"count":"0"},"referralId":"v-1392478076"},{"id":"4af316b7f964a5208dea21e3","name":"Chelsea arts club","location":{"address":"Old church street","lat":"51.487689876549595","lng":"-0.17445087432861328","distance":"211","cc":"GB","city":"London","state":"Greater London","country":"United Kingdom"},"categories":[{"id":"4bf58dd8d48988d1f1931735","name":"General Entertainment","pluralName":"General Entertainment","shortName":"Entertainment","icon":{"prefix":"https:\/\/ss1.4sqi.net\/img\/categories_v2\/arts_entertainment\/default_","suffix":".png"},"primary":"true"}],"verified":"false","restricted":"true","stats":{"checkinsCount":"346","usersCount":"169","tipCount":"4"},"specials":{"count":"0"},"hereNow":{"count":"0"},"referralId":"v-1392478076"},{"id":"4bd2e7cc41b9ef3b24d9fee5","name":"Chelsea Square","location":{"address":"Chelsea Square","crossStreet":"South Parade","lat":"51.48865848807795","lng":"-0.17546715856386377","distance":"197","postalCode":"SW3","cc":"GB","city":"Kensington & Chelsea","state":"Greater London","country":"United Kingdom"},"categories":[{"id":"4bf58dd8d48988d164941735","name":"Plaza","pluralName":"Plazas","shortName":"Plaza","icon":{"prefix":"https:\/\/ss1.4sqi.net\/img\/categories_v2\/parks_outdoors\/plaza_","suffix":".png"},"primary":"true"}],"verified":"false","restricted":"true","stats":{"checkinsCount":"290","usersCount":"77","tipCount":"1"},"specials":{"count":"0"},"hereNow":{"count":"0"},"referralId":"v-1392478076"},{"id":"4f05929c9adf79d8735389d5","name":"TfL - Barclays Cycle Hire - South Parade","location":{"address":"South Parade","crossStreet":"Ok Church Street","lat":"51.48871006560194","lng":"-0.17563880416088226","distance":"206","postalCode":"SW3","cc":"GB","country":"United Kingdom"},"categories":[{"id":"4e4c9077bd41f78e849722f9","name":"Bike Rental \/ Bike Share","pluralName":"Bike Rentals \/ Bike Shares","shortName":"Bike","icon":{"prefix":"https:\/\/ss1.4sqi.net\/img\/categories_v2\/shops\/bikeshop_","suffix":".png"},"primary":"true"}],"verified":"false","restricted":"true","stats":{"checkinsCount":"308","usersCount":"24","tipCount":"0"},"specials":{"count":"0"},"hereNow":{"count":"0"},"referralId":"v-1392478076"},{"id":"4e54e41cd22dad218e01cd2e","name":"Lind Ward","location":{"address":"Royal Brompton Hospital","crossStreet":"Sydney Street","lat":"51.49024883","lng":"-0.17401576","distance":"135","postalCode":"SW3 6NP","cc":"GB","city":"London","state":"Greater London","country":"United Kingdom"},"categories":[{"id":"4bf58dd8d48988d196941735","name":"Hospital","pluralName":"Hospitals","shortName":"Hospital","icon":{"prefix":"https:\/\/ss1.4sqi.net\/img\/categories_v2\/building\/medical_hospital_","suffix":".png"},"primary":"true"}],"verified":"false","restricted":"true","stats":{"checkinsCount":"60","usersCount":"6","tipCount":"0"},"specials":{"count":"0"},"hereNow":{"count":"0"},"referralId":"v-1392478076"},{"id":"51c60850498e9226857cc59e","name":"Bumpkin Chelsea","contact":{"phone":"+442037309344","formattedPhone":"+44 20 3730 9344"},"location":{"address":"119 Sydney St.","lat":"51.48854887739152","lng":"-0.16983210338112087","distance":"221","postalCode":"sw3 6nr","cc":"GB","city":"London","state":"Greater London","country":"United Kingdom"},"categories":[{"id":"4bf58dd8d48988d14b941735","name":"Winery","pluralName":"Wineries","shortName":"Winery","icon":{"prefix":"https:\/\/ss1.4sqi.net\/img\/categories_v2\/food\/winery_","suffix":".png"},"primary":"true"}],"verified":"false","restricted":"true","stats":{"checkinsCount":"46","usersCount":"42","tipCount":"1"},"url":"http:\/\/www.bumpkinuk.com","reservations":{"url":"http:\/\/www.toptable.co.uk\/single.aspx?rid=96234&ref=9601"},"menu":{"type":"Menu","label":"Menu","anchor":"View Menu","url":"https:\/\/foursquare.com\/v\/bumpkin-chelsea\/51c60850498e9226857cc59e\/menu","mobileUrl":"https:\/\/foursquare.com\/v\/51c60850498e9226857cc59e\/device_menu"},"specials":{"count":"0"},"hereNow":{"count":"0"},"referralId":"v-1392478076"},{"id":"4c87ecddb2138cfaadac4d44","name":"St Lukes Astro Pitches","location":{"address":"Cale St.","lat":"51.489961","lng":"-0.170014","distance":"207","cc":"GB","city":"Kensington","state":"Greater London","country":"United Kingdom"},"categories":[{"id":"4bf58dd8d48988d162941735","name":"Other Great Outdoors","pluralName":"Other Great Outdoors","shortName":"Other Outdoors","icon":{"prefix":"https:\/\/ss1.4sqi.net\/img\/categories_v2\/parks_outdoors\/outdoors_","suffix":".png"},"primary":"true"}],"verified":"false","restricted":"true","stats":{"checkinsCount":"52","usersCount":"16","tipCount":"0"},"specials":{"count":"0"},"hereNow":{"count":"0"},"referralId":"v-1392478076"},{"id":"4b72ac43f964a52036832de3","name":"Lucio","contact":{"phone":"+442078233007","formattedPhone":"+44 20 7823 3007"},"location":{"address":"257 Fulham Road","crossStreet":"Elm Place","lat":"51.48903262628809","lng":"-0.17609477147284072","distance":"229","postalCode":"WC2H 9HA","cc":"GB","city":"Kensington","state":"Greater London","country":"United Kingdom"},"categories":[{"id":"4bf58dd8d48988d110941735","name":"Italian Restaurant","pluralName":"Italian Restaurants","shortName":"Italian","icon":{"prefix":"https:\/\/ss1.4sqi.net\/img\/categories_v2\/food\/italian_","suffix":".png"},"primary":"true"}],"verified":"false","restricted":"true","stats":{"checkinsCount":"138","usersCount":"68","tipCount":"2"},"url":"http:\/\/www.luciorestaurant.com\u200e","specials":{"count":"0"},"hereNow":{"count":"0"},"referralId":"v-1392478076"},{"id":"4c69617c8e7c0f47c26adf0f","name":"Strip Chelsea","location":{"address":"102 Fulham Palace Road","lat":"51.48965332322342","lng":"-0.17530057107493172","distance":"177","cc":"GB","city":"SW3 6HS","state":"Greater London","country":"United Kingdom"},"categories":[{"id":"4bf58dd8d48988d10c951735","name":"Cosmetics Shop","pluralName":"Cosmetics Shops","shortName":"Cosmetics","icon":{"prefix":"https:\/\/ss1.4sqi.net\/img\/categories_v2\/shops\/beauty_cosmetic_","suffix":".png"},"primary":"true"}],"verified":"false","restricted":"true","stats":{"checkinsCount":"91","usersCount":"39","tipCount":"3"},"specials":{"count":"0"},"hereNow":{"count":"0"},"referralId":"v-1392478076"},{"id":"4c5421e530f92d7f8264ebb9","name":"TfL Bus 211","location":{"address":"Moving Target!","lat":"51.4897625973609","lng":"-0.16976041759669272","distance":"217","cc":"GB","city":"London","state":"Greater London","country":"United Kingdom"},"categories":[{"id":"4bf58dd8d48988d12b951735","name":"Bus Line","pluralName":"Bus Lines","shortName":"Bus","icon":{"prefix":"https:\/\/ss1.4sqi.net\/img\/categories_v2\/travel\/busstation_","suffix":".png"},"primary":"true"}],"verified":"false","restricted":"true","stats":{"checkinsCount":"181","usersCount":"68","tipCount":"3"},"specials":{"count":"0"},"hereNow":{"count":"0"},"referralId":"v-1392478076"},{"id":"4b1ab481f964a520d1ef23e3","name":"The Queen's Elm","location":{"address":"241 Fulham Road","lat":"51.48867394163041","lng":"-0.17564335266776787","distance":"208","postalCode":"SW3 6HY","cc":"GB","city":"London","state":"Greater London","country":"United Kingdom"},"categories":[{"id":"4bf58dd8d48988d130941735","name":"Building","pluralName":"Buildings","shortName":"Building","icon":{"prefix":"https:\/\/ss1.4sqi.net\/img\/categories_v2\/building\/default_","suffix":".png"},"primary":"true"}],"verified":"false","restricted":"true","stats":{"checkinsCount":"244","usersCount":"11","tipCount":"2"},"specials":{"count":"0"},"hereNow":{"count":"0"},"referralId":"v-1392478076"},{"id":"4c2b6ed357a9c9b64fdef567","name":"TfL Bus 14","contact":{"twitter":"tflbusalerts"},"location":{"address":"Moving Target!","lat":"51.48822432632349","lng":"-0.17578125","distance":"238","cc":"GB","city":"London","state":"Greater London","country":"United Kingdom"},"categories":[{"id":"4bf58dd8d48988d12b951735","name":"Bus Line","pluralName":"Bus Lines","shortName":"Bus","icon":{"prefix":"https:\/\/ss1.4sqi.net\/img\/categories_v2\/travel\/busstation_","suffix":".png"},"primary":"true"}],"verified":"false","restricted":"true","stats":{"checkinsCount":"590","usersCount":"221","tipCount":"3"},"url":"http:\/\/www.tfl.gov.uk","specials":{"count":"0"},"hereNow":{"count":"0"},"referralId":"v-1392478076"},{"id":"4b800042f964a520f04930e3","name":"Carphone Warehouse","contact":{"twitter":"cpwtweets"},"location":{"address":"359 Kings Road","lat":"51.487407179606365","lng":"-0.17458065901279604","distance":"243","postalCode":"SW35UZ","cc":"GB","city":"Chelsea","country":"United Kingdom"},"categories":[{"id":"4bf58dd8d48988d122951735","name":"Electronics Store","pluralName":"Electronics Stores","shortName":"Electronics","icon":{"prefix":"https:\/\/ss1.4sqi.net\/img\/categories_v2\/shops\/technology_","suffix":".png"},"primary":"true"}],"verified":"true","restricted":"true","stats":{"checkinsCount":"26","usersCount":"25","tipCount":"0"},"url":"http:\/\/www.carphonewarehouse.com","specials":{"count":"0"},"hereNow":{"count":"0"},"storeId":"8","referralId":"v-1392478076"},{"id":"4da6f2056a230db30ecd2979","name":"Kb Bus Stop Kings Road","location":{"lat":"51.48911550797137","lng":"-0.17401043954322107","distance":"85","cc":"GB","city":"Kensington","state":"Greater London","country":"United Kingdom"},"categories":[{"id":"4bf58dd8d48988d12b951735","name":"Bus Line","pluralName":"Bus Lines","shortName":"Bus","icon":{"prefix":"https:\/\/ss1.4sqi.net\/img\/categories_v2\/travel\/busstation_","suffix":".png"},"primary":"true"}],"verified":"false","restricted":"true","stats":{"checkinsCount":"2","usersCount":"2","tipCount":"0"},"specials":{"count":"0"},"hereNow":{"count":"0"},"referralId":"v-1392478076"},{"id":"4ac518f0f964a520b7ad20e3","name":"Brora","location":{"address":"344 Kings Road","lat":"51.488648157098076","lng":"-0.17494272465729","distance":"164","postalCode":"SW3 5UR","cc":"GB","city":"London","state":"Greater London","country":"United Kingdom"},"categories":[{"id":"4bf58dd8d48988d105951735","name":"Kids Store","pluralName":"Kids Stores","shortName":"Kids Store","icon":{"prefix":"https:\/\/ss1.4sqi.net\/img\/categories_v2\/shops\/apparel_kids_","suffix":".png"},"primary":"true"}],"verified":"false","restricted":"true","stats":{"checkinsCount":"31","usersCount":"6","tipCount":"0"},"specials":{"count":"0"},"hereNow":{"count":"0"},"referralId":"v-1392478076"},{"id":"4cfa5bc2c6cca35d92b88532","name":"La Pizzeria","location":{"address":"125 Sydney St","lat":"51.488012","lng":"-0.169688","distance":"258","cc":"GB","city":"Kensington","state":"Greater London","country":"United Kingdom"},"categories":[{"id":"4bf58dd8d48988d1ca941735","name":"Pizza Place","pluralName":"Pizza Places","shortName":"Pizza","icon":{"prefix":"https:\/\/ss1.4sqi.net\/img\/categories_v2\/food\/pizza_","suffix":".png"},"primary":"true"}],"verified":"false","restricted":"true","stats":{"checkinsCount":"41","usersCount":"33","tipCount":"1"},"specials":{"count":"0"},"hereNow":{"count":"0"},"referralId":"v-1392478076"},{"id":"52eb6c90498e06f43892772f","name":"Cabbages and Roses Fashion","contact":{"phone":"+442036961310","formattedPhone":"+44 20 3696 1310","twitter":"cabbagesandrose"},"location":{"address":"121 Sydney Street","lat":"51.48856","lng":"-0.169607","distance":"235","postalCode":"SW3 6NR","cc":"GB","city":"Chelsea","state":"Greater London","country":"United Kingdom"},"categories":[{"id":"4bf58dd8d48988d108951735","name":"Women's Store","pluralName":"Women's Stores","shortName":"Women's Store","icon":{"prefix":"https:\/\/ss1.4sqi.net\/img\/categories_v2\/shops\/apparel_women_","suffix":".png"},"primary":"true"}],"verified":"false","restricted":"true","stats":{"checkinsCount":"1","usersCount":"1","tipCount":"0"},"specials":{"count":"0"},"hereNow":{"count":"0"},"referralId":"v-1392478076"},{"id":"529711a711d2c423851c482c","name":"radiology Department The Royal Marsden","location":{"lat":"51.49028015136719","lng":"-0.1731760948896408","distance":"113","cc":"GB","country":"United Kingdom"},"categories":[{"id":"4bf58dd8d48988d196941735","name":"Hospital","pluralName":"Hospitals","shortName":"Hospital","icon":{"prefix":"https:\/\/ss1.4sqi.net\/img\/categories_v2\/building\/medical_hospital_","suffix":".png"},"primary":"true"}],"verified":"false","restricted":"true","stats":{"checkinsCount":"1","usersCount":"1","tipCount":"0"},"specials":{"count":"0"},"hereNow":{"count":"0"},"referralId":"v-1392478076"},{"id":"4c9ff60b54c8a1cd60f89b4b","name":"Royal Brompton Hospital Nurses Home","location":{"address":"South Parade","lat":"51.489835","lng":"-0.173707","distance":"87","postalCode":"SW3 6LL","cc":"GB","city":"Kensington","state":"Greater London","country":"United Kingdom"},"categories":[{"id":"4bf58dd8d48988d1f8931735","name":"Bed & Breakfast","pluralName":"Bed & Breakfasts","shortName":"B & B","icon":{"prefix":"https:\/\/ss1.4sqi.net\/img\/categories_v2\/travel\/bedandbreakfast_","suffix":".png"},"primary":"true"}],"verified":"false","restricted":"true","stats":{"checkinsCount":"55","usersCount":"8","tipCount":"0"},"specials":{"count":"0"},"hereNow":{"count":"0"},"referralId":"v-1392478076"},{"id":"4ecf7cef30f81894ad333d80","name":"Rose Ward","location":{"address":"Royal Brompton Hospit","crossStreet":"Sydney Street","lat":"51.489188208384036","lng":"-0.17139232851749941","distance":"98","cc":"GB","city":"Kensington","state":"Greater London","country":"United Kingdom"},"categories":[{"id":"4bf58dd8d48988d196941735","name":"Hospital","pluralName":"Hospitals","shortName":"Hospital","icon":{"prefix":"https:\/\/ss1.4sqi.net\/img\/categories_v2\/building\/medical_hospital_","suffix":".png"},"primary":"true"}],"verified":"false","restricted":"true","stats":{"checkinsCount":"20","usersCount":"6","tipCount":"0"},"specials":{"count":"0"},"hereNow":{"count":"0"},"referralId":"v-1392478076"},{"id":"4b601cb8f964a52030d629e3","name":"Patrick Mavros","location":{"address":"106 Fulham Road","crossStreet":"Old Church St","lat":"51.48889482225979","lng":"-0.1755976044819202","distance":"198","cc":"GB","country":"United Kingdom"},"categories":[{"id":"4bf58dd8d48988d111951735","name":"Jewelry Store","pluralName":"Jewelry Stores","shortName":"Jewelry","icon":{"prefix":"https:\/\/ss1.4sqi.net\/img\/categories_v2\/shops\/jewelry_","suffix":".png"},"primary":"true"}],"verified":"false","restricted":"true","stats":{"checkinsCount":"102","usersCount":"15","tipCount":"0"},"specials":{"count":"0"},"hereNow":{"count":"0"},"referralId":"v-1392478076"},{"id":"4f5cabc6e4b086681c2dac6b","name":"Cafe Romana","location":{"lat":"51.49100807379615","lng":"-0.17291013402539024","distance":"191","cc":"GB","country":"United Kingdom"},"categories":[{"id":"4bf58dd8d48988d16d941735","name":"Caf\u00e9","pluralName":"Caf\u00e9s","shortName":"Caf\u00e9","icon":{"prefix":"https:\/\/ss1.4sqi.net\/img\/categories_v2\/food\/cafe_","suffix":".png"},"primary":"true"}],"verified":"false","restricted":"true","stats":{"checkinsCount":"56","usersCount":"28","tipCount":"1"},"specials":{"count":"0"},"hereNow":{"count":"0"},"referralId":"v-1392478076"}],"confident":"false"}}