{"meta":{"code":"200"},"response":{"venues":[{"id":"4b8c276bf964a52006c132e3","name":"Dolphin Square","contact":{"phone":"+442077988000","formattedPhone":"+44 20 7798 8000"},"location":{"address":"Chichester St.","lat":"51.48728903510795","lng":"-0.13666391372680664","distance":"427","postalCode":"SW1V 3LX","cc":"GB","city":"London","state":"Greater London","country":"United Kingdom"},"categories":[{"id":"4bf58dd8d48988d164941735","name":"Plaza","pluralName":"Plazas","shortName":"Plaza","icon":{"prefix":"https:\/\/ss1.4sqi.net\/img\/categories_v2\/parks_outdoors\/plaza_","suffix":".png"},"primary":"true"}],"verified":"false","restricted":"true","stats":{"checkinsCount":"1351","usersCount":"388","tipCount":"4"},"specials":{"count":"0"},"hereNow":{"count":"0"},"referralId":"v-1392478093"},{"id":"4adf75b6f964a520c97a21e3","name":"St Georges Square","location":{"address":"St Georges Square","lat":"51.48835829929586","lng":"-0.13504858782006174","distance":"478","cc":"GB","city":"London","state":"Greater London","country":"United Kingdom"},"categories":[{"id":"4bf58dd8d48988d164941735","name":"Plaza","pluralName":"Plazas","shortName":"Plaza","icon":{"prefix":"https:\/\/ss1.4sqi.net\/img\/categories_v2\/parks_outdoors\/plaza_","suffix":".png"},"primary":"true"}],"verified":"false","restricted":"true","stats":{"checkinsCount":"652","usersCount":"264","tipCount":"4"},"specials":{"count":"0"},"hereNow":{"count":"0"},"referralId":"v-1392478093"},{"id":"4ac518f6f964a5207aaf20e3","name":"Dolphin Square Sports Club","location":{"address":"Dolphin Sq.","lat":"51.48740776010332","lng":"-0.136836511342898","distance":"445","postalCode":"SW1V 3PP","cc":"GB","city":"London","state":"Greater London","country":"United Kingdom"},"categories":[{"id":"4bf58dd8d48988d105941735","name":"Gym Pool","pluralName":"Gym Pools","shortName":"Pool","icon":{"prefix":"https:\/\/ss1.4sqi.net\/img\/categories_v2\/shops\/gym_pool_","suffix":".png"},"primary":"true"}],"verified":"false","restricted":"true","stats":{"checkinsCount":"1056","usersCount":"173","tipCount":"2"},"specials":{"count":"0"},"hereNow":{"count":"0"},"referralId":"v-1392478093"},{"id":"4c343b51a0ced13ac6db176e","name":"Brunswick House Cafe","contact":{"phone":"+442077202926","formattedPhone":"+44 20 7720 2926"},"location":{"address":"30 Wandsworth Rd.","lat":"51.48477367462722","lng":"-0.12633204460144043","distance":"451","postalCode":"SW8 2LG","cc":"GB","city":"Vauxhall","state":"Greater London","country":"United Kingdom"},"categories":[{"id":"4bf58dd8d48988d16d941735","name":"Caf\u00e9","pluralName":"Caf\u00e9s","shortName":"Caf\u00e9","icon":{"prefix":"https:\/\/ss1.4sqi.net\/img\/categories_v2\/food\/cafe_","suffix":".png"},"primary":"true"}],"verified":"false","restricted":"true","stats":{"checkinsCount":"829","usersCount":"519","tipCount":"26"},"url":"http:\/\/www.brunswickhousecafe.co.uk","reservations":{"url":"http:\/\/www.toptable.co.uk\/single.aspx?rid=95529&ref=9601"},"menu":{"type":"Menu","label":"Menu","anchor":"View Menu","url":"https:\/\/foursquare.com\/v\/brunswick-house-cafe\/4c343b51a0ced13ac6db176e\/menu","mobileUrl":"https:\/\/foursquare.com\/v\/4c343b51a0ced13ac6db176e\/device_menu"},"specials":{"count":"0"},"hereNow":{"count":"1","groups":[{"type":"others","name":"Other people here","count":"1"}]},"referralId":"v-1392478093"},{"id":"4bc8150f0050b7134fdcb93b","name":"New Covent Garden Flower Market","location":{"lat":"51.483290636379834","lng":"-0.12875599496357368","distance":"301","cc":"GB","country":"United Kingdom"},"categories":[{"id":"50be8ee891d4fa8dcc7199a7","name":"Market","pluralName":"Markets","shortName":"Market","icon":{"prefix":"https:\/\/ss1.4sqi.net\/img\/categories_v2\/shops\/default_","suffix":".png"},"primary":"true"}],"verified":"true","restricted":"true","stats":{"checkinsCount":"324","usersCount":"153","tipCount":"2"},"specials":{"count":"0"},"hereNow":{"count":"0"},"referralId":"v-1392478093"},{"id":"4b86bb8bf964a520899931e3","name":"DHL","location":{"address":"Ponton Rd.","lat":"51.48141501565821","lng":"-0.13156952184353984","distance":"331","postalCode":"SW8 5BA","cc":"GB","city":"London","state":"Greater London","country":"United Kingdom"},"categories":[{"id":"4bf58dd8d48988d130941735","name":"Building","pluralName":"Buildings","shortName":"Building","icon":{"prefix":"https:\/\/ss1.4sqi.net\/img\/categories_v2\/building\/default_","suffix":".png"},"primary":"true"}],"verified":"false","restricted":"true","stats":{"checkinsCount":"83","usersCount":"69","tipCount":"0"},"specials":{"count":"0"},"hereNow":{"count":"1","groups":[{"type":"others","name":"Other people here","count":"1"}]},"referralId":"v-1392478093"},{"id":"4bc4b0482a89ef3bcea9f688","name":"The Riverside","contact":{"phone":"+442077358129","formattedPhone":"+44 20 7735 8129","twitter":"riversideldn"},"location":{"address":"5 St. George Wharf","lat":"51.48560546257204","lng":"-0.12672901153564453","distance":"445","postalCode":"SW8 2LA","cc":"GB","city":"Lambeth","state":"Greater London","country":"United Kingdom"},"categories":[{"id":"4bf58dd8d48988d116941735","name":"Bar","pluralName":"Bars","shortName":"Bar","icon":{"prefix":"https:\/\/ss1.4sqi.net\/img\/categories_v2\/nightlife\/bar_","suffix":".png"},"primary":"true"}],"verified":"false","restricted":"true","stats":{"checkinsCount":"1166","usersCount":"756","tipCount":"19"},"menu":{"type":"Menu","label":"Menu","anchor":"View Menu","url":"https:\/\/foursquare.com\/v\/the-riverside\/4bc4b0482a89ef3bcea9f688\/menu","mobileUrl":"https:\/\/foursquare.com\/v\/4bc4b0482a89ef3bcea9f688\/device_menu"},"specials":{"count":"0"},"hereNow":{"count":"0"},"referralId":"v-1392478093"},{"id":"4d72b31cd145a1cd37fab8f3","name":"Roller Disco","contact":{"phone":"+442077209140","formattedPhone":"+44 20 7720 9140"},"location":{"address":"Miles Street","lat":"51.48211","lng":"-0.126659","distance":"490","postalCode":"SW8 1RZ","cc":"GB","city":"Vauxhall","state":"Greater London","country":"United Kingdom"},"categories":[{"id":"4bf58dd8d48988d11f941735","name":"Nightclub","pluralName":"Nightclubs","shortName":"Nightclub","icon":{"prefix":"https:\/\/ss1.4sqi.net\/img\/categories_v2\/nightlife\/nightclub_","suffix":".png"},"primary":"true"}],"verified":"false","restricted":"true","stats":{"checkinsCount":"634","usersCount":"531","tipCount":"7"},"url":"http:\/\/www.rollerdisco.com","specials":{"count":"0"},"hereNow":{"count":"0"},"referralId":"v-1392478093"},{"id":"4cdf280cf8cdb1f728ef8f12","name":"Pimlico Academy","contact":{"phone":"+442078280881","formattedPhone":"+44 20 7828 0881","twitter":"pimlicoacademy"},"location":{"address":"Lupus St.","lat":"51.48795710221961","lng":"-0.1371145248413086","distance":"506","postalCode":"SW1V 3AT","cc":"GB","city":"London","state":"Greater London","country":"United Kingdom"},"categories":[{"id":"4bf58dd8d48988d13d941735","name":"High School","pluralName":"High Schools","shortName":"High School","icon":{"prefix":"https:\/\/ss1.4sqi.net\/img\/categories_v2\/building\/school_","suffix":".png"},"primary":"true"}],"verified":"false","restricted":"true","stats":{"checkinsCount":"531","usersCount":"194","tipCount":"4"},"url":"http:\/\/www.pimlicoacademy.org","specials":{"count":"0"},"hereNow":{"count":"0"},"referralId":"v-1392478093"},{"id":"4e89af95e5fa82ad4c0aa03b","name":"Pimlico Gardens","location":{"lat":"51.48563970246465","lng":"-0.13413776365808092","distance":"176","cc":"GB","city":"London","state":"Greater London","country":"United Kingdom"},"categories":[{"id":"4bf58dd8d48988d15a941735","name":"Garden","pluralName":"Gardens","shortName":"Garden","icon":{"prefix":"https:\/\/ss1.4sqi.net\/img\/categories_v2\/parks_outdoors\/garden_","suffix":".png"},"primary":"true"}],"verified":"false","restricted":"true","stats":{"checkinsCount":"211","usersCount":"94","tipCount":"0"},"specials":{"count":"0"},"hereNow":{"count":"0"},"referralId":"v-1392478093"},{"id":"4bbf6849ba9776b05c11ffc8","name":"Dolphin Bar & Grill","location":{"address":"Dolphin Square","lat":"51.48693511054458","lng":"-0.13663429438832503","distance":"396","postalCode":"Sw1v 3nu","cc":"GB","city":"London","state":"Greater London","country":"United Kingdom"},"categories":[{"id":"4bf58dd8d48988d1c4941735","name":"Restaurant","pluralName":"Restaurants","shortName":"Restaurant","icon":{"prefix":"https:\/\/ss1.4sqi.net\/img\/categories_v2\/food\/default_","suffix":".png"},"primary":"true"}],"verified":"false","restricted":"true","stats":{"checkinsCount":"108","usersCount":"70","tipCount":"4"},"menu":{"type":"Menu","label":"Menu","anchor":"View Menu","url":"https:\/\/foursquare.com\/v\/dolphin-bar--grill\/4bbf6849ba9776b05c11ffc8\/menu","mobileUrl":"https:\/\/foursquare.com\/v\/4bbf6849ba9776b05c11ffc8\/device_menu"},"specials":{"count":"0"},"hereNow":{"count":"1","groups":[{"type":"others","name":"Other people here","count":"1"}]},"referralId":"v-1392478093"},{"id":"5120ddcbe4b0b9b4080e02ed","name":"Riverwalk","location":{"lat":"51.484150528493124","lng":"-0.13116374042917442","distance":"114","cc":"GB","country":"United Kingdom"},"categories":[{"id":"4bf58dd8d48988d162941735","name":"Other Great Outdoors","pluralName":"Other Great Outdoors","shortName":"Other Outdoors","icon":{"prefix":"https:\/\/ss1.4sqi.net\/img\/categories_v2\/parks_outdoors\/outdoors_","suffix":".png"},"primary":"true"}],"verified":"false","restricted":"true","stats":{"checkinsCount":"12","usersCount":"11","tipCount":"0"},"specials":{"count":"0"},"hereNow":{"count":"0"},"referralId":"v-1392478093"},{"id":"527ae4d3498e86f2ec5d8005","name":"The Tower St George Wharf","location":{"address":"The Tower 1 St George Wharf","lat":"51.4849287702985","lng":"-0.1274847670138436","distance":"375","postalCode":"SW8 2DU","cc":"GB","city":"London","state":"Greater London","country":"United Kingdom"},"categories":[{"id":"4d954b06a243a5684965b473","name":"Residential Building (Apartment \/ Condo)","pluralName":"Residential Buildings (Apartments \/ Condos)","shortName":"Residential","icon":{"prefix":"https:\/\/ss1.4sqi.net\/img\/categories_v2\/building\/apartment_","suffix":".png"},"primary":"true"}],"verified":"false","restricted":"true","stats":{"checkinsCount":"63","usersCount":"7","tipCount":"0"},"specials":{"count":"0"},"hereNow":{"count":"0"},"referralId":"v-1392478093"},{"id":"4b55c8d9f964a520dfef27e3","name":"Capgemini","location":{"lat":"51.48417","lng":"-0.126573","distance":"432","cc":"GB","country":"United Kingdom"},"categories":[{"id":"4bf58dd8d48988d124941735","name":"Office","pluralName":"Offices","shortName":"Office","icon":{"prefix":"https:\/\/ss1.4sqi.net\/img\/categories_v2\/building\/default_","suffix":".png"},"primary":"true"}],"verified":"false","restricted":"true","stats":{"checkinsCount":"348","usersCount":"100","tipCount":"1"},"specials":{"count":"0"},"hereNow":{"count":"0"},"referralId":"v-1392478093"},{"id":"4b7736e8f964a5207f882ee3","name":"Club Colosseum","contact":{"phone":"+442076271283","formattedPhone":"+44 20 7627 1283"},"location":{"address":"1 Nine Elms Lane","lat":"51.484376148122536","lng":"-0.12754440307617188","distance":"364","postalCode":"SW8 5NQ","cc":"GB","city":"Vauxhall","state":"Greater London","country":"United Kingdom"},"categories":[{"id":"4bf58dd8d48988d11f941735","name":"Nightclub","pluralName":"Nightclubs","shortName":"Nightclub","icon":{"prefix":"https:\/\/ss1.4sqi.net\/img\/categories_v2\/nightlife\/nightclub_","suffix":".png"},"primary":"true"}],"verified":"false","restricted":"true","stats":{"checkinsCount":"323","usersCount":"208","tipCount":"7"},"specials":{"count":"0"},"hereNow":{"count":"0"},"referralId":"v-1392478093"},{"id":"4ac518ebf964a52031ac20e3","name":"The Battersea Barge","contact":{"phone":"+442074980004","formattedPhone":"+44 20 7498 0004"},"location":{"address":"9 Elms Lane","lat":"51.483047","lng":"-0.1362776756286621","distance":"277","postalCode":"SW8 5BP","cc":"GB","city":"London","state":"Greater London","country":"United Kingdom"},"categories":[{"id":"4bf58dd8d48988d1f1931735","name":"General Entertainment","pluralName":"General Entertainment","shortName":"Entertainment","icon":{"prefix":"https:\/\/ss1.4sqi.net\/img\/categories_v2\/arts_entertainment\/default_","suffix":".png"},"primary":"true"}],"verified":"false","restricted":"true","stats":{"checkinsCount":"290","usersCount":"241","tipCount":"1"},"menu":{"type":"Menu","label":"Menu","anchor":"View Menu","url":"https:\/\/foursquare.com\/v\/the-battersea-barge\/4ac518ebf964a52031ac20e3\/menu","mobileUrl":"https:\/\/foursquare.com\/v\/4ac518ebf964a52031ac20e3\/device_menu"},"specials":{"count":"0"},"hereNow":{"count":"0"},"referralId":"v-1392478093"},{"id":"4c0fd3f381e976b0612a0eeb","name":"Dolphin Gym","location":{"lat":"51.48713490152536","lng":"-0.13697780072196034","distance":"429","cc":"GB","country":"United Kingdom"},"categories":[{"id":"4bf58dd8d48988d176941735","name":"Gym","pluralName":"Gyms","shortName":"Gym","icon":{"prefix":"https:\/\/ss1.4sqi.net\/img\/categories_v2\/building\/gym_","suffix":".png"},"primary":"true"}],"verified":"false","restricted":"true","stats":{"checkinsCount":"226","usersCount":"41","tipCount":"1"},"specials":{"count":"0"},"hereNow":{"count":"0"},"referralId":"v-1392478093"},{"id":"4d543f995b3f6dcbce44ddcc","name":"Dolphin House - Serviced Apartments","location":{"address":"Chichester St Westminster","lat":"51.48721188749616","lng":"-0.13632629255246687","distance":"406","postalCode":"Chichester S","cc":"GB","city":"London","state":"Greater London","country":"United Kingdom"},"categories":[{"id":"4bf58dd8d48988d1fa931735","name":"Hotel","pluralName":"Hotels","shortName":"Hotel","icon":{"prefix":"https:\/\/ss1.4sqi.net\/img\/categories_v2\/travel\/hotel_","suffix":".png"},"primary":"true"}],"verified":"false","restricted":"true","stats":{"checkinsCount":"289","usersCount":"140","tipCount":"1"},"specials":{"count":"0"},"hereNow":{"count":"0"},"referralId":"v-1392478093"},{"id":"4e5e73b118a8c46e0835d07b","name":"St George Wharf Pier","location":{"lat":"51.48609981897579","lng":"-0.1263536287637402","distance":"490","cc":"GB","city":"London","state":"Greater London","country":"United Kingdom"},"categories":[{"id":"4bf58dd8d48988d12d951735","name":"Boat or Ferry","pluralName":"Boats or Ferries","shortName":"Boat \/ Ferry","icon":{"prefix":"https:\/\/ss1.4sqi.net\/img\/categories_v2\/travel\/boat_","suffix":".png"},"primary":"true"}],"verified":"false","restricted":"true","stats":{"checkinsCount":"467","usersCount":"110","tipCount":"1"},"specials":{"count":"0"},"hereNow":{"count":"0"},"referralId":"v-1392478093"},{"id":"51add8cb498e9c11a89d8aff","name":"St George Wharf","location":{"lat":"51.484944169192694","lng":"-0.12747287214642203","distance":"376","cc":"GB","country":"United Kingdom"},"verified":"false","restricted":"true","stats":{"checkinsCount":"11","usersCount":"2","tipCount":"0"},"specials":{"count":"0"},"hereNow":{"count":"0"},"referralId":"v-1392478093"},{"id":"4b982a09f964a520c63035e3","name":"The Grosvenor","contact":{"phone":"+442078218491","formattedPhone":"+44 20 7821 8491"},"location":{"address":"79 Grosvenor Rd","lat":"51.486596731300814","lng":"-0.13151396177804797","distance":"271","postalCode":"sw1v 3la","cc":"GB","city":"London","state":"Greater London","country":"United Kingdom"},"categories":[{"id":"4bf58dd8d48988d155941735","name":"Gastropub","pluralName":"Gastropubs","shortName":"Gastropub","icon":{"prefix":"https:\/\/ss1.4sqi.net\/img\/categories_v2\/food\/gastropub_","suffix":".png"},"primary":"true"}],"verified":"false","restricted":"true","stats":{"checkinsCount":"215","usersCount":"114","tipCount":"5"},"specials":{"count":"0"},"events":{"count":"1","summary":"Amateur Assassins, Shitwife, Screen Wives and Cattle","items":[{"id":"52d1f83f498e9687e81371ed","name":"Amateur Assassins, Shitwife, Screen Wives and Cattle","categories":[{"id":"4e0a4b91bd41eda0d6092f89","name":"Concert","pluralName":"Concerts","shortName":"Concert","icon":{"prefix":"https:\/\/ss1.4sqi.net\/img\/categories_v2\/arts_entertainment\/musicvenue_","suffix":".png"},"primary":"true"}],"startAt":"1392489000","endAt":"1392510600","allDay":"false","timeZone":"Europe\/London","text":"","url":"http:\/\/www.songkick.com\/concerts\/19172719-amateur-assassins-at-grosvenor?utm_source=4436&utm_medium=partner","provider":{"name":"songkick","iconUrl":{"prefix":"https:\/\/playfoursquare.s3.amazonaws.com\/events\/images\/partners\/sk\/","sizes":["20","40"],"name":"\/logo.png"},"urlText":"more info"},"stats":{"checkinsCount":"0","usersCount":"0"}}]},"hereNow":{"count":"0"},"referralId":"v-1392478093"},{"id":"4b5a0596f964a5204ba828e3","name":"Aqua River Brasserie","contact":{"phone":"+442078203609","formattedPhone":"+44 20 7820 3609"},"location":{"address":"Unit 12 Flagstaff House 9 St. Georges Wharf","lat":"51.48584597674016","lng":"-0.12651443481445312","distance":"469","postalCode":"SW8 2LE","cc":"GB","city":"London","state":"Greater London","country":"United Kingdom"},"categories":[{"id":"4bf58dd8d48988d116941735","name":"Bar","pluralName":"Bars","shortName":"Bar","icon":{"prefix":"https:\/\/ss1.4sqi.net\/img\/categories_v2\/nightlife\/bar_","suffix":".png"},"primary":"true"}],"verified":"false","restricted":"true","stats":{"checkinsCount":"739","usersCount":"425","tipCount":"23"},"url":"http:\/\/www.aquabrasserie.com","menu":{"type":"Menu","label":"Menu","anchor":"View Menu","url":"https:\/\/foursquare.com\/v\/aqua-river-brasserie-london-greater-london\/4b5a0596f964a5204ba828e3\/menu","mobileUrl":"https:\/\/foursquare.com\/v\/4b5a0596f964a5204ba828e3\/device_menu"},"specials":{"count":"0"},"hereNow":{"count":"0"},"referralId":"v-1392478093"},{"id":"50542c10e4b0e95b0e3d8d11","name":"Eagle Wharf Gym","location":{"address":"138 Grosvenor Road","lat":"51.48487736622626","lng":"-0.1318165861418777","distance":"94","postalCode":"SW1V 3JS","cc":"GB","city":"London","state":"Greater London","country":"United Kingdom"},"categories":[{"id":"4bf58dd8d48988d176941735","name":"Gym","pluralName":"Gyms","shortName":"Gym","icon":{"prefix":"https:\/\/ss1.4sqi.net\/img\/categories_v2\/building\/gym_","suffix":".png"},"primary":"true"}],"verified":"false","restricted":"true","stats":{"checkinsCount":"12","usersCount":"2","tipCount":"0"},"specials":{"count":"0"},"hereNow":{"count":"0"},"referralId":"v-1392478093"},{"id":"4fab9ac8e4b050ddfdf5fc68","name":"Shell","location":{"address":"Grosvenor Rd.","lat":"51.48532486110585","lng":"-0.1367497444152832","distance":"296","postalCode":"SW1V 3JY","cc":"GB","city":"City of Westminster","state":"Greater London","country":"United Kingdom"},"categories":[{"id":"4bf58dd8d48988d113951735","name":"Gas Station \/ Garage","pluralName":"Gas Stations \/ Garages","shortName":"Gas Station \/ Garage","icon":{"prefix":"https:\/\/ss1.4sqi.net\/img\/categories_v2\/shops\/gas_","suffix":".png"},"primary":"true"}],"verified":"true","restricted":"true","stats":{"checkinsCount":"93","usersCount":"74","tipCount":"0"},"url":"http:\/\/www.shell.co.uk","specials":{"count":"0"},"hereNow":{"count":"0"},"storeId":"","referralId":"v-1392478093"},{"id":"4be93fd29a54a593becf0a11","name":"LASSCO","contact":{"phone":"+442073942100","formattedPhone":"+44 20 7394 2100","twitter":"lasscobrunswick"},"location":{"address":"Brunswick House, 30 Wandsworth Rd","lat":"51.484803739516046","lng":"-0.12599945068359375","distance":"475","postalCode":"SW8 2LG","cc":"GB","city":"Vauxhall","state":"Greater London","country":"United Kingdom"},"categories":[{"id":"4bf58dd8d48988d116951735","name":"Antique Shop","pluralName":"Antique Shops","shortName":"Antiques","icon":{"prefix":"https:\/\/ss1.4sqi.net\/img\/categories_v2\/shops\/antique_","suffix":".png"},"primary":"true"}],"verified":"false","restricted":"true","stats":{"checkinsCount":"183","usersCount":"145","tipCount":"6"},"specials":{"count":"0"},"hereNow":{"count":"0"},"referralId":"v-1392478093"},{"id":"4b5deacaf964a520957329e3","name":"Tesco Express","contact":{"phone":"+448456719274","formattedPhone":"+44 845 671 9274","twitter":"uktescooffers"},"location":{"address":"Unit 16, 22 Wandsworth Road","lat":"51.48510001045283","lng":"-0.1255239350894185","distance":"512","postalCode":"SW8 2JW","cc":"GB","city":"London","state":"Greater London","country":"United Kingdom"},"categories":[{"id":"4bf58dd8d48988d118951735","name":"Grocery Store","pluralName":"Grocery Stores","shortName":"Grocery Store","icon":{"prefix":"https:\/\/ss1.4sqi.net\/img\/categories_v2\/shops\/food_grocery_","suffix":".png"},"primary":"true"}],"verified":"true","restricted":"true","stats":{"checkinsCount":"553","usersCount":"165","tipCount":"3"},"url":"http:\/\/www.tesco.com","specials":{"count":"0"},"hereNow":{"count":"0"},"storeId":"5342","referralId":"v-1392478093"},{"id":"521b9a7c11d22f4dcdfab3f0","name":"On the way to London","location":{"lat":"51.63864377042353","lng":"-0.11327412791745375","distance":"17235","cc":"GB","country":"United Kingdom"},"verified":"false","restricted":"true","stats":{"checkinsCount":"2","usersCount":"2","tipCount":"0"},"specials":{"count":"0"},"hereNow":{"count":"0"},"referralId":"v-1392478093"},{"id":"4db29482043733cda5283e0b","name":"The Panoramic","location":{"address":"152 Grosvenor Road","lat":"51.48811743686986","lng":"-0.12938976287841797","distance":"487","postalCode":"SW1V 3JL","cc":"GB","city":"London","state":"Greater London","country":"United Kingdom"},"categories":[{"id":"4d954b06a243a5684965b473","name":"Residential Building (Apartment \/ Condo)","pluralName":"Residential Buildings (Apartments \/ Condos)","shortName":"Residential","icon":{"prefix":"https:\/\/ss1.4sqi.net\/img\/categories_v2\/building\/apartment_","suffix":".png"},"primary":"true"}],"verified":"false","restricted":"true","stats":{"checkinsCount":"857","usersCount":"91","tipCount":"0"},"specials":{"count":"0"},"hereNow":{"count":"0"},"referralId":"v-1392478093"},{"id":"4fbe05bfe4b099768600bc22","name":"Churchill Gardens","location":{"lat":"51.485439238979104","lng":"-0.1390364823987965","distance":"450","cc":"GB","country":"United Kingdom"},"categories":[{"id":"4f2a25ac4b909258e854f55f","name":"Neighborhood","pluralName":"Neighborhoods","shortName":"Neighborhood","icon":{"prefix":"https:\/\/ss1.4sqi.net\/img\/categories_v2\/parks_outdoors\/neighborhood_","suffix":".png"},"primary":"true"}],"verified":"false","restricted":"true","stats":{"checkinsCount":"122","usersCount":"38","tipCount":"0"},"specials":{"count":"0"},"hereNow":{"count":"0"},"referralId":"v-1392478093"},{"id":"4ac518b6f964a5200fa120e3","name":"Dolphin Square Hotel","location":{"address":"Dolphin Square","lat":"51.48721190084356","lng":"-0.13672600344349953","distance":"424","postalCode":"SW1V 3LX","cc":"GB","city":"London","state":"Greater London","country":"United Kingdom"},"categories":[{"id":"4bf58dd8d48988d1fa931735","name":"Hotel","pluralName":"Hotels","shortName":"Hotel","icon":{"prefix":"https:\/\/ss1.4sqi.net\/img\/categories_v2\/travel\/hotel_","suffix":".png"},"primary":"true"}],"verified":"false","restricted":"true","stats":{"checkinsCount":"163","usersCount":"72","tipCount":"1"},"specials":{"count":"0"},"hereNow":{"count":"0"},"referralId":"v-1392478093"}],"confident":"false"}}