{"meta":{"code":"200"},"response":{"venues":[{"id":"4bc4106b2a89ef3b4ee5f588","name":"Soho Gyms","contact":{"phone":"+442072349390","formattedPhone":"+44 20 7234 9390","twitter":"sohogyms"},"location":{"address":"Empire Sq","crossStreet":"Long Ln","lat":"51.500718510952005","lng":"-0.09050846099853516","distance":"245","postalCode":"SE1 4NA","cc":"GB","city":"Borough","state":"Greater London","country":"United Kingdom"},"categories":[{"id":"4bf58dd8d48988d176941735","name":"Gym","pluralName":"Gyms","shortName":"Gym","icon":{"prefix":"https:\/\/ss1.4sqi.net\/img\/categories_v2\/building\/gym_","suffix":".png"},"primary":"true"}],"verified":"false","restricted":"true","stats":{"checkinsCount":"2876","usersCount":"194","tipCount":"3"},"url":"http:\/\/www.sohogyms.com","specials":{"count":"0"},"hereNow":{"count":"1","groups":[{"type":"others","name":"Other people here","count":"1"}]},"referralId":"v-1392478059"},{"id":"4ca495c7b0ff8cfa13ecc05e","name":"Great Dover Street Apartments","location":{"address":"165 Great Dover Street","lat":"51.49814102440012","lng":"-0.08969189795624395","distance":"182","postalCode":"SE1 4XA","cc":"GB","city":"London","state":"Greater London","country":"United Kingdom"},"categories":[{"id":"4bf58dd8d48988d1a3941735","name":"College Residence Hall","pluralName":"College Residence Halls","shortName":"Residence Hall","icon":{"prefix":"https:\/\/ss1.4sqi.net\/img\/categories_v2\/education\/residencehall_","suffix":".png"},"primary":"true"}],"verified":"false","restricted":"true","stats":{"checkinsCount":"2389","usersCount":"163","tipCount":"9"},"specials":{"count":"0"},"hereNow":{"count":"0"},"referralId":"v-1392478059"},{"id":"514c26d0e4b0832f937a94bf","name":"The Hyde Group","location":{"address":"Long Lane Studios","crossStreet":"Staple St","lat":"51.49964711956997","lng":"-0.08675969545422485","distance":"82","postalCode":"SE1 4BS","cc":"GB","city":"London","state":"Greater London","country":"United Kingdom"},"categories":[{"id":"50328a8e91d4c4b30a586d6c","name":"Non-Profit","pluralName":"Non-Profits","shortName":"Non-Profit","icon":{"prefix":"https:\/\/ss1.4sqi.net\/img\/categories_v2\/building\/default_","suffix":".png"},"primary":"true"}],"verified":"false","restricted":"true","stats":{"checkinsCount":"36","usersCount":"1","tipCount":"0"},"specials":{"count":"0"},"hereNow":{"count":"0"},"referralId":"v-1392478059"},{"id":"4b7c4526f964a5209d882fe3","name":"Old School Yard","contact":{"phone":"+442073576281","formattedPhone":"+44 20 7357 6281"},"location":{"address":"1111 long lane","lat":"51.500313098857575","lng":"-0.08809185013318353","distance":"115","postalCode":"SE1 4PH","cc":"GB","city":"Borough","state":"Greater London","country":"United Kingdom"},"categories":[{"id":"4bf58dd8d48988d11e941735","name":"Cocktail Bar","pluralName":"Cocktail Bars","shortName":"Cocktail","icon":{"prefix":"https:\/\/ss1.4sqi.net\/img\/categories_v2\/nightlife\/cocktails_","suffix":".png"},"primary":"true"}],"verified":"true","restricted":"true","stats":{"checkinsCount":"455","usersCount":"353","tipCount":"14"},"url":"http:\/\/www.theoldschoolyard.com","menu":{"type":"Menu","label":"Menu","anchor":"View Menu","url":"https:\/\/foursquare.com\/v\/old-school-yard\/4b7c4526f964a5209d882fe3\/menu","mobileUrl":"https:\/\/foursquare.com\/v\/4b7c4526f964a5209d882fe3\/device_menu"},"specials":{"count":"0"},"hereNow":{"count":"0"},"storeId":"","referralId":"v-1392478059"},{"id":"4aec9f4bf964a52091c921e3","name":"The Roebuck","contact":{"phone":"+442073577324","formattedPhone":"+44 20 7357 7324"},"location":{"address":"50 Great Dover St.","lat":"51.49804372578769","lng":"-0.09054601192474365","distance":"235","postalCode":"SE1 4YG","cc":"GB","city":"Borough","state":"Greater London","country":"United Kingdom"},"categories":[{"id":"4bf58dd8d48988d11b941735","name":"Pub","pluralName":"Pubs","shortName":"Pub","icon":{"prefix":"https:\/\/ss1.4sqi.net\/img\/categories_v2\/nightlife\/pub_","suffix":".png"},"primary":"true"}],"verified":"false","restricted":"true","stats":{"checkinsCount":"1788","usersCount":"678","tipCount":"26"},"specials":{"count":"0"},"hereNow":{"count":"0"},"referralId":"v-1392478059"},{"id":"4aff302ff964a520a43522e3","name":"The Leather Exchange","contact":{"phone":"+442074070295","formattedPhone":"+44 20 7407 0295"},"location":{"address":"15 Leathermarket St","lat":"51.500446","lng":"-0.08468","distance":"251","postalCode":"SE1 3HN","cc":"GB","city":"London","state":"Greater London","country":"United Kingdom"},"categories":[{"id":"4bf58dd8d48988d11b941735","name":"Pub","pluralName":"Pubs","shortName":"Pub","icon":{"prefix":"https:\/\/ss1.4sqi.net\/img\/categories_v2\/nightlife\/pub_","suffix":".png"},"primary":"true"}],"verified":"false","restricted":"true","stats":{"checkinsCount":"559","usersCount":"204","tipCount":"5"},"url":"http:\/\/www.theleatherexchange.co.uk","reservations":{"url":"http:\/\/www.toptable.co.uk\/single.aspx?rid=60115&ref=9601"},"menu":{"type":"Menu","label":"Menu","anchor":"View Menu","url":"https:\/\/foursquare.com\/v\/the-leather-exchange\/4aff302ff964a520a43522e3\/menu","mobileUrl":"https:\/\/foursquare.com\/v\/4aff302ff964a520a43522e3\/device_menu"},"specials":{"count":"0"},"hereNow":{"count":"1","groups":[{"type":"others","name":"Other people here","count":"1"}]},"referralId":"v-1392478059"},{"id":"4bb98e73b35776b0d202ca01","name":"The Britannia","contact":{"phone":"+442074031030","formattedPhone":"+44 20 7403 1030"},"location":{"address":"44 Kipling St.","lat":"51.50115109167806","lng":"-0.08722543716430664","distance":"211","postalCode":"SE1 3RU","cc":"GB","city":"London","state":"Greater London","country":"United Kingdom"},"categories":[{"id":"4bf58dd8d48988d122941735","name":"Whisky Bar","pluralName":"Whisky Bars","shortName":"Whisky Bar","icon":{"prefix":"https:\/\/ss1.4sqi.net\/img\/categories_v2\/nightlife\/whiskey_","suffix":".png"},"primary":"true"}],"verified":"false","restricted":"true","stats":{"checkinsCount":"497","usersCount":"289","tipCount":"6"},"specials":{"count":"0"},"hereNow":{"count":"0"},"referralId":"v-1392478059"},{"id":"4d837b8b5e70224b8960f808","name":"Tabard House","location":{"address":"Manciple Street","lat":"51.498332524999995","lng":"-0.08810473333333334","distance":"108","postalCode":"SE1 4DL","cc":"GB","country":"United Kingdom"},"categories":[{"id":"4bf58dd8d48988d130941735","name":"Building","pluralName":"Buildings","shortName":"Building","icon":{"prefix":"https:\/\/ss1.4sqi.net\/img\/categories_v2\/building\/default_","suffix":".png"},"primary":"true"}],"verified":"false","restricted":"true","stats":{"checkinsCount":"227","usersCount":"14","tipCount":"2"},"specials":{"count":"0"},"hereNow":{"count":"0"},"referralId":"v-1392478059"},{"id":"4f38e978e4b08533d3bfdb57","name":"Collider","contact":{"twitter":"wearecollider"},"location":{"address":"Unit 17.2 The Leathermarket","crossStreet":"11\/13 Weston Street","lat":"51.500413078644065","lng":"-0.08501353306637975","distance":"230","postalCode":"SE1 3GN","cc":"GB","city":"London","state":"Greater London","country":"United Kingdom"},"categories":[{"id":"4bf58dd8d48988d124941735","name":"Office","pluralName":"Offices","shortName":"Office","icon":{"prefix":"https:\/\/ss1.4sqi.net\/img\/categories_v2\/building\/default_","suffix":".png"},"primary":"true"}],"verified":"false","restricted":"true","stats":{"checkinsCount":"184","usersCount":"10","tipCount":"1"},"url":"http:\/\/www.wearecollider.com","specials":{"count":"0"},"hereNow":{"count":"0"},"referralId":"v-1392478059"},{"id":"4cb5fb3c8db0a143e58f6616","name":"Sidney Webb House","contact":{"phone":"+442074031945","formattedPhone":"+44 20 7403 1945"},"location":{"address":"159 Great Dover St.","crossStreet":"Southwark","lat":"51.49682875944877","lng":"-0.08812719798830906","distance":"274","postalCode":"SE1","cc":"GB","city":"Southwark","state":"Greater London","country":"United Kingdom"},"categories":[{"id":"4bf58dd8d48988d1a3941735","name":"College Residence Hall","pluralName":"College Residence Halls","shortName":"Residence Hall","icon":{"prefix":"https:\/\/ss1.4sqi.net\/img\/categories_v2\/education\/residencehall_","suffix":".png"},"primary":"true"}],"verified":"false","restricted":"true","stats":{"checkinsCount":"335","usersCount":"61","tipCount":"0"},"specials":{"count":"0"},"hereNow":{"count":"1","groups":[{"type":"others","name":"Other people here","count":"1"}]},"referralId":"v-1392478059"},{"id":"4cd462a47da9a35df051e3b9","name":"Think London Bridge","contact":{"phone":"+442034659100","formattedPhone":"+44 20 3465 9100"},"location":{"address":"203 Long Ln.","lat":"51.49862244799115","lng":"-0.08412421139663583","distance":"265","postalCode":"SE1 4PN","cc":"GB","city":"London","state":"Greater London","country":"United Kingdom"},"categories":[{"id":"4bf58dd8d48988d1fa931735","name":"Hotel","pluralName":"Hotels","shortName":"Hotel","icon":{"prefix":"https:\/\/ss1.4sqi.net\/img\/categories_v2\/travel\/hotel_","suffix":".png"},"primary":"true"}],"verified":"false","restricted":"true","stats":{"checkinsCount":"433","usersCount":"161","tipCount":"5"},"specials":{"count":"0"},"hereNow":{"count":"0"},"referralId":"v-1392478059"},{"id":"4ae97f9bf964a520f0b421e3","name":"Leathermarket","location":{"address":"Weston Street","lat":"51.50019774138089","lng":"-0.08508092595177644","distance":"214","postalCode":"SE1","cc":"GB","city":"London","state":"Greater London","country":"United Kingdom"},"categories":[{"id":"4bf58dd8d48988d174941735","name":"Coworking Space","pluralName":"Coworking Spaces","shortName":"Coworking Space","icon":{"prefix":"https:\/\/ss1.4sqi.net\/img\/categories_v2\/building\/office_coworkingspace_","suffix":".png"},"primary":"true"}],"verified":"false","restricted":"true","stats":{"checkinsCount":"723","usersCount":"175","tipCount":"1"},"specials":{"count":"0"},"hereNow":{"count":"0"},"referralId":"v-1392478059"},{"id":"51e9430c498ecafddec6817c","name":"Stop L","location":{"lat":"51.499113","lng":"-0.088163","distance":"31","cc":"GB","country":"United Kingdom"},"categories":[{"id":"4bf58dd8d48988d1fe931735","name":"Bus Station","pluralName":"Bus Stations","shortName":"Bus Station","icon":{"prefix":"https:\/\/ss1.4sqi.net\/img\/categories_v2\/travel\/busstation_","suffix":".png"},"primary":"true"}],"verified":"false","restricted":"true","stats":{"checkinsCount":"1","usersCount":"1","tipCount":"0"},"specials":{"count":"0"},"hereNow":{"count":"0"},"referralId":"v-1392478059"},{"id":"4b57170df964a520012628e3","name":"Wendell's","contact":{"phone":"+447900880542","formattedPhone":"+44 7900 880542"},"location":{"address":"Lafone House","crossStreet":"Weston Street","lat":"51.500129","lng":"-0.084566","distance":"243","postalCode":"SE1 3ER","cc":"GB","city":"London","state":"Greater London","country":"United Kingdom"},"categories":[{"id":"4bf58dd8d48988d1c5941735","name":"Sandwich Place","pluralName":"Sandwich Places","shortName":"Sandwiches","icon":{"prefix":"https:\/\/ss1.4sqi.net\/img\/categories_v2\/food\/sandwiches_","suffix":".png"},"primary":"true"}],"verified":"false","restricted":"true","stats":{"checkinsCount":"323","usersCount":"58","tipCount":"2"},"specials":{"count":"0"},"hereNow":{"count":"0"},"referralId":"v-1392478059"},{"id":"5250c09e11d270d47d770d30","name":"Smoking Area","location":{"lat":"51.498058","lng":"-0.089349","distance":"173","cc":"GB","country":"United Kingdom"},"categories":[{"id":"4d954b06a243a5684965b473","name":"Residential Building (Apartment \/ Condo)","pluralName":"Residential Buildings (Apartments \/ Condos)","shortName":"Residential","icon":{"prefix":"https:\/\/ss1.4sqi.net\/img\/categories_v2\/building\/apartment_","suffix":".png"},"primary":"true"}],"verified":"false","restricted":"true","stats":{"checkinsCount":"7","usersCount":"2","tipCount":"0"},"specials":{"count":"0"},"hereNow":{"count":"0"},"referralId":"v-1392478059"},{"id":"4dd6488052b1a5c6442ef8a6","name":"Club Workspace","contact":{"phone":"+442031764006","formattedPhone":"+44 20 3176 4006","twitter":"clubworkspace"},"location":{"address":"The Leathermarket","crossStreet":"11-13 Weston St.","lat":"51.500202488563296","lng":"-0.0851782890767248","distance":"208","postalCode":"SE1 3ER","cc":"GB","city":"London","state":"Greater London","country":"United Kingdom"},"categories":[{"id":"4bf58dd8d48988d174941735","name":"Coworking Space","pluralName":"Coworking Spaces","shortName":"Coworking Space","icon":{"prefix":"https:\/\/ss1.4sqi.net\/img\/categories_v2\/building\/office_coworkingspace_","suffix":".png"},"primary":"true"}],"verified":"true","restricted":"true","stats":{"checkinsCount":"316","usersCount":"80","tipCount":"4"},"specials":{"count":"0"},"hereNow":{"count":"0"},"venuePage":{"id":"37530389"},"referralId":"v-1392478059"},{"id":"52d82a86498ebb6fa7af01f7","name":"Future Cities Catapult","location":{"address":"Leathernarket","crossStreet":"20 Weston Street","lat":"51.50023353797297","lng":"-0.08478922576310831","distance":"233","cc":"GB","city":"London","state":"Greater London","country":"United Kingdom"},"categories":[{"id":"4bf58dd8d48988d130941735","name":"Building","pluralName":"Buildings","shortName":"Building","icon":{"prefix":"https:\/\/ss1.4sqi.net\/img\/categories_v2\/building\/default_","suffix":".png"},"primary":"true"}],"verified":"false","restricted":"true","stats":{"checkinsCount":"14","usersCount":"3","tipCount":"0"},"specials":{"count":"0"},"hereNow":{"count":"0"},"referralId":"v-1392478059"},{"id":"4f6cecb6e4b0ca47b077fcc1","name":"Long Lane Food & Wine","location":{"lat":"51.49944710941942","lng":"-0.08724260017492876","distance":"42","cc":"GB","country":"United Kingdom"},"categories":[{"id":"4bf58dd8d48988d1f9941735","name":"Food & Drink Shop","pluralName":"Food & Drink Shops","shortName":"Food & Drink","icon":{"prefix":"https:\/\/ss1.4sqi.net\/img\/categories_v2\/shops\/foodanddrink_","suffix":".png"},"primary":"true"}],"verified":"false","restricted":"true","stats":{"checkinsCount":"12","usersCount":"4","tipCount":"0"},"specials":{"count":"0"},"hereNow":{"count":"0"},"referralId":"v-1392478059"},{"id":"4fe49bd6e4b065cd6eb30210","name":"Accomodation London Bridge","location":{"address":"10 Spurgeon Street","lat":"51.497160710780484","lng":"-0.08987939502819046","distance":"277","cc":"GB","city":"London","state":"Greater London","country":"United Kingdom"},"categories":[{"id":"4f4530a74b9074f6e4fb0100","name":"Boarding House","pluralName":"Boarding Houses","shortName":"Boarding","icon":{"prefix":"https:\/\/ss1.4sqi.net\/img\/categories_v2\/travel\/hotel_","suffix":".png"},"primary":"true"}],"verified":"false","restricted":"true","stats":{"checkinsCount":"81","usersCount":"50","tipCount":"1"},"specials":{"count":"0"},"hereNow":{"count":"0"},"referralId":"v-1392478059"},{"id":"52dcf2d4498e4e22e3a127e2","name":"Hudson Fuggle","location":{"lat":"51.49968","lng":"-0.085462","distance":"167","cc":"GB","country":"United Kingdom"},"categories":[{"id":"4bf58dd8d48988d124941735","name":"Office","pluralName":"Offices","shortName":"Office","icon":{"prefix":"https:\/\/ss1.4sqi.net\/img\/categories_v2\/building\/default_","suffix":".png"},"primary":"true"}],"verified":"false","restricted":"true","stats":{"checkinsCount":"1","usersCount":"1","tipCount":"0"},"specials":{"count":"0"},"hereNow":{"count":"0"},"referralId":"v-1392478059"},{"id":"4c37295918e72d7f16f815f5","name":"Tabard Gardens","location":{"address":"Tabard St.","crossStreet":"at Pilgrimage St.","lat":"51.498925364289974","lng":"-0.08958578109741211","distance":"130","postalCode":"SE1","cc":"GB","city":"Borough","state":"Greater London","country":"United Kingdom"},"categories":[{"id":"4bf58dd8d48988d163941735","name":"Park","pluralName":"Parks","shortName":"Park","icon":{"prefix":"https:\/\/ss1.4sqi.net\/img\/categories_v2\/parks_outdoors\/park_","suffix":".png"},"primary":"true"}],"verified":"false","restricted":"true","stats":{"checkinsCount":"349","usersCount":"93","tipCount":"1"},"specials":{"count":"0"},"hereNow":{"count":"0"},"referralId":"v-1392478059"},{"id":"4e82c5dfd22d58ee81c28138","name":"Borough Apartment","location":{"lat":"51.498947","lng":"-0.087151","distance":"59","cc":"GB","city":"London","state":"Greater London","country":"United Kingdom"},"categories":[{"id":"4d954b06a243a5684965b473","name":"Residential Building (Apartment \/ Condo)","pluralName":"Residential Buildings (Apartments \/ Condos)","shortName":"Residential","icon":{"prefix":"https:\/\/ss1.4sqi.net\/img\/categories_v2\/building\/apartment_","suffix":".png"},"primary":"true"}],"verified":"false","restricted":"true","stats":{"checkinsCount":"194","usersCount":"10","tipCount":"1"},"specials":{"count":"0"},"hereNow":{"count":"0"},"referralId":"v-1392478059"},{"id":"4d424d1148cea35d131330f7","name":"197 Long lane","location":{"address":"197 Long lane","lat":"51.499130085659196","lng":"-0.08490512595999325","distance":"201","postalCode":"Se1 4pd","cc":"GB","city":"London","state":"Greater London","country":"United Kingdom"},"categories":[{"id":"4bf58dd8d48988d130941735","name":"Building","pluralName":"Buildings","shortName":"Building","icon":{"prefix":"https:\/\/ss1.4sqi.net\/img\/categories_v2\/building\/default_","suffix":".png"},"primary":"true"}],"verified":"false","restricted":"true","stats":{"checkinsCount":"24","usersCount":"9","tipCount":"0"},"specials":{"count":"0"},"hereNow":{"count":"0"},"referralId":"v-1392478059"},{"id":"4b73cfdbf964a520b4bc2de3","name":"Fine Foods","location":{"lat":"51.498549","lng":"-0.083999","distance":"276","cc":"GB","country":"United Kingdom"},"categories":[{"id":"4bf58dd8d48988d146941735","name":"Deli \/ Bodega","pluralName":"Delis \/ Bodegas","shortName":"Deli \/ Bodega","icon":{"prefix":"https:\/\/ss1.4sqi.net\/img\/categories_v2\/food\/deli_","suffix":".png"},"primary":"true"}],"verified":"false","restricted":"true","stats":{"checkinsCount":"220","usersCount":"86","tipCount":"8"},"specials":{"count":"0"},"hereNow":{"count":"0"},"referralId":"v-1392478059"},{"id":"4f7746dbe4b0e8caa5a44ce0","name":"The Throne","location":{"lat":"51.498799883899885","lng":"-0.08726790499743495","distance":"65","cc":"GB","country":"United Kingdom"},"categories":[{"id":"4d954b06a243a5684965b473","name":"Residential Building (Apartment \/ Condo)","pluralName":"Residential Buildings (Apartments \/ Condos)","shortName":"Residential","icon":{"prefix":"https:\/\/ss1.4sqi.net\/img\/categories_v2\/building\/apartment_","suffix":".png"},"primary":"true"}],"verified":"false","restricted":"true","stats":{"checkinsCount":"24","usersCount":"3","tipCount":"0"},"specials":{"count":"0"},"hereNow":{"count":"0"},"referralId":"v-1392478059"},{"id":"4b795b7ef964a52097f52ee3","name":"Long Lane Fish Bar","contact":{"phone":"+442074072946","formattedPhone":"+44 20 7407 2946"},"location":{"address":"154 Long Lane","lat":"51.49958044948667","lng":"-0.08656551158184146","distance":"91","cc":"GB","city":"Southwark","state":"Greater London","country":"United Kingdom"},"categories":[{"id":"4edd64a0c7ddd24ca188df1a","name":"Fish & Chips Shop","pluralName":"Fish & Chips Shops","shortName":"Fish & Chips","icon":{"prefix":"https:\/\/ss1.4sqi.net\/img\/categories_v2\/food\/fishandchips_","suffix":".png"},"primary":"true"}],"verified":"false","restricted":"true","stats":{"checkinsCount":"66","usersCount":"34","tipCount":"4"},"specials":{"count":"0"},"hereNow":{"count":"0"},"referralId":"v-1392478059"},{"id":"5024cd74e4b06e6f04dcad91","name":"The Knowledge Engineers","location":{"address":"The Leathermarket","lat":"51.50005420788038","lng":"-0.08468567568094199","distance":"232","postalCode":"SE1 3ER","cc":"GB","city":"London","state":"Greater London","country":"United Kingdom"},"categories":[{"id":"4bf58dd8d48988d124941735","name":"Office","pluralName":"Offices","shortName":"Office","icon":{"prefix":"https:\/\/ss1.4sqi.net\/img\/categories_v2\/building\/default_","suffix":".png"},"primary":"true"}],"verified":"false","restricted":"true","stats":{"checkinsCount":"323","usersCount":"13","tipCount":"0"},"specials":{"count":"0"},"hereNow":{"count":"0"},"referralId":"v-1392478059"},{"id":"5108d4fbe4b0e0092b83be5b","name":"EAT","location":{"address":"Long Lane","lat":"51.4996843","lng":"-0.0868834","distance":"77","cc":"GB","city":"London","state":"Greater London","country":"United Kingdom"},"categories":[{"id":"4bf58dd8d48988d1e0931735","name":"Coffee Shop","pluralName":"Coffee Shops","shortName":"Coffee Shop","icon":{"prefix":"https:\/\/ss1.4sqi.net\/img\/categories_v2\/food\/coffeeshop_","suffix":".png"},"primary":"true"}],"verified":"false","restricted":"true","stats":{"checkinsCount":"2","usersCount":"2","tipCount":"0"},"specials":{"count":"0"},"hereNow":{"count":"0"},"referralId":"v-1392478059"},{"id":"4b6ee61bf964a520cacf2ce3","name":"Guy Street Park","location":{"address":"Guy Street","crossStreet":"Weston Street","lat":"51.501630285079536","lng":"-0.08644223213195801","distance":"277","postalCode":"SE1","cc":"GB","city":"London","state":"Greater London","country":"United Kingdom"},"categories":[{"id":"4bf58dd8d48988d163941735","name":"Park","pluralName":"Parks","shortName":"Park","icon":{"prefix":"https:\/\/ss1.4sqi.net\/img\/categories_v2\/parks_outdoors\/park_","suffix":".png"},"primary":"true"}],"verified":"false","restricted":"true","stats":{"checkinsCount":"323","usersCount":"65","tipCount":"0"},"specials":{"count":"0"},"hereNow":{"count":"0"},"referralId":"v-1392478059"},{"id":"529892d011d299f43e15f79c","name":"The Old School Pizza Cafe","contact":{"phone":"+442073780098","formattedPhone":"+44 20 7378 0098"},"location":{"address":"115 Long Lane","lat":"51.500196","lng":"-0.088149","distance":"103","postalCode":"Se1 4ph","cc":"GB","city":"London","state":"Greater London","country":"United Kingdom"},"categories":[{"id":"4bf58dd8d48988d1ca941735","name":"Pizza Place","pluralName":"Pizza Places","shortName":"Pizza","icon":{"prefix":"https:\/\/ss1.4sqi.net\/img\/categories_v2\/food\/pizza_","suffix":".png"},"primary":"true"}],"verified":"false","restricted":"true","stats":{"checkinsCount":"1","usersCount":"1","tipCount":"0"},"specials":{"count":"0"},"hereNow":{"count":"0"},"referralId":"v-1392478059"}],"confident":"false"}}