{"meta":{"code":"200"},"response":{"venues":[{"id":"4e99eef76c2592b36c78a3e7","name":"Zefi","contact":{"phone":"+442070529333","formattedPhone":"+44 20 7052 9333"},"location":{"address":"103 Walton St","lat":"51.494091","lng":"-0.167776","distance":"22","postalCode":"SW3 2HT","cc":"GB","city":"Kensington","state":"Greater London","country":"United Kingdom"},"categories":[{"id":"4bf58dd8d48988d11e941735","name":"Cocktail Bar","pluralName":"Cocktail Bars","shortName":"Cocktail","icon":{"prefix":"https:\/\/ss1.4sqi.net\/img\/categories_v2\/nightlife\/cocktails_","suffix":".png"},"primary":"true"}],"verified":"false","restricted":"true","stats":{"checkinsCount":"2120","usersCount":"1041","tipCount":"34"},"url":"http:\/\/www.jakswaltonstreet.com","specials":{"count":"0"},"hereNow":{"count":"0"},"referralId":"v-1392478064"},{"id":"4b1a473ef964a52095e823e3","name":"Jak's Bar","contact":{"phone":"+442075843441","formattedPhone":"+44 20 7584 3441"},"location":{"address":"77 Walton St","lat":"51.49447969979814","lng":"-0.1672722476756674","distance":"42","postalCode":"SW3 2HT","cc":"GB","city":"London","state":"Greater London","country":"United Kingdom"},"categories":[{"id":"4bf58dd8d48988d1c4941735","name":"Restaurant","pluralName":"Restaurants","shortName":"Restaurant","icon":{"prefix":"https:\/\/ss1.4sqi.net\/img\/categories_v2\/food\/default_","suffix":".png"},"primary":"true"}],"verified":"false","restricted":"true","stats":{"checkinsCount":"3038","usersCount":"1484","tipCount":"44"},"url":"http:\/\/www.jakswaltonstreet.com","specials":{"count":"0"},"hereNow":{"count":"0"},"referralId":"v-1392478064"},{"id":"4c3639760a71c9b68ec33cc9","name":"Eclipse","contact":{"phone":"+442075810123","formattedPhone":"+44 20 7581 0123"},"location":{"address":"111-113 Walton St","lat":"51.49392426752985","lng":"-0.16766529598765265","distance":"41","postalCode":"SW3 2HP","cc":"GB","city":"South Kensington","state":"Greater London","country":"United Kingdom"},"categories":[{"id":"4bf58dd8d48988d11e941735","name":"Cocktail Bar","pluralName":"Cocktail Bars","shortName":"Cocktail","icon":{"prefix":"https:\/\/ss1.4sqi.net\/img\/categories_v2\/nightlife\/cocktails_","suffix":".png"},"primary":"true"}],"verified":"false","restricted":"true","stats":{"checkinsCount":"1841","usersCount":"1089","tipCount":"19"},"url":"http:\/\/www.eclipsebars.com\/chelsea\/reservations\/","menu":{"type":"Menu","label":"Menu","anchor":"View Menu","url":"https:\/\/foursquare.com\/v\/eclipse\/4c3639760a71c9b68ec33cc9\/menu","mobileUrl":"https:\/\/foursquare.com\/v\/4c3639760a71c9b68ec33cc9\/device_menu"},"specials":{"count":"0"},"hereNow":{"count":"0"},"referralId":"v-1392478064"},{"id":"4ac518e3f964a520ccaa20e3","name":"Aubaine","contact":{"phone":"+442070520100","formattedPhone":"+44 20 7052 0100","twitter":"aubaine_uk"},"location":{"address":"260-262 Brompton Rd","lat":"51.49409273022686","lng":"-0.16880391509076875","distance":"72","postalCode":"SW3 2AS","cc":"GB","city":"South Kensington","state":"Greater London","country":"United Kingdom"},"categories":[{"id":"4bf58dd8d48988d10c941735","name":"French Restaurant","pluralName":"French Restaurants","shortName":"French","icon":{"prefix":"https:\/\/ss1.4sqi.net\/img\/categories_v2\/food\/french_","suffix":".png"},"primary":"true"}],"verified":"true","restricted":"true","stats":{"checkinsCount":"2100","usersCount":"1221","tipCount":"29"},"url":"http:\/\/www.aubaine.co.uk","menu":{"type":"Menu","label":"Menu","anchor":"View Menu","url":"https:\/\/foursquare.com\/v\/aubaine-south-kensington-greater-london\/4ac518e3f964a520ccaa20e3\/menu","mobileUrl":"https:\/\/foursquare.com\/v\/4ac518e3f964a520ccaa20e3\/device_menu"},"specials":{"count":"0"},"hereNow":{"count":"0"},"storeId":"","referralId":"v-1392478064"},{"id":"4c889728584c76b0406deb58","name":"LA Fitness","contact":{"phone":"+442078380500","formattedPhone":"+44 20 7838 0500","twitter":"lafitnessuk_hq","facebook":"150920678262379"},"location":{"address":"The South Kensington Estate","crossStreet":"63-81 Pelham Street","lat":"51.49386424922859","lng":"-0.1689517827337333","distance":"92","postalCode":"SW7 2NJ","cc":"GB","city":"London","state":"Greater London","country":"United Kingdom"},"categories":[{"id":"4bf58dd8d48988d176941735","name":"Gym","pluralName":"Gyms","shortName":"Gym","icon":{"prefix":"https:\/\/ss1.4sqi.net\/img\/categories_v2\/building\/gym_","suffix":".png"},"primary":"true"}],"verified":"true","restricted":"true","stats":{"checkinsCount":"1744","usersCount":"246","tipCount":"7"},"url":"http:\/\/www.lafitness.co.uk","specials":{"count":"0"},"hereNow":{"count":"0"},"referralId":"v-1392478064"},{"id":"4c41a91ada3dc9283d2fc9b9","name":"Joe's","contact":{"twitter":"joseph_fashion"},"location":{"address":"126 Draycott Ave","lat":"51.49382","lng":"-0.168511","distance":"71","postalCode":"SW3 3AH","cc":"GB","city":"London","state":"Greater London","country":"United Kingdom"},"categories":[{"id":"4bf58dd8d48988d1c4941735","name":"Restaurant","pluralName":"Restaurants","shortName":"Restaurant","icon":{"prefix":"https:\/\/ss1.4sqi.net\/img\/categories_v2\/food\/default_","suffix":".png"},"primary":"true"}],"verified":"false","restricted":"true","stats":{"checkinsCount":"369","usersCount":"290","tipCount":"7"},"reservations":{"url":"http:\/\/www.toptable.co.uk\/single.aspx?rid=61975&ref=9601"},"menu":{"type":"Menu","label":"Menu","anchor":"View Menu","url":"https:\/\/foursquare.com\/v\/joes-london-greater-london\/4c41a91ada3dc9283d2fc9b9\/menu","mobileUrl":"https:\/\/foursquare.com\/v\/4c41a91ada3dc9283d2fc9b9\/device_menu"},"specials":{"count":"0"},"hereNow":{"count":"1","groups":[{"type":"others","name":"Other people here","count":"1"}]},"referralId":"v-1392478064"},{"id":"4b2cae09f964a52080c824e3","name":"KX Club","contact":{"phone":"+442075845333","formattedPhone":"+44 20 7584 5333","twitter":"kx_life"},"location":{"address":"151 Draycott Ave","crossStreet":"Ixworth Pl","lat":"51.49340187208593","lng":"-0.16731167299416544","distance":"104","postalCode":"SW3 3AL","cc":"GB","city":"Kensington","state":"Greater London","country":"United Kingdom"},"categories":[{"id":"4bf58dd8d48988d175941735","name":"Gym \/ Fitness Center","pluralName":"Gyms or Fitness Centers","shortName":"Gym \/ Fitness","icon":{"prefix":"https:\/\/ss1.4sqi.net\/img\/categories_v2\/building\/gym_","suffix":".png"},"primary":"true"}],"verified":"false","restricted":"true","stats":{"checkinsCount":"1063","usersCount":"122","tipCount":"2"},"url":"http:\/\/www.kxlife.co.uk","menu":{"type":"Menu","label":"Menu","anchor":"View Menu","url":"https:\/\/foursquare.com\/v\/kx-club\/4b2cae09f964a52080c824e3\/menu","mobileUrl":"https:\/\/foursquare.com\/v\/4b2cae09f964a52080c824e3\/device_menu"},"specials":{"count":"0"},"hereNow":{"count":"0"},"referralId":"v-1392478064"},{"id":"4ac518d6f964a5204fa820e3","name":"Itsu","contact":{"phone":"+442075902400","formattedPhone":"+44 20 7590 2400","twitter":"itsuofficial","facebook":"115164458642981"},"location":{"address":"118 Draycott Ave.","lat":"51.493617","lng":"-0.168113","distance":"77","postalCode":"SW3 3AE","cc":"GB","city":"London","state":"Greater London","country":"United Kingdom"},"categories":[{"id":"4bf58dd8d48988d1d2941735","name":"Sushi Restaurant","pluralName":"Sushi Restaurants","shortName":"Sushi","icon":{"prefix":"https:\/\/ss1.4sqi.net\/img\/categories_v2\/food\/sushi_","suffix":".png"},"primary":"true"}],"verified":"true","restricted":"true","stats":{"checkinsCount":"1104","usersCount":"523","tipCount":"14"},"url":"http:\/\/www.itsu.com","menu":{"type":"Menu","label":"Menu","anchor":"View Menu","url":"https:\/\/foursquare.com\/v\/itsu\/4ac518d6f964a5204fa820e3\/menu","mobileUrl":"https:\/\/foursquare.com\/v\/4ac518d6f964a5204fa820e3\/device_menu"},"specials":{"count":"0"},"hereNow":{"count":"0"},"storeId":"","referralId":"v-1392478064"},{"id":"4ac518d5f964a520f4a720e3","name":"La Brasserie","contact":{"phone":"+442075813089","formattedPhone":"+44 20 7581 3089"},"location":{"address":"272 Brompton Rd.","crossStreet":"near Pelham St.","lat":"51.493756","lng":"-0.168882","distance":"95","postalCode":"SW3 2AW","cc":"GB","city":"Kensington","state":"Greater London","country":"United Kingdom"},"categories":[{"id":"4bf58dd8d48988d10c941735","name":"French Restaurant","pluralName":"French Restaurants","shortName":"French","icon":{"prefix":"https:\/\/ss1.4sqi.net\/img\/categories_v2\/food\/french_","suffix":".png"},"primary":"true"}],"verified":"false","restricted":"true","stats":{"checkinsCount":"654","usersCount":"475","tipCount":"10"},"url":"http:\/\/labrasserielondon.com","reservations":{"url":"http:\/\/www.toptable.co.uk\/single.aspx?rid=44314&ref=9601"},"menu":{"type":"Menu","label":"Menu","anchor":"View Menu","url":"https:\/\/foursquare.com\/v\/la-brasserie\/4ac518d5f964a520f4a720e3\/menu","mobileUrl":"https:\/\/foursquare.com\/v\/4ac518d5f964a520f4a720e3\/device_menu"},"specials":{"count":"0"},"hereNow":{"count":"1","groups":[{"type":"others","name":"Other people here","count":"1"}]},"referralId":"v-1392478064"},{"id":"5098f206e4b0eecea4ec6c44","name":"James Perse","location":{"address":"178 Walton Street","crossStreet":"Draycott Avenue","lat":"51.49414536024769","lng":"-0.16771247457278393","distance":"17","cc":"GB","city":"London","state":"Greater London","country":"United Kingdom"},"categories":[{"id":"4bf58dd8d48988d104951735","name":"Boutique","pluralName":"Boutiques","shortName":"Boutique","icon":{"prefix":"https:\/\/ss1.4sqi.net\/img\/categories_v2\/shops\/apparel_boutique_","suffix":".png"},"primary":"true"}],"verified":"false","restricted":"true","stats":{"checkinsCount":"7","usersCount":"7","tipCount":"0"},"specials":{"count":"0"},"hereNow":{"count":"0"},"referralId":"v-1392478064"},{"id":"4ac518baf964a520f7a120e3","name":"Bibendum","contact":{"phone":"+442075901189","formattedPhone":"+44 20 7590 1189"},"location":{"address":"81 Fulham Rd","lat":"51.49343072537936","lng":"-0.16888966146596654","distance":"121","postalCode":"SW3 6RD","cc":"GB","city":"London","state":"Greater London","country":"United Kingdom"},"categories":[{"id":"4bf58dd8d48988d1ce941735","name":"Seafood Restaurant","pluralName":"Seafood Restaurants","shortName":"Seafood","icon":{"prefix":"https:\/\/ss1.4sqi.net\/img\/categories_v2\/food\/seafood_","suffix":".png"},"primary":"true"}],"verified":"false","restricted":"true","stats":{"checkinsCount":"906","usersCount":"735","tipCount":"21"},"url":"http:\/\/www.bibendum.co.uk","reservations":{"url":"http:\/\/www.toptable.co.uk\/single.aspx?rid=80065&ref=9601"},"menu":{"type":"Menu","label":"Menu","anchor":"View Menu","url":"https:\/\/foursquare.com\/v\/bibendum\/4ac518baf964a520f7a120e3\/menu","mobileUrl":"https:\/\/foursquare.com\/v\/4ac518baf964a520f7a120e3\/device_menu"},"specials":{"count":"0"},"hereNow":{"count":"0"},"referralId":"v-1392478064"},{"id":"510da164e4b0bb3c61f0e1bf","name":"Zeffi","location":{"lat":"51.494165378275795","lng":"-0.16758649367357709","distance":"20","cc":"GB","country":"United Kingdom"},"categories":[{"id":"4bf58dd8d48988d14b941735","name":"Winery","pluralName":"Wineries","shortName":"Winery","icon":{"prefix":"https:\/\/ss1.4sqi.net\/img\/categories_v2\/food\/winery_","suffix":".png"},"primary":"true"}],"verified":"false","restricted":"true","stats":{"checkinsCount":"15","usersCount":"14","tipCount":"0"},"specials":{"count":"0"},"hereNow":{"count":"0"},"referralId":"v-1392478064"},{"id":"4c9e1db646978cfa94269e7f","name":"The Conran Shop","location":{"address":"81 Fulham Rd.","lat":"51.49319050517893","lng":"-0.16825316526487188","distance":"126","postalCode":"SW36RD","cc":"GB","city":"Kensington","state":"Greater London","country":"United Kingdom"},"categories":[{"id":"4bf58dd8d48988d1f4941735","name":"Design Studio","pluralName":"Design Studios","shortName":"Design","icon":{"prefix":"https:\/\/ss1.4sqi.net\/img\/categories_v2\/shops\/design_","suffix":".png"},"primary":"true"}],"verified":"false","restricted":"true","stats":{"checkinsCount":"609","usersCount":"415","tipCount":"7"},"specials":{"count":"0"},"hereNow":{"count":"1","groups":[{"type":"others","name":"Other people here","count":"1"}]},"referralId":"v-1392478064"},{"id":"4fba87dde4b09a2fd5254e57","name":"Daphne's Restaurant","location":{"lat":"51.493618","lng":"-0.16783","distance":"74","cc":"GB","country":"United Kingdom"},"categories":[{"id":"4bf58dd8d48988d110941735","name":"Italian Restaurant","pluralName":"Italian Restaurants","shortName":"Italian","icon":{"prefix":"https:\/\/ss1.4sqi.net\/img\/categories_v2\/food\/italian_","suffix":".png"},"primary":"true"}],"verified":"false","restricted":"true","stats":{"checkinsCount":"238","usersCount":"214","tipCount":"7"},"reservations":{"url":"http:\/\/www.toptable.co.uk\/single.aspx?rid=83284&ref=9601"},"specials":{"count":"0"},"hereNow":{"count":"0"},"referralId":"v-1392478064"},{"id":"52cedd5c498e9858c9e96be2","name":"ovivo mobile","location":{"address":"65 Walton Street","lat":"51.49409391323012","lng":"-0.1678040576417021","distance":"21","cc":"GB","city":"London","state":"Greater London","country":"United Kingdom"},"categories":[{"id":"4bf58dd8d48988d125941735","name":"Tech Startup","pluralName":"Tech Startups","shortName":"Tech Startup","icon":{"prefix":"https:\/\/ss1.4sqi.net\/img\/categories_v2\/shops\/technology_","suffix":".png"},"primary":"true"}],"verified":"false","restricted":"true","stats":{"checkinsCount":"1","usersCount":"1","tipCount":"0"},"specials":{"count":"0"},"hereNow":{"count":"0"},"referralId":"v-1392478064"},{"id":"52bea24d498e0c0d912ebc85","name":"Rys","location":{"address":"176 Walton St.","lat":"51.49422","lng":"-0.167678","distance":"11","cc":"GB","city":"Knightsbridge","state":"Greater London","country":"United Kingdom"},"categories":[{"id":"4bf58dd8d48988d110951735","name":"Salon \/ Barbershop","pluralName":"Salons \/ Barbershops","shortName":"Salon \/ Barbershop","icon":{"prefix":"https:\/\/ss1.4sqi.net\/img\/categories_v2\/shops\/salon_barber_","suffix":".png"},"primary":"true"}],"verified":"false","restricted":"true","stats":{"checkinsCount":"4","usersCount":"3","tipCount":"0"},"specials":{"count":"0"},"hereNow":{"count":"0"},"referralId":"v-1392478064"},{"id":"4ac518dff964a520fba920e3","name":"Gaucho","contact":{"phone":"+442075849901","formattedPhone":"+44 20 7584 9901"},"location":{"address":"89 Sloane Ave","lat":"51.49299093333024","lng":"-0.16748724365527137","distance":"146","postalCode":"SW3 3DX","cc":"GB","city":"London","state":"Greater London","country":"United Kingdom"},"categories":[{"id":"4bf58dd8d48988d107941735","name":"Argentinian Restaurant","pluralName":"Argentinian Restaurants","shortName":"Argentinian","icon":{"prefix":"https:\/\/ss1.4sqi.net\/img\/categories_v2\/food\/argentinian_","suffix":".png"},"primary":"true"}],"verified":"false","restricted":"true","stats":{"checkinsCount":"1018","usersCount":"743","tipCount":"22"},"url":"http:\/\/www.gauchorestaurants.co.uk","reservations":{"url":"http:\/\/www.toptable.co.uk\/single.aspx?rid=16786&ref=9601"},"menu":{"type":"Menu","label":"Menu","anchor":"View Menu","url":"https:\/\/foursquare.com\/v\/gaucho\/4ac518dff964a520fba920e3\/menu","mobileUrl":"https:\/\/foursquare.com\/v\/4ac518dff964a520fba920e3\/device_menu"},"specials":{"count":"0"},"hereNow":{"count":"0"},"referralId":"v-1392478064"},{"id":"4b081d83f964a520160423e3","name":"The Hour Glass","contact":{"phone":"+442075812840","formattedPhone":"+44 20 7581 2840"},"location":{"address":"279-283 Brompton Road","lat":"51.49435668909048","lng":"-0.16874313354492188","distance":"65","postalCode":"SW3 6PX","cc":"GB","city":"London","state":"Greater London","country":"United Kingdom"},"categories":[{"id":"4bf58dd8d48988d11b941735","name":"Pub","pluralName":"Pubs","shortName":"Pub","icon":{"prefix":"https:\/\/ss1.4sqi.net\/img\/categories_v2\/nightlife\/pub_","suffix":".png"},"primary":"true"}],"verified":"false","restricted":"true","stats":{"checkinsCount":"441","usersCount":"288","tipCount":"5"},"specials":{"count":"0"},"hereNow":{"count":"0"},"referralId":"v-1392478064"},{"id":"4c2de3901683b713777526ec","name":"The Westover Clinic","location":{"address":"13 Crescent Place","lat":"51.494092450054936","lng":"-0.16827204439204788","distance":"39","postalCode":"SW3 2EA","cc":"GB","city":"London","state":"Greater London","country":"United Kingdom"},"categories":[{"id":"4bf58dd8d48988d178941735","name":"Dentist's Office","pluralName":"Dentist's Offices","shortName":"Dentist's Office","icon":{"prefix":"https:\/\/ss1.4sqi.net\/img\/categories_v2\/building\/medical_dentist_","suffix":".png"},"primary":"true"}],"verified":"false","restricted":"true","stats":{"checkinsCount":"32","usersCount":"13","tipCount":"0"},"specials":{"count":"0"},"hereNow":{"count":"0"},"referralId":"v-1392478064"},{"id":"4d6b9cab6107f04db0b5307a","name":"Baity Kitchen","location":{"address":"172 Walton St.","lat":"51.4943197200217","lng":"-0.16781696316301722","distance":"3","postalCode":"SW3 2JL","cc":"GB","city":"South kensington","state":"Greater London","country":"United Kingdom"},"categories":[{"id":"4bf58dd8d48988d1c0941735","name":"Mediterranean Restaurant","pluralName":"Mediterranean Restaurants","shortName":"Mediterranean","icon":{"prefix":"https:\/\/ss1.4sqi.net\/img\/categories_v2\/food\/mediterranean_","suffix":".png"},"primary":"true"}],"verified":"false","restricted":"true","stats":{"checkinsCount":"143","usersCount":"99","tipCount":"5"},"specials":{"count":"0"},"hereNow":{"count":"0"},"referralId":"v-1392478064"},{"id":"4fff15ede4b0eb8e433e07d2","name":"Obik\u00e0 Mozzarella Bar - London South Kensington","contact":{"phone":"+442075815208","formattedPhone":"+44 20 7581 5208","twitter":"obikauk","facebook":"374950379208509"},"location":{"address":"96 Draycott Avenue","lat":"51.493328","lng":"-0.167305","distance":"112","postalCode":"SW3 3AD","cc":"GB","city":"London","state":"Greater London","country":"United Kingdom"},"categories":[{"id":"4bf58dd8d48988d110941735","name":"Italian Restaurant","pluralName":"Italian Restaurants","shortName":"Italian","icon":{"prefix":"https:\/\/ss1.4sqi.net\/img\/categories_v2\/food\/italian_","suffix":".png"},"primary":"true"}],"verified":"true","restricted":"true","stats":{"checkinsCount":"285","usersCount":"227","tipCount":"6"},"url":"http:\/\/obika.com\/portal\/GB\/en\/home\/","menu":{"type":"Menu","label":"Menu","anchor":"View Menu","url":"https:\/\/foursquare.com\/v\/obik%C3%A0-mozzarella-bar--london-south-kensington\/4fff15ede4b0eb8e433e07d2\/menu","mobileUrl":"https:\/\/foursquare.com\/v\/4fff15ede4b0eb8e433e07d2\/device_menu"},"specials":{"count":"0"},"hereNow":{"count":"0"},"storeId":"","referralId":"v-1392478064"},{"id":"4fc7dd3fe4b0efc1d4eddf98","name":"The Admiral Codrington","contact":{"phone":"+442075810005","formattedPhone":"+44 20 7581 0005","twitter":"theadcod"},"location":{"address":"17 Mossop St.","lat":"51.49367035719069","lng":"-0.16610763979952642","distance":"136","postalCode":"SW3 2LY","cc":"GB","city":"Chelsea","state":"Greater London","country":"United Kingdom"},"categories":[{"id":"4bf58dd8d48988d11b941735","name":"Pub","pluralName":"Pubs","shortName":"Pub","icon":{"prefix":"https:\/\/ss1.4sqi.net\/img\/categories_v2\/nightlife\/pub_","suffix":".png"},"primary":"true"}],"verified":"true","restricted":"true","stats":{"checkinsCount":"845","usersCount":"449","tipCount":"12"},"url":"http:\/\/www.theadmiralcodrington.co.uk","menu":{"type":"Menu","label":"Menu","anchor":"View Menu","url":"https:\/\/foursquare.com\/v\/the-admiral-codrington-chelsea-london\/4fc7dd3fe4b0efc1d4eddf98\/menu","mobileUrl":"https:\/\/foursquare.com\/v\/4fc7dd3fe4b0efc1d4eddf98\/device_menu"},"specials":{"count":"0"},"hereNow":{"count":"0"},"venuePage":{"id":"43619330"},"storeId":"","referralId":"v-1392478064"},{"id":"4ac518d4f964a520a6a720e3","name":"Andipa Gallery","location":{"address":"162 Walton Street","lat":"51.494326","lng":"-0.16777","distance":"4","postalCode":"SW3 2JL","cc":"GB","city":"London","state":"Greater London","country":"United Kingdom"},"categories":[{"id":"4bf58dd8d48988d1e2931735","name":"Art Gallery","pluralName":"Art Galleries","shortName":"Art Gallery","icon":{"prefix":"https:\/\/ss1.4sqi.net\/img\/categories_v2\/arts_entertainment\/artgallery_","suffix":".png"},"primary":"true"}],"verified":"false","restricted":"true","stats":{"checkinsCount":"55","usersCount":"52","tipCount":"2"},"specials":{"count":"0"},"hereNow":{"count":"0"},"referralId":"v-1392478064"},{"id":"4e92ab6a0cd629b696e6fc49","name":"Chelsea Cloisters","location":{"address":"Sloane Ave","lat":"51.49260657816879","lng":"-0.16695141792297363","distance":"196","postalCode":"SW3 3DT","cc":"GB","city":"London","state":"Greater London","country":"United Kingdom"},"categories":[{"id":"4d954b06a243a5684965b473","name":"Residential Building (Apartment \/ Condo)","pluralName":"Residential Buildings (Apartments \/ Condos)","shortName":"Residential","icon":{"prefix":"https:\/\/ss1.4sqi.net\/img\/categories_v2\/building\/apartment_","suffix":".png"},"primary":"true"}],"verified":"false","restricted":"true","stats":{"checkinsCount":"1195","usersCount":"309","tipCount":"7"},"menu":{"type":"Menu","label":"Menu","anchor":"View Menu","url":"https:\/\/foursquare.com\/v\/chelsea-cloisters\/4e92ab6a0cd629b696e6fc49\/menu","mobileUrl":"https:\/\/foursquare.com\/v\/4e92ab6a0cd629b696e6fc49\/device_menu"},"specials":{"count":"0"},"hereNow":{"count":"1","groups":[{"type":"others","name":"Other people here","count":"1"}]},"referralId":"v-1392478064"},{"id":"4ac518bbf964a5200ea220e3","name":"The Collection","location":{"address":"264 Brompton Rd","lat":"51.493965","lng":"-0.169644","distance":"132","postalCode":"SW3 2AS","cc":"GB","city":"London","state":"Greater London","country":"United Kingdom"},"categories":[{"id":"4bf58dd8d48988d121941735","name":"Lounge","pluralName":"Lounges","shortName":"Lounge","icon":{"prefix":"https:\/\/ss1.4sqi.net\/img\/categories_v2\/nightlife\/lounge_","suffix":".png"},"primary":"true"}],"verified":"false","restricted":"true","stats":{"checkinsCount":"635","usersCount":"526","tipCount":"9"},"url":"http:\/\/www.the-collection.co.uk","menu":{"type":"Menu","label":"Menu","anchor":"View Menu","url":"https:\/\/foursquare.com\/v\/the-collection\/4ac518bbf964a5200ea220e3\/menu","mobileUrl":"https:\/\/foursquare.com\/v\/4ac518bbf964a5200ea220e3\/device_menu"},"specials":{"count":"0"},"hereNow":{"count":"0"},"referralId":"v-1392478064"},{"id":"52b4305e498e0ccf2944ea36","name":"Katherine Pooley Studio","contact":{"phone":"+442075843223","formattedPhone":"+44 20 7584 3223","twitter":"katharinepooley"},"location":{"address":"152 Walton St","lat":"51.49468994140625","lng":"-0.16730649769306183","distance":"56","postalCode":"SW3 2JL","cc":"GB","city":"London","state":"Greater London","country":"United Kingdom"},"categories":[{"id":"4bf58dd8d48988d124941735","name":"Office","pluralName":"Offices","shortName":"Office","icon":{"prefix":"https:\/\/ss1.4sqi.net\/img\/categories_v2\/building\/default_","suffix":".png"},"primary":"true"}],"verified":"false","restricted":"true","stats":{"checkinsCount":"3","usersCount":"1","tipCount":"1"},"url":"http:\/\/www.katharinepooley.com","specials":{"count":"0"},"hereNow":{"count":"0"},"referralId":"v-1392478064"},{"id":"4dd269a7227159fef249c5b1","name":"Huge","contact":{"phone":"+442078945030","formattedPhone":"+44 20 7894 5030","twitter":"hugeinc"},"location":{"address":"60 Sloane Ave.","lat":"51.49309445391718","lng":"-0.16680460391417554","distance":"149","cc":"GB","city":"Kensington","state":"Greater London","country":"United Kingdom"},"categories":[{"id":"4bf58dd8d48988d124941735","name":"Office","pluralName":"Offices","shortName":"Office","icon":{"prefix":"https:\/\/ss1.4sqi.net\/img\/categories_v2\/building\/default_","suffix":".png"},"primary":"true"}],"verified":"true","restricted":"true","stats":{"checkinsCount":"927","usersCount":"80","tipCount":"1"},"url":"http:\/\/www.hugeinc.com","specials":{"count":"0"},"hereNow":{"count":"0"},"storeId":"","referralId":"v-1392478064"},{"id":"51feb39c1d9fdcf4e036e68d","name":"Bo L\u00e0ng","location":{"address":"100 Draycott Ave","lat":"51.493571","lng":"-0.167229","distance":"89","postalCode":"SW3 3AD","cc":"GB","city":"London","state":"Greater London","country":"United Kingdom"},"categories":[{"id":"4bf58dd8d48988d1f5931735","name":"Dim Sum Restaurant","pluralName":"Dim Sum Restaurants","shortName":"Dim Sum","icon":{"prefix":"https:\/\/ss1.4sqi.net\/img\/categories_v2\/food\/dimsum_","suffix":".png"},"primary":"true"}],"verified":"false","restricted":"true","stats":{"checkinsCount":"43","usersCount":"35","tipCount":"4"},"url":"http:\/\/www.bolangrestaurant.co.uk","reservations":{"url":"http:\/\/www.toptable.co.uk\/single.aspx?rid=97860&ref=9601"},"menu":{"type":"Menu","label":"Menu","anchor":"View Menu","url":"https:\/\/foursquare.com\/v\/bo-l%C3%A0ng\/51feb39c1d9fdcf4e036e68d\/menu","mobileUrl":"https:\/\/foursquare.com\/v\/51feb39c1d9fdcf4e036e68d\/device_menu"},"specials":{"count":"0"},"hereNow":{"count":"0"},"referralId":"v-1392478064"},{"id":"52581ba8498e39edd49ae5c1","name":"Brompton Road","location":{"lat":"51.49434407157101","lng":"-0.16870727062877536","distance":"62","cc":"GB","country":"United Kingdom"},"categories":[{"id":"4bf58dd8d48988d102951735","name":"Accessories Store","pluralName":"Accessories Stores","shortName":"Accessories","icon":{"prefix":"https:\/\/ss1.4sqi.net\/img\/categories_v2\/shops\/apparel_accessories_","suffix":".png"},"primary":"true"}],"verified":"false","restricted":"true","stats":{"checkinsCount":"7","usersCount":"7","tipCount":"0"},"specials":{"count":"0"},"hereNow":{"count":"0"},"referralId":"v-1392478064"},{"id":"509a89bce4b02cd4a0d36802","name":"Ren\u00e9 Caovilla","location":{"address":"311 Brompton Road","lat":"51.494133","lng":"-0.168741","distance":"67","cc":"GB","city":"London","state":"Greater London","country":"United Kingdom"},"categories":[{"id":"4bf58dd8d48988d107951735","name":"Shoe Store","pluralName":"Shoe Stores","shortName":"Shoes","icon":{"prefix":"https:\/\/ss1.4sqi.net\/img\/categories_v2\/shops\/apparel_shoestore_","suffix":".png"},"primary":"true"}],"verified":"false","restricted":"true","stats":{"checkinsCount":"3","usersCount":"3","tipCount":"0"},"specials":{"count":"0"},"hereNow":{"count":"0"},"referralId":"v-1392478064"}],"confident":"true"}}