{"meta":{"code":"200"},"response":{"venues":[{"id":"4e9399d0a17cee456fbb5d42","name":"White Cube","location":{"address":"144\u200a\u2014152 Bermondsey Street","lat":"51.49950643488766","lng":"-0.08188247680664062","distance":"68","postalCode":"SE1 3TQ","cc":"GB","city":"London","state":"Greater London","country":"United Kingdom"},"categories":[{"id":"4bf58dd8d48988d1e2931735","name":"Art Gallery","pluralName":"Art Galleries","shortName":"Art Gallery","icon":{"prefix":"https:\/\/ss1.4sqi.net\/img\/categories_v2\/arts_entertainment\/artgallery_","suffix":".png"},"primary":"true"}],"verified":"false","restricted":"true","stats":{"checkinsCount":"1038","usersCount":"714","tipCount":"14"},"specials":{"count":"0"},"hereNow":{"count":"2","groups":[{"type":"others","name":"Other people here","count":"2"}]},"referralId":"v-1392478059"},{"id":"4b0a551ef964a5204d2323e3","name":"Bermondsey Street Coffee","contact":{"phone":"+442074037655","formattedPhone":"+44 20 7403 7655"},"location":{"address":"163-167 Bermondsey St.","lat":"51.499374","lng":"-0.08131716666666668","distance":"103","postalCode":"SE1 3UW","cc":"GB","city":"Bermondsey","state":"Greater London","country":"United Kingdom"},"categories":[{"id":"4bf58dd8d48988d1e0931735","name":"Coffee Shop","pluralName":"Coffee Shops","shortName":"Coffee Shop","icon":{"prefix":"https:\/\/ss1.4sqi.net\/img\/categories_v2\/food\/coffeeshop_","suffix":".png"},"primary":"true"}],"verified":"true","restricted":"true","stats":{"checkinsCount":"2944","usersCount":"792","tipCount":"64"},"url":"http:\/\/www.streetcoffee.co.uk\/pages\/bermondsey.php","specials":{"count":"0"},"hereNow":{"count":"3","groups":[{"type":"others","name":"Other people here","count":"3"}]},"referralId":"v-1392478059"},{"id":"4ac518c6f964a52002a520e3","name":"Village East","contact":{"phone":"+442073576082","formattedPhone":"+44 20 7357 6082","twitter":"villageeastse1"},"location":{"address":"171-173 Bermondsey St","lat":"51.49908136868062","lng":"-0.08112124149428673","distance":"118","postalCode":"SE1 3UW","cc":"GB","city":"Southwark","state":"Greater London","country":"United Kingdom"},"categories":[{"id":"4bf58dd8d48988d155941735","name":"Gastropub","pluralName":"Gastropubs","shortName":"Gastropub","icon":{"prefix":"https:\/\/ss1.4sqi.net\/img\/categories_v2\/food\/gastropub_","suffix":".png"},"primary":"true"}],"verified":"false","restricted":"true","stats":{"checkinsCount":"2412","usersCount":"1458","tipCount":"75"},"url":"http:\/\/www.villageeast.co.uk","reservations":{"url":"http:\/\/www.toptable.co.uk\/single.aspx?rid=32980&ref=9601"},"menu":{"type":"Menu","label":"Menu","anchor":"View Menu","url":"https:\/\/foursquare.com\/v\/village-east\/4ac518c6f964a52002a520e3\/menu","mobileUrl":"https:\/\/foursquare.com\/v\/4ac518c6f964a52002a520e3\/device_menu"},"specials":{"count":"0"},"hereNow":{"count":"1","groups":[{"type":"others","name":"Other people here","count":"1"}]},"referralId":"v-1392478059"},{"id":"4d694d5c1b63a1cdcde13d2d","name":"Simon The Tanner","contact":{"phone":"+442073578740","formattedPhone":"+44 20 7357 8740","twitter":"simon_thetanner"},"location":{"address":"321 Long Ln.","lat":"51.49831030818036","lng":"-0.0830059395459282","distance":"109","postalCode":"SE1 4PR","cc":"GB","city":"Bermondsey","state":"Greater London","country":"United Kingdom"},"categories":[{"id":"4bf58dd8d48988d11b941735","name":"Pub","pluralName":"Pubs","shortName":"Pub","icon":{"prefix":"https:\/\/ss1.4sqi.net\/img\/categories_v2\/nightlife\/pub_","suffix":".png"},"primary":"true"}],"verified":"false","restricted":"true","stats":{"checkinsCount":"639","usersCount":"284","tipCount":"9"},"url":"http:\/\/www.simonthetanner.co.uk","menu":{"type":"Menu","label":"Menu","anchor":"View Menu","url":"https:\/\/foursquare.com\/v\/simon-the-tanner\/4d694d5c1b63a1cdcde13d2d\/menu","mobileUrl":"https:\/\/foursquare.com\/v\/4d694d5c1b63a1cdcde13d2d\/device_menu"},"specials":{"count":"0"},"hereNow":{"count":"2","groups":[{"type":"others","name":"Other people here","count":"2"}]},"referralId":"v-1392478059"},{"id":"4ad0963ef964a52093d820e3","name":"The Woolpack","contact":{"phone":"+442073579269","formattedPhone":"+44 20 7357 9269","twitter":"woolpackbar"},"location":{"address":"98 Bermondsey St.","lat":"51.50071772427568","lng":"-0.08224431461901881","distance":"163","postalCode":"SE1 3UB","cc":"GB","city":"London","state":"Greater London","country":"United Kingdom"},"categories":[{"id":"4bf58dd8d48988d11b941735","name":"Pub","pluralName":"Pubs","shortName":"Pub","icon":{"prefix":"https:\/\/ss1.4sqi.net\/img\/categories_v2\/nightlife\/pub_","suffix":".png"},"primary":"true"}],"verified":"false","restricted":"true","stats":{"checkinsCount":"3338","usersCount":"1785","tipCount":"36"},"url":"http:\/\/www.woolpackbar.com","specials":{"count":"0"},"hereNow":{"count":"1","groups":[{"type":"others","name":"Other people here","count":"1"}]},"referralId":"v-1392478059"},{"id":"5261e38211d2056e75300618","name":"Hestia House, Citywalk","location":{"lat":"51.499266","lng":"-0.083479","distance":"46","cc":"GB","country":"United Kingdom"},"categories":[{"id":"4d954b06a243a5684965b473","name":"Residential Building (Apartment \/ Condo)","pluralName":"Residential Buildings (Apartments \/ Condos)","shortName":"Residential","icon":{"prefix":"https:\/\/ss1.4sqi.net\/img\/categories_v2\/building\/apartment_","suffix":".png"},"primary":"true"}],"verified":"false","restricted":"true","stats":{"checkinsCount":"8","usersCount":"5","tipCount":"0"},"specials":{"count":"0"},"hereNow":{"count":"0"},"referralId":"v-1392478059"},{"id":"4e4ff77e52b1e893ad62a5a9","name":"Pizarro","contact":{"phone":"+442074077339","formattedPhone":"+44 20 7407 7339","twitter":"jose_pizarro"},"location":{"address":"194-204 Bermondsey St.","lat":"51.498419209039135","lng":"-0.0811712798998841","distance":"148","postalCode":"SE1 3TQ","cc":"GB","city":"London","state":"Greater London","country":"United Kingdom"},"categories":[{"id":"4bf58dd8d48988d150941735","name":"Spanish Restaurant","pluralName":"Spanish Restaurants","shortName":"Spanish","icon":{"prefix":"https:\/\/ss1.4sqi.net\/img\/categories_v2\/food\/default_","suffix":".png"},"primary":"true"}],"verified":"false","restricted":"true","stats":{"checkinsCount":"979","usersCount":"622","tipCount":"27"},"url":"http:\/\/www.josepizarro.com\/restaurants\/pizarro","reservations":{"url":"http:\/\/www.toptable.co.uk\/single.aspx?rid=98025&ref=9601"},"menu":{"type":"Menu","label":"Menu","anchor":"View Menu","url":"https:\/\/foursquare.com\/v\/pizarro\/4e4ff77e52b1e893ad62a5a9\/menu","mobileUrl":"https:\/\/foursquare.com\/v\/4e4ff77e52b1e893ad62a5a9\/device_menu"},"specials":{"count":"0"},"hereNow":{"count":"2","groups":[{"type":"others","name":"Other people here","count":"2"}]},"referralId":"v-1392478059"},{"id":"4ad70ef4f964a520900821e3","name":"Caphe House","contact":{"phone":"+442074033574","formattedPhone":"+44 20 7403 3574"},"location":{"address":"114 Bermondsey st","lat":"51.500400258774405","lng":"-0.08163010688388192","distance":"148","postalCode":"SE1 3TX","cc":"GB","city":"London","state":"Greater London","country":"United Kingdom"},"categories":[{"id":"4bf58dd8d48988d14a941735","name":"Vietnamese Restaurant","pluralName":"Vietnamese Restaurants","shortName":"Vietnamese","icon":{"prefix":"https:\/\/ss1.4sqi.net\/img\/categories_v2\/food\/default_","suffix":".png"},"primary":"true"}],"verified":"false","restricted":"true","stats":{"checkinsCount":"1097","usersCount":"302","tipCount":"17"},"url":"http:\/\/www.caphehouse.com","menu":{"type":"Menu","label":"Menu","anchor":"View Menu","url":"https:\/\/foursquare.com\/v\/caphe-house\/4ad70ef4f964a520900821e3\/menu","mobileUrl":"https:\/\/foursquare.com\/v\/4ad70ef4f964a520900821e3\/device_menu"},"specials":{"count":"0"},"hereNow":{"count":"1","groups":[{"type":"others","name":"Other people here","count":"1"}]},"referralId":"v-1392478059"},{"id":"4bbf77c72a89ef3b8af6ee88","name":"Zucca","contact":{"phone":"+442073786809","formattedPhone":"+44 20 7378 6809"},"location":{"address":"184 Bermondsey St.","lat":"51.498765067648954","lng":"-0.0811515748500824","distance":"128","postalCode":"SE1 3TQ","cc":"GB","city":"London","state":"Greater London","country":"United Kingdom"},"categories":[{"id":"4bf58dd8d48988d110941735","name":"Italian Restaurant","pluralName":"Italian Restaurants","shortName":"Italian","icon":{"prefix":"https:\/\/ss1.4sqi.net\/img\/categories_v2\/food\/italian_","suffix":".png"},"primary":"true"}],"verified":"false","restricted":"true","stats":{"checkinsCount":"788","usersCount":"507","tipCount":"43"},"url":"http:\/\/www.zuccalondon.com","reservations":{"url":"http:\/\/www.toptable.co.uk\/single.aspx?rid=46249&ref=9601"},"specials":{"count":"0"},"hereNow":{"count":"0"},"referralId":"v-1392478059"},{"id":"5280a153498eec0db1e802ca","name":"Service Wash Centre","location":{"lat":"51.49993896484375","lng":"-0.08388789743185043","distance":"104","cc":"GB","country":"United Kingdom"},"categories":[{"id":"4bf58dd8d48988d1fc941735","name":"Laundry Service","pluralName":"Laundry Services","shortName":"Laundry","icon":{"prefix":"https:\/\/ss1.4sqi.net\/img\/categories_v2\/shops\/laundry_","suffix":".png"},"primary":"true"}],"verified":"false","restricted":"true","stats":{"checkinsCount":"2","usersCount":"1","tipCount":"0"},"specials":{"count":"0"},"hereNow":{"count":"1","groups":[{"type":"others","name":"Other people here","count":"1"}]},"referralId":"v-1392478059"},{"id":"4ad5b779f964a5204c0321e3","name":"The Garrison","contact":{"phone":"+442070899355","formattedPhone":"+44 20 7089 9355"},"location":{"address":"99-101 Bermondsey St.","lat":"51.500815582866174","lng":"-0.08185467768076227","distance":"182","postalCode":"SE1 3XB","cc":"GB","city":"London","state":"Greater London","country":"United Kingdom"},"categories":[{"id":"4bf58dd8d48988d155941735","name":"Gastropub","pluralName":"Gastropubs","shortName":"Gastropub","icon":{"prefix":"https:\/\/ss1.4sqi.net\/img\/categories_v2\/food\/gastropub_","suffix":".png"},"primary":"true"}],"verified":"false","restricted":"true","stats":{"checkinsCount":"1973","usersCount":"1405","tipCount":"36"},"url":"http:\/\/thegarrison.co.uk","reservations":{"url":"http:\/\/www.toptable.co.uk\/single.aspx?rid=48169&ref=9601"},"menu":{"type":"Menu","label":"Menu","anchor":"View Menu","url":"https:\/\/foursquare.com\/v\/the-garrison\/4ad5b779f964a5204c0321e3\/menu","mobileUrl":"https:\/\/foursquare.com\/v\/4ad5b779f964a5204c0321e3\/device_menu"},"specials":{"count":"0"},"hereNow":{"count":"0"},"referralId":"v-1392478059"},{"id":"4cd462a47da9a35df051e3b9","name":"Think London Bridge","contact":{"phone":"+442034659100","formattedPhone":"+44 20 3465 9100"},"location":{"address":"203 Long Ln.","lat":"51.49862244799115","lng":"-0.08412421139663583","distance":"117","postalCode":"SE1 4PN","cc":"GB","city":"London","state":"Greater London","country":"United Kingdom"},"categories":[{"id":"4bf58dd8d48988d1fa931735","name":"Hotel","pluralName":"Hotels","shortName":"Hotel","icon":{"prefix":"https:\/\/ss1.4sqi.net\/img\/categories_v2\/travel\/hotel_","suffix":".png"},"primary":"true"}],"verified":"false","restricted":"true","stats":{"checkinsCount":"433","usersCount":"161","tipCount":"5"},"specials":{"count":"0"},"hereNow":{"count":"0"},"referralId":"v-1392478059"},{"id":"51e2b481498ef59178902ee8","name":"Casse-Cr\u00f4ute","contact":{"phone":"+442074072140","formattedPhone":"+44 20 7407 2140","twitter":"cassecroute109"},"location":{"address":"109 Bermondsey St","lat":"51.50046669813957","lng":"-0.08165889843784005","distance":"153","postalCode":"SE1 3XB","cc":"GB","city":"London","state":"Greater London","country":"United Kingdom"},"categories":[{"id":"4bf58dd8d48988d10c941735","name":"French Restaurant","pluralName":"French Restaurants","shortName":"French","icon":{"prefix":"https:\/\/ss1.4sqi.net\/img\/categories_v2\/food\/french_","suffix":".png"},"primary":"true"}],"verified":"false","restricted":"true","stats":{"checkinsCount":"158","usersCount":"107","tipCount":"4"},"url":"http:\/\/www.cassecroute.co.uk","specials":{"count":"0"},"hereNow":{"count":"1","groups":[{"type":"others","name":"Other people here","count":"1"}]},"referralId":"v-1392478059"},{"id":"4c3b97271a1cd13a129eb60d","name":"Think Bermondsey Street","location":{"address":"Bermondsey Street 190","lat":"51.49879402073204","lng":"-0.08152740772434698","distance":"104","cc":"GB","city":"London","state":"Greater London","country":"United Kingdom"},"categories":[{"id":"4bf58dd8d48988d1fa931735","name":"Hotel","pluralName":"Hotels","shortName":"Hotel","icon":{"prefix":"https:\/\/ss1.4sqi.net\/img\/categories_v2\/travel\/hotel_","suffix":".png"},"primary":"true"}],"verified":"false","restricted":"true","stats":{"checkinsCount":"503","usersCount":"188","tipCount":"8"},"specials":{"count":"0"},"hereNow":{"count":"0"},"referralId":"v-1392478059"},{"id":"51253192e4b0813946071705","name":"Weston Court","location":{"lat":"51.49942356316147","lng":"-0.08354240163996425","distance":"53","cc":"GB","country":"United Kingdom"},"categories":[{"id":"4d954b06a243a5684965b473","name":"Residential Building (Apartment \/ Condo)","pluralName":"Residential Buildings (Apartments \/ Condos)","shortName":"Residential","icon":{"prefix":"https:\/\/ss1.4sqi.net\/img\/categories_v2\/building\/apartment_","suffix":".png"},"primary":"true"}],"verified":"false","restricted":"true","stats":{"checkinsCount":"13","usersCount":"5","tipCount":"0"},"specials":{"count":"0"},"hereNow":{"count":"0"},"referralId":"v-1392478059"},{"id":"4aff302ff964a520a43522e3","name":"The Leather Exchange","contact":{"phone":"+442074070295","formattedPhone":"+44 20 7407 0295"},"location":{"address":"15 Leathermarket St","lat":"51.500446","lng":"-0.08468","distance":"183","postalCode":"SE1 3HN","cc":"GB","city":"London","state":"Greater London","country":"United Kingdom"},"categories":[{"id":"4bf58dd8d48988d11b941735","name":"Pub","pluralName":"Pubs","shortName":"Pub","icon":{"prefix":"https:\/\/ss1.4sqi.net\/img\/categories_v2\/nightlife\/pub_","suffix":".png"},"primary":"true"}],"verified":"false","restricted":"true","stats":{"checkinsCount":"559","usersCount":"204","tipCount":"5"},"url":"http:\/\/www.theleatherexchange.co.uk","reservations":{"url":"http:\/\/www.toptable.co.uk\/single.aspx?rid=60115&ref=9601"},"menu":{"type":"Menu","label":"Menu","anchor":"View Menu","url":"https:\/\/foursquare.com\/v\/the-leather-exchange\/4aff302ff964a520a43522e3\/menu","mobileUrl":"https:\/\/foursquare.com\/v\/4aff302ff964a520a43522e3\/device_menu"},"specials":{"count":"0"},"hereNow":{"count":"1","groups":[{"type":"others","name":"Other people here","count":"1"}]},"referralId":"v-1392478059"},{"id":"4c3ca9627f49c9b6bb336ce3","name":"Bell Yard Mews","location":{"lat":"51.499189770545044","lng":"-0.08035340367201842","distance":"170","cc":"GB","city":"Bermondsey","state":"Greater London","country":"United Kingdom"},"categories":[{"id":"4bf58dd8d48988d130941735","name":"Building","pluralName":"Buildings","shortName":"Building","icon":{"prefix":"https:\/\/ss1.4sqi.net\/img\/categories_v2\/building\/default_","suffix":".png"},"primary":"true"}],"verified":"false","restricted":"true","stats":{"checkinsCount":"233","usersCount":"14","tipCount":"1"},"specials":{"count":"0"},"hereNow":{"count":"0"},"referralId":"v-1392478059"},{"id":"4b6ee6cdf964a520f1cf2ce3","name":"Leathermarket Gardens","location":{"address":"Leathermarket St","crossStreet":"Weston St","lat":"51.50065519633729","lng":"-0.08373856544494629","distance":"165","postalCode":"SE1","cc":"GB","city":"London","state":"Greater London","country":"United Kingdom"},"categories":[{"id":"4bf58dd8d48988d15a941735","name":"Garden","pluralName":"Gardens","shortName":"Garden","icon":{"prefix":"https:\/\/ss1.4sqi.net\/img\/categories_v2\/parks_outdoors\/garden_","suffix":".png"},"primary":"true"}],"verified":"false","restricted":"true","stats":{"checkinsCount":"535","usersCount":"137","tipCount":"2"},"specials":{"count":"0"},"hereNow":{"count":"0"},"referralId":"v-1392478059"},{"id":"4e8b62e6d22dbf0a91d0d8d1","name":"Antico","location":{"address":"214 Bermondsey St","lat":"51.49795202041853","lng":"-0.08137618689183529","distance":"178","postalCode":"SE1 3TQ","cc":"GB","city":"Camberwell","state":"Greater London","country":"United Kingdom"},"categories":[{"id":"4bf58dd8d48988d110941735","name":"Italian Restaurant","pluralName":"Italian Restaurants","shortName":"Italian","icon":{"prefix":"https:\/\/ss1.4sqi.net\/img\/categories_v2\/food\/italian_","suffix":".png"},"primary":"true"}],"verified":"false","restricted":"true","stats":{"checkinsCount":"443","usersCount":"299","tipCount":"21"},"url":"http:\/\/www.antico-london.co.uk","reservations":{"url":"http:\/\/www.toptable.co.uk\/single.aspx?rid=70801&ref=9601"},"menu":{"type":"Menu","label":"Menu","anchor":"View Menu","url":"https:\/\/foursquare.com\/v\/antico\/4e8b62e6d22dbf0a91d0d8d1\/menu","mobileUrl":"https:\/\/foursquare.com\/v\/4e8b62e6d22dbf0a91d0d8d1\/device_menu"},"specials":{"count":"0"},"hereNow":{"count":"0"},"referralId":"v-1392478059"},{"id":"4b57170df964a520012628e3","name":"Wendell's","contact":{"phone":"+447900880542","formattedPhone":"+44 7900 880542"},"location":{"address":"Lafone House","crossStreet":"Weston Street","lat":"51.500129","lng":"-0.084566","distance":"153","postalCode":"SE1 3ER","cc":"GB","city":"London","state":"Greater London","country":"United Kingdom"},"categories":[{"id":"4bf58dd8d48988d1c5941735","name":"Sandwich Place","pluralName":"Sandwich Places","shortName":"Sandwiches","icon":{"prefix":"https:\/\/ss1.4sqi.net\/img\/categories_v2\/food\/sandwiches_","suffix":".png"},"primary":"true"}],"verified":"false","restricted":"true","stats":{"checkinsCount":"323","usersCount":"58","tipCount":"2"},"specials":{"count":"0"},"hereNow":{"count":"0"},"referralId":"v-1392478059"},{"id":"4f4c1b93e4b0657aa3d9c570","name":"Vesta Court","location":{"lat":"51.499315545754094","lng":"-0.08375401720044633","distance":"65","cc":"GB","country":"United Kingdom"},"verified":"false","restricted":"true","stats":{"checkinsCount":"32","usersCount":"12","tipCount":"0"},"specials":{"count":"0"},"hereNow":{"count":"0"},"referralId":"v-1392478059"},{"id":"4b73cfdbf964a520b4bc2de3","name":"Fine Foods","location":{"lat":"51.498549","lng":"-0.083999","distance":"116","cc":"GB","country":"United Kingdom"},"categories":[{"id":"4bf58dd8d48988d146941735","name":"Deli \/ Bodega","pluralName":"Delis \/ Bodegas","shortName":"Deli \/ Bodega","icon":{"prefix":"https:\/\/ss1.4sqi.net\/img\/categories_v2\/food\/deli_","suffix":".png"},"primary":"true"}],"verified":"false","restricted":"true","stats":{"checkinsCount":"220","usersCount":"86","tipCount":"8"},"specials":{"count":"0"},"hereNow":{"count":"0"},"referralId":"v-1392478059"},{"id":"4b977eacf964a520ef0535e3","name":"Al's Cafe","location":{"address":"128 Bermondsey Street","lat":"51.50008749807709","lng":"-0.0819253921508789","distance":"107","postalCode":"SE1 3TX","cc":"GB","city":"London","state":"Greater London","country":"United Kingdom"},"categories":[{"id":"4bf58dd8d48988d16d941735","name":"Caf\u00e9","pluralName":"Caf\u00e9s","shortName":"Caf\u00e9","icon":{"prefix":"https:\/\/ss1.4sqi.net\/img\/categories_v2\/food\/cafe_","suffix":".png"},"primary":"true"}],"verified":"false","restricted":"true","stats":{"checkinsCount":"213","usersCount":"88","tipCount":"10"},"specials":{"count":"0"},"hereNow":{"count":"0"},"referralId":"v-1392478059"},{"id":"4f38e978e4b08533d3bfdb57","name":"Collider","contact":{"twitter":"wearecollider"},"location":{"address":"Unit 17.2 The Leathermarket","crossStreet":"11\/13 Weston Street","lat":"51.500413078644065","lng":"-0.08501353306637975","distance":"197","postalCode":"SE1 3GN","cc":"GB","city":"London","state":"Greater London","country":"United Kingdom"},"categories":[{"id":"4bf58dd8d48988d124941735","name":"Office","pluralName":"Offices","shortName":"Office","icon":{"prefix":"https:\/\/ss1.4sqi.net\/img\/categories_v2\/building\/default_","suffix":".png"},"primary":"true"}],"verified":"false","restricted":"true","stats":{"checkinsCount":"184","usersCount":"10","tipCount":"1"},"url":"http:\/\/www.wearecollider.com","specials":{"count":"0"},"hereNow":{"count":"0"},"referralId":"v-1392478059"},{"id":"5193e420498eb76c959c7637","name":"214 Bermondsey","contact":{"phone":"+442074036875","formattedPhone":"+44 20 7403 6875"},"location":{"address":"214 Bermondsey Street","lat":"51.49795223891526","lng":"-0.08135338654419018","distance":"179","postalCode":"SE1 3TQ","cc":"GB","city":"London","state":"Greater London","country":"United Kingdom"},"categories":[{"id":"4bf58dd8d48988d11e941735","name":"Cocktail Bar","pluralName":"Cocktail Bars","shortName":"Cocktail","icon":{"prefix":"https:\/\/ss1.4sqi.net\/img\/categories_v2\/nightlife\/cocktails_","suffix":".png"},"primary":"true"}],"verified":"false","restricted":"true","stats":{"checkinsCount":"52","usersCount":"39","tipCount":"1"},"specials":{"count":"0"},"hereNow":{"count":"0"},"referralId":"v-1392478059"},{"id":"4adf0ee2f964a520517721e3","name":"EATalia","location":{"address":"94 Bermondsey Street","lat":"51.500849","lng":"-0.081878","distance":"185","postalCode":"SE1 3UB","cc":"GB","city":"London","state":"Greater London","country":"United Kingdom"},"categories":[{"id":"4bf58dd8d48988d1e0931735","name":"Coffee Shop","pluralName":"Coffee Shops","shortName":"Coffee Shop","icon":{"prefix":"https:\/\/ss1.4sqi.net\/img\/categories_v2\/food\/coffeeshop_","suffix":".png"},"primary":"true"}],"verified":"false","restricted":"true","stats":{"checkinsCount":"425","usersCount":"136","tipCount":"11"},"specials":{"count":"0"},"hereNow":{"count":"0"},"referralId":"v-1392478059"},{"id":"4d30a06882fd5481a71fb5a8","name":"Gemini House","location":{"lat":"51.49904","lng":"-0.081639","distance":"85","cc":"GB","country":"United Kingdom"},"categories":[{"id":"4d954b06a243a5684965b473","name":"Residential Building (Apartment \/ Condo)","pluralName":"Residential Buildings (Apartments \/ Condos)","shortName":"Residential","icon":{"prefix":"https:\/\/ss1.4sqi.net\/img\/categories_v2\/building\/apartment_","suffix":".png"},"primary":"true"}],"verified":"false","restricted":"true","stats":{"checkinsCount":"185","usersCount":"4","tipCount":"2"},"specials":{"count":"0"},"hereNow":{"count":"0"},"referralId":"v-1392478059"},{"id":"52d82a86498ebb6fa7af01f7","name":"Future Cities Catapult","location":{"address":"Leathernarket","crossStreet":"20 Weston Street","lat":"51.50023353797297","lng":"-0.08478922576310831","distance":"173","cc":"GB","city":"London","state":"Greater London","country":"United Kingdom"},"categories":[{"id":"4bf58dd8d48988d130941735","name":"Building","pluralName":"Buildings","shortName":"Building","icon":{"prefix":"https:\/\/ss1.4sqi.net\/img\/categories_v2\/building\/default_","suffix":".png"},"primary":"true"}],"verified":"false","restricted":"true","stats":{"checkinsCount":"14","usersCount":"3","tipCount":"0"},"specials":{"count":"0"},"hereNow":{"count":"0"},"referralId":"v-1392478059"},{"id":"4e6e23368877d6d0b11502e2","name":"MEC Digital Acceleration Space","location":{"address":"15 Bell Yard Mews","crossStreet":"Bermondsey St","lat":"51.4990373","lng":"-0.08053435","distance":"159","cc":"GB","city":"Camberwell","state":"Greater London","country":"United Kingdom"},"categories":[{"id":"4bf58dd8d48988d127941735","name":"Conference Room","pluralName":"Conference Rooms","shortName":"Conference room","icon":{"prefix":"https:\/\/ss1.4sqi.net\/img\/categories_v2\/building\/office_conferenceroom_","suffix":".png"},"primary":"true"}],"verified":"false","restricted":"true","stats":{"checkinsCount":"53","usersCount":"23","tipCount":"4"},"specials":{"count":"0"},"hereNow":{"count":"0"},"referralId":"v-1392478059"},{"id":"4e575eb2b993bf36ee001d05","name":"ORM","location":{"lat":"51.49929169999999","lng":"-0.08133316666666666","distance":"101","cc":"GB","city":"Camberwell","state":"Greater London","country":"United Kingdom"},"categories":[{"id":"4bf58dd8d48988d124941735","name":"Office","pluralName":"Offices","shortName":"Office","icon":{"prefix":"https:\/\/ss1.4sqi.net\/img\/categories_v2\/building\/default_","suffix":".png"},"primary":"true"}],"verified":"false","restricted":"true","stats":{"checkinsCount":"125","usersCount":"12","tipCount":"1"},"specials":{"count":"0"},"hereNow":{"count":"0"},"referralId":"v-1392478059"}],"confident":"true"}}