{"meta":{"code":"200"},"response":{"venues":[{"id":"4e05b42eb61c60b04539ac39","name":"Unite Students Accomodation","location":{"lat":"51.524381746600355","lng":"-0.1275047294406907","distance":"23","cc":"GB","country":"United Kingdom"},"categories":[{"id":"4bf58dd8d48988d1ab941735","name":"Student Center","pluralName":"Student Centers","shortName":"Student Center","icon":{"prefix":"https:\/\/ss1.4sqi.net\/img\/categories_v2\/education\/studentcenter_","suffix":".png"},"primary":"true"}],"verified":"false","restricted":"true","stats":{"checkinsCount":"865","usersCount":"117","tipCount":"0"},"specials":{"count":"0"},"hereNow":{"count":"1","groups":[{"type":"others","name":"Other people here","count":"1"}]},"referralId":"v-1392477990"},{"id":"4ac518c5f964a520e8a420e3","name":"Bloomsbury Bowling Lanes","contact":{"phone":"+442071831979","formattedPhone":"+44 20 7183 1979","twitter":"bloomsburylanes"},"location":{"address":"Tavistock Hotel","crossStreet":"Bedword Way","lat":"51.524014853955975","lng":"-0.12842416763305664","distance":"52","postalCode":"WC1H 9EU","cc":"GB","city":"London","state":"Greater London","country":"United Kingdom"},"categories":[{"id":"4bf58dd8d48988d1e4931735","name":"Bowling Alley","pluralName":"Bowling Alleys","shortName":"Bowling Alley","icon":{"prefix":"https:\/\/ss1.4sqi.net\/img\/categories_v2\/arts_entertainment\/bowling_","suffix":".png"},"primary":"true"}],"verified":"false","restricted":"true","stats":{"checkinsCount":"2838","usersCount":"2219","tipCount":"29"},"url":"http:\/\/bloomsburybowling.com","menu":{"type":"Menu","label":"Menu","anchor":"View Menu","url":"https:\/\/foursquare.com\/v\/bloomsbury-bowling-lanes-bloomsbury-london\/4ac518c5f964a520e8a420e3\/menu","mobileUrl":"https:\/\/foursquare.com\/v\/4ac518c5f964a520e8a420e3\/device_menu"},"specials":{"count":"0"},"hereNow":{"count":"0"},"referralId":"v-1392477990"},{"id":"4ac518d1f964a520d0a620e3","name":"Tavistock Square","location":{"address":"Tavistock Sq.","lat":"51.52500613080135","lng":"-0.12906789779663086","distance":"118","postalCode":"WC1H 9BQ","cc":"GB","city":"London","state":"Greater London","country":"United Kingdom"},"categories":[{"id":"4bf58dd8d48988d163941735","name":"Park","pluralName":"Parks","shortName":"Park","icon":{"prefix":"https:\/\/ss1.4sqi.net\/img\/categories_v2\/parks_outdoors\/park_","suffix":".png"},"primary":"true"}],"verified":"false","restricted":"true","stats":{"checkinsCount":"3299","usersCount":"1087","tipCount":"8"},"specials":{"count":"0"},"hereNow":{"count":"0"},"referralId":"v-1392477990"},{"id":"4b4756c6f964a520432f26e3","name":"Royal National Hotel","contact":{"phone":"+442076372488","formattedPhone":"+44 20 7637 2488"},"location":{"address":"38-51 Bedford Way","lat":"51.5234577716927","lng":"-0.12751101135094994","distance":"94","postalCode":"WC1H 0AP","cc":"GB","city":"Camden Town","state":"Greater London","country":"United Kingdom"},"categories":[{"id":"4bf58dd8d48988d1fa931735","name":"Hotel","pluralName":"Hotels","shortName":"Hotel","icon":{"prefix":"https:\/\/ss1.4sqi.net\/img\/categories_v2\/travel\/hotel_","suffix":".png"},"primary":"true"}],"verified":"true","restricted":"true","stats":{"checkinsCount":"4281","usersCount":"2112","tipCount":"63"},"url":"http:\/\/www.imperialhotels.co.uk","specials":{"count":"0"},"hereNow":{"count":"0"},"referralId":"v-1392477990"},{"id":"4ac518b5f964a520baa020e3","name":"Tavistock Hotel","contact":{"phone":"+442076368383","formattedPhone":"+44 20 7636 8383"},"location":{"address":"Tavistock Sq","lat":"51.52437536039713","lng":"-0.1284169162161957","distance":"43","postalCode":"WC1H 9EU","cc":"GB","city":"London","state":"Greater London","country":"United Kingdom"},"categories":[{"id":"4bf58dd8d48988d1fa931735","name":"Hotel","pluralName":"Hotels","shortName":"Hotel","icon":{"prefix":"https:\/\/ss1.4sqi.net\/img\/categories_v2\/travel\/hotel_","suffix":".png"},"primary":"true"}],"verified":"false","restricted":"true","stats":{"checkinsCount":"1150","usersCount":"400","tipCount":"11"},"url":"http:\/\/www.imperialhotels.co.uk\/tavistock","specials":{"count":"0"},"hereNow":{"count":"0"},"referralId":"v-1392477990"},{"id":"4b4f1953f964a52046fa26e3","name":"Bannatyne's Health Club","contact":{"phone":"+442072916500","formattedPhone":"+44 20 7291 6500"},"location":{"address":"32 Woburn Place","lat":"51.524463939813174","lng":"-0.12757300872237426","distance":"25","postalCode":"WC1H 0JR","cc":"GB","city":"London","state":"Greater London","country":"United Kingdom"},"categories":[{"id":"4bf58dd8d48988d175941735","name":"Gym \/ Fitness Center","pluralName":"Gyms or Fitness Centers","shortName":"Gym \/ Fitness","icon":{"prefix":"https:\/\/ss1.4sqi.net\/img\/categories_v2\/building\/gym_","suffix":".png"},"primary":"true"}],"verified":"false","restricted":"true","stats":{"checkinsCount":"741","usersCount":"75","tipCount":"2"},"specials":{"count":"0"},"hereNow":{"count":"0"},"referralId":"v-1392477990"},{"id":"4b0b40d1f964a5207c2f23e3","name":"Starbucks","contact":{"twitter":"starbucksuk"},"location":{"address":"Lynton House, Tavistock Square","crossStreet":"Tavistock Sq.","lat":"51.5250595323084","lng":"-0.12846708297729492","distance":"97","postalCode":"WC1H 9LT","cc":"GB","city":"London","state":"Greater London","country":"United Kingdom"},"categories":[{"id":"4bf58dd8d48988d1e0931735","name":"Coffee Shop","pluralName":"Coffee Shops","shortName":"Coffee Shop","icon":{"prefix":"https:\/\/ss1.4sqi.net\/img\/categories_v2\/food\/coffeeshop_","suffix":".png"},"primary":"true"}],"verified":"true","restricted":"true","stats":{"checkinsCount":"2588","usersCount":"1039","tipCount":"8"},"url":"http:\/\/starbucks.co.uk","specials":{"count":"0"},"hereNow":{"count":"0"},"storeId":"12968","referralId":"v-1392477990"},{"id":"4cb74b8b3ac937041e98da0a","name":"Jacques Wine Bar","location":{"address":"tavistock square","lat":"51.5245593","lng":"-0.128343","distance":"48","cc":"GB","city":"London","state":"Greater London","country":"United Kingdom"},"categories":[{"id":"4bf58dd8d48988d155941735","name":"Gastropub","pluralName":"Gastropubs","shortName":"Gastropub","icon":{"prefix":"https:\/\/ss1.4sqi.net\/img\/categories_v2\/food\/gastropub_","suffix":".png"},"primary":"true"}],"verified":"false","restricted":"true","stats":{"checkinsCount":"136","usersCount":"46","tipCount":"0"},"specials":{"count":"0"},"hereNow":{"count":"0"},"referralId":"v-1392477990"},{"id":"4caedb9feb65b1f722f95ecd","name":"Bedford Way - UCL","location":{"address":"26 Bedford Way","crossStreet":"Tavistock Square","lat":"51.52407252686325","lng":"-0.12877216808835354","distance":"71","cc":"GB","city":"London","state":"Greater London","country":"United Kingdom"},"categories":[{"id":"4bf58dd8d48988d1ae941735","name":"University","pluralName":"Universities","shortName":"University","icon":{"prefix":"https:\/\/ss1.4sqi.net\/img\/categories_v2\/education\/default_","suffix":".png"},"primary":"true"}],"verified":"false","restricted":"true","stats":{"checkinsCount":"577","usersCount":"181","tipCount":"2"},"specials":{"count":"0"},"hereNow":{"count":"0"},"referralId":"v-1392477990"},{"id":"4be52e802457a5933539ab15","name":"Cafe Toscana","location":{"lat":"51.524438","lng":"-0.127507","distance":"26","cc":"GB","country":"United Kingdom"},"categories":[{"id":"4bf58dd8d48988d16d941735","name":"Caf\u00e9","pluralName":"Caf\u00e9s","shortName":"Caf\u00e9","icon":{"prefix":"https:\/\/ss1.4sqi.net\/img\/categories_v2\/food\/cafe_","suffix":".png"},"primary":"true"}],"verified":"false","restricted":"true","stats":{"checkinsCount":"113","usersCount":"84","tipCount":"4"},"specials":{"count":"0"},"hereNow":{"count":"0"},"referralId":"v-1392477990"},{"id":"4af1de34f964a520f1e321e3","name":"Connaught Hall","contact":{"phone":"+442077568200","formattedPhone":"+44 20 7756 8200","twitter":"connaughthall"},"location":{"address":"36-45 Tavistock Square","lat":"51.524323687128714","lng":"-0.1292151100965202","distance":"97","postalCode":"WC1H 9EX","cc":"GB","city":"London","state":"Greater London","country":"United Kingdom"},"categories":[{"id":"4bf58dd8d48988d1a3941735","name":"College Residence Hall","pluralName":"College Residence Halls","shortName":"Residence Hall","icon":{"prefix":"https:\/\/ss1.4sqi.net\/img\/categories_v2\/education\/residencehall_","suffix":".png"},"primary":"true"}],"verified":"false","restricted":"true","stats":{"checkinsCount":"461","usersCount":"63","tipCount":"4"},"specials":{"count":"0"},"hereNow":{"count":"0"},"referralId":"v-1392477990"},{"id":"4d4d8006819554812477d893","name":"Portland Food & Wine","location":{"address":"34-42 Woburn Pl","crossStreet":"at Tavistock Sq","lat":"51.52429469982673","lng":"-0.12731599801368934","distance":"33","cc":"GB","city":"Camden","state":"Greater London","country":"United Kingdom"},"categories":[{"id":"4bf58dd8d48988d1f9941735","name":"Food & Drink Shop","pluralName":"Food & Drink Shops","shortName":"Food & Drink","icon":{"prefix":"https:\/\/ss1.4sqi.net\/img\/categories_v2\/shops\/foodanddrink_","suffix":".png"},"primary":"true"}],"verified":"false","restricted":"true","stats":{"checkinsCount":"172","usersCount":"85","tipCount":"1"},"specials":{"count":"0"},"hereNow":{"count":"0"},"referralId":"v-1392477990"},{"id":"4ada5bc6f964a520cd2121e3","name":"Friend at Hand","contact":{"phone":"+442078375524","formattedPhone":"+44 20 7837 5524","twitter":"taylorwalkerpub"},"location":{"address":"4 Herbrand Street","crossStreet":"Bloomsbury","lat":"51.52449881336096","lng":"-0.12617111206054688","distance":"115","postalCode":"WC1N 1HX","cc":"GB","city":"London","state":"Greater London","country":"United Kingdom"},"categories":[{"id":"4bf58dd8d48988d11b941735","name":"Pub","pluralName":"Pubs","shortName":"Pub","icon":{"prefix":"https:\/\/ss1.4sqi.net\/img\/categories_v2\/nightlife\/pub_","suffix":".png"},"primary":"true"}],"verified":"false","restricted":"true","stats":{"checkinsCount":"818","usersCount":"456","tipCount":"9"},"specials":{"count":"0"},"hereNow":{"count":"0"},"referralId":"v-1392477990"},{"id":"4dc00bb54df0f8fd6b9374da","name":"Age UK","location":{"address":"1-12 Tavistock Square","lat":"51.52487430874837","lng":"-0.12787910060392196","distance":"65","postalCode":"WC1H 9NB","cc":"GB","city":"Camden Town","state":"Greater London","country":"United Kingdom"},"categories":[{"id":"4bf58dd8d48988d124941735","name":"Office","pluralName":"Offices","shortName":"Office","icon":{"prefix":"https:\/\/ss1.4sqi.net\/img\/categories_v2\/building\/default_","suffix":".png"},"primary":"true"}],"verified":"false","restricted":"true","stats":{"checkinsCount":"398","usersCount":"60","tipCount":"1"},"specials":{"count":"0"},"hereNow":{"count":"0"},"referralId":"v-1392477990"},{"id":"4cb2f97a75ebb60cb56cd8ad","name":"Woburn House","location":{"address":"Tavistock Square","lat":"51.524776919000985","lng":"-0.127493896756906","distance":"58","postalCode":"WC1H 9","cc":"GB","city":"Camden Town","state":"Greater London","country":"United Kingdom"},"categories":[{"id":"4bf58dd8d48988d171941735","name":"Event Space","pluralName":"Event Spaces","shortName":"Event Space","icon":{"prefix":"https:\/\/ss1.4sqi.net\/img\/categories_v2\/building\/eventspace_","suffix":".png"},"primary":"true"}],"verified":"false","restricted":"true","stats":{"checkinsCount":"183","usersCount":"55","tipCount":"0"},"specials":{"count":"0"},"hereNow":{"count":"0"},"referralId":"v-1392477990"},{"id":"51cd6b47498efc53112a765e","name":"Treat and Revive Spa","location":{"lat":"51.52454103650829","lng":"-0.1275044714272839","distance":"34","cc":"GB","country":"United Kingdom"},"categories":[{"id":"4bf58dd8d48988d1ed941735","name":"Spa","pluralName":"Spas","shortName":"Spa","icon":{"prefix":"https:\/\/ss1.4sqi.net\/img\/categories_v2\/shops\/spa_","suffix":".png"},"primary":"true"}],"verified":"false","restricted":"true","stats":{"checkinsCount":"4","usersCount":"4","tipCount":"0"},"specials":{"count":"0"},"hereNow":{"count":"0"},"referralId":"v-1392477990"},{"id":"4be13ffed816c9288d91efd9","name":"Statue of Gandhi","location":{"address":"Tavistock Sq","lat":"51.52507288267535","lng":"-0.12902498245239258","distance":"121","cc":"GB","city":"Bloomsbury","country":"United Kingdom"},"categories":[{"id":"4bf58dd8d48988d12d941735","name":"Monument \/ Landmark","pluralName":"Monuments \/ Landmarks","shortName":"Landmark","icon":{"prefix":"https:\/\/ss1.4sqi.net\/img\/categories_v2\/building\/government_monument_","suffix":".png"},"primary":"true"}],"verified":"false","restricted":"true","stats":{"checkinsCount":"345","usersCount":"137","tipCount":"1"},"specials":{"count":"0"},"hereNow":{"count":"0"},"referralId":"v-1392477990"},{"id":"4cc7e859be874688692681af","name":"Mary Ward House","location":{"address":"5-7 Tavistock place","lat":"51.52509599855594","lng":"-0.12735775731076615","distance":"94","postalCode":"Wc1h 9sn","cc":"GB","city":"London","state":"Greater London","country":"United Kingdom"},"categories":[{"id":"4bf58dd8d48988d1ff931735","name":"Convention Center","pluralName":"Convention Centers","shortName":"Convention Center","icon":{"prefix":"https:\/\/ss1.4sqi.net\/img\/categories_v2\/building\/conventioncenter_","suffix":".png"},"primary":"true"}],"verified":"false","restricted":"true","stats":{"checkinsCount":"216","usersCount":"135","tipCount":"0"},"specials":{"count":"0"},"hereNow":{"count":"0"},"referralId":"v-1392477990"},{"id":"4c2b010c8ef52d7f0bb730ba","name":"SmartFocus Ltd","contact":{"twitter":"emailvisionuk"},"location":{"address":"Lynton House, 7-12 Tavistock Square","lat":"51.52543800970076","lng":"-0.12823234081564952","distance":"131","postalCode":"WC1H 9LT","cc":"GB","city":"London","state":"Greater London","country":"United Kingdom"},"categories":[{"id":"4bf58dd8d48988d124941735","name":"Office","pluralName":"Offices","shortName":"Office","icon":{"prefix":"https:\/\/ss1.4sqi.net\/img\/categories_v2\/building\/default_","suffix":".png"},"primary":"true"}],"verified":"false","restricted":"true","stats":{"checkinsCount":"594","usersCount":"45","tipCount":"0"},"specials":{"count":"0"},"hereNow":{"count":"0"},"referralId":"v-1392477990"},{"id":"4e4384421495455b10c2320f","name":"Lynton House","location":{"address":"7-12 Tavistock Square","lat":"51.52542878250712","lng":"-0.1280644653385268","distance":"128","cc":"GB","city":"Camden Town","state":"Greater London","country":"United Kingdom"},"categories":[{"id":"4bf58dd8d48988d124941735","name":"Office","pluralName":"Offices","shortName":"Office","icon":{"prefix":"https:\/\/ss1.4sqi.net\/img\/categories_v2\/building\/default_","suffix":".png"},"primary":"true"}],"verified":"false","restricted":"true","stats":{"checkinsCount":"397","usersCount":"31","tipCount":"1"},"specials":{"count":"0"},"hereNow":{"count":"0"},"referralId":"v-1392477990"},{"id":"527c0f7811d2fb408904c714","name":"Londres - Inglaterra","location":{"lat":"51.523883904193156","lng":"-0.12747070633521765","distance":"50","cc":"GB","country":"United Kingdom"},"categories":[{"id":"4bf58dd8d48988d1f1931735","name":"General Entertainment","pluralName":"General Entertainment","shortName":"Entertainment","icon":{"prefix":"https:\/\/ss1.4sqi.net\/img\/categories_v2\/arts_entertainment\/default_","suffix":".png"},"primary":"true"}],"verified":"false","restricted":"true","stats":{"checkinsCount":"12","usersCount":"11","tipCount":"1"},"specials":{"count":"0"},"hereNow":{"count":"0"},"referralId":"v-1392477990"},{"id":"4d3eb618d2c8f04de6297572","name":"SmartFocus","location":{"address":"7-12 Tavistock Square","lat":"51.525403018586225","lng":"-0.1279741954159331","distance":"124","postalCode":"WC1H 9LT","cc":"GB","city":"Camden Town","state":"Greater London","country":"United Kingdom"},"categories":[{"id":"4bf58dd8d48988d124941735","name":"Office","pluralName":"Offices","shortName":"Office","icon":{"prefix":"https:\/\/ss1.4sqi.net\/img\/categories_v2\/building\/default_","suffix":".png"},"primary":"true"}],"verified":"false","restricted":"true","stats":{"checkinsCount":"292","usersCount":"21","tipCount":"1"},"specials":{"count":"0"},"hereNow":{"count":"0"},"referralId":"v-1392477990"},{"id":"4cb4acfeaef16dcb55cbd054","name":"Blooms Pizza Cafe","contact":{"phone":"+442078373655","formattedPhone":"+44 20 7837 3655"},"location":{"address":"31-51 Bedford Way","lat":"51.52347028255463","lng":"-0.127668","distance":"91","postalCode":"WC1H 0JX","cc":"GB","city":"London","state":"Greater London","country":"United Kingdom"},"categories":[{"id":"4bf58dd8d48988d1ca941735","name":"Pizza Place","pluralName":"Pizza Places","shortName":"Pizza","icon":{"prefix":"https:\/\/ss1.4sqi.net\/img\/categories_v2\/food\/pizza_","suffix":".png"},"primary":"true"}],"verified":"false","restricted":"true","stats":{"checkinsCount":"283","usersCount":"224","tipCount":"5"},"specials":{"count":"0"},"hereNow":{"count":"0"},"referralId":"v-1392477990"},{"id":"4ac5e025f964a52085b220e3","name":"Poppadom Express","contact":{"phone":"+442076923602","formattedPhone":"+44 20 7692 3602"},"location":{"address":"40-42 Woburn Pl","lat":"51.52379116335423","lng":"-0.12735412589312858","distance":"63","postalCode":"WC1H 0","cc":"GB","city":"Camden Town","state":"Greater London","country":"United Kingdom"},"categories":[{"id":"4bf58dd8d48988d10f941735","name":"Indian Restaurant","pluralName":"Indian Restaurants","shortName":"Indian","icon":{"prefix":"https:\/\/ss1.4sqi.net\/img\/categories_v2\/food\/indian_","suffix":".png"},"primary":"true"}],"verified":"false","restricted":"true","stats":{"checkinsCount":"160","usersCount":"77","tipCount":"3"},"specials":{"count":"0"},"hereNow":{"count":"0"},"referralId":"v-1392477990"},{"id":"4bee97b7d1b7d13ab216cdec","name":"Yialousa Greek Taverna","location":{"address":"18 Woburn Place","lat":"51.523832","lng":"-0.12733","distance":"60","postalCode":"WC1H 0LN\u200e","cc":"GB","city":"London","state":"Greater London","country":"United Kingdom"},"categories":[{"id":"4bf58dd8d48988d10e941735","name":"Greek Restaurant","pluralName":"Greek Restaurants","shortName":"Greek","icon":{"prefix":"https:\/\/ss1.4sqi.net\/img\/categories_v2\/food\/greek_","suffix":".png"},"primary":"true"}],"verified":"false","restricted":"true","stats":{"checkinsCount":"101","usersCount":"86","tipCount":"3"},"specials":{"count":"0"},"hereNow":{"count":"0"},"referralId":"v-1392477990"},{"id":"4f72edbe0039782e9c049cbc","name":"Back in Action UK","contact":{"phone":"+442074805976","formattedPhone":"+44 20 7480 5976","twitter":"backinactionuk"},"location":{"address":"Bannatynes Health Club","crossStreet":"32 Woburn Place","lat":"51.52437865840246","lng":"-0.12778043746948242","distance":"10","postalCode":"WC1H 0JR","cc":"GB","city":"London","state":"Greater London","country":"United Kingdom"},"categories":[{"id":"4bf58dd8d48988d175941735","name":"Gym \/ Fitness Center","pluralName":"Gyms or Fitness Centers","shortName":"Gym \/ Fitness","icon":{"prefix":"https:\/\/ss1.4sqi.net\/img\/categories_v2\/building\/gym_","suffix":".png"},"primary":"true"}],"verified":"false","restricted":"true","stats":{"checkinsCount":"0","usersCount":"0","tipCount":"0"},"specials":{"count":"0"},"hereNow":{"count":"0"},"referralId":"v-1392477990"},{"id":"4dd0e2d6cc3f310d37f2d116","name":"Salsa on Sundays (SOS)","contact":{"phone":"+447786330338","formattedPhone":"+44 7786 330338"},"location":{"address":"Woburn place","crossStreet":"Coram street","lat":"51.52349372135001","lng":"-0.12727103219925717","distance":"95","postalCode":"Wc1h 0dg","cc":"GB","city":"London","state":"Greater London","country":"United Kingdom"},"categories":[{"id":"4bf58dd8d48988d11f941735","name":"Nightclub","pluralName":"Nightclubs","shortName":"Nightclub","icon":{"prefix":"https:\/\/ss1.4sqi.net\/img\/categories_v2\/nightlife\/nightclub_","suffix":".png"},"primary":"true"}],"verified":"true","restricted":"true","stats":{"checkinsCount":"68","usersCount":"34","tipCount":"2"},"specials":{"count":"0"},"hereNow":{"count":"0"},"venuePage":{"id":"43622674"},"referralId":"v-1392477990"},{"id":"4c0e2fdf7189c9289504d8b6","name":"Moro","location":{"lat":"51.523493715123585","lng":"-0.12749968660729064","distance":"90","cc":"GB","country":"United Kingdom"},"verified":"false","restricted":"true","stats":{"checkinsCount":"5","usersCount":"4","tipCount":"0"},"specials":{"count":"0"},"hereNow":{"count":"0"},"referralId":"v-1392477990"},{"id":"4fc0ad59e4b05b8502cfabed","name":"Vitun Laatta Chamber","location":{"lat":"51.524281","lng":"-0.127519","distance":"19","cc":"GB","country":"United Kingdom"},"categories":[{"id":"4bf58dd8d48988d1d6941735","name":"Strip Club","pluralName":"Strip Clubs","shortName":"Strip Club","icon":{"prefix":"https:\/\/ss1.4sqi.net\/img\/categories_v2\/nightlife\/stripclub_","suffix":".png"},"primary":"true"}],"verified":"false","restricted":"true","stats":{"checkinsCount":"1","usersCount":"1","tipCount":"1"},"specials":{"count":"0"},"hereNow":{"count":"0"},"referralId":"v-1392477990"},{"id":"525e548d11d2b0299e7b0f00","name":"XLNT Caf\u00e9","location":{"lat":"51.52392","lng":"-0.128721","distance":"75","cc":"GB","country":"United Kingdom"},"categories":[{"id":"4bf58dd8d48988d1c5941735","name":"Sandwich Place","pluralName":"Sandwich Places","shortName":"Sandwiches","icon":{"prefix":"https:\/\/ss1.4sqi.net\/img\/categories_v2\/food\/sandwiches_","suffix":".png"},"primary":"true"}],"verified":"false","restricted":"true","stats":{"checkinsCount":"5","usersCount":"1","tipCount":"0"},"specials":{"count":"0"},"hereNow":{"count":"0"},"referralId":"v-1392477990"}],"confident":"true"}}