{"meta":{"code":"200"},"response":{"venues":[{"id":"4ac518eef964a52023ad20e3","name":"Church Street Market","contact":{"phone":"+442076416633","formattedPhone":"+44 20 7641 6633"},"location":{"address":"Church St.","lat":"51.522945739143665","lng":"-0.17123415505347173","distance":"184","postalCode":"NW8 8EG","cc":"GB","city":"London","state":"Greater London","country":"United Kingdom"},"categories":[{"id":"4bf58dd8d48988d1ff941735","name":"Miscellaneous Shop","pluralName":"Miscellaneous Shops","shortName":"Shop","icon":{"prefix":"https:\/\/ss1.4sqi.net\/img\/categories_v2\/shops\/default_","suffix":".png"},"primary":"true"}],"verified":"false","restricted":"true","stats":{"checkinsCount":"1047","usersCount":"233","tipCount":"4"},"specials":{"count":"0"},"hereNow":{"count":"0"},"referralId":"v-1392477985"},{"id":"4cd55de676ab721e5f876c6a","name":"Dar Marrakesh","location":{"address":"Edgeware Rd","lat":"51.522683104628875","lng":"-0.17363548278808594","distance":"187","cc":"GB","city":"Paddington","state":"Greater London","country":"United Kingdom"},"categories":[{"id":"4bf58dd8d48988d1c3941735","name":"Moroccan Restaurant","pluralName":"Moroccan Restaurants","shortName":"Moroccan","icon":{"prefix":"https:\/\/ss1.4sqi.net\/img\/categories_v2\/food\/moroccan_","suffix":".png"},"primary":"true"}],"verified":"false","restricted":"true","stats":{"checkinsCount":"393","usersCount":"279","tipCount":"11"},"menu":{"type":"Menu","label":"Menu","anchor":"View Menu","url":"https:\/\/foursquare.com\/v\/dar-marrakesh-paddington-greater-london\/4cd55de676ab721e5f876c6a\/menu","mobileUrl":"https:\/\/foursquare.com\/v\/4cd55de676ab721e5f876c6a\/device_menu"},"specials":{"count":"0"},"hereNow":{"count":"0"},"referralId":"v-1392477985"},{"id":"52aa14d811d2e88a3df29023","name":"Tic&Tac's","location":{"lat":"51.52334667456216","lng":"-0.17420133882033115","distance":"142","cc":"GB","country":"United Kingdom"},"categories":[{"id":"4d954b06a243a5684965b473","name":"Residential Building (Apartment \/ Condo)","pluralName":"Residential Buildings (Apartments \/ Condos)","shortName":"Residential","icon":{"prefix":"https:\/\/ss1.4sqi.net\/img\/categories_v2\/building\/apartment_","suffix":".png"},"primary":"true"}],"verified":"false","restricted":"true","stats":{"checkinsCount":"28","usersCount":"5","tipCount":"0"},"specials":{"count":"0"},"hereNow":{"count":"0"},"referralId":"v-1392477985"},{"id":"4d9a7ee1b4fa370493a0870d","name":"Eastlake House","location":{"lat":"51.524171","lng":"-0.172746","distance":"13","cc":"GB","city":"Paddington","state":"Greater London","country":"United Kingdom"},"categories":[{"id":"4d954b06a243a5684965b473","name":"Residential Building (Apartment \/ Condo)","pluralName":"Residential Buildings (Apartments \/ Condos)","shortName":"Residential","icon":{"prefix":"https:\/\/ss1.4sqi.net\/img\/categories_v2\/building\/apartment_","suffix":".png"},"primary":"true"}],"verified":"false","restricted":"true","stats":{"checkinsCount":"58","usersCount":"6","tipCount":"0"},"specials":{"count":"0"},"hereNow":{"count":"0"},"referralId":"v-1392477985"},{"id":"4e22d818a80968cf3e4dd2ac","name":"Azmar","location":{"address":"442 Edgware Road","lat":"51.523141286377225","lng":"-0.174280812721163","distance":"163","postalCode":"W21EG","cc":"GB","city":"London","state":"Greater London","country":"United Kingdom"},"categories":[{"id":"4bf58dd8d48988d10b941735","name":"Falafel Restaurant","pluralName":"Falafel Restaurants","shortName":"Falafel","icon":{"prefix":"https:\/\/ss1.4sqi.net\/img\/categories_v2\/food\/falafel_","suffix":".png"},"primary":"true"}],"verified":"false","restricted":"true","stats":{"checkinsCount":"65","usersCount":"42","tipCount":"3"},"specials":{"count":"0"},"hereNow":{"count":"0"},"referralId":"v-1392477985"},{"id":"528639ad498e5dfd7fd6859e","name":"iPhone","location":{"lat":"51.524135","lng":"-0.172761","distance":"17","cc":"GB","country":"United Kingdom"},"verified":"false","restricted":"true","stats":{"checkinsCount":"0","usersCount":"0","tipCount":"0"},"specials":{"count":"0"},"hereNow":{"count":"0"},"referralId":"v-1392477985"},{"id":"4da31ef70f578cfae68cb118","name":"Comfort Inn Edgware Road London","contact":{"phone":"+442077243569","formattedPhone":"+44 20 7724 3569","twitter":"cinn_suiteskc"},"location":{"address":"450 Edgware Rd.","lat":"51.523228","lng":"-0.174497","distance":"166","postalCode":"W2 1EG","cc":"GB","city":"London","state":"Greater London","country":"United Kingdom"},"categories":[{"id":"4bf58dd8d48988d1f8931735","name":"Bed & Breakfast","pluralName":"Bed & Breakfasts","shortName":"B & B","icon":{"prefix":"https:\/\/ss1.4sqi.net\/img\/categories_v2\/travel\/bedandbreakfast_","suffix":".png"},"primary":"true"}],"verified":"true","restricted":"true","stats":{"checkinsCount":"155","usersCount":"74","tipCount":"12"},"url":"http:\/\/www.comfortinnedgwareroad.co.uk","specials":{"count":"0"},"hereNow":{"count":"0"},"storeId":"","referralId":"v-1392477985"},{"id":"4d31ed9beefa8cfa1deb30b3","name":"The Showroom","location":{"address":"63 Penfold Street","lat":"51.52326725038612","lng":"-0.17271777075204134","distance":"113","postalCode":"NW8","cc":"GB","city":"London","state":"Greater London","country":"United Kingdom"},"categories":[{"id":"4bf58dd8d48988d1e2931735","name":"Art Gallery","pluralName":"Art Galleries","shortName":"Art Gallery","icon":{"prefix":"https:\/\/ss1.4sqi.net\/img\/categories_v2\/arts_entertainment\/artgallery_","suffix":".png"},"primary":"true"}],"verified":"false","restricted":"true","stats":{"checkinsCount":"39","usersCount":"28","tipCount":"1"},"specials":{"count":"0"},"hereNow":{"count":"0"},"referralId":"v-1392477985"},{"id":"4e065e19ae60a90eabc29a07","name":"Arbil Restaurant","location":{"lat":"51.522695280935686","lng":"-0.17359420949071244","distance":"185","cc":"GB","city":"Paddington","state":"Greater London","country":"United Kingdom"},"categories":[{"id":"4d4b7105d754a06374d81259","name":"Food","pluralName":"Food","shortName":"Food","icon":{"prefix":"https:\/\/ss1.4sqi.net\/img\/categories_v2\/food\/default_","suffix":".png"},"primary":"true"}],"verified":"false","restricted":"true","stats":{"checkinsCount":"55","usersCount":"51","tipCount":"3"},"specials":{"count":"0"},"hereNow":{"count":"0"},"referralId":"v-1392477985"},{"id":"4aeca578f964a520d8c921e3","name":"Mandalay","contact":{"phone":"+442072583696","formattedPhone":"+44 20 7258 3696"},"location":{"address":"444 Edgware Rd.","lat":"51.52304","lng":"-0.17456013333333334","distance":"184","postalCode":"W2 1EG","cc":"GB","city":"London","state":"Greater London","country":"United Kingdom"},"categories":[{"id":"4bf58dd8d48988d142941735","name":"Asian Restaurant","pluralName":"Asian Restaurants","shortName":"Asian","icon":{"prefix":"https:\/\/ss1.4sqi.net\/img\/categories_v2\/food\/asian_","suffix":".png"},"primary":"true"}],"verified":"false","restricted":"true","stats":{"checkinsCount":"184","usersCount":"134","tipCount":"13"},"menu":{"type":"Menu","label":"Menu","anchor":"View Menu","url":"https:\/\/foursquare.com\/v\/mandalay-london\/4aeca578f964a520d8c921e3\/menu","mobileUrl":"https:\/\/foursquare.com\/v\/4aeca578f964a520d8c921e3\/device_menu"},"specials":{"count":"0"},"hereNow":{"count":"0"},"referralId":"v-1392477985"},{"id":"4cc1f5f438aaa09360320362","name":"Diyarbakir Kebab","location":{"address":"Frampton street","crossStreet":"Edgware road","lat":"51.52283330743345","lng":"-0.1736054216728356","distance":"171","postalCode":"Nw8","cc":"GB","city":"Paddington","state":"Greater London","country":"United Kingdom"},"categories":[{"id":"4bf58dd8d48988d16e941735","name":"Fast Food Restaurant","pluralName":"Fast Food Restaurants","shortName":"Fast Food","icon":{"prefix":"https:\/\/ss1.4sqi.net\/img\/categories_v2\/food\/fastfood_","suffix":".png"},"primary":"true"}],"verified":"false","restricted":"true","stats":{"checkinsCount":"24","usersCount":"14","tipCount":"0"},"specials":{"count":"0"},"hereNow":{"count":"0"},"referralId":"v-1392477985"},{"id":"512c7b73e4b051b7dc7b7a8a","name":"Westminister Adult Education","location":{"address":"12","crossStreet":"Rossmore Road","lat":"51.52639879971908","lng":"-0.17214681101644264","distance":"239","cc":"GB","city":"London","state":"Greater London","country":"United Kingdom"},"categories":[{"id":"4bf58dd8d48988d1a0941735","name":"College Classroom","pluralName":"College Classrooms","shortName":"Classroom","icon":{"prefix":"https:\/\/ss1.4sqi.net\/img\/categories_v2\/education\/classroom_","suffix":".png"},"primary":"true"}],"verified":"false","restricted":"true","stats":{"checkinsCount":"20","usersCount":"11","tipCount":"0"},"specials":{"count":"0"},"hereNow":{"count":"0"},"referralId":"v-1392477985"},{"id":"4c0790398a81c9b6d95a2790","name":"Peter's Barber Shop","location":{"address":"Edgeware Rd.","lat":"51.523386","lng":"-0.175196","distance":"193","cc":"GB","city":"London","state":"Greater London","country":"United Kingdom"},"categories":[{"id":"4bf58dd8d48988d130941735","name":"Building","pluralName":"Buildings","shortName":"Building","icon":{"prefix":"https:\/\/ss1.4sqi.net\/img\/categories_v2\/building\/default_","suffix":".png"},"primary":"true"}],"verified":"false","restricted":"true","stats":{"checkinsCount":"71","usersCount":"14","tipCount":"2"},"specials":{"count":"0"},"hereNow":{"count":"0"},"referralId":"v-1392477985"},{"id":"4c7a461d4dc1ef3b55c2329e","name":"Dunya","location":{"address":"436 Edgware Road","lat":"51.524249","lng":"-0.173454","distance":"45","cc":"GB","city":"London","country":"United Kingdom"},"verified":"false","restricted":"true","stats":{"checkinsCount":"2","usersCount":"2","tipCount":"0"},"specials":{"count":"0"},"hereNow":{"count":"0"},"referralId":"v-1392477985"},{"id":"4d3eba9e719460fcbfcd7320","name":"Circle Sports","contact":{"phone":"+442077248088","formattedPhone":"+44 20 7724 8088","twitter":"circlesportsuk"},"location":{"address":"99 church street","lat":"51.522287464588175","lng":"-0.17144727959840522","distance":"241","postalCode":"NW8 8EY","cc":"GB","city":"London","state":"Greater London","country":"United Kingdom"},"categories":[{"id":"4bf58dd8d48988d1f2941735","name":"Sporting Goods Shop","pluralName":"Sporting Goods Shops","shortName":"Sporting Goods","icon":{"prefix":"https:\/\/ss1.4sqi.net\/img\/categories_v2\/shops\/sports_outdoors_","suffix":".png"},"primary":"true"}],"verified":"false","restricted":"true","stats":{"checkinsCount":"85","usersCount":"9","tipCount":"2"},"specials":{"count":"0"},"hereNow":{"count":"0"},"referralId":"v-1392477985"},{"id":"4e5d235018389da163f04b86","name":"Edgware Road Bus Stop","location":{"lat":"51.52227025202776","lng":"-0.17332707310061285","distance":"227","cc":"GB","city":"London","state":"Greater London","country":"United Kingdom"},"categories":[{"id":"4bf58dd8d48988d1fe931735","name":"Bus Station","pluralName":"Bus Stations","shortName":"Bus Station","icon":{"prefix":"https:\/\/ss1.4sqi.net\/img\/categories_v2\/travel\/busstation_","suffix":".png"},"primary":"true"}],"verified":"false","restricted":"true","stats":{"checkinsCount":"211","usersCount":"100","tipCount":"0"},"specials":{"count":"0"},"hereNow":{"count":"0"},"referralId":"v-1392477985"},{"id":"4c34d918ed37a5933d986f03","name":"Tesco Metro","contact":{"phone":"+448456779534","formattedPhone":"+44 845 677 9534","twitter":"uktescooffers"},"location":{"address":"94 Church Street","lat":"51.522369353504715","lng":"-0.17223000526428223","distance":"217","postalCode":"NW8 8EX","cc":"GB","city":"London","state":"Greater London","country":"United Kingdom"},"categories":[{"id":"4bf58dd8d48988d118951735","name":"Grocery Store","pluralName":"Grocery Stores","shortName":"Grocery Store","icon":{"prefix":"https:\/\/ss1.4sqi.net\/img\/categories_v2\/shops\/food_grocery_","suffix":".png"},"primary":"true"}],"verified":"true","restricted":"true","stats":{"checkinsCount":"282","usersCount":"106","tipCount":"3"},"url":"http:\/\/www.tesco.com","specials":{"count":"0"},"hereNow":{"count":"0"},"storeId":"3012","referralId":"v-1392477985"},{"id":"51c5a0cf498ec423dc1afe8f","name":"Al Arez Express II","location":{"address":"367-369 Edgware Road","lat":"51.5226539556088","lng":"-0.17389057694526797","distance":"196","cc":"GB","country":"United Kingdom"},"categories":[{"id":"4bf58dd8d48988d10b941735","name":"Falafel Restaurant","pluralName":"Falafel Restaurants","shortName":"Falafel","icon":{"prefix":"https:\/\/ss1.4sqi.net\/img\/categories_v2\/food\/falafel_","suffix":".png"},"primary":"true"}],"verified":"false","restricted":"true","stats":{"checkinsCount":"25","usersCount":"13","tipCount":"1"},"specials":{"count":"0"},"hereNow":{"count":"0"},"referralId":"v-1392477985"},{"id":"4e61e50eb3ad629a3a61ba3c","name":"Church Street Library","contact":{"phone":"+442076411300","formattedPhone":"+44 20 7641 1300","twitter":"wcclibraries"},"location":{"address":"67 Church St.","lat":"51.52312368766476","lng":"-0.17078161239624023","distance":"190","postalCode":"NW8 8EU","cc":"GB","city":"Marylebone","state":"Greater London","country":"United Kingdom"},"categories":[{"id":"4bf58dd8d48988d12f941735","name":"Library","pluralName":"Libraries","shortName":"Library","icon":{"prefix":"https:\/\/ss1.4sqi.net\/img\/categories_v2\/building\/library_","suffix":".png"},"primary":"true"}],"verified":"false","restricted":"true","stats":{"checkinsCount":"20","usersCount":"10","tipCount":"0"},"url":"http:\/\/www.westminster.gov.uk\/libraries","specials":{"count":"0"},"hereNow":{"count":"0"},"referralId":"v-1392477985"},{"id":"4d6510ec3384a09380e4a23c","name":"Cali Cafe","contact":{"phone":"+442072625944","formattedPhone":"+44 20 7262 5944"},"location":{"address":"39 Church St.","lat":"51.523814","lng":"-0.169883","distance":"209","cc":"GB","city":"Marylebone","state":"Greater London","country":"United Kingdom"},"categories":[{"id":"4bf58dd8d48988d16d941735","name":"Caf\u00e9","pluralName":"Caf\u00e9s","shortName":"Caf\u00e9","icon":{"prefix":"https:\/\/ss1.4sqi.net\/img\/categories_v2\/food\/cafe_","suffix":".png"},"primary":"true"}],"verified":"false","restricted":"true","stats":{"checkinsCount":"54","usersCount":"10","tipCount":"0"},"specials":{"count":"0"},"hereNow":{"count":"0"},"referralId":"v-1392477985"},{"id":"4fccef64e4b01f0519161228","name":"Belvedere Heights","location":{"lat":"51.52551333068612","lng":"-0.1705345081195088","distance":"207","cc":"GB","country":"United Kingdom"},"categories":[{"id":"4d954b06a243a5684965b473","name":"Residential Building (Apartment \/ Condo)","pluralName":"Residential Buildings (Apartments \/ Condos)","shortName":"Residential","icon":{"prefix":"https:\/\/ss1.4sqi.net\/img\/categories_v2\/building\/apartment_","suffix":".png"},"primary":"true"}],"verified":"false","restricted":"true","stats":{"checkinsCount":"29","usersCount":"8","tipCount":"0"},"specials":{"count":"0"},"hereNow":{"count":"0"},"referralId":"v-1392477985"},{"id":"4da2ad997ccc816e45ed6c7b","name":"Lisson Green Health Centre","location":{"address":"Gateforth street","crossStreet":"Church street","lat":"51.52508752405181","lng":"-0.16998592114252664","distance":"214","postalCode":"W2","cc":"GB","city":"London","state":"Greater London","country":"United Kingdom"},"categories":[{"id":"4bf58dd8d48988d177941735","name":"Doctor's Office","pluralName":"Doctor's Offices","shortName":"Doctor's Office","icon":{"prefix":"https:\/\/ss1.4sqi.net\/img\/categories_v2\/building\/medical_doctorsoffice_","suffix":".png"},"primary":"true"}],"verified":"false","restricted":"true","stats":{"checkinsCount":"64","usersCount":"15","tipCount":"0"},"specials":{"count":"0"},"hereNow":{"count":"0"},"referralId":"v-1392477985"},{"id":"51effaf9498e010815fd2a6c","name":"diyarbakakirlilar sofrasi","location":{"lat":"51.522914","lng":"-0.173684","distance":"164","cc":"GB","country":"United Kingdom"},"categories":[{"id":"4f04af1f2fb6e1c99f3db0bb","name":"Turkish Restaurant","pluralName":"Turkish Restaurants","shortName":"Turkish","icon":{"prefix":"https:\/\/ss1.4sqi.net\/img\/categories_v2\/food\/turkish_","suffix":".png"},"primary":"true"}],"verified":"false","restricted":"true","stats":{"checkinsCount":"12","usersCount":"7","tipCount":"0"},"specials":{"count":"0"},"hereNow":{"count":"0"},"referralId":"v-1392477985"},{"id":"4d9dd78ec593a1cd5f5f6919","name":"American Nail design","location":{"lat":"51.523189","lng":"-0.174678","distance":"178","cc":"GB","city":"Paddington","state":"Greater London","country":"United Kingdom"},"categories":[{"id":"4f04aa0c2fb6e1c99f3db0b8","name":"Nail Salon","pluralName":"Nail Salons","shortName":"Nail Salon","icon":{"prefix":"https:\/\/ss1.4sqi.net\/img\/categories_v2\/shops\/nailsalon_","suffix":".png"},"primary":"true"}],"verified":"false","restricted":"true","stats":{"checkinsCount":"37","usersCount":"10","tipCount":"2"},"specials":{"count":"0"},"hereNow":{"count":"0"},"referralId":"v-1392477985"},{"id":"4ac518c7f964a52071a520e3","name":"Don Pepe Spanish Restaurant","location":{"address":"99 Frampton Street","lat":"51.523584","lng":"-0.174382","distance":"134","postalCode":"NW8 8NA","cc":"GB","city":"London","state":"Greater London","country":"United Kingdom"},"categories":[{"id":"4bf58dd8d48988d1e5931735","name":"Music Venue","pluralName":"Music Venues","shortName":"Music Venue","icon":{"prefix":"https:\/\/ss1.4sqi.net\/img\/categories_v2\/arts_entertainment\/musicvenue_","suffix":".png"},"primary":"true"}],"verified":"false","restricted":"true","stats":{"checkinsCount":"29","usersCount":"28","tipCount":"0"},"specials":{"count":"0"},"hereNow":{"count":"0"},"referralId":"v-1392477985"},{"id":"4ad39acdf964a52024e520e3","name":"The Wallis building","location":{"address":"65 Penfold street","lat":"51.52357958129802","lng":"-0.1732647701046695","distance":"85","postalCode":"NW8 8PQ","cc":"GB","city":"London","state":"Greater London","country":"United Kingdom"},"categories":[{"id":"4bf58dd8d48988d130941735","name":"Building","pluralName":"Buildings","shortName":"Building","icon":{"prefix":"https:\/\/ss1.4sqi.net\/img\/categories_v2\/building\/default_","suffix":".png"},"primary":"true"}],"verified":"false","restricted":"true","stats":{"checkinsCount":"13","usersCount":"3","tipCount":"0"},"specials":{"count":"0"},"hereNow":{"count":"0"},"referralId":"v-1392477985"},{"id":"4ca4d8d88a65bfb777372b22","name":"Scodie Deyong","contact":{"phone":"+442075352700","formattedPhone":"+44 20 7535 2700"},"location":{"address":"85 Frampton Street","lat":"51.52388468468649","lng":"-0.1739358901977539","distance":"90","postalCode":"NW8 8NQ","cc":"GB","city":"London","state":"Greater London","country":"United Kingdom"},"categories":[{"id":"4bf58dd8d48988d124941735","name":"Office","pluralName":"Offices","shortName":"Office","icon":{"prefix":"https:\/\/ss1.4sqi.net\/img\/categories_v2\/building\/default_","suffix":".png"},"primary":"true"}],"verified":"false","restricted":"true","stats":{"checkinsCount":"1","usersCount":"1","tipCount":"0"},"specials":{"count":"0"},"hereNow":{"count":"0"},"referralId":"v-1392477985"},{"id":"4e787cce183849d5f997bd0e","name":"Costella Cafe","location":{"lat":"51.523549","lng":"-0.173302","distance":"89","cc":"GB","city":"Paddington","state":"Greater London","country":"United Kingdom"},"categories":[{"id":"4bf58dd8d48988d16d941735","name":"Caf\u00e9","pluralName":"Caf\u00e9s","shortName":"Caf\u00e9","icon":{"prefix":"https:\/\/ss1.4sqi.net\/img\/categories_v2\/food\/cafe_","suffix":".png"},"primary":"true"}],"verified":"false","restricted":"true","stats":{"checkinsCount":"14","usersCount":"4","tipCount":"0"},"specials":{"count":"0"},"hereNow":{"count":"0"},"referralId":"v-1392477985"},{"id":"4cb45e3c1168a093e5044823","name":"Sarchnar","contact":{"phone":"+442077245577","formattedPhone":"+44 20 7724 5577"},"location":{"address":"397 Edgware Rd.","lat":"51.523130294128144","lng":"-0.17464807247906372","distance":"181","postalCode":"W2 1BT","cc":"GB","city":"London","state":"Greater London","country":"United Kingdom"},"categories":[{"id":"4bf58dd8d48988d115941735","name":"Middle Eastern Restaurant","pluralName":"Middle Eastern Restaurants","shortName":"Middle Eastern","icon":{"prefix":"https:\/\/ss1.4sqi.net\/img\/categories_v2\/food\/default_","suffix":".png"},"primary":"true"}],"verified":"false","restricted":"true","stats":{"checkinsCount":"56","usersCount":"29","tipCount":"3"},"specials":{"count":"0"},"hereNow":{"count":"0"},"referralId":"v-1392477985"},{"id":"4f575039e4b07cf6e20b0b64","name":"Westminster City Council","location":{"address":"101 Orchardson St.","lat":"51.52624989415981","lng":"-0.17200071338706033","distance":"225","cc":"GB","city":"London","state":"Greater London","country":"United Kingdom"},"categories":[{"id":"4bf58dd8d48988d129941735","name":"City Hall","pluralName":"City Halls","shortName":"City Hall","icon":{"prefix":"https:\/\/ss1.4sqi.net\/img\/categories_v2\/building\/cityhall_","suffix":".png"},"primary":"true"}],"verified":"false","restricted":"true","stats":{"checkinsCount":"66","usersCount":"20","tipCount":"0"},"specials":{"count":"0"},"hereNow":{"count":"0"},"referralId":"v-1392477985"}],"confident":"true"}}