{"meta":{"code":"200"},"response":{"venues":[{"id":"4bf94c348d30d13a74f10118","name":"Park Square Gardens","location":{"lat":"51.52439200896907","lng":"-0.146942138671875","distance":"60","cc":"GB","country":"United Kingdom"},"categories":[{"id":"4bf58dd8d48988d163941735","name":"Park","pluralName":"Parks","shortName":"Park","icon":{"prefix":"https:\/\/ss1.4sqi.net\/img\/categories_v2\/parks_outdoors\/park_","suffix":".png"},"primary":"true"}],"verified":"false","restricted":"true","stats":{"checkinsCount":"650","usersCount":"308","tipCount":"1"},"specials":{"count":"0"},"hereNow":{"count":"0"},"referralId":"v-1392477988"},{"id":"4c3d6453933b0f474264e521","name":"Park Crescent","location":{"address":"Park Cres.","crossStreet":"Portland Pl.","lat":"51.5237622543861","lng":"-0.14599226486008418","distance":"138","postalCode":"W1","cc":"GB","city":"Paddington","state":"Greater London","country":"United Kingdom"},"categories":[{"id":"4bf58dd8d48988d164941735","name":"Plaza","pluralName":"Plazas","shortName":"Plaza","icon":{"prefix":"https:\/\/ss1.4sqi.net\/img\/categories_v2\/parks_outdoors\/plaza_","suffix":".png"},"primary":"true"}],"verified":"false","restricted":"true","stats":{"checkinsCount":"933","usersCount":"335","tipCount":"1"},"specials":{"count":"0"},"hereNow":{"count":"0"},"referralId":"v-1392477988"},{"id":"4d3d36db14aa8cfa8f1ab15e","name":"St Andrew's Gate","location":{"address":"Regents Park","lat":"51.525751432144226","lng":"-0.1460735302860283","distance":"202","cc":"GB","city":"London","state":"Greater London","country":"United Kingdom"},"categories":[{"id":"4bf58dd8d48988d163941735","name":"Park","pluralName":"Parks","shortName":"Park","icon":{"prefix":"https:\/\/ss1.4sqi.net\/img\/categories_v2\/parks_outdoors\/park_","suffix":".png"},"primary":"true"}],"verified":"false","restricted":"true","stats":{"checkinsCount":"1378","usersCount":"490","tipCount":"1"},"specials":{"count":"0"},"hereNow":{"count":"1","groups":[{"type":"others","name":"Other people here","count":"1"}]},"referralId":"v-1392477988"},{"id":"4c424d876c1a952116c8b96a","name":"The Albany","contact":{"phone":"+442073870221","formattedPhone":"+44 20 7387 0221","twitter":"thealbany"},"location":{"address":"240 Great Portland St.","lat":"51.523457","lng":"-0.144062","distance":"275","postalCode":"W1W 5QU","cc":"GB","city":"London","state":"Greater London","country":"United Kingdom"},"categories":[{"id":"4bf58dd8d48988d11b941735","name":"Pub","pluralName":"Pubs","shortName":"Pub","icon":{"prefix":"https:\/\/ss1.4sqi.net\/img\/categories_v2\/nightlife\/pub_","suffix":".png"},"primary":"true"}],"verified":"false","restricted":"true","stats":{"checkinsCount":"2270","usersCount":"1464","tipCount":"21"},"url":"http:\/\/www.thealbanyw1w.co.uk","menu":{"type":"Menu","label":"Menu","anchor":"View Menu","url":"https:\/\/foursquare.com\/v\/the-albany\/4c424d876c1a952116c8b96a\/menu","mobileUrl":"https:\/\/foursquare.com\/v\/4c424d876c1a952116c8b96a\/device_menu"},"specials":{"count":"0"},"hereNow":{"count":"0"},"referralId":"v-1392477988"},{"id":"4d610ffbb6b9a1cdf2fd8251","name":"Regent's Park Children's Playground","location":{"lat":"51.52550953797009","lng":"-0.14828474128996733","distance":"139","cc":"GB","country":"United Kingdom"},"categories":[{"id":"4bf58dd8d48988d1e7941735","name":"Playground","pluralName":"Playgrounds","shortName":"Playground","icon":{"prefix":"https:\/\/ss1.4sqi.net\/img\/categories_v2\/parks_outdoors\/playground_","suffix":".png"},"primary":"true"}],"verified":"false","restricted":"true","stats":{"checkinsCount":"232","usersCount":"171","tipCount":"4"},"specials":{"count":"0"},"hereNow":{"count":"0"},"referralId":"v-1392477988"},{"id":"4beaaf7f6295c9b690ae8608","name":"The London Clinic","location":{"address":"Harley Street","lat":"51.52303017933132","lng":"-0.14985634230315897","distance":"199","cc":"GB","city":"London","state":"Greater London","country":"United Kingdom"},"categories":[{"id":"4bf58dd8d48988d196941735","name":"Hospital","pluralName":"Hospitals","shortName":"Hospital","icon":{"prefix":"https:\/\/ss1.4sqi.net\/img\/categories_v2\/building\/medical_hospital_","suffix":".png"},"primary":"true"}],"verified":"false","restricted":"true","stats":{"checkinsCount":"973","usersCount":"394","tipCount":"6"},"specials":{"count":"0"},"hereNow":{"count":"0"},"referralId":"v-1392477988"},{"id":"4afdb892f964a5202c2a22e3","name":"PizzaExpress","contact":{"phone":"+442075802272","formattedPhone":"+44 20 7580 2272","twitter":"pizzaexpress"},"location":{"address":"215-217 Great Portland St","lat":"51.52347","lng":"-0.144106","distance":"271","postalCode":"W1W 5PN","cc":"GB","city":"London","state":"Greater London","country":"United Kingdom"},"categories":[{"id":"4bf58dd8d48988d1ca941735","name":"Pizza Place","pluralName":"Pizza Places","shortName":"Pizza","icon":{"prefix":"https:\/\/ss1.4sqi.net\/img\/categories_v2\/food\/pizza_","suffix":".png"},"primary":"true"}],"verified":"true","restricted":"true","stats":{"checkinsCount":"793","usersCount":"581","tipCount":"8"},"url":"http:\/\/www.pizzaexpress.com","specials":{"count":"0"},"hereNow":{"count":"0"},"storeId":"","referralId":"v-1392477988"},{"id":"5230d62f11d282bca86cf9da","name":"MevleviDreams @laurenicoleldn Boutique","location":{"lat":"51.52339710881286","lng":"-0.1485745904520836","distance":"112","cc":"GB","country":"United Kingdom"},"categories":[{"id":"4bf58dd8d48988d116951735","name":"Antique Shop","pluralName":"Antique Shops","shortName":"Antiques","icon":{"prefix":"https:\/\/ss1.4sqi.net\/img\/categories_v2\/shops\/antique_","suffix":".png"},"primary":"true"}],"verified":"false","restricted":"true","stats":{"checkinsCount":"8","usersCount":"1","tipCount":"0"},"specials":{"count":"0"},"hereNow":{"count":"0"},"referralId":"v-1392477988"},{"id":"4ad0b718f964a52050d920e3","name":"The Queen's Head & Artichoke","contact":{"phone":"+442079166206","formattedPhone":"+44 20 7916 6206"},"location":{"address":"30-32 Albany St","lat":"51.525718","lng":"-0.144052","distance":"304","postalCode":"NW1 4EA","cc":"GB","city":"London","state":"Greater London","country":"United Kingdom"},"categories":[{"id":"4bf58dd8d48988d11b941735","name":"Pub","pluralName":"Pubs","shortName":"Pub","icon":{"prefix":"https:\/\/ss1.4sqi.net\/img\/categories_v2\/nightlife\/pub_","suffix":".png"},"primary":"true"}],"verified":"false","restricted":"true","stats":{"checkinsCount":"1208","usersCount":"750","tipCount":"26"},"url":"http:\/\/www.theartichoke.net","reservations":{"url":"http:\/\/www.toptable.co.uk\/single.aspx?rid=84757&ref=9601"},"menu":{"type":"Menu","label":"Menu","anchor":"View Menu","url":"https:\/\/foursquare.com\/v\/the-queens-head--artichoke\/4ad0b718f964a52050d920e3\/menu","mobileUrl":"https:\/\/foursquare.com\/v\/4ad0b718f964a52050d920e3\/device_menu"},"specials":{"count":"0"},"hereNow":{"count":"0"},"referralId":"v-1392477988"},{"id":"4ae34bb6f964a520fb9221e3","name":"International Students House","location":{"address":"229 Great Portland Street","lat":"51.52380254339087","lng":"-0.14458219459089416","distance":"229","postalCode":"W1W 5PN","cc":"GB","city":"London","state":"Greater London","country":"United Kingdom"},"categories":[{"id":"4bf58dd8d48988d1a3941735","name":"College Residence Hall","pluralName":"College Residence Halls","shortName":"Residence Hall","icon":{"prefix":"https:\/\/ss1.4sqi.net\/img\/categories_v2\/education\/residencehall_","suffix":".png"},"primary":"true"}],"verified":"false","restricted":"true","stats":{"checkinsCount":"1517","usersCount":"449","tipCount":"6"},"specials":{"count":"0"},"hereNow":{"count":"0"},"referralId":"v-1392477988"},{"id":"4dc2cd951838ada6b26bf15b","name":"22 Park Crescent, London","location":{"lat":"51.522546","lng":"-0.14774","distance":"194","postalCode":"W1","cc":"GB","city":"London","state":"Greater London","country":"United Kingdom"},"categories":[{"id":"4d954b06a243a5684965b473","name":"Residential Building (Apartment \/ Condo)","pluralName":"Residential Buildings (Apartments \/ Condos)","shortName":"Residential","icon":{"prefix":"https:\/\/ss1.4sqi.net\/img\/categories_v2\/building\/apartment_","suffix":".png"},"primary":"true"}],"verified":"false","restricted":"true","stats":{"checkinsCount":"79","usersCount":"11","tipCount":"0"},"specials":{"count":"0"},"hereNow":{"count":"0"},"referralId":"v-1392477988"},{"id":"5016e7aae4b0f8ec79a450fd","name":"Caf\u00e9 Istanbul Bistro","location":{"address":"Great Portland St Station","lat":"51.523546419706136","lng":"-0.14397200596054233","distance":"277","cc":"GB","city":"London","state":"Greater London","country":"United Kingdom"},"categories":[{"id":"4f04af1f2fb6e1c99f3db0bb","name":"Turkish Restaurant","pluralName":"Turkish Restaurants","shortName":"Turkish","icon":{"prefix":"https:\/\/ss1.4sqi.net\/img\/categories_v2\/food\/turkish_","suffix":".png"},"primary":"true"}],"verified":"false","restricted":"true","stats":{"checkinsCount":"186","usersCount":"131","tipCount":"7"},"specials":{"count":"0"},"hereNow":{"count":"0"},"referralId":"v-1392477988"},{"id":"4ba9cf75f964a520ea383ae3","name":"Royal College of Physicians","location":{"address":"Saint Andrew's Place","crossStreet":"Outer circle","lat":"51.525605","lng":"-0.145494","distance":"216","postalCode":"NW1 4LE","cc":"GB","city":"London","state":"Greater London","country":"United Kingdom"},"categories":[{"id":"4bf58dd8d48988d198941735","name":"College Academic Building","pluralName":"College Academic Buildings","shortName":"Academic Building","icon":{"prefix":"https:\/\/ss1.4sqi.net\/img\/categories_v2\/education\/academicbuilding_","suffix":".png"},"primary":"true"}],"verified":"false","restricted":"true","stats":{"checkinsCount":"636","usersCount":"429","tipCount":"6"},"specials":{"count":"0"},"hereNow":{"count":"0"},"referralId":"v-1392477988"},{"id":"4c98572a671db60c28b5b8f6","name":"Regents Park Station Bus Stop","location":{"lat":"51.523625071398484","lng":"-0.14673627653067425","distance":"104","cc":"GB","country":"United Kingdom"},"categories":[{"id":"4bf58dd8d48988d12b951735","name":"Bus Line","pluralName":"Bus Lines","shortName":"Bus","icon":{"prefix":"https:\/\/ss1.4sqi.net\/img\/categories_v2\/travel\/busstation_","suffix":".png"},"primary":"true"}],"verified":"false","restricted":"true","stats":{"checkinsCount":"287","usersCount":"243","tipCount":"0"},"specials":{"count":"0"},"hereNow":{"count":"0"},"referralId":"v-1392477988"},{"id":"4aecc97ef964a52033cb21e3","name":"ISH Bar","location":{"address":"229, Great Portland Street","lat":"51.5238784325911","lng":"-0.144825148289486","distance":"211","postalCode":"W1W 5PN","cc":"GB","city":"London","state":"Greater London","country":"United Kingdom"},"categories":[{"id":"4bf58dd8d48988d116941735","name":"Bar","pluralName":"Bars","shortName":"Bar","icon":{"prefix":"https:\/\/ss1.4sqi.net\/img\/categories_v2\/nightlife\/bar_","suffix":".png"},"primary":"true"}],"verified":"false","restricted":"true","stats":{"checkinsCount":"421","usersCount":"156","tipCount":"4"},"specials":{"count":"0"},"hereNow":{"count":"0"},"referralId":"v-1392477988"},{"id":"4e7a262514954a343fb92b4d","name":"Mary Trevelyan Hall, International Students House","location":{"address":"10 York Terrace E., Paddington","lat":"51.52393808750874","lng":"-0.15168428421020508","distance":"271","postalCode":"NW1 4PT","cc":"GB","city":"Greater London","state":"Greater London","country":"United Kingdom"},"categories":[{"id":"4bf58dd8d48988d130941735","name":"Building","pluralName":"Buildings","shortName":"Building","icon":{"prefix":"https:\/\/ss1.4sqi.net\/img\/categories_v2\/building\/default_","suffix":".png"},"primary":"true"}],"verified":"false","restricted":"true","stats":{"checkinsCount":"601","usersCount":"61","tipCount":"0"},"specials":{"count":"0"},"hereNow":{"count":"0"},"referralId":"v-1392477988"},{"id":"4e9ae32529c27d6ad6c14261","name":"Frieze Sculpture Park","location":{"lat":"51.52552516929507","lng":"-0.14646538251586616","distance":"165","cc":"GB","country":"United Kingdom"},"categories":[{"id":"4bf58dd8d48988d1e2931735","name":"Art Gallery","pluralName":"Art Galleries","shortName":"Art Gallery","icon":{"prefix":"https:\/\/ss1.4sqi.net\/img\/categories_v2\/arts_entertainment\/artgallery_","suffix":".png"},"primary":"true"}],"verified":"false","restricted":"true","stats":{"checkinsCount":"77","usersCount":"71","tipCount":"4"},"specials":{"count":"0"},"hereNow":{"count":"0"},"referralId":"v-1392477988"},{"id":"4d64e4254e1ea1cde3b349b9","name":"The London Clinic","contact":{"phone":"+442079354444","formattedPhone":"+44 20 7935 4444"},"location":{"address":"Devonshire Pl.","lat":"51.52270961877563","lng":"-0.14993402632265104","distance":"229","postalCode":"W1G 6HE","cc":"GB","city":"London","state":"Greater London","country":"United Kingdom"},"categories":[{"id":"4bf58dd8d48988d177941735","name":"Doctor's Office","pluralName":"Doctor's Offices","shortName":"Doctor's Office","icon":{"prefix":"https:\/\/ss1.4sqi.net\/img\/categories_v2\/building\/medical_doctorsoffice_","suffix":".png"},"primary":"true"}],"verified":"false","restricted":"true","stats":{"checkinsCount":"170","usersCount":"99","tipCount":"1"},"url":"http:\/\/www.thelondonclinic.co.uk","specials":{"count":"0"},"hereNow":{"count":"0"},"referralId":"v-1392477988"},{"id":"4ac518ccf964a520c8a520e3","name":"229 Club","contact":{"phone":"+442073237229","formattedPhone":"+44 20 7323 7229","twitter":"229thevenue"},"location":{"address":"229 Great Portland St.","lat":"51.52372154842711","lng":"-0.14439894322533353","distance":"244","postalCode":"W1W 5PN","cc":"GB","city":"London","state":"Greater London","country":"United Kingdom"},"categories":[{"id":"4bf58dd8d48988d11f941735","name":"Nightclub","pluralName":"Nightclubs","shortName":"Nightclub","icon":{"prefix":"https:\/\/ss1.4sqi.net\/img\/categories_v2\/nightlife\/nightclub_","suffix":".png"},"primary":"true"}],"verified":"false","restricted":"true","stats":{"checkinsCount":"620","usersCount":"497","tipCount":"6"},"url":"http:\/\/www.229thevenue.com","specials":{"count":"0"},"hereNow":{"count":"0"},"referralId":"v-1392477988"},{"id":"4ad45732f964a520a0e720e3","name":"Which? Head Office","contact":{"phone":"+442077707000","formattedPhone":"+44 20 7770 7000"},"location":{"address":"Peto Place","crossStreet":"Marylebone Road","lat":"51.52410065640063","lng":"-0.14416236257317996","distance":"253","postalCode":"NW1 4DF","cc":"GB","city":"London","state":"Greater London","country":"United Kingdom"},"categories":[{"id":"4bf58dd8d48988d124941735","name":"Office","pluralName":"Offices","shortName":"Office","icon":{"prefix":"https:\/\/ss1.4sqi.net\/img\/categories_v2\/building\/default_","suffix":".png"},"primary":"true"}],"verified":"false","restricted":"true","stats":{"checkinsCount":"554","usersCount":"109","tipCount":"1"},"specials":{"count":"0"},"hereNow":{"count":"0"},"referralId":"v-1392477988"},{"id":"4c07bcdeda13c9284ee46b02","name":"London Vision Clinic","contact":{"phone":"+442072241005","formattedPhone":"+44 20 7224 1005"},"location":{"address":"138 Harley Street","lat":"51.52269","lng":"-0.148656","distance":"187","postalCode":"W1G 7LA","cc":"GB","country":"United Kingdom"},"categories":[{"id":"4bf58dd8d48988d104941735","name":"Medical Center","pluralName":"Medical Centers","shortName":"Medical","icon":{"prefix":"https:\/\/ss1.4sqi.net\/img\/categories_v2\/building\/medical_","suffix":".png"},"primary":"true"}],"verified":"false","restricted":"true","stats":{"checkinsCount":"160","usersCount":"47","tipCount":"4"},"specials":{"count":"0"},"hereNow":{"count":"0"},"referralId":"v-1392477988"},{"id":"4f480e7fe4b0186352a6f7d5","name":"Cambridge Gate","location":{"address":"Cambridge Gate","lat":"51.52662163319038","lng":"-0.14421764828876224","distance":"359","cc":"GB","city":"London","state":"Greater London","country":"United Kingdom"},"categories":[{"id":"4f2a210c4b9023bd5841ed28","name":"Housing Development","pluralName":"Housing Developments","shortName":"Housing Development","icon":{"prefix":"https:\/\/ss1.4sqi.net\/img\/categories_v2\/building\/housingdevelopment_","suffix":".png"},"primary":"true"}],"verified":"false","restricted":"true","stats":{"checkinsCount":"386","usersCount":"33","tipCount":"0"},"specials":{"count":"0"},"hereNow":{"count":"0"},"referralId":"v-1392477988"},{"id":"51756704e4b05441667383a1","name":"Turkish Ambassador's Residence","location":{"lat":"51.5237965315298","lng":"-0.14622643175828193","distance":"122","cc":"GB","country":"United Kingdom"},"categories":[{"id":"4bf58dd8d48988d126941735","name":"Government Building","pluralName":"Government Buildings","shortName":"Government","icon":{"prefix":"https:\/\/ss1.4sqi.net\/img\/categories_v2\/building\/government_","suffix":".png"},"primary":"true"}],"verified":"false","restricted":"true","stats":{"checkinsCount":"31","usersCount":"22","tipCount":"1"},"specials":{"count":"0"},"hereNow":{"count":"0"},"referralId":"v-1392477988"},{"id":"526000f2498e8c4a42093340","name":"Frieze Art Fair","location":{"address":"Regent's Park","lat":"51.52557823368999","lng":"-0.1492416892297486","distance":"174","cc":"GB","city":"London","state":"Greater London","country":"United Kingdom"},"categories":[{"id":"507c8c4091d498d9fc8c67a9","name":"Public Art","pluralName":"Public Art","shortName":"Public Art","icon":{"prefix":"https:\/\/ss1.4sqi.net\/img\/categories_v2\/arts_entertainment\/default_","suffix":".png"},"primary":"true"}],"verified":"false","restricted":"true","stats":{"checkinsCount":"251","usersCount":"231","tipCount":"3"},"specials":{"count":"0"},"hereNow":{"count":"0"},"referralId":"v-1392477988"},{"id":"4d2c3fe8342d6dcb0c5f1dcb","name":"116 Harley Street","location":{"lat":"51.521759546614526","lng":"-0.14832746191249277","distance":"283","cc":"GB","country":"United Kingdom"},"categories":[{"id":"4bf58dd8d48988d104941735","name":"Medical Center","pluralName":"Medical Centers","shortName":"Medical","icon":{"prefix":"https:\/\/ss1.4sqi.net\/img\/categories_v2\/building\/medical_","suffix":".png"},"primary":"true"}],"verified":"false","restricted":"true","stats":{"checkinsCount":"27","usersCount":"17","tipCount":"0"},"specials":{"count":"0"},"hereNow":{"count":"0"},"referralId":"v-1392477988"},{"id":"4ae5f810f964a520a0a321e3","name":"The Portland Hospital","location":{"address":"205 Great Portland St.","lat":"51.52306380792501","lng":"-0.1441022917910459","distance":"290","postalCode":"W1w 5ah","cc":"GB","city":"London","state":"Greater London","country":"United Kingdom"},"categories":[{"id":"4bf58dd8d48988d196941735","name":"Hospital","pluralName":"Hospitals","shortName":"Hospital","icon":{"prefix":"https:\/\/ss1.4sqi.net\/img\/categories_v2\/building\/medical_hospital_","suffix":".png"},"primary":"true"}],"verified":"false","restricted":"true","stats":{"checkinsCount":"427","usersCount":"221","tipCount":"3"},"specials":{"count":"0"},"hereNow":{"count":"0"},"referralId":"v-1392477988"},{"id":"52cee2b4498e2e8da21b6eca","name":"PolyClinica No.1","contact":{"phone":"+442076367179","formattedPhone":"+44 20 7636 7179","twitter":"polyclinica"},"location":{"address":"16 Devonsire street","crossStreet":"Harley street","lat":"51.52178857444303","lng":"-0.1473391056060791","distance":"280","postalCode":"W1G 7AF","cc":"GB","city":"London","state":"Greater London","country":"United Kingdom"},"categories":[{"id":"4bf58dd8d48988d177941735","name":"Doctor's Office","pluralName":"Doctor's Offices","shortName":"Doctor's Office","icon":{"prefix":"https:\/\/ss1.4sqi.net\/img\/categories_v2\/building\/medical_doctorsoffice_","suffix":".png"},"primary":"true"}],"verified":"true","restricted":"true","stats":{"checkinsCount":"3","usersCount":"3","tipCount":"0"},"url":"https:\/\/www.facebook.com\/PolyClinica","specials":{"count":"0"},"hereNow":{"count":"0"},"venuePage":{"id":"75705665"},"storeId":"","referralId":"v-1392477988"},{"id":"5140b2dde4b0e099d1a3ba8e","name":"The Fetal Medicine Centre","location":{"address":"137 Harley Street","lat":"51.52245714413711","lng":"-0.14885659903026288","distance":"216","postalCode":"W1G6BG","cc":"GB","country":"United Kingdom"},"categories":[{"id":"4bf58dd8d48988d104941735","name":"Medical Center","pluralName":"Medical Centers","shortName":"Medical","icon":{"prefix":"https:\/\/ss1.4sqi.net\/img\/categories_v2\/building\/medical_","suffix":".png"},"primary":"true"}],"verified":"false","restricted":"true","stats":{"checkinsCount":"20","usersCount":"13","tipCount":"0"},"specials":{"count":"0"},"hereNow":{"count":"0"},"referralId":"v-1392477988"},{"id":"527a0346498e6205182a957c","name":"RoCPrivate Clinic","location":{"lat":"51.522176","lng":"-0.148455","distance":"239","cc":"GB","country":"United Kingdom"},"categories":[{"id":"4bf58dd8d48988d177941735","name":"Doctor's Office","pluralName":"Doctor's Offices","shortName":"Doctor's Office","icon":{"prefix":"https:\/\/ss1.4sqi.net\/img\/categories_v2\/building\/medical_doctorsoffice_","suffix":".png"},"primary":"true"}],"verified":"false","restricted":"true","stats":{"checkinsCount":"3","usersCount":"2","tipCount":"0"},"specials":{"count":"0"},"hereNow":{"count":"0"},"referralId":"v-1392477988"},{"id":"506012fee4b0afdc7a40fa9d","name":"HFS Clinic","location":{"address":"142 - 146 Harley Street","lat":"51.523428932774685","lng":"-0.14776444054793672","distance":"95","cc":"GB","city":"London","state":"Greater London","country":"United Kingdom"},"categories":[{"id":"4bf58dd8d48988d104941735","name":"Medical Center","pluralName":"Medical Centers","shortName":"Medical","icon":{"prefix":"https:\/\/ss1.4sqi.net\/img\/categories_v2\/building\/medical_","suffix":".png"},"primary":"true"}],"verified":"false","restricted":"true","stats":{"checkinsCount":"9","usersCount":"7","tipCount":"0"},"specials":{"count":"0"},"hereNow":{"count":"0"},"referralId":"v-1392477988"}],"confident":"true"}}