{"meta":{"code":"200"},"response":{"venues":[{"id":"50f4529e00ca23639b0b517e","name":"Carphone Warehouse","contact":{"phone":"+448435380319","formattedPhone":"+44 843 538 0319","twitter":"cpwtweets"},"location":{"address":"220 Tottenham Court Road","lat":"51.5192114920026","lng":"-0.13293784559715216","distance":"12","postalCode":"W1T7PZ","cc":"GB","city":"London","state":"Greater London","country":"United Kingdom"},"categories":[{"id":"4f04afc02fb6e1c99f3db0bc","name":"Mobile Phone Shop","pluralName":"Mobile Phone Shops","shortName":"Mobile Phone","icon":{"prefix":"https:\/\/ss1.4sqi.net\/img\/categories_v2\/shops\/mobilephoneshop_","suffix":".png"},"primary":"true"}],"verified":"true","restricted":"true","stats":{"checkinsCount":"110","usersCount":"23","tipCount":"0"},"url":"http:\/\/www.carphonewarehouse.com","specials":{"count":"0"},"hereNow":{"count":"0"},"storeId":"319","referralId":"v-1392478002"},{"id":"4ae8d6fdf964a520c2b221e3","name":"Busaba Eathai","contact":{"phone":"+442072997900","formattedPhone":"+44 20 7299 7900","twitter":"busabaeathai"},"location":{"address":"22 Store St","lat":"51.51945308033926","lng":"-0.13235804229526937","distance":"35","postalCode":"WC1E 7DF","cc":"GB","city":"London","state":"Greater London","country":"United Kingdom"},"categories":[{"id":"4bf58dd8d48988d149941735","name":"Thai Restaurant","pluralName":"Thai Restaurants","shortName":"Thai","icon":{"prefix":"https:\/\/ss1.4sqi.net\/img\/categories_v2\/food\/thai_","suffix":".png"},"primary":"true"}],"verified":"false","restricted":"true","stats":{"checkinsCount":"2254","usersCount":"1548","tipCount":"48"},"url":"http:\/\/busaba.com\/locations\/storestreet\/","menu":{"type":"Menu","label":"Menu","anchor":"View Menu","url":"https:\/\/foursquare.com\/v\/busaba-eathai\/4ae8d6fdf964a520c2b221e3\/menu","mobileUrl":"https:\/\/foursquare.com\/v\/4ae8d6fdf964a520c2b221e3\/device_menu"},"specials":{"count":"0"},"hereNow":{"count":"0"},"referralId":"v-1392478002"},{"id":"4af4f4fdf964a520adf721e3","name":"Rising Sun Pub (Taylor Walker)","contact":{"phone":"+442076366530","formattedPhone":"+44 20 7636 6530","twitter":"risingsuntcr"},"location":{"address":"46 Tottenham Court Rd","lat":"51.51921169524832","lng":"-0.13318777084350586","distance":"28","postalCode":"W1T 2ED","cc":"GB","city":"London","state":"Greater London","country":"United Kingdom"},"categories":[{"id":"4bf58dd8d48988d11b941735","name":"Pub","pluralName":"Pubs","shortName":"Pub","icon":{"prefix":"https:\/\/ss1.4sqi.net\/img\/categories_v2\/nightlife\/pub_","suffix":".png"},"primary":"true"}],"verified":"false","restricted":"true","stats":{"checkinsCount":"970","usersCount":"724","tipCount":"5"},"url":"http:\/\/www.taylor-walker.co.uk\/pub\/rising-sun-bloomsbury\/c6749\/","specials":{"count":"0"},"hereNow":{"count":"0"},"referralId":"v-1392478002"},{"id":"4ace17d6f964a52056ce20e3","name":"One Alfred Place","location":{"address":"1 Alfred Pl.","lat":"51.51953970925407","lng":"-0.13257096920496436","distance":"32","postalCode":"WC1E 7EB","cc":"GB","city":"London","state":"Greater London","country":"United Kingdom"},"categories":[{"id":"4bf58dd8d48988d124941735","name":"Office","pluralName":"Offices","shortName":"Office","icon":{"prefix":"https:\/\/ss1.4sqi.net\/img\/categories_v2\/building\/default_","suffix":".png"},"primary":"true"}],"verified":"false","restricted":"true","stats":{"checkinsCount":"1584","usersCount":"633","tipCount":"10"},"menu":{"type":"Menu","label":"Menu","anchor":"View Menu","url":"https:\/\/foursquare.com\/v\/one-alfred-place\/4ace17d6f964a52056ce20e3\/menu","mobileUrl":"https:\/\/foursquare.com\/v\/4ace17d6f964a52056ce20e3\/device_menu"},"specials":{"count":"0"},"hereNow":{"count":"0"},"referralId":"v-1392478002"},{"id":"4bf6989794b2a593f2b5adee","name":"NatWest","location":{"address":"Tottenham Court Rd.","lat":"51.519113","lng":"-0.132974","distance":"22","cc":"GB","city":"London","state":"Greater London","country":"United Kingdom"},"categories":[{"id":"4bf58dd8d48988d10a951735","name":"Bank","pluralName":"Banks","shortName":"Bank","icon":{"prefix":"https:\/\/ss1.4sqi.net\/img\/categories_v2\/shops\/financial_","suffix":".png"},"primary":"true"}],"verified":"false","restricted":"true","stats":{"checkinsCount":"154","usersCount":"78","tipCount":"0"},"specials":{"count":"0"},"hereNow":{"count":"0"},"referralId":"v-1392478002"},{"id":"51b5accbabd85df71bc1d3fc","name":"itsu","contact":{"phone":"+442076373078","formattedPhone":"+44 20 7637 3078","twitter":"itsuofficial","facebook":"115164458642981"},"location":{"address":"53-54 Tottenham Court Rd","lat":"51.51955884809397","lng":"-0.13340771198272705","distance":"51","postalCode":"W1T 2EL","cc":"GB","city":"London","state":"Greater London","country":"United Kingdom"},"categories":[{"id":"4bf58dd8d48988d1d2941735","name":"Sushi Restaurant","pluralName":"Sushi Restaurants","shortName":"Sushi","icon":{"prefix":"https:\/\/ss1.4sqi.net\/img\/categories_v2\/food\/sushi_","suffix":".png"},"primary":"true"}],"verified":"true","restricted":"true","stats":{"checkinsCount":"204","usersCount":"103","tipCount":"5"},"url":"http:\/\/www.itsu.com","specials":{"count":"0"},"hereNow":{"count":"0"},"referralId":"v-1392478002"},{"id":"5293afad11d25adaa3d70c55","name":"Boopshi's","contact":{"twitter":"boopshis"},"location":{"address":"31 Windmill Street","lat":"51.51899484874672","lng":"-0.13366535816598463","distance":"68","postalCode":"W1T 2J","cc":"GB","city":"London","state":"Greater London","country":"United Kingdom"},"categories":[{"id":"4bf58dd8d48988d1c4941735","name":"Restaurant","pluralName":"Restaurants","shortName":"Restaurant","icon":{"prefix":"https:\/\/ss1.4sqi.net\/img\/categories_v2\/food\/default_","suffix":".png"},"primary":"true"}],"verified":"false","restricted":"true","stats":{"checkinsCount":"91","usersCount":"81","tipCount":"4"},"specials":{"count":"0"},"hereNow":{"count":"0"},"referralId":"v-1392478002"},{"id":"4d4c73827d2ccbffc7650900","name":"The Building Centre","contact":{"phone":"+442076924000","formattedPhone":"+44 20 7692 4000","twitter":"buildingcentre"},"location":{"address":"26 Store St","lat":"51.519545717438035","lng":"-0.13206580518083724","distance":"58","postalCode":"WC1E 7BT","cc":"GB","city":"London","state":"Greater London","country":"United Kingdom"},"categories":[{"id":"4bf58dd8d48988d1ff931735","name":"Convention Center","pluralName":"Convention Centers","shortName":"Convention Center","icon":{"prefix":"https:\/\/ss1.4sqi.net\/img\/categories_v2\/building\/conventioncenter_","suffix":".png"},"primary":"true"}],"verified":"true","restricted":"true","stats":{"checkinsCount":"1156","usersCount":"392","tipCount":"3"},"url":"http:\/\/www.buildingcentre.co.uk","specials":{"count":"1","items":[{"id":"4d4c795e7d2ccbff2e8a0900","type":"frequency","message":"10% discount, every third check-in, on all documents sold from our Information Centre on the lower ground floor. This includes our Essential Guides and BRE Documents.","description":"Unlocked every 3 check-ins","icon":"frequency","title":"Loyalty Special","provider":"foursquare","redemption":"standard"}]},"hereNow":{"count":"0"},"referralId":"v-1392478002"},{"id":"4defb9d952b1d9bad3c66ffc","name":"Metro Bank","contact":{"twitter":"metro_bank"},"location":{"address":"227 Tottenham Court Rd.","crossStreet":"at Store St","lat":"51.51902476569695","lng":"-0.13258695602416992","distance":"33","postalCode":"W1T 7QF","cc":"GB","city":"St Giles","state":"Greater London","country":"United Kingdom"},"categories":[{"id":"4bf58dd8d48988d10a951735","name":"Bank","pluralName":"Banks","shortName":"Bank","icon":{"prefix":"https:\/\/ss1.4sqi.net\/img\/categories_v2\/shops\/financial_","suffix":".png"},"primary":"true"}],"verified":"false","restricted":"true","stats":{"checkinsCount":"119","usersCount":"69","tipCount":"4"},"specials":{"count":"0"},"hereNow":{"count":"0"},"referralId":"v-1392478002"},{"id":"5242e7ca11d2a776d7f732a3","name":"Bright North","contact":{"phone":"+442035982217","formattedPhone":"+44 20 3598 2217","twitter":"brightnorth"},"location":{"address":"33-34 Alfred Place","lat":"51.51989264641166","lng":"-0.13239383697509766","distance":"72","postalCode":"WC1E 7DP","cc":"GB","city":"London","state":"Greater London","country":"United Kingdom"},"categories":[{"id":"4bf58dd8d48988d125941735","name":"Tech Startup","pluralName":"Tech Startups","shortName":"Tech Startup","icon":{"prefix":"https:\/\/ss1.4sqi.net\/img\/categories_v2\/shops\/technology_","suffix":".png"},"primary":"true"}],"verified":"false","restricted":"true","stats":{"checkinsCount":"104","usersCount":"5","tipCount":"0"},"specials":{"count":"0"},"hereNow":{"count":"0"},"referralId":"v-1392478002"},{"id":"510ff232e4b0ec5cd7c5f951","name":"Affectv","location":{"lat":"51.51996660125521","lng":"-0.1322797157149258","distance":"83","postalCode":"WC1E 7DP","cc":"GB","country":"United Kingdom"},"categories":[{"id":"4bf58dd8d48988d124941735","name":"Office","pluralName":"Offices","shortName":"Office","icon":{"prefix":"https:\/\/ss1.4sqi.net\/img\/categories_v2\/building\/default_","suffix":".png"},"primary":"true"}],"verified":"false","restricted":"true","stats":{"checkinsCount":"705","usersCount":"6","tipCount":"0"},"specials":{"count":"0"},"hereNow":{"count":"0"},"referralId":"v-1392478002"},{"id":"4acf1a14f964a5206ad220e3","name":"The Jack Horner","contact":{"phone":"+442076362868","formattedPhone":"+44 20 7636 2868"},"location":{"address":"234-236 Tottenham Court Rd","lat":"51.518490677036795","lng":"-0.13213634490966797","distance":"100","postalCode":"W1T 7QJ","cc":"GB","city":"London","state":"Greater London","country":"United Kingdom"},"categories":[{"id":"4bf58dd8d48988d11b941735","name":"Pub","pluralName":"Pubs","shortName":"Pub","icon":{"prefix":"https:\/\/ss1.4sqi.net\/img\/categories_v2\/nightlife\/pub_","suffix":".png"},"primary":"true"}],"verified":"false","restricted":"true","stats":{"checkinsCount":"2337","usersCount":"1350","tipCount":"16"},"url":"http:\/\/jackhornerpub.co.uk","specials":{"count":"0"},"hereNow":{"count":"2","groups":[{"type":"others","name":"Other people here","count":"2"}]},"referralId":"v-1392478002"},{"id":"4dee4cca814d56e30837319d","name":"Little Waitrose","contact":{"phone":"+442073232096","formattedPhone":"+44 20 7323 2096","twitter":"waitroseuk"},"location":{"address":"227-233 Tottenham Court Rd.","lat":"51.51897135711276","lng":"-0.13222217559814453","distance":"53","postalCode":"W1T 7QH","cc":"GB","city":"London","state":"Greater London","country":"United Kingdom"},"categories":[{"id":"4bf58dd8d48988d118951735","name":"Grocery Store","pluralName":"Grocery Stores","shortName":"Grocery Store","icon":{"prefix":"https:\/\/ss1.4sqi.net\/img\/categories_v2\/shops\/food_grocery_","suffix":".png"},"primary":"true"}],"verified":"false","restricted":"true","stats":{"checkinsCount":"1190","usersCount":"351","tipCount":"13"},"url":"http:\/\/www.waitrose.com","specials":{"count":"0"},"hereNow":{"count":"0"},"referralId":"v-1392478002"},{"id":"4b588581f964a520e75b28e3","name":"The College Arms","location":{"address":"18 Store St","lat":"51.51981587301522","lng":"-0.13184666633605957","distance":"88","postalCode":"WC1E 7DH","cc":"GB","city":"London","state":"Greater London","country":"United Kingdom"},"categories":[{"id":"4bf58dd8d48988d11b941735","name":"Pub","pluralName":"Pubs","shortName":"Pub","icon":{"prefix":"https:\/\/ss1.4sqi.net\/img\/categories_v2\/nightlife\/pub_","suffix":".png"},"primary":"true"}],"verified":"false","restricted":"true","stats":{"checkinsCount":"1558","usersCount":"643","tipCount":"13"},"url":"http:\/\/www.faucetinn.com\/college-arms","menu":{"type":"Menu","label":"Menu","anchor":"View Menu","url":"https:\/\/foursquare.com\/v\/the-college-arms\/4b588581f964a520e75b28e3\/menu","mobileUrl":"https:\/\/foursquare.com\/v\/4b588581f964a520e75b28e3\/device_menu"},"specials":{"count":"0"},"hereNow":{"count":"0"},"referralId":"v-1392478002"},{"id":"4ac518eff964a5204fad20e3","name":"Paperchase","contact":{"phone":"+442074676200","formattedPhone":"+44 20 7467 6200","twitter":"frompaperchase"},"location":{"address":"213-215 Tottenham Court Rd.","crossStreet":"near Goodge St. Station","lat":"51.52005736877043","lng":"-0.13347530702480773","distance":"97","postalCode":"W1T 7PS","cc":"GB","city":"London","state":"Greater London","country":"United Kingdom"},"categories":[{"id":"4bf58dd8d48988d121951735","name":"Paper \/ Office Supplies Store","pluralName":"Paper \/ Office Supplies Stores","shortName":"Office Supplies","icon":{"prefix":"https:\/\/ss1.4sqi.net\/img\/categories_v2\/shops\/papergoods_","suffix":".png"},"primary":"true"}],"verified":"true","restricted":"true","stats":{"checkinsCount":"2336","usersCount":"1280","tipCount":"26"},"url":"http:\/\/www.paperchase.co.uk","specials":{"count":"0"},"hereNow":{"count":"0"},"storeId":"Tottenham Court Rd","referralId":"v-1392478002"},{"id":"4e819bd8b803a711b9111f93","name":"O2 Workshop","contact":{"phone":"+442075802202","formattedPhone":"+44 20 7580 2202"},"location":{"address":"229 Tottenham Court Road","lat":"51.518948","lng":"-0.132856","distance":"38","postalCode":"W1T 7QG","cc":"GB","city":"Camden Town","state":"Greater London","country":"United Kingdom"},"categories":[{"id":"4bf58dd8d48988d171941735","name":"Event Space","pluralName":"Event Spaces","shortName":"Event Space","icon":{"prefix":"https:\/\/ss1.4sqi.net\/img\/categories_v2\/building\/eventspace_","suffix":".png"},"primary":"true"}],"verified":"false","restricted":"true","stats":{"checkinsCount":"302","usersCount":"186","tipCount":"3"},"specials":{"count":"0"},"hereNow":{"count":"0"},"referralId":"v-1392478002"},{"id":"4ff05d87e4b08cbcb837ede7","name":"Dfs","contact":{"phone":"+442073237490","formattedPhone":"+44 20 7323 7490"},"location":{"address":"220-224 Tottenham Court Rd.","lat":"51.51961170280507","lng":"-0.13325996737265666","distance":"47","postalCode":"W1T 7PZ","cc":"GB","city":"London","state":"Greater London","country":"United Kingdom"},"categories":[{"id":"4bf58dd8d48988d1f8941735","name":"Furniture \/ Home Store","pluralName":"Furniture \/ Home Stores","shortName":"Furniture \/ Home","icon":{"prefix":"https:\/\/ss1.4sqi.net\/img\/categories_v2\/shops\/furniture_","suffix":".png"},"primary":"true"}],"verified":"false","restricted":"true","stats":{"checkinsCount":"39","usersCount":"35","tipCount":"0"},"url":"http:\/\/www.dfs.co.uk\/stores\/tottenham-court-road\/","specials":{"count":"0"},"hereNow":{"count":"0"},"referralId":"v-1392478002"},{"id":"4adc5461f964a520bb2b21e3","name":"ZenithOptimedia","contact":{"phone":"+442079611000","formattedPhone":"+44 20 7961 1000","twitter":"zenithoptimedia"},"location":{"address":"24 Percy St.","lat":"51.51864089010552","lng":"-0.13312876224517822","distance":"75","postalCode":"W1T 2BS","cc":"GB","city":"London","state":"Greater London","country":"United Kingdom"},"categories":[{"id":"4bf58dd8d48988d124941735","name":"Office","pluralName":"Offices","shortName":"Office","icon":{"prefix":"https:\/\/ss1.4sqi.net\/img\/categories_v2\/building\/default_","suffix":".png"},"primary":"true"}],"verified":"true","restricted":"true","stats":{"checkinsCount":"2739","usersCount":"423","tipCount":"5"},"specials":{"count":"0"},"hereNow":{"count":"0"},"referralId":"v-1392478002"},{"id":"50640b19e41287577e2ec779","name":"GAIL's Kitchen","contact":{"phone":"+442073232356","formattedPhone":"+44 20 7323 2356","twitter":"gailstwitter"},"location":{"address":"11-13 Bayley St.","lat":"51.51885118756938","lng":"-0.13167500495910645","distance":"92","postalCode":"WC1B 3HD","cc":"GB","city":"London","state":"Greater London","country":"United Kingdom"},"categories":[{"id":"4bf58dd8d48988d1c4941735","name":"Restaurant","pluralName":"Restaurants","shortName":"Restaurant","icon":{"prefix":"https:\/\/ss1.4sqi.net\/img\/categories_v2\/food\/default_","suffix":".png"},"primary":"true"}],"verified":"false","restricted":"true","stats":{"checkinsCount":"463","usersCount":"308","tipCount":"12"},"url":"http:\/\/www.gailskitchen.co.uk","reservations":{"url":"http:\/\/www.toptable.co.uk\/single.aspx?rid=93420&ref=9601"},"menu":{"type":"Menu","label":"Menu","anchor":"View Menu","url":"https:\/\/foursquare.com\/v\/gails-kitchen\/50640b19e41287577e2ec779\/menu","mobileUrl":"https:\/\/foursquare.com\/v\/50640b19e41287577e2ec779\/device_menu"},"specials":{"count":"0"},"hereNow":{"count":"0"},"storeId":"","referralId":"v-1392478002"},{"id":"4fbd95f0e4b01fc167af2d57","name":"DESIGNER SOFAS","contact":{"phone":"+442076378001","formattedPhone":"+44 20 7637 8001"},"location":{"address":"82 TOTTENHAM COURT ROAD","lat":"51.519118822058445","lng":"-0.1329881253412719","distance":"22","postalCode":"W1T 4TF","cc":"GB","city":"London","state":"Greater London","country":"United Kingdom"},"categories":[{"id":"4bf58dd8d48988d1f8941735","name":"Furniture \/ Home Store","pluralName":"Furniture \/ Home Stores","shortName":"Furniture \/ Home","icon":{"prefix":"https:\/\/ss1.4sqi.net\/img\/categories_v2\/shops\/furniture_","suffix":".png"},"primary":"true"}],"verified":"false","restricted":"true","stats":{"checkinsCount":"2","usersCount":"2","tipCount":"0"},"specials":{"count":"0"},"hereNow":{"count":"0"},"referralId":"v-1392478002"},{"id":"50fc2223e4b05d912eaf8e8d","name":"The Life Goddess","contact":{"phone":"+442076372401","formattedPhone":"+44 20 7637 2401","twitter":"thelifegoddess"},"location":{"address":"29 Store St","lat":"51.519798318934185","lng":"-0.1314460490734542","distance":"109","postalCode":"WC1E 7BS","cc":"GB","city":"London","state":"Greater London","country":"United Kingdom"},"categories":[{"id":"4bf58dd8d48988d146941735","name":"Deli \/ Bodega","pluralName":"Delis \/ Bodegas","shortName":"Deli \/ Bodega","icon":{"prefix":"https:\/\/ss1.4sqi.net\/img\/categories_v2\/food\/deli_","suffix":".png"},"primary":"true"}],"verified":"false","restricted":"true","stats":{"checkinsCount":"950","usersCount":"431","tipCount":"22"},"url":"http:\/\/www.thelifegoddess.com","specials":{"count":"0"},"hereNow":{"count":"1","groups":[{"type":"others","name":"Other people here","count":"1"}]},"referralId":"v-1392478002"},{"id":"4b44a736f964a520a7f825e3","name":"New London Architecture","location":{"address":"Store St.","lat":"51.519427","lng":"-0.132356","distance":"34","cc":"GB","city":"London","state":"Greater London","country":"United Kingdom"},"categories":[{"id":"4bf58dd8d48988d1f1931735","name":"General Entertainment","pluralName":"General Entertainment","shortName":"Entertainment","icon":{"prefix":"https:\/\/ss1.4sqi.net\/img\/categories_v2\/arts_entertainment\/default_","suffix":".png"},"primary":"true"}],"verified":"false","restricted":"true","stats":{"checkinsCount":"64","usersCount":"47","tipCount":"2"},"specials":{"count":"0"},"hereNow":{"count":"0"},"referralId":"v-1392478002"},{"id":"4da3719f63b5a35dfb29121a","name":"Chettinad","contact":{"phone":"+442035561229","formattedPhone":"+44 20 3556 1229"},"location":{"address":"16 Percy St.","lat":"51.51855943012264","lng":"-0.13289949312869592","distance":"81","postalCode":"W1T 1DT","cc":"GB","city":"London","state":"Greater London","country":"United Kingdom"},"categories":[{"id":"4bf58dd8d48988d10f941735","name":"Indian Restaurant","pluralName":"Indian Restaurants","shortName":"Indian","icon":{"prefix":"https:\/\/ss1.4sqi.net\/img\/categories_v2\/food\/indian_","suffix":".png"},"primary":"true"}],"verified":"false","restricted":"true","stats":{"checkinsCount":"393","usersCount":"293","tipCount":"17"},"url":"http:\/\/www.chettinadrestaurant.com","reservations":{"url":"http:\/\/www.toptable.co.uk\/single.aspx?rid=81643&ref=9601"},"menu":{"type":"Menu","label":"Menu","anchor":"View Menu","url":"https:\/\/foursquare.com\/v\/chettinad\/4da3719f63b5a35dfb29121a\/menu","mobileUrl":"https:\/\/foursquare.com\/v\/4da3719f63b5a35dfb29121a\/device_menu"},"specials":{"count":"0"},"hereNow":{"count":"0"},"referralId":"v-1392478002"},{"id":"51f4de6e498e25515aad1a0c","name":"Caffe Nero","location":{"address":"238 Tottenham Court Road","lat":"51.51850358955344","lng":"-0.1322334247801894","distance":"95","cc":"GB","city":"London","state":"Greater London","country":"United Kingdom"},"categories":[{"id":"4bf58dd8d48988d1e0931735","name":"Coffee Shop","pluralName":"Coffee Shops","shortName":"Coffee Shop","icon":{"prefix":"https:\/\/ss1.4sqi.net\/img\/categories_v2\/food\/coffeeshop_","suffix":".png"},"primary":"true"}],"verified":"false","restricted":"true","stats":{"checkinsCount":"171","usersCount":"135","tipCount":"4"},"specials":{"count":"0"},"hereNow":{"count":"1","groups":[{"type":"others","name":"Other people here","count":"1"}]},"referralId":"v-1392478002"},{"id":"4f8d6987e4b00c10ec2fa3c0","name":"YouMeSushi","contact":{"twitter":"youmesushi","facebook":"148745948965"},"location":{"address":"37 Tottenham Court Rd","lat":"51.518490677036795","lng":"-0.13239383697509766","distance":"93","cc":"GB","city":"London","state":"Greater London","country":"United Kingdom"},"categories":[{"id":"4bf58dd8d48988d1d2941735","name":"Sushi Restaurant","pluralName":"Sushi Restaurants","shortName":"Sushi","icon":{"prefix":"https:\/\/ss1.4sqi.net\/img\/categories_v2\/food\/sushi_","suffix":".png"},"primary":"true"}],"verified":"true","restricted":"true","stats":{"checkinsCount":"555","usersCount":"259","tipCount":"10"},"url":"http:\/\/www.youmesushi.com","menu":{"type":"Menu","label":"Menu","anchor":"View Menu","url":"https:\/\/foursquare.com\/v\/youmesushi\/4f8d6987e4b00c10ec2fa3c0\/menu","mobileUrl":"https:\/\/foursquare.com\/v\/4f8d6987e4b00c10ec2fa3c0\/device_menu"},"specials":{"count":"1","items":[{"id":"525290a093cd57ff5457a7aa","type":"frequency","message":"Free California Uramaki on orders over \u00a320","description":"Unlocked every check-in","finePrint":"Only on orders over \u00a320, Not in conjunction with any other offer. Not available in Tottenham Court Road Branch.","icon":"check-in","title":"Check-in Special","provider":"foursquare","redemption":"standard","page":{"id":"44908044","firstName":"YouMe Sushi","gender":"none","photo":{"prefix":"https:\/\/irs0.4sqi.net\/img\/user\/","suffix":"\/TQ1UKEJG4FLWBVQI.jpg"},"type":"chain","followers":{"count":"11"},"tips":{"count":"0"},"homeCity":"London, UK","bio":"","contact":{"twitter":"youmesushi","facebook":"148745948965"}}}]},"hereNow":{"count":"0"},"referralId":"v-1392478002"},{"id":"4af608faf964a520690022e3","name":"Odeon","contact":{"phone":"+442076366749","formattedPhone":"+44 20 7636 6749","twitter":"odeontheatres"},"location":{"address":"30 Tottenham Ct. Rd.","lat":"51.51851","lng":"-0.132019","distance":"102","postalCode":"W1T 1BX","cc":"GB","city":"London","state":"Greater London","country":"United Kingdom"},"categories":[{"id":"4bf58dd8d48988d17f941735","name":"Movie Theater","pluralName":"Movie Theaters","shortName":"Movie Theater","icon":{"prefix":"https:\/\/ss1.4sqi.net\/img\/categories_v2\/arts_entertainment\/movietheater_","suffix":".png"},"primary":"true"}],"verified":"false","restricted":"true","stats":{"checkinsCount":"1323","usersCount":"1016","tipCount":"15"},"specials":{"count":"0"},"events":{"count":"3","summary":"3 movies"},"hereNow":{"count":"0"},"referralId":"v-1392478002"},{"id":"4ac518b5f964a520b5a020e3","name":"myhotel","contact":{"phone":"+442030046000","formattedPhone":"+44 20 3004 6000"},"location":{"address":"11-13 Bayley St.","crossStreet":"at Bedford Square","lat":"51.51873435576489","lng":"-0.13206392526626587","distance":"80","postalCode":"WC1B 3HD","cc":"GB","city":"Camden","state":"Greater London","country":"United Kingdom"},"categories":[{"id":"4bf58dd8d48988d1fa931735","name":"Hotel","pluralName":"Hotels","shortName":"Hotel","icon":{"prefix":"https:\/\/ss1.4sqi.net\/img\/categories_v2\/travel\/hotel_","suffix":".png"},"primary":"true"}],"verified":"false","restricted":"true","stats":{"checkinsCount":"1460","usersCount":"643","tipCount":"16"},"specials":{"count":"0"},"hereNow":{"count":"0"},"referralId":"v-1392478002"},{"id":"5221d93b11d2750f339082be","name":"Sharps Coffee Bar by DunneFrankowski","contact":{"phone":"+442076371040","formattedPhone":"+44 20 7637 1040"},"location":{"address":"9 Windmill St","lat":"51.518724341596275","lng":"-0.13396024703979492","distance":"101","postalCode":"W1T 2JF","cc":"GB","city":"London","state":"Greater London","country":"United Kingdom"},"categories":[{"id":"4bf58dd8d48988d16d941735","name":"Caf\u00e9","pluralName":"Caf\u00e9s","shortName":"Caf\u00e9","icon":{"prefix":"https:\/\/ss1.4sqi.net\/img\/categories_v2\/food\/cafe_","suffix":".png"},"primary":"true"}],"verified":"true","restricted":"true","stats":{"checkinsCount":"108","usersCount":"64","tipCount":"2"},"url":"http:\/\/dunnefrankowski.tumblr.com","specials":{"count":"0"},"hereNow":{"count":"2","groups":[{"type":"others","name":"Other people here","count":"2"}]},"referralId":"v-1392478002"},{"id":"4ac518caf964a520bda520e3","name":"The Elysee Restaurant and Roof Garden","contact":{"twitter":"elysee"},"location":{"address":"13 Percy Street","lat":"51.518323600460334","lng":"-0.13292659997022316","distance":"107","postalCode":"W1T 1DP","cc":"GB","city":"London","state":"Greater London","country":"United Kingdom"},"categories":[{"id":"4bf58dd8d48988d1e5931735","name":"Music Venue","pluralName":"Music Venues","shortName":"Music Venue","icon":{"prefix":"https:\/\/ss1.4sqi.net\/img\/categories_v2\/arts_entertainment\/musicvenue_","suffix":".png"},"primary":"true"}],"verified":"false","restricted":"true","stats":{"checkinsCount":"1119","usersCount":"700","tipCount":"11"},"url":"http:\/\/www.elyseerestaurant.com","specials":{"count":"0"},"hereNow":{"count":"0"},"referralId":"v-1392478002"},{"id":"5101003ee4b020383c5b0bf5","name":"Tinderbox Espresso Bar","contact":{"phone":"+442074676200","formattedPhone":"+44 20 7467 6200"},"location":{"address":"Paperchase","crossStreet":"213-215 Tottenham Court Rd.","lat":"51.5198676","lng":"-0.133554","distance":"82","postalCode":"W1T 7PS","cc":"GB","city":"London","state":"Greater London","country":"United Kingdom"},"categories":[{"id":"4bf58dd8d48988d1e0931735","name":"Coffee Shop","pluralName":"Coffee Shops","shortName":"Coffee Shop","icon":{"prefix":"https:\/\/ss1.4sqi.net\/img\/categories_v2\/food\/coffeeshop_","suffix":".png"},"primary":"true"}],"verified":"false","restricted":"true","stats":{"checkinsCount":"137","usersCount":"76","tipCount":"4"},"specials":{"count":"0"},"hereNow":{"count":"0"},"referralId":"v-1392478002"}],"confident":"true"}}