{"meta":{"code":"200"},"response":{"venues":[{"id":"4ace553cf964a520efcf20e3","name":"Soho Theatre Bar","contact":{"phone":"+442074349393","formattedPhone":"+44 20 7434 9393","twitter":"sohotheatre"},"location":{"address":"21 Dean St.","lat":"51.514396017508524","lng":"-0.13304040862126432","distance":"20","postalCode":"W1D 3NE","cc":"GB","city":"London","state":"Greater London","country":"United Kingdom"},"categories":[{"id":"4bf58dd8d48988d116941735","name":"Bar","pluralName":"Bars","shortName":"Bar","icon":{"prefix":"https:\/\/ss1.4sqi.net\/img\/categories_v2\/nightlife\/bar_","suffix":".png"},"primary":"true"}],"verified":"false","restricted":"true","stats":{"checkinsCount":"1702","usersCount":"1132","tipCount":"17"},"specials":{"count":"0"},"hereNow":{"count":"0"},"referralId":"v-1392478015"},{"id":"4c34bdc116adc928e4a8c59c","name":"Soho Joe","contact":{"twitter":"sohojoeuk"},"location":{"address":"22-25 Dean St","lat":"51.514114252170366","lng":"-0.13280153274536133","distance":"19","postalCode":"W1D 3RY","cc":"GB","city":"London","state":"Greater London","country":"United Kingdom"},"categories":[{"id":"4bf58dd8d48988d1ca941735","name":"Pizza Place","pluralName":"Pizza Places","shortName":"Pizza","icon":{"prefix":"https:\/\/ss1.4sqi.net\/img\/categories_v2\/food\/pizza_","suffix":".png"},"primary":"true"}],"verified":"true","restricted":"true","stats":{"checkinsCount":"2436","usersCount":"1430","tipCount":"68"},"url":"http:\/\/www.sohojoe.net","specials":{"count":"0"},"hereNow":{"count":"0"},"venuePage":{"id":"47561737"},"storeId":"","referralId":"v-1392478015"},{"id":"4ac518e8f964a5209fab20e3","name":"Soho Theatre","contact":{"twitter":"sohotheatre"},"location":{"address":"21 Dean St","lat":"51.514442099143984","lng":"-0.13309224489086263","distance":"26","postalCode":"W1D 3NE","cc":"GB","city":"London","state":"Greater London","country":"United Kingdom"},"categories":[{"id":"4bf58dd8d48988d137941735","name":"Theater","pluralName":"Theaters","shortName":"Theater","icon":{"prefix":"https:\/\/ss1.4sqi.net\/img\/categories_v2\/arts_entertainment\/performingarts_theater_","suffix":".png"},"primary":"true"}],"verified":"false","restricted":"true","stats":{"checkinsCount":"2350","usersCount":"1528","tipCount":"13"},"url":"http:\/\/sohotheatre.com","specials":{"count":"0"},"hereNow":{"count":"1","groups":[{"type":"others","name":"Other people here","count":"1"}]},"referralId":"v-1392478015"},{"id":"4ad771e0f964a5208f0a21e3","name":"The Crown & Two Chairmen","contact":{"phone":"+442074378192","formattedPhone":"+44 20 7437 8192","twitter":"crown2chairmen"},"location":{"address":"31-32 Dean St.","crossStreet":"at Bateman St.","lat":"51.51391060965403","lng":"-0.1325225830078125","distance":"46","postalCode":"W1D 3SB","cc":"GB","city":"London","state":"Greater London","country":"United Kingdom"},"categories":[{"id":"4bf58dd8d48988d11b941735","name":"Pub","pluralName":"Pubs","shortName":"Pub","icon":{"prefix":"https:\/\/ss1.4sqi.net\/img\/categories_v2\/nightlife\/pub_","suffix":".png"},"primary":"true"}],"verified":"false","restricted":"true","stats":{"checkinsCount":"4967","usersCount":"2628","tipCount":"49"},"url":"http:\/\/www.thecrownandtwochairmenw1.co.uk","menu":{"type":"Menu","label":"Menu","anchor":"View Menu","url":"https:\/\/foursquare.com\/v\/the-crown--two-chairmen\/4ad771e0f964a5208f0a21e3\/menu","mobileUrl":"https:\/\/foursquare.com\/v\/4ad771e0f964a5208f0a21e3\/device_menu"},"specials":{"count":"0"},"hereNow":{"count":"0"},"referralId":"v-1392478015"},{"id":"4dc316e145dd264552352b35","name":"Circa","contact":{"phone":"+442077346826","formattedPhone":"+44 20 7734 6826","twitter":"circasoho"},"location":{"address":"62 Frith St","lat":"51.514311217016754","lng":"-0.1322007179260254","distance":"41","postalCode":"W1D 3JN","cc":"GB","city":"London","state":"Greater London","country":"United Kingdom"},"categories":[{"id":"4bf58dd8d48988d1d8941735","name":"Gay Bar","pluralName":"Gay Bars","shortName":"Gay Bar","icon":{"prefix":"https:\/\/ss1.4sqi.net\/img\/categories_v2\/nightlife\/gaybar_","suffix":".png"},"primary":"true"}],"verified":"false","restricted":"true","stats":{"checkinsCount":"2463","usersCount":"800","tipCount":"15"},"url":"http:\/\/www.circasoho.com","specials":{"count":"0"},"hereNow":{"count":"0"},"referralId":"v-1392478015"},{"id":"4ac518d4f964a520bda720e3","name":"Quo Vadis","location":{"address":"26-29 Dean St","lat":"51.51396989822388","lng":"-0.132721","distance":"35","postalCode":"W1D 3LL","cc":"GB","city":"London","state":"Greater London","country":"United Kingdom"},"categories":[{"id":"4bf58dd8d48988d1c4941735","name":"Restaurant","pluralName":"Restaurants","shortName":"Restaurant","icon":{"prefix":"https:\/\/ss1.4sqi.net\/img\/categories_v2\/food\/default_","suffix":".png"},"primary":"true"}],"verified":"false","restricted":"true","stats":{"checkinsCount":"1544","usersCount":"959","tipCount":"30"},"url":"http:\/\/www.quovadissoho.co.uk","reservations":{"url":"http:\/\/www.toptable.co.uk\/single.aspx?rid=74284&ref=9601"},"menu":{"type":"Menu","label":"Menu","anchor":"View Menu","url":"https:\/\/foursquare.com\/v\/quo-vadis\/4ac518d4f964a520bda720e3\/menu","mobileUrl":"https:\/\/foursquare.com\/v\/4ac518d4f964a520bda720e3\/device_menu"},"specials":{"count":"0"},"hereNow":{"count":"0"},"referralId":"v-1392478015"},{"id":"500589dfe4b03bef973ee81e","name":"Burger & Lobster","contact":{"phone":"+442074324800","formattedPhone":"+44 20 7432 4800","twitter":"londonlobster"},"location":{"address":"36 Dean St","lat":"51.51340591129446","lng":"-0.13240400258084384","distance":"102","postalCode":"W1D 4PS","cc":"GB","city":"London","state":"Greater London","country":"United Kingdom"},"categories":[{"id":"4bf58dd8d48988d1ce941735","name":"Seafood Restaurant","pluralName":"Seafood Restaurants","shortName":"Seafood","icon":{"prefix":"https:\/\/ss1.4sqi.net\/img\/categories_v2\/food\/seafood_","suffix":".png"},"primary":"true"}],"verified":"false","restricted":"true","stats":{"checkinsCount":"5539","usersCount":"4245","tipCount":"109"},"url":"http:\/\/burgerandlobster.com\u200e","specials":{"count":"0"},"hereNow":{"count":"6","groups":[{"type":"others","name":"Other people here","count":"6"}]},"referralId":"v-1392478015"},{"id":"4ad31935f964a52013e320e3","name":"Princi","contact":{"phone":"+442074788888","formattedPhone":"+44 20 7478 8888"},"location":{"address":"135 Wardour St.","lat":"51.513931983514446","lng":"-0.13429298328258726","distance":"110","postalCode":"W1F 0UF","cc":"GB","city":"London","state":"Greater London","country":"United Kingdom"},"categories":[{"id":"4bf58dd8d48988d110941735","name":"Italian Restaurant","pluralName":"Italian Restaurants","shortName":"Italian","icon":{"prefix":"https:\/\/ss1.4sqi.net\/img\/categories_v2\/food\/italian_","suffix":".png"},"primary":"true"}],"verified":"false","restricted":"true","stats":{"checkinsCount":"9964","usersCount":"5584","tipCount":"252"},"url":"http:\/\/www.princi.co.uk","menu":{"type":"Menu","label":"Menu","anchor":"View Menu","url":"https:\/\/foursquare.com\/v\/princi\/4ad31935f964a52013e320e3\/menu","mobileUrl":"https:\/\/foursquare.com\/v\/4ad31935f964a52013e320e3\/device_menu"},"specials":{"count":"0"},"hereNow":{"count":"6","groups":[{"type":"others","name":"Other people here","count":"6"}]},"referralId":"v-1392478015"},{"id":"4ed619be0cd6b3fd4c41cff4","name":"Ceviche","contact":{"phone":"+442072922040","formattedPhone":"+44 20 7292 2040","twitter":"martinceviche","facebook":"180225598657864"},"location":{"address":"17 Frith St.","lat":"51.51435127755928","lng":"-0.1319432258605957","distance":"59","postalCode":"W1D 4RG","cc":"GB","city":"London","state":"Greater London","country":"United Kingdom"},"categories":[{"id":"4eb1bfa43b7b52c0e1adc2e8","name":"Peruvian Restaurant","pluralName":"Peruvian Restaurants","shortName":"Peruvian","icon":{"prefix":"https:\/\/ss1.4sqi.net\/img\/categories_v2\/food\/default_","suffix":".png"},"primary":"true"}],"verified":"true","restricted":"true","stats":{"checkinsCount":"1538","usersCount":"1246","tipCount":"64"},"url":"http:\/\/cevicheuk.com","reservations":{"url":"http:\/\/www.toptable.co.uk\/single.aspx?rid=88414&ref=9601"},"menu":{"type":"Menu","label":"Menu","anchor":"View Menu","url":"https:\/\/foursquare.com\/v\/ceviche\/4ed619be0cd6b3fd4c41cff4\/menu","mobileUrl":"https:\/\/foursquare.com\/v\/4ed619be0cd6b3fd4c41cff4\/device_menu"},"specials":{"count":"0"},"hereNow":{"count":"1","groups":[{"type":"others","name":"Other people here","count":"1"}]},"venuePage":{"id":"33847526"},"storeId":"","referralId":"v-1392478015"},{"id":"4ac518b8f964a5206ba120e3","name":"Soho Hotel","contact":{"phone":"+442075593000","formattedPhone":"+44 20 7559 3000"},"location":{"address":"4 Richmond Mews","lat":"51.514057499429434","lng":"-0.13365983963012695","distance":"64","postalCode":"W1D 3DH","cc":"GB","city":"London","state":"Greater London","country":"United Kingdom"},"categories":[{"id":"4bf58dd8d48988d1fa931735","name":"Hotel","pluralName":"Hotels","shortName":"Hotel","icon":{"prefix":"https:\/\/ss1.4sqi.net\/img\/categories_v2\/travel\/hotel_","suffix":".png"},"primary":"true"}],"verified":"false","restricted":"true","stats":{"checkinsCount":"4962","usersCount":"3015","tipCount":"40"},"url":"http:\/\/www.firmdalehotels.com\/london\/the-soho-hotel","reservations":{"url":"http:\/\/www.toptable.co.uk\/single.aspx?rid=74689&ref=9601"},"specials":{"count":"0"},"hereNow":{"count":"0"},"referralId":"v-1392478015"},{"id":"5203527b498e679b2b218e2e","name":"Chotto Matte","contact":{"phone":"+442070427171","formattedPhone":"+44 20 7042 7171","twitter":"chottomattesoho"},"location":{"address":"11\u201313 Frith St","crossStreet":"Bateman St","lat":"51.513981846768665","lng":"-0.1316884595141041","distance":"84","postalCode":"W1D 4RB","cc":"GB","city":"London","state":"Greater London","country":"United Kingdom"},"categories":[{"id":"4bf58dd8d48988d111941735","name":"Japanese Restaurant","pluralName":"Japanese Restaurants","shortName":"Japanese","icon":{"prefix":"https:\/\/ss1.4sqi.net\/img\/categories_v2\/food\/japanese_","suffix":".png"},"primary":"true"}],"verified":"false","restricted":"true","stats":{"checkinsCount":"579","usersCount":"486","tipCount":"35"},"url":"http:\/\/www.chotto-matte.com","specials":{"count":"0"},"hereNow":{"count":"1","groups":[{"type":"others","name":"Other people here","count":"1"}]},"referralId":"v-1392478015"},{"id":"4ac518c0f964a52074a320e3","name":"The Red Fort","contact":{"phone":"+442074372525","formattedPhone":"+44 20 7437 2525"},"location":{"address":"77 Dean St.","lat":"51.51405753357059","lng":"-0.13279738478333564","distance":"25","postalCode":"W1D 3SH","cc":"GB","city":"London","state":"Greater London","country":"United Kingdom"},"categories":[{"id":"4bf58dd8d48988d10f941735","name":"Indian Restaurant","pluralName":"Indian Restaurants","shortName":"Indian","icon":{"prefix":"https:\/\/ss1.4sqi.net\/img\/categories_v2\/food\/indian_","suffix":".png"},"primary":"true"}],"verified":"false","restricted":"true","stats":{"checkinsCount":"568","usersCount":"503","tipCount":"12"},"url":"http:\/\/www.redfort.co.uk","reservations":{"url":"http:\/\/www.toptable.co.uk\/single.aspx?rid=69472&ref=9601"},"menu":{"type":"Menu","label":"Menu","anchor":"View Menu","url":"https:\/\/foursquare.com\/v\/the-red-fort\/4ac518c0f964a52074a320e3\/menu","mobileUrl":"https:\/\/foursquare.com\/v\/4ac518c0f964a52074a320e3\/device_menu"},"specials":{"count":"0"},"hereNow":{"count":"0"},"referralId":"v-1392478015"},{"id":"4b54b9b2f964a52020c927e3","name":"Dean Street Townhouse","contact":{"phone":"+442074341775","formattedPhone":"+44 20 7434 1775","twitter":"deansttownhouse"},"location":{"address":"69-71 Dean St","lat":"51.51348811216271","lng":"-0.13248455066319761","distance":"91","postalCode":"W1D 3SG","cc":"GB","city":"London","state":"Greater London","country":"United Kingdom"},"categories":[{"id":"4bf58dd8d48988d1fa931735","name":"Hotel","pluralName":"Hotels","shortName":"Hotel","icon":{"prefix":"https:\/\/ss1.4sqi.net\/img\/categories_v2\/travel\/hotel_","suffix":".png"},"primary":"true"}],"verified":"false","restricted":"true","stats":{"checkinsCount":"4617","usersCount":"2780","tipCount":"80"},"url":"http:\/\/www.deanstreettownhouse.com","reservations":{"url":"http:\/\/www.toptable.co.uk\/single.aspx?rid=53827&ref=9601"},"menu":{"type":"Menu","label":"Menu","anchor":"View Menu","url":"https:\/\/foursquare.com\/v\/dean-street-townhouse\/4b54b9b2f964a52020c927e3\/menu","mobileUrl":"https:\/\/foursquare.com\/v\/4b54b9b2f964a52020c927e3\/device_menu"},"specials":{"count":"0"},"hereNow":{"count":"1","groups":[{"type":"others","name":"Other people here","count":"1"}]},"referralId":"v-1392478015"},{"id":"4ac518bef964a52020a320e3","name":"Dog and Duck","contact":{"phone":"+442074940697","formattedPhone":"+44 20 7494 0697"},"location":{"address":"18 Bateman St","lat":"51.51397135535941","lng":"-0.13178584830142218","distance":"78","postalCode":"W1D 3AJ","cc":"GB","city":"London","state":"Greater London","country":"United Kingdom"},"categories":[{"id":"4bf58dd8d48988d11b941735","name":"Pub","pluralName":"Pubs","shortName":"Pub","icon":{"prefix":"https:\/\/ss1.4sqi.net\/img\/categories_v2\/nightlife\/pub_","suffix":".png"},"primary":"true"}],"verified":"false","restricted":"true","stats":{"checkinsCount":"2242","usersCount":"1669","tipCount":"22"},"url":"http:\/\/www.nicholsonspubs.co.uk\/thedogandducksoholondon","specials":{"count":"0"},"hereNow":{"count":"2","groups":[{"type":"others","name":"Other people here","count":"2"}]},"referralId":"v-1392478015"},{"id":"4ace481af964a5209acf20e3","name":"Busaba Eathai","contact":{"phone":"+442072558686","formattedPhone":"+44 20 7255 8686","twitter":"busabaeathai"},"location":{"address":"106 Wardour St","lat":"51.513845372723154","lng":"-0.13428969010126257","distance":"114","postalCode":"W1F 0TR","cc":"GB","city":"London","state":"Greater London","country":"United Kingdom"},"categories":[{"id":"4bf58dd8d48988d149941735","name":"Thai Restaurant","pluralName":"Thai Restaurants","shortName":"Thai","icon":{"prefix":"https:\/\/ss1.4sqi.net\/img\/categories_v2\/food\/thai_","suffix":".png"},"primary":"true"}],"verified":"false","restricted":"true","stats":{"checkinsCount":"5392","usersCount":"4120","tipCount":"150"},"url":"http:\/\/busaba.com","menu":{"type":"Menu","label":"Menu","anchor":"View Menu","url":"https:\/\/foursquare.com\/v\/busaba-eathai\/4ace481af964a5209acf20e3\/menu","mobileUrl":"https:\/\/foursquare.com\/v\/4ace481af964a5209acf20e3\/device_menu"},"specials":{"count":"0"},"hereNow":{"count":"2","groups":[{"type":"others","name":"Other people here","count":"2"}]},"referralId":"v-1392478015"},{"id":"51dfcc1a498e1abc7c95e3e4","name":"Pizza Pilgrims","contact":{"phone":"+447780667258","formattedPhone":"+44 7780 667258","twitter":"pizzapilgrims"},"location":{"address":"11-12 Dean St","crossStreet":"Carlisle St","lat":"51.514862891408875","lng":"-0.13324362878296225","distance":"70","postalCode":"W1D 3RP","cc":"GB","city":"London","state":"Greater London","country":"United Kingdom"},"categories":[{"id":"4bf58dd8d48988d1ca941735","name":"Pizza Place","pluralName":"Pizza Places","shortName":"Pizza","icon":{"prefix":"https:\/\/ss1.4sqi.net\/img\/categories_v2\/food\/pizza_","suffix":".png"},"primary":"true"}],"verified":"false","restricted":"true","stats":{"checkinsCount":"539","usersCount":"420","tipCount":"23"},"url":"http:\/\/pizzapilgrims.co.uk","specials":{"count":"0"},"hereNow":{"count":"0"},"referralId":"v-1392478015"},{"id":"501d1b63e4b035a2200fd19e","name":"Honest Burgers","contact":{"phone":"+442036099524","formattedPhone":"+44 20 3609 9524"},"location":{"address":"4 Meard St","lat":"51.51329040527344","lng":"-0.1329759955406189","distance":"111","postalCode":"W1F 0EF","cc":"GB","city":"London","state":"Greater London","country":"United Kingdom"},"categories":[{"id":"4bf58dd8d48988d16c941735","name":"Burger Joint","pluralName":"Burger Joints","shortName":"Burgers","icon":{"prefix":"https:\/\/ss1.4sqi.net\/img\/categories_v2\/food\/burger_","suffix":".png"},"primary":"true"}],"verified":"false","restricted":"true","stats":{"checkinsCount":"2705","usersCount":"1912","tipCount":"81"},"url":"http:\/\/www.honestburgers.co.uk\u200e","menu":{"type":"Menu","label":"Menu","anchor":"View Menu","url":"https:\/\/foursquare.com\/v\/honest-burgers\/501d1b63e4b035a2200fd19e\/menu","mobileUrl":"https:\/\/foursquare.com\/v\/501d1b63e4b035a2200fd19e\/device_menu"},"specials":{"count":"0"},"hereNow":{"count":"1","groups":[{"type":"others","name":"Other people here","count":"1"}]},"referralId":"v-1392478015"},{"id":"4acda021f964a5206bcc20e3","name":"Milkbar","contact":{"phone":"+442072874796","formattedPhone":"+44 20 7287 4796"},"location":{"address":"3-5 Bateman St.","crossStreet":"Greek St.","lat":"51.51406417622615","lng":"-0.1315140724182129","distance":"92","postalCode":"W1D 4AG","cc":"GB","city":"London","state":"Greater London","country":"United Kingdom"},"categories":[{"id":"4bf58dd8d48988d1e0931735","name":"Coffee Shop","pluralName":"Coffee Shops","shortName":"Coffee Shop","icon":{"prefix":"https:\/\/ss1.4sqi.net\/img\/categories_v2\/food\/coffeeshop_","suffix":".png"},"primary":"true"}],"verified":"true","restricted":"true","stats":{"checkinsCount":"3012","usersCount":"1276","tipCount":"58"},"url":"http:\/\/www.flatwhitecafe.com\/milkbar.html","menu":{"type":"Menu","label":"Menu","anchor":"View Menu","url":"https:\/\/foursquare.com\/v\/milkbar\/4acda021f964a5206bcc20e3\/menu","mobileUrl":"https:\/\/foursquare.com\/v\/4acda021f964a5206bcc20e3\/device_menu"},"specials":{"count":"0"},"hereNow":{"count":"1","groups":[{"type":"others","name":"Other people here","count":"1"}]},"venuePage":{"id":"43555892"},"referralId":"v-1392478015"},{"id":"4ac518dff964a5200daa20e3","name":"Arbutus","contact":{"phone":"+442072878624","formattedPhone":"+44 20 7287 8624","twitter":"arbutus"},"location":{"address":"63-64 Frith St","crossStreet":"at Soho Sq","lat":"51.51448941853135","lng":"-0.13210431424012564","distance":"53","postalCode":"W1D 3JW","cc":"GB","city":"London","state":"Greater London","country":"United Kingdom"},"categories":[{"id":"4bf58dd8d48988d1c4941735","name":"Restaurant","pluralName":"Restaurants","shortName":"Restaurant","icon":{"prefix":"https:\/\/ss1.4sqi.net\/img\/categories_v2\/food\/default_","suffix":".png"},"primary":"true"}],"verified":"false","restricted":"true","stats":{"checkinsCount":"997","usersCount":"878","tipCount":"40"},"url":"http:\/\/www.arbutusrestaurant.co.uk","reservations":{"url":"http:\/\/www.toptable.co.uk\/single.aspx?rid=87331&ref=9601"},"menu":{"type":"Menu","label":"Menu","anchor":"View Menu","url":"https:\/\/foursquare.com\/v\/arbutus\/4ac518dff964a5200daa20e3\/menu","mobileUrl":"https:\/\/foursquare.com\/v\/4ac518dff964a5200daa20e3\/device_menu"},"specials":{"count":"0"},"hereNow":{"count":"0"},"referralId":"v-1392478015"},{"id":"52befef9498e50010a625419","name":"Sim's","location":{"lat":"51.514327","lng":"-0.132708","distance":"7","cc":"GB","country":"United Kingdom"},"categories":[{"id":"4d954b06a243a5684965b473","name":"Residential Building (Apartment \/ Condo)","pluralName":"Residential Buildings (Apartments \/ Condos)","shortName":"Residential","icon":{"prefix":"https:\/\/ss1.4sqi.net\/img\/categories_v2\/building\/apartment_","suffix":".png"},"primary":"true"}],"verified":"false","restricted":"true","stats":{"checkinsCount":"4","usersCount":"1","tipCount":"0"},"specials":{"count":"0"},"hereNow":{"count":"0"},"referralId":"v-1392478015"},{"id":"4acf2ff0f964a520a7d220e3","name":"Nando's","contact":{"phone":"+442074940932","formattedPhone":"+44 20 7494 0932","twitter":"nandosuk"},"location":{"address":"10 Frith St","lat":"51.514070853021906","lng":"-0.13168573379516602","distance":"81","postalCode":"W1D 3JF","cc":"GB","city":"London","state":"Greater London","country":"United Kingdom"},"categories":[{"id":"4def73e84765ae376e57713a","name":"Portuguese Restaurant","pluralName":"Portuguese Restaurants","shortName":"Portuguese","icon":{"prefix":"https:\/\/ss1.4sqi.net\/img\/categories_v2\/food\/default_","suffix":".png"},"primary":"true"}],"verified":"true","restricted":"true","stats":{"checkinsCount":"2403","usersCount":"1558","tipCount":"21"},"url":"http:\/\/www.nandos.co.uk","menu":{"type":"Menu","label":"Menu","anchor":"View Menu","url":"https:\/\/foursquare.com\/v\/nandos\/4acf2ff0f964a520a7d220e3\/menu","mobileUrl":"https:\/\/foursquare.com\/v\/4acf2ff0f964a520a7d220e3\/device_menu"},"specials":{"count":"0"},"hereNow":{"count":"1","groups":[{"type":"others","name":"Other people here","count":"1"}]},"storeId":"N059","referralId":"v-1392478015"},{"id":"524a71bd11d24a5b6ce2ec20","name":"PubMatic Europe","contact":{"twitter":"pubmatic"},"location":{"address":"82 Dean Street","lat":"51.514629","lng":"-0.133383","distance":"55","cc":"GB","city":"London","state":"Greater London","country":"United Kingdom"},"categories":[{"id":"4bf58dd8d48988d125941735","name":"Tech Startup","pluralName":"Tech Startups","shortName":"Tech Startup","icon":{"prefix":"https:\/\/ss1.4sqi.net\/img\/categories_v2\/shops\/technology_","suffix":".png"},"primary":"true"}],"verified":"false","restricted":"true","stats":{"checkinsCount":"188","usersCount":"11","tipCount":"1"},"specials":{"count":"0"},"hereNow":{"count":"0"},"referralId":"v-1392478015"},{"id":"4f847d79e4b010a79c584d1d","name":"Soho Theatre Downstairs","contact":{"twitter":"sohotheatre"},"location":{"address":"21 Dean St.","lat":"51.514317","lng":"-0.133047","distance":"17","postalCode":"W1D 3NE","cc":"GB","city":"London","state":"Greater London","country":"United Kingdom"},"categories":[{"id":"4bf58dd8d48988d135941735","name":"Indie Theater","pluralName":"Indie Theaters","shortName":"Indie","icon":{"prefix":"https:\/\/ss1.4sqi.net\/img\/categories_v2\/arts_entertainment\/performingarts_indieoffbroadway_","suffix":".png"},"primary":"true"}],"verified":"false","restricted":"true","stats":{"checkinsCount":"273","usersCount":"238","tipCount":"0"},"url":"http:\/\/sohotheatre.com","specials":{"count":"0"},"hereNow":{"count":"0"},"referralId":"v-1392478015"},{"id":"4bcf695dcaff9521e21dcdf0","name":"Koya","contact":{"phone":"+442074344463","formattedPhone":"+44 20 7434 4463","twitter":"koyaudon"},"location":{"address":"49 Frith St","lat":"51.513630182403844","lng":"-0.13166427612304688","distance":"107","postalCode":"W1D 4SQ","cc":"GB","city":"London","state":"Greater London","country":"United Kingdom"},"categories":[{"id":"4bf58dd8d48988d1d1941735","name":"Ramen \/ Noodle House","pluralName":"Ramen \/ Noodle House","shortName":"Ramen \/ Noodles","icon":{"prefix":"https:\/\/ss1.4sqi.net\/img\/categories_v2\/food\/ramen_","suffix":".png"},"primary":"true"}],"verified":"true","restricted":"true","stats":{"checkinsCount":"3228","usersCount":"1958","tipCount":"91"},"url":"http:\/\/www.koya.co.uk","menu":{"type":"Menu","label":"Menu","anchor":"View Menu","url":"https:\/\/foursquare.com\/v\/koya\/4bcf695dcaff9521e21dcdf0\/menu","mobileUrl":"https:\/\/foursquare.com\/v\/4bcf695dcaff9521e21dcdf0\/device_menu"},"specials":{"count":"0"},"hereNow":{"count":"0"},"venuePage":{"id":"73037262"},"referralId":"v-1392478015"},{"id":"4ac518e7f964a52036ab20e3","name":"Barrafina","contact":{"phone":"+442078138016","formattedPhone":"+44 20 7813 8016"},"location":{"address":"54 Frith St.","lat":"51.51389444185054","lng":"-0.13165346881757808","distance":"90","postalCode":"W1D 4SL","cc":"GB","city":"London","state":"Greater London","country":"United Kingdom"},"categories":[{"id":"4bf58dd8d48988d1db931735","name":"Tapas Restaurant","pluralName":"Tapas Restaurants","shortName":"Tapas","icon":{"prefix":"https:\/\/ss1.4sqi.net\/img\/categories_v2\/food\/tapas_","suffix":".png"},"primary":"true"}],"verified":"false","restricted":"true","stats":{"checkinsCount":"1581","usersCount":"1097","tipCount":"58"},"url":"http:\/\/www.barrafina.co.uk","menu":{"type":"Menu","label":"Menu","anchor":"View Menu","url":"https:\/\/foursquare.com\/v\/barrafina\/4ac518e7f964a52036ab20e3\/menu","mobileUrl":"https:\/\/foursquare.com\/v\/4ac518e7f964a52036ab20e3\/device_menu"},"specials":{"count":"0"},"hereNow":{"count":"0"},"referralId":"v-1392478015"},{"id":"4ac518e2f964a5209faa20e3","name":"Thai Square","location":{"address":"27-28 St. Anne's Court","lat":"51.51455459297457","lng":"-0.13323619457689825","distance":"42","postalCode":"W1F 0BN","cc":"GB","city":"London","state":"Greater London","country":"United Kingdom"},"categories":[{"id":"4bf58dd8d48988d149941735","name":"Thai Restaurant","pluralName":"Thai Restaurants","shortName":"Thai","icon":{"prefix":"https:\/\/ss1.4sqi.net\/img\/categories_v2\/food\/thai_","suffix":".png"},"primary":"true"}],"verified":"false","restricted":"true","stats":{"checkinsCount":"173","usersCount":"151","tipCount":"6"},"specials":{"count":"0"},"hereNow":{"count":"0"},"referralId":"v-1392478015"},{"id":"4ad4bf4af964a52007e920e3","name":"The Nellie Dean","location":{"address":"89 Dean St","lat":"51.514934489395415","lng":"-0.13339906838309637","distance":"82","postalCode":"W1D 3SU","cc":"GB","city":"London","state":"Greater London","country":"United Kingdom"},"categories":[{"id":"4bf58dd8d48988d11b941735","name":"Pub","pluralName":"Pubs","shortName":"Pub","icon":{"prefix":"https:\/\/ss1.4sqi.net\/img\/categories_v2\/nightlife\/pub_","suffix":".png"},"primary":"true"}],"verified":"false","restricted":"true","stats":{"checkinsCount":"1862","usersCount":"963","tipCount":"10"},"specials":{"count":"0"},"hereNow":{"count":"0"},"referralId":"v-1392478015"},{"id":"4bfa6e20508c0f47e40e4031","name":"BiBimBap","contact":{"phone":"+442072873434","formattedPhone":"+44 20 7287 3434","twitter":"bibimbapsoho","facebook":"107263342656280"},"location":{"address":"11 Greek St.","lat":"51.51432124470751","lng":"-0.13109292671876585","distance":"118","postalCode":"W1D 4DJ","cc":"GB","city":"London","state":"Greater London","country":"United Kingdom"},"categories":[{"id":"4bf58dd8d48988d113941735","name":"Korean Restaurant","pluralName":"Korean Restaurants","shortName":"Korean","icon":{"prefix":"https:\/\/ss1.4sqi.net\/img\/categories_v2\/food\/korean_","suffix":".png"},"primary":"true"}],"verified":"true","restricted":"true","stats":{"checkinsCount":"1930","usersCount":"1195","tipCount":"40"},"url":"http:\/\/bibimbapsoho.co.uk","menu":{"type":"Menu","label":"Menu","anchor":"View Menu","url":"https:\/\/foursquare.com\/v\/bibimbap\/4bfa6e20508c0f47e40e4031\/menu","mobileUrl":"https:\/\/foursquare.com\/v\/4bfa6e20508c0f47e40e4031\/device_menu"},"specials":{"count":"0"},"hereNow":{"count":"1","groups":[{"type":"others","name":"Other people here","count":"1"}]},"venuePage":{"id":"41283935"},"storeId":"","referralId":"v-1392478015"},{"id":"5220729011d2a8975554e2ff","name":"Koya Bar","contact":{"twitter":"koyabar"},"location":{"address":"50 Frith St","lat":"51.51368933508017","lng":"-0.1315439411113792","distance":"109","postalCode":"W1D 4SQ","cc":"GB","city":"London","state":"Greater London","country":"United Kingdom"},"categories":[{"id":"4bf58dd8d48988d1d1941735","name":"Ramen \/ Noodle House","pluralName":"Ramen \/ Noodle House","shortName":"Ramen \/ Noodles","icon":{"prefix":"https:\/\/ss1.4sqi.net\/img\/categories_v2\/food\/ramen_","suffix":".png"},"primary":"true"}],"verified":"true","restricted":"true","stats":{"checkinsCount":"328","usersCount":"204","tipCount":"9"},"url":"http:\/\/www.koyabar.co.uk","specials":{"count":"0"},"hereNow":{"count":"1","groups":[{"type":"others","name":"Other people here","count":"1"}]},"venuePage":{"id":"73154555"},"referralId":"v-1392478015"},{"id":"4ac518baf964a520e8a120e3","name":"Candy Bar","contact":{"phone":"+442072875041","formattedPhone":"+44 20 7287 5041"},"location":{"address":"4 Carlisle St.","lat":"51.51483867800444","lng":"-0.13354182243347168","distance":"79","postalCode":"W1D 3BJ","cc":"GB","city":"London","state":"Greater London","country":"United Kingdom"},"categories":[{"id":"4bf58dd8d48988d1d8941735","name":"Gay Bar","pluralName":"Gay Bars","shortName":"Gay Bar","icon":{"prefix":"https:\/\/ss1.4sqi.net\/img\/categories_v2\/nightlife\/gaybar_","suffix":".png"},"primary":"true"}],"verified":"false","restricted":"true","stats":{"checkinsCount":"817","usersCount":"454","tipCount":"14"},"url":"http:\/\/www.candybarsoho.com","menu":{"type":"Menu","label":"Menu","anchor":"View Menu","url":"https:\/\/foursquare.com\/v\/candy-bar\/4ac518baf964a520e8a120e3\/menu","mobileUrl":"https:\/\/foursquare.com\/v\/4ac518baf964a520e8a120e3\/device_menu"},"specials":{"count":"0"},"hereNow":{"count":"0"},"referralId":"v-1392478015"}],"confident":"true"}}