{"meta":{"code":"200"},"response":{"venues":[{"id":"4bad32f5f964a52042383be3","name":"Royal Eagle Hotel","contact":{"phone":"+442077060700","formattedPhone":"+44 20 7706 0700"},"location":{"address":"26 - 30 Craven road","crossStreet":"Paddington","lat":"51.514265","lng":"-0.178281","distance":"33","postalCode":"W2 3QB","cc":"GB","city":"London","state":"Greater London","country":"United Kingdom"},"categories":[{"id":"4bf58dd8d48988d1fa931735","name":"Hotel","pluralName":"Hotels","shortName":"Hotel","icon":{"prefix":"https:\/\/ss1.4sqi.net\/img\/categories_v2\/travel\/hotel_","suffix":".png"},"primary":"true"}],"verified":"false","restricted":"true","stats":{"checkinsCount":"296","usersCount":"161","tipCount":"8"},"menu":{"type":"Menu","label":"Menu","anchor":"View Menu","url":"https:\/\/foursquare.com\/v\/royal-eagle-hotel\/4bad32f5f964a52042383be3\/menu","mobileUrl":"https:\/\/foursquare.com\/v\/4bad32f5f964a52042383be3\/device_menu"},"specials":{"count":"0"},"hereNow":{"count":"0"},"referralId":"v-1392478011"},{"id":"50703d8fe4b0cc0ec0cc59ce","name":"Hair London","contact":{"phone":"+442072626786","formattedPhone":"+44 20 7262 6786"},"location":{"address":"5 Craven Road","lat":"51.51429073365701","lng":"-0.17777760818206342","distance":"1","postalCode":"W2 3BP","cc":"GB","city":"London","state":"Greater London","country":"United Kingdom"},"categories":[{"id":"4bf58dd8d48988d110951735","name":"Salon \/ Barbershop","pluralName":"Salons \/ Barbershops","shortName":"Salon \/ Barbershop","icon":{"prefix":"https:\/\/ss1.4sqi.net\/img\/categories_v2\/shops\/salon_barber_","suffix":".png"},"primary":"true"}],"verified":"false","restricted":"true","stats":{"checkinsCount":"6","usersCount":"5","tipCount":"2"},"specials":{"count":"0"},"hereNow":{"count":"0"},"referralId":"v-1392478011"},{"id":"4c41e7ab3735be9aab1d19a4","name":"27 Paddington Hotel","location":{"lat":"51.514052","lng":"-0.178142","distance":"35","cc":"GB","country":"United Kingdom"},"categories":[{"id":"4bf58dd8d48988d1fa931735","name":"Hotel","pluralName":"Hotels","shortName":"Hotel","icon":{"prefix":"https:\/\/ss1.4sqi.net\/img\/categories_v2\/travel\/hotel_","suffix":".png"},"primary":"true"}],"verified":"false","restricted":"true","stats":{"checkinsCount":"233","usersCount":"103","tipCount":"2"},"specials":{"count":"0"},"hereNow":{"count":"0"},"referralId":"v-1392478011"},{"id":"4b9e7c20f964a5200ee836e3","name":"Tukdin","contact":{"phone":"+442077236955","formattedPhone":"+44 20 7723 6955"},"location":{"address":"41 Craven Rd.","lat":"51.5135646238903","lng":"-0.17931382231645723","distance":"132","postalCode":"W2 3BX","cc":"GB","city":"Paddington","state":"Greater London","country":"United Kingdom"},"categories":[{"id":"4bf58dd8d48988d156941735","name":"Malaysian Restaurant","pluralName":"Malaysian Restaurants","shortName":"Malaysian","icon":{"prefix":"https:\/\/ss1.4sqi.net\/img\/categories_v2\/food\/default_","suffix":".png"},"primary":"true"}],"verified":"false","restricted":"true","stats":{"checkinsCount":"1198","usersCount":"674","tipCount":"42"},"specials":{"count":"0"},"hereNow":{"count":"0"},"referralId":"v-1392478011"},{"id":"4ace02b8f964a520decd20e3","name":"Pride of Paddington","contact":{"phone":"+442074022156","formattedPhone":"+44 20 7402 2156"},"location":{"address":"1-3 Craven Rd","lat":"51.515194","lng":"-0.17640435999999998","distance":"139","postalCode":"W2 3BP","cc":"GB","city":"Paddington","state":"Greater London","country":"United Kingdom"},"categories":[{"id":"4bf58dd8d48988d11b941735","name":"Pub","pluralName":"Pubs","shortName":"Pub","icon":{"prefix":"https:\/\/ss1.4sqi.net\/img\/categories_v2\/nightlife\/pub_","suffix":".png"},"primary":"true"}],"verified":"false","restricted":"true","stats":{"checkinsCount":"1795","usersCount":"1301","tipCount":"22"},"url":"http:\/\/www.theprideofpaddington.co.uk","specials":{"count":"0"},"hereNow":{"count":"0"},"referralId":"v-1392478011"},{"id":"4e1f4097e4cd0a38230a348f","name":"Bizzaro Ristorante Italiano","location":{"lat":"51.514820578126546","lng":"-0.1768895530110929","distance":"86","cc":"GB","city":"Paddington","state":"Greater London","country":"United Kingdom"},"categories":[{"id":"4bf58dd8d48988d110941735","name":"Italian Restaurant","pluralName":"Italian Restaurants","shortName":"Italian","icon":{"prefix":"https:\/\/ss1.4sqi.net\/img\/categories_v2\/food\/italian_","suffix":".png"},"primary":"true"}],"verified":"false","restricted":"true","stats":{"checkinsCount":"187","usersCount":"169","tipCount":"10"},"specials":{"count":"0"},"hereNow":{"count":"0"},"referralId":"v-1392478011"},{"id":"51d09f10498e3b446a9670bd","name":"Gloucester Terrace","location":{"address":"Gloucester Terrace 46","crossStreet":"Craven Road","lat":"51.51418602972389","lng":"-0.17813717936741366","distance":"25","cc":"GB","city":"London","state":"Greater London","country":"United Kingdom"},"categories":[{"id":"4d954b06a243a5684965b473","name":"Residential Building (Apartment \/ Condo)","pluralName":"Residential Buildings (Apartments \/ Condos)","shortName":"Residential","icon":{"prefix":"https:\/\/ss1.4sqi.net\/img\/categories_v2\/building\/apartment_","suffix":".png"},"primary":"true"}],"verified":"false","restricted":"true","stats":{"checkinsCount":"29","usersCount":"14","tipCount":"0"},"specials":{"count":"0"},"hereNow":{"count":"0"},"referralId":"v-1392478011"},{"id":"4c7fd31ee63376b0719da13d","name":"Prince William Hotel","contact":{"phone":"+442077247414","formattedPhone":"+44 20 7724 7414"},"location":{"address":"42-44 Gloucester Terrace","lat":"51.513971390419684","lng":"-0.1784941457392786","distance":"59","postalCode":"W23DA","cc":"GB","city":"London","state":"Greater London","country":"United Kingdom"},"categories":[{"id":"4bf58dd8d48988d1fa931735","name":"Hotel","pluralName":"Hotels","shortName":"Hotel","icon":{"prefix":"https:\/\/ss1.4sqi.net\/img\/categories_v2\/travel\/hotel_","suffix":".png"},"primary":"true"}],"verified":"false","restricted":"true","stats":{"checkinsCount":"146","usersCount":"66","tipCount":"7"},"specials":{"count":"0"},"hereNow":{"count":"0"},"referralId":"v-1392478011"},{"id":"4c10000cce640f47ac393952","name":"Flavours of india","location":{"address":"Craven Road","crossStreet":"Gloucester Terrace","lat":"51.514046359999995","lng":"-0.178498","distance":"55","cc":"GB","city":"Paddington","state":"Greater London","country":"United Kingdom"},"categories":[{"id":"4bf58dd8d48988d10f941735","name":"Indian Restaurant","pluralName":"Indian Restaurants","shortName":"Indian","icon":{"prefix":"https:\/\/ss1.4sqi.net\/img\/categories_v2\/food\/indian_","suffix":".png"},"primary":"true"}],"verified":"false","restricted":"true","stats":{"checkinsCount":"222","usersCount":"175","tipCount":"6"},"specials":{"count":"0"},"hereNow":{"count":"0"},"referralId":"v-1392478011"},{"id":"4b1d4b0bf964a5204d0e24e3","name":"Shaftesbury Premier London Paddington","location":{"address":"55-61 Westbourne Terrace","lat":"51.51531650267112","lng":"-0.17822062861357563","distance":"117","postalCode":"W2 3UY","cc":"GB","city":"London","state":"Greater London","country":"United Kingdom"},"categories":[{"id":"4bf58dd8d48988d1fa931735","name":"Hotel","pluralName":"Hotels","shortName":"Hotel","icon":{"prefix":"https:\/\/ss1.4sqi.net\/img\/categories_v2\/travel\/hotel_","suffix":".png"},"primary":"true"}],"verified":"false","restricted":"true","stats":{"checkinsCount":"747","usersCount":"382","tipCount":"16"},"specials":{"count":"0"},"hereNow":{"count":"0"},"referralId":"v-1392478011"},{"id":"52cd9a59498ea9ac7592c965","name":"\u0627\u0644\u0634\u0627\u0631\u0639 \u0627\u0644\u0644\u064a \u0643\u0644\u0647 \u0625\u0634\u0627\u0631\u0627\u062a \u0648 \u064a\u0642\u0635\u0631 \u0627\u0644\u0639\u0645\u0631","location":{"lat":"51.514588","lng":"-0.177809","distance":"33","cc":"GB","country":"United Kingdom"},"verified":"false","restricted":"true","stats":{"checkinsCount":"1","usersCount":"1","tipCount":"0"},"specials":{"count":"0"},"hereNow":{"count":"0"},"referralId":"v-1392478011"},{"id":"513232cee4b09cc360ff75d9","name":"Londres","location":{"lat":"51.51332100097138","lng":"-0.1766056409064111","distance":"135","cc":"GB","country":"United Kingdom"},"categories":[{"id":"4f2a25ac4b909258e854f55f","name":"Neighborhood","pluralName":"Neighborhoods","shortName":"Neighborhood","icon":{"prefix":"https:\/\/ss1.4sqi.net\/img\/categories_v2\/parks_outdoors\/neighborhood_","suffix":".png"},"primary":"true"}],"verified":"false","restricted":"true","stats":{"checkinsCount":"189","usersCount":"161","tipCount":"1"},"specials":{"count":"0"},"hereNow":{"count":"0"},"referralId":"v-1392478011"},{"id":"4c06bbd12e80a5937d9374f9","name":"Assaha","location":{"address":"29 Craven Road","lat":"51.51380099219244","lng":"-0.17896398298127292","distance":"97","postalCode":"W2 3BX","cc":"GB","city":"Paddington","state":"Greater London","country":"United Kingdom"},"categories":[{"id":"4bf58dd8d48988d115941735","name":"Middle Eastern Restaurant","pluralName":"Middle Eastern Restaurants","shortName":"Middle Eastern","icon":{"prefix":"https:\/\/ss1.4sqi.net\/img\/categories_v2\/food\/default_","suffix":".png"},"primary":"true"}],"verified":"false","restricted":"true","stats":{"checkinsCount":"217","usersCount":"163","tipCount":"4"},"url":"http:\/\/www.assahavillage.co.uk\/newbuild\/","reservations":{"url":"http:\/\/www.toptable.co.uk\/single.aspx?rid=92085&ref=9601"},"menu":{"type":"Menu","label":"Menu","anchor":"View Menu","url":"https:\/\/foursquare.com\/v\/assaha\/4c06bbd12e80a5937d9374f9\/menu","mobileUrl":"https:\/\/foursquare.com\/v\/4c06bbd12e80a5937d9374f9\/device_menu"},"specials":{"count":"0"},"hereNow":{"count":"0"},"referralId":"v-1392478011"},{"id":"4c82468fd8086dcbbd937452","name":"Il Gusto","location":{"address":"11, Craven Rd","lat":"51.51502025999999","lng":"-0.176731","distance":"110","cc":"GB","city":"Paddington","state":"Greater London","country":"United Kingdom"},"categories":[{"id":"4bf58dd8d48988d110941735","name":"Italian Restaurant","pluralName":"Italian Restaurants","shortName":"Italian","icon":{"prefix":"https:\/\/ss1.4sqi.net\/img\/categories_v2\/food\/italian_","suffix":".png"},"primary":"true"}],"verified":"false","restricted":"true","stats":{"checkinsCount":"208","usersCount":"171","tipCount":"7"},"specials":{"count":"0"},"hereNow":{"count":"0"},"referralId":"v-1392478011"},{"id":"4b82e9adf964a520c4ec30e3","name":"Bizzarro","location":{"address":"18 Craven Road","lat":"51.51492339787137","lng":"-0.17697084622273013","distance":"91","postalCode":"W2 3PX","cc":"GB","city":"Paddington","state":"Greater London","country":"United Kingdom"},"categories":[{"id":"4bf58dd8d48988d110941735","name":"Italian Restaurant","pluralName":"Italian Restaurants","shortName":"Italian","icon":{"prefix":"https:\/\/ss1.4sqi.net\/img\/categories_v2\/food\/italian_","suffix":".png"},"primary":"true"}],"verified":"false","restricted":"true","stats":{"checkinsCount":"212","usersCount":"151","tipCount":"7"},"menu":{"type":"Menu","label":"Menu","anchor":"View Menu","url":"https:\/\/foursquare.com\/v\/bizzarro\/4b82e9adf964a520c4ec30e3\/menu","mobileUrl":"https:\/\/foursquare.com\/v\/4b82e9adf964a520c4ec30e3\/device_menu"},"specials":{"count":"0"},"hereNow":{"count":"0"},"referralId":"v-1392478011"},{"id":"4c631ca4e1621b8d7a262553","name":"Ascot Hyde Park Hotel","contact":{"phone":"+442074025447","formattedPhone":"+44 20 7402 5447"},"location":{"address":"11 Craven Rd.","lat":"51.51489300475423","lng":"-0.17676971179640327","distance":"98","postalCode":"W2 3BP","cc":"GB","city":"London","state":"Greater London","country":"United Kingdom"},"categories":[{"id":"4bf58dd8d48988d1fa931735","name":"Hotel","pluralName":"Hotels","shortName":"Hotel","icon":{"prefix":"https:\/\/ss1.4sqi.net\/img\/categories_v2\/travel\/hotel_","suffix":".png"},"primary":"true"}],"verified":"false","restricted":"true","stats":{"checkinsCount":"129","usersCount":"65","tipCount":"4"},"specials":{"count":"0"},"hereNow":{"count":"0"},"referralId":"v-1392478011"},{"id":"51cc7a58498ee8c99b5fb672","name":"Villa Rosa","location":{"lat":"51.51505222923203","lng":"-0.17662154919000148","distance":"117","cc":"GB","country":"United Kingdom"},"categories":[{"id":"4bf58dd8d48988d110941735","name":"Italian Restaurant","pluralName":"Italian Restaurants","shortName":"Italian","icon":{"prefix":"https:\/\/ss1.4sqi.net\/img\/categories_v2\/food\/italian_","suffix":".png"},"primary":"true"}],"verified":"false","restricted":"true","stats":{"checkinsCount":"9","usersCount":"7","tipCount":"0"},"specials":{"count":"0"},"hereNow":{"count":"0"},"referralId":"v-1392478011"},{"id":"4ac518b6f964a520dda020e3","name":"Paddington Hotel","location":{"address":"28 Gloucester Tce","lat":"51.51347971721622","lng":"-0.17803811247101478","distance":"91","postalCode":"W2 3DH","cc":"GB","city":"London","state":"Greater London","country":"United Kingdom"},"categories":[{"id":"4bf58dd8d48988d1fa931735","name":"Hotel","pluralName":"Hotels","shortName":"Hotel","icon":{"prefix":"https:\/\/ss1.4sqi.net\/img\/categories_v2\/travel\/hotel_","suffix":".png"},"primary":"true"}],"verified":"false","restricted":"true","stats":{"checkinsCount":"152","usersCount":"55","tipCount":"2"},"specials":{"count":"0"},"hereNow":{"count":"0"},"referralId":"v-1392478011"},{"id":"4c2e3cbd260bc928ab601bd3","name":"Nisa Local","location":{"address":"Craven Terrace","lat":"51.513616828682196","lng":"-0.17938613891601562","distance":"132","cc":"GB","city":"City of Westminster","state":"Greater London","country":"United Kingdom"},"categories":[{"id":"4d954b0ea243a5684a65b473","name":"Convenience Store","pluralName":"Convenience Stores","shortName":"Convenience Stores","icon":{"prefix":"https:\/\/ss1.4sqi.net\/img\/categories_v2\/shops\/conveniencestore_","suffix":".png"},"primary":"true"}],"verified":"false","restricted":"true","stats":{"checkinsCount":"285","usersCount":"75","tipCount":"2"},"specials":{"count":"0"},"hereNow":{"count":"0"},"referralId":"v-1392478011"},{"id":"4ba92511f964a520f00e3ae3","name":"Royal Park Hotel","location":{"lat":"51.513845","lng":"-0.176224","distance":"120","cc":"GB","city":"Paddington","state":"Greater London","country":"United Kingdom"},"categories":[{"id":"4bf58dd8d48988d1fa931735","name":"Hotel","pluralName":"Hotels","shortName":"Hotel","icon":{"prefix":"https:\/\/ss1.4sqi.net\/img\/categories_v2\/travel\/hotel_","suffix":".png"},"primary":"true"}],"verified":"false","restricted":"true","stats":{"checkinsCount":"349","usersCount":"204","tipCount":"6"},"specials":{"count":"0"},"hereNow":{"count":"0"},"referralId":"v-1392478011"},{"id":"4d01393c1fcef04d62e0ceb9","name":"Mandarin restaurant","location":{"address":"Craven Hill","lat":"51.513686","lng":"-0.179124","distance":"113","cc":"GB","city":"London","state":"Greater London","country":"United Kingdom"},"categories":[{"id":"4bf58dd8d48988d145941735","name":"Chinese Restaurant","pluralName":"Chinese Restaurants","shortName":"Chinese","icon":{"prefix":"https:\/\/ss1.4sqi.net\/img\/categories_v2\/food\/chinese_","suffix":".png"},"primary":"true"}],"verified":"false","restricted":"true","stats":{"checkinsCount":"55","usersCount":"46","tipCount":"1"},"specials":{"count":"0"},"hereNow":{"count":"0"},"referralId":"v-1392478011"},{"id":"4c8f7593daa93704b4c354b1","name":"Barclays","contact":{"phone":"+442074415202","formattedPhone":"+44 20 7441 5202"},"location":{"address":"Paddington Station","lat":"51.51503753638421","lng":"-0.17629310360259465","distance":"133","postalCode":"W2 3RF","cc":"GB","city":"London","state":"Greater London","country":"United Kingdom"},"categories":[{"id":"4bf58dd8d48988d10a951735","name":"Bank","pluralName":"Banks","shortName":"Bank","icon":{"prefix":"https:\/\/ss1.4sqi.net\/img\/categories_v2\/shops\/financial_","suffix":".png"},"primary":"true"}],"verified":"false","restricted":"true","stats":{"checkinsCount":"221","usersCount":"70","tipCount":"2"},"specials":{"count":"0"},"hereNow":{"count":"0"},"referralId":"v-1392478011"},{"id":"4e6d1edb22719dcb3dd0e8c8","name":"London Souvenirs","location":{"lat":"51.514236862881845","lng":"-0.17757595370965976","distance":"16","cc":"GB","city":"Paddington","state":"Greater London","country":"United Kingdom"},"categories":[{"id":"4d4b7105d754a06378d81259","name":"Shop & Service","pluralName":"Shops & Services","shortName":"Shops","icon":{"prefix":"https:\/\/ss1.4sqi.net\/img\/categories_v2\/shops\/default_","suffix":".png"},"primary":"true"}],"verified":"false","restricted":"true","stats":{"checkinsCount":"40","usersCount":"28","tipCount":"0"},"specials":{"count":"0"},"hereNow":{"count":"0"},"referralId":"v-1392478011"},{"id":"4bc8f12e762beee109ba3d38","name":"Brunel Hotel","location":{"address":"79-81 Gloucester Terrace","lat":"51.513898","lng":"-0.1787674","distance":"79","cc":"GB","city":"London","state":"Greater London","country":"United Kingdom"},"categories":[{"id":"4bf58dd8d48988d1fa931735","name":"Hotel","pluralName":"Hotels","shortName":"Hotel","icon":{"prefix":"https:\/\/ss1.4sqi.net\/img\/categories_v2\/travel\/hotel_","suffix":".png"},"primary":"true"}],"verified":"false","restricted":"true","stats":{"checkinsCount":"146","usersCount":"90","tipCount":"5"},"specials":{"count":"0"},"hereNow":{"count":"0"},"referralId":"v-1392478011"},{"id":"4f1d9b04e4b064e65e33f4b3","name":"Cheers Wine Shop","location":{"address":"17 Craven Road","lat":"51.51526679556726","lng":"-0.17764676415116945","distance":"109","cc":"GB","country":"United Kingdom"},"categories":[{"id":"4bf58dd8d48988d14b941735","name":"Winery","pluralName":"Wineries","shortName":"Winery","icon":{"prefix":"https:\/\/ss1.4sqi.net\/img\/categories_v2\/food\/winery_","suffix":".png"},"primary":"true"}],"verified":"false","restricted":"true","stats":{"checkinsCount":"80","usersCount":"24","tipCount":"0"},"specials":{"count":"0"},"hereNow":{"count":"0"},"referralId":"v-1392478011"},{"id":"50c625e6e4b013fc6c12cdc8","name":"Devonshire Terrace","contact":{"twitter":"devterrace"},"location":{"address":"4 Devonshire Terrace","lat":"51.51405605029147","lng":"-0.18016687292464661","distance":"165","postalCode":"W2 3DN","cc":"GB","country":"United Kingdom"},"categories":[{"id":"4d954b06a243a5684965b473","name":"Residential Building (Apartment \/ Condo)","pluralName":"Residential Buildings (Apartments \/ Condos)","shortName":"Residential","icon":{"prefix":"https:\/\/ss1.4sqi.net\/img\/categories_v2\/building\/apartment_","suffix":".png"},"primary":"true"}],"verified":"false","restricted":"true","stats":{"checkinsCount":"51","usersCount":"24","tipCount":"0"},"menu":{"type":"Menu","label":"Menu","anchor":"View Menu","url":"https:\/\/foursquare.com\/v\/devonshire-terrace\/50c625e6e4b013fc6c12cdc8\/menu","mobileUrl":"https:\/\/foursquare.com\/v\/50c625e6e4b013fc6c12cdc8\/device_menu"},"specials":{"count":"0"},"hereNow":{"count":"0"},"referralId":"v-1392478011"},{"id":"4c31802a3896e21e9d2de790","name":"Minahouse Hotel","location":{"address":"21-23 Craven Road","lat":"51.51425412298962","lng":"-0.17828253151068169","distance":"33","cc":"GB","city":"Paddington","state":"Greater London","country":"United Kingdom"},"categories":[{"id":"4bf58dd8d48988d1f8931735","name":"Bed & Breakfast","pluralName":"Bed & Breakfasts","shortName":"B & B","icon":{"prefix":"https:\/\/ss1.4sqi.net\/img\/categories_v2\/travel\/bedandbreakfast_","suffix":".png"},"primary":"true"}],"verified":"false","restricted":"true","stats":{"checkinsCount":"58","usersCount":"23","tipCount":"3"},"specials":{"count":"0"},"hereNow":{"count":"0"},"referralId":"v-1392478011"},{"id":"4bfaa335508c0f4749444031","name":"Paddington Dental Practice","location":{"address":"17 Craven Road","crossStreet":"Paddington","lat":"51.51436858986418","lng":"-0.1768387269201202","distance":"67","cc":"GB","city":"London","state":"Greater London","country":"United Kingdom"},"categories":[{"id":"4bf58dd8d48988d178941735","name":"Dentist's Office","pluralName":"Dentist's Offices","shortName":"Dentist's Office","icon":{"prefix":"https:\/\/ss1.4sqi.net\/img\/categories_v2\/building\/medical_dentist_","suffix":".png"},"primary":"true"}],"verified":"false","restricted":"true","stats":{"checkinsCount":"34","usersCount":"18","tipCount":"1"},"specials":{"count":"0"},"hereNow":{"count":"0"},"referralId":"v-1392478011"},{"id":"4eb94ac661af0dda91f9e193","name":"Mina House Hotel","location":{"lat":"51.51407947401088","lng":"-0.17828860798078824","distance":"40","cc":"GB","city":"Paddington","state":"Greater London","country":"United Kingdom"},"categories":[{"id":"4bf58dd8d48988d1fa931735","name":"Hotel","pluralName":"Hotels","shortName":"Hotel","icon":{"prefix":"https:\/\/ss1.4sqi.net\/img\/categories_v2\/travel\/hotel_","suffix":".png"},"primary":"true"}],"verified":"false","restricted":"true","stats":{"checkinsCount":"16","usersCount":"9","tipCount":"0"},"specials":{"count":"0"},"hereNow":{"count":"0"},"referralId":"v-1392478011"},{"id":"51ece834498ebaf2f199c98d","name":"Number 23","location":{"lat":"51.514614","lng":"-0.177585","distance":"39","cc":"GB","country":"United Kingdom"},"categories":[{"id":"4f2a23984b9023bd5841ed2c","name":"Moving Target","pluralName":"Moving Targets","shortName":"Moving Target","icon":{"prefix":"https:\/\/ss1.4sqi.net\/img\/categories_v2\/travel\/movingtarget_","suffix":".png"},"primary":"true"}],"verified":"false","restricted":"true","stats":{"checkinsCount":"1","usersCount":"1","tipCount":"0"},"specials":{"count":"0"},"hereNow":{"count":"0"},"referralId":"v-1392478011"}],"confident":"true"}}