{"meta":{"code":"200"},"response":{"venues":[{"id":"4acdaa40f964a52095cc20e3","name":"Mornington Crescent","location":{"address":"Hampstead Rd.","crossStreet":"Camden High St.","lat":"51.533576","lng":"-0.140591","distance":"172","postalCode":"NW1","cc":"GB","city":"Camden","state":"Greater London","country":"United Kingdom"},"categories":[{"id":"4f2a25ac4b909258e854f55f","name":"Neighborhood","pluralName":"Neighborhoods","shortName":"Neighborhood","icon":{"prefix":"https:\/\/ss1.4sqi.net\/img\/categories_v2\/parks_outdoors\/neighborhood_","suffix":".png"},"primary":"true"}],"verified":"false","restricted":"true","stats":{"checkinsCount":"2337","usersCount":"362","tipCount":"8"},"specials":{"count":"0"},"hereNow":{"count":"0"},"referralId":"v-1392477962"},{"id":"4b4374c2f964a520c0e025e3","name":"Sheephaven Bay","contact":{"phone":"+442073801323","formattedPhone":"+44 20 7380 1323"},"location":{"address":"2 Mornington St.","crossStreet":"at Arlington Rd.","lat":"51.535081","lng":"-0.1416374","distance":"119","postalCode":"NW1 7QD","cc":"GB","city":"Camden","state":"Greater London","country":"United Kingdom"},"categories":[{"id":"4bf58dd8d48988d11b941735","name":"Pub","pluralName":"Pubs","shortName":"Pub","icon":{"prefix":"https:\/\/ss1.4sqi.net\/img\/categories_v2\/nightlife\/pub_","suffix":".png"},"primary":"true"}],"verified":"false","restricted":"true","stats":{"checkinsCount":"530","usersCount":"215","tipCount":"7"},"specials":{"count":"0"},"hereNow":{"count":"0"},"referralId":"v-1392477962"},{"id":"4ac518c7f964a52078a520e3","name":"KOKO","contact":{"phone":"+448704325527","formattedPhone":"+44 870 432 5527","twitter":"kokolondon"},"location":{"address":"1A Camden High St.","lat":"51.53467942354505","lng":"-0.13835495742020476","distance":"311","postalCode":"NW1 7JE","cc":"GB","city":"Camden Town","state":"Greater London","country":"United Kingdom"},"categories":[{"id":"4bf58dd8d48988d1e5931735","name":"Music Venue","pluralName":"Music Venues","shortName":"Music Venue","icon":{"prefix":"https:\/\/ss1.4sqi.net\/img\/categories_v2\/arts_entertainment\/musicvenue_","suffix":".png"},"primary":"true"}],"verified":"false","restricted":"true","stats":{"checkinsCount":"8198","usersCount":"5661","tipCount":"63"},"url":"http:\/\/www.koko.uk.com","specials":{"count":"0"},"events":{"count":"1","summary":"Housekeeping","items":[{"id":"52eef8a4498e8b397908a78d","name":"Housekeeping","categories":[{"id":"4e0a4b91bd41eda0d6092f89","name":"Concert","pluralName":"Concerts","shortName":"Concert","icon":{"prefix":"https:\/\/ss1.4sqi.net\/img\/categories_v2\/arts_entertainment\/musicvenue_","suffix":".png"},"primary":"true"}],"startAt":"1392505200","endAt":"1392526800","allDay":"false","timeZone":"Europe\/London","text":"","url":"http:\/\/www.songkick.com\/concerts\/19424599-housekeeping-at-koko?utm_source=4436&utm_medium=partner","provider":{"name":"songkick","iconUrl":{"prefix":"https:\/\/playfoursquare.s3.amazonaws.com\/events\/images\/partners\/sk\/","sizes":["20","40"],"name":"\/logo.png"},"urlText":"more info"},"stats":{"checkinsCount":"0","usersCount":"0"}}]},"hereNow":{"count":"1","groups":[{"type":"others","name":"Other people here","count":"1"}]},"referralId":"v-1392477962"},{"id":"4b2280f5f964a520ea4724e3","name":"Greater London House","location":{"address":"Hampstead Rd.","crossStreet":"at Mornington Cr.","lat":"51.533549575316705","lng":"-0.13968944549560547","distance":"230","postalCode":"NW1 7EJ","cc":"GB","city":"Camden","state":"Greater London","country":"United Kingdom"},"categories":[{"id":"4bf58dd8d48988d124941735","name":"Office","pluralName":"Offices","shortName":"Office","icon":{"prefix":"https:\/\/ss1.4sqi.net\/img\/categories_v2\/building\/default_","suffix":".png"},"primary":"true"}],"verified":"false","restricted":"true","stats":{"checkinsCount":"1593","usersCount":"301","tipCount":"4"},"specials":{"count":"0"},"hereNow":{"count":"0"},"referralId":"v-1392477962"},{"id":"4acda839f964a5208bcc20e3","name":"ASOS","contact":{"phone":"+442074831888","formattedPhone":"+44 20 7483 1888","twitter":"asos"},"location":{"address":"Greater London House","crossStreet":"Hampstead Rd.","lat":"51.53355830590612","lng":"-0.13934659800222224","distance":"252","postalCode":"NW1 3","cc":"GB","city":"Camden","state":"Greater London","country":"United Kingdom"},"categories":[{"id":"4bf58dd8d48988d124941735","name":"Office","pluralName":"Offices","shortName":"Office","icon":{"prefix":"https:\/\/ss1.4sqi.net\/img\/categories_v2\/building\/default_","suffix":".png"},"primary":"true"}],"verified":"false","restricted":"true","stats":{"checkinsCount":"1785","usersCount":"338","tipCount":"6"},"url":"http:\/\/www.asos.com","specials":{"count":"0"},"hereNow":{"count":"0"},"referralId":"v-1392477962"},{"id":"4b6c2ba2f964a52078272ce3","name":"The Blues Kitchen","contact":{"phone":"+442073875277","formattedPhone":"+44 20 7387 5277","twitter":"theblueskitchen"},"location":{"address":"111-113 Camden High St.","lat":"51.53702322842432","lng":"-0.14121294021606445","distance":"323","postalCode":"NW1 7JN","cc":"GB","city":"Camden Town","state":"Greater London","country":"United Kingdom"},"categories":[{"id":"4bf58dd8d48988d121941735","name":"Lounge","pluralName":"Lounges","shortName":"Lounge","icon":{"prefix":"https:\/\/ss1.4sqi.net\/img\/categories_v2\/nightlife\/lounge_","suffix":".png"},"primary":"true"}],"verified":"false","restricted":"true","stats":{"checkinsCount":"3812","usersCount":"2695","tipCount":"73"},"url":"http:\/\/www.theblueskitchen.com","reservations":{"url":"http:\/\/www.toptable.co.uk\/single.aspx?rid=49255&ref=9601"},"menu":{"type":"Menu","label":"Menu","anchor":"View Menu","url":"https:\/\/foursquare.com\/v\/the-blues-kitchen\/4b6c2ba2f964a52078272ce3\/menu","mobileUrl":"https:\/\/foursquare.com\/v\/4b6c2ba2f964a52078272ce3\/device_menu"},"specials":{"count":"0"},"hereNow":{"count":"0"},"referralId":"v-1392477962"},{"id":"4bfea3e5ca1920a1a094eb81","name":"The Lyttelton Arms","contact":{"phone":"+442073872749","formattedPhone":"+44 20 7387 2749"},"location":{"address":"1A Camden High St","lat":"51.53421696440184","lng":"-0.13921737670898438","distance":"248","postalCode":"NW1 7JE","cc":"GB","city":"Camden Town","state":"Greater London","country":"United Kingdom"},"categories":[{"id":"4bf58dd8d48988d11b941735","name":"Pub","pluralName":"Pubs","shortName":"Pub","icon":{"prefix":"https:\/\/ss1.4sqi.net\/img\/categories_v2\/nightlife\/pub_","suffix":".png"},"primary":"true"}],"verified":"false","restricted":"true","stats":{"checkinsCount":"1743","usersCount":"991","tipCount":"25"},"url":"http:\/\/www.thelytteltonarmscamden.co.uk","menu":{"type":"Menu","label":"Menu","anchor":"View Menu","url":"https:\/\/foursquare.com\/v\/the-lyttelton-arms\/4bfea3e5ca1920a1a094eb81\/menu","mobileUrl":"https:\/\/foursquare.com\/v\/4bfea3e5ca1920a1a094eb81\/device_menu"},"specials":{"count":"0"},"hereNow":{"count":"0"},"referralId":"v-1392477962"},{"id":"4e661fedfa76cd64cfc60adb","name":"Leyas Coffee & Artisan Foods","location":{"address":"20 Camden High St","lat":"51.53519","lng":"-0.138976","distance":"283","postalCode":"NW1 0JH","cc":"GB","city":"Camden","state":"Greater London","country":"United Kingdom"},"categories":[{"id":"4bf58dd8d48988d16d941735","name":"Caf\u00e9","pluralName":"Caf\u00e9s","shortName":"Caf\u00e9","icon":{"prefix":"https:\/\/ss1.4sqi.net\/img\/categories_v2\/food\/cafe_","suffix":".png"},"primary":"true"}],"verified":"false","restricted":"true","stats":{"checkinsCount":"1196","usersCount":"458","tipCount":"30"},"url":"http:\/\/www.leyas.co.uk","menu":{"type":"Menu","label":"Menu","anchor":"View Menu","url":"https:\/\/foursquare.com\/v\/leyas-coffee--artisan-foods\/4e661fedfa76cd64cfc60adb\/menu","mobileUrl":"https:\/\/foursquare.com\/v\/4e661fedfa76cd64cfc60adb\/device_menu"},"specials":{"count":"0"},"hereNow":{"count":"0"},"referralId":"v-1392477962"},{"id":"4edce907c2ee3cd644c79c65","name":"BrewDog Camden","contact":{"phone":"+442072840453","formattedPhone":"+44 20 7284 0453","twitter":"brewdog"},"location":{"address":"113 Bayham St","crossStreet":"at Greenland St","lat":"51.538431300473725","lng":"-0.1408696174621582","distance":"480","postalCode":"NW1 0AG","cc":"GB","city":"Camden","state":"Greater London","country":"United Kingdom"},"categories":[{"id":"4bf58dd8d48988d116941735","name":"Bar","pluralName":"Bars","shortName":"Bar","icon":{"prefix":"https:\/\/ss1.4sqi.net\/img\/categories_v2\/nightlife\/bar_","suffix":".png"},"primary":"true"}],"verified":"true","restricted":"true","stats":{"checkinsCount":"4873","usersCount":"2659","tipCount":"60"},"url":"http:\/\/www.brewdog.com\/bars\/camden","specials":{"count":"0"},"hereNow":{"count":"2","groups":[{"type":"others","name":"Other people here","count":"2"}]},"referralId":"v-1392477962"},{"id":"4b635acaf964a52011742ae3","name":"McDonald's","contact":{"phone":"+442072677570","formattedPhone":"+44 20 7267 7570"},"location":{"address":"112 Camden High St.","lat":"51.53757692517905","lng":"-0.1415092448606975","distance":"376","postalCode":"NW1 0LU","cc":"GB","city":"Camden","state":"Greater London","country":"United Kingdom"},"categories":[{"id":"4bf58dd8d48988d16e941735","name":"Fast Food Restaurant","pluralName":"Fast Food Restaurants","shortName":"Fast Food","icon":{"prefix":"https:\/\/ss1.4sqi.net\/img\/categories_v2\/food\/fastfood_","suffix":".png"},"primary":"true"}],"verified":"false","restricted":"true","stats":{"checkinsCount":"976","usersCount":"642","tipCount":"11"},"specials":{"count":"0"},"hereNow":{"count":"1","groups":[{"type":"others","name":"Other people here","count":"1"}]},"referralId":"v-1392477962"},{"id":"4b55af8cf964a520cbeb27e3","name":"Rainey Kelly Campbell Roalfe\/Y&R","location":{"address":"180 Hampstead Rd","crossStreet":"at Greater London House","lat":"51.53369750145616","lng":"-0.1393505511770742","distance":"247","postalCode":"NW1","cc":"GB","city":"Camden","state":"Greater London","country":"United Kingdom"},"categories":[{"id":"4bf58dd8d48988d124941735","name":"Office","pluralName":"Offices","shortName":"Office","icon":{"prefix":"https:\/\/ss1.4sqi.net\/img\/categories_v2\/building\/default_","suffix":".png"},"primary":"true"}],"verified":"false","restricted":"true","stats":{"checkinsCount":"1383","usersCount":"172","tipCount":"1"},"specials":{"count":"0"},"hereNow":{"count":"0"},"referralId":"v-1392477962"},{"id":"4acf8d4bf964a52074d420e3","name":"Fitness First","contact":{"phone":"+448445712833","formattedPhone":"+44 844 571 2833"},"location":{"address":"128 Albert St.","lat":"51.53788632037995","lng":"-0.14466750413006899","distance":"420","postalCode":"NW1 7NE","cc":"GB","city":"Camden Town","state":"Greater London","country":"United Kingdom"},"categories":[{"id":"4bf58dd8d48988d176941735","name":"Gym","pluralName":"Gyms","shortName":"Gym","icon":{"prefix":"https:\/\/ss1.4sqi.net\/img\/categories_v2\/building\/gym_","suffix":".png"},"primary":"true"}],"verified":"true","restricted":"true","stats":{"checkinsCount":"1901","usersCount":"133","tipCount":"6"},"specials":{"count":"0"},"hereNow":{"count":"1","groups":[{"type":"others","name":"Other people here","count":"1"}]},"referralId":"v-1392477962"},{"id":"4b8a6621f964a520536b32e3","name":"Taste of Siam","contact":{"phone":"+442073800665","formattedPhone":"+44 20 7380 0665"},"location":{"address":"45-47 Camden High St.","lat":"51.53557715308223","lng":"-0.13955132597972958","distance":"266","postalCode":"NW1 7JH","cc":"GB","city":"Camden","state":"Greater London","country":"United Kingdom"},"categories":[{"id":"4bf58dd8d48988d149941735","name":"Thai Restaurant","pluralName":"Thai Restaurants","shortName":"Thai","icon":{"prefix":"https:\/\/ss1.4sqi.net\/img\/categories_v2\/food\/thai_","suffix":".png"},"primary":"true"}],"verified":"false","restricted":"true","stats":{"checkinsCount":"1574","usersCount":"879","tipCount":"21"},"specials":{"count":"0"},"hereNow":{"count":"0"},"referralId":"v-1392477962"},{"id":"4c4c8424bad7a5932fac60ad","name":"Yumchaa","contact":{"phone":"+442072099641","formattedPhone":"+44 20 7209 9641","twitter":"yumchaatea"},"location":{"address":"35-37 Parkway","crossStreet":"Arlington Rd","lat":"51.53823088164022","lng":"-0.14409393901286266","distance":"447","postalCode":"NW1 7PN","cc":"GB","city":"Camden Town","state":"Greater London","country":"United Kingdom"},"categories":[{"id":"4bf58dd8d48988d1dc931735","name":"Tea Room","pluralName":"Tea Rooms","shortName":"Tea Room","icon":{"prefix":"https:\/\/ss1.4sqi.net\/img\/categories_v2\/food\/tearoom_","suffix":".png"},"primary":"true"}],"verified":"true","restricted":"true","stats":{"checkinsCount":"1530","usersCount":"691","tipCount":"26"},"url":"http:\/\/www.yumchaa.com","specials":{"count":"0"},"hereNow":{"count":"1","groups":[{"type":"others","name":"Other people here","count":"1"}]},"storeId":"","referralId":"v-1392477962"},{"id":"4be7e73e9a54a5932b480911","name":"Argos","contact":{"twitter":"argos_online"},"location":{"address":"72-76 Camden High Street, ,","lat":"51.536598","lng":"-0.140298","distance":"310","postalCode":"NW1 0LT","cc":"GB","city":"London","state":"Greater London","country":"United Kingdom"},"categories":[{"id":"4bf58dd8d48988d112951735","name":"Hardware Store","pluralName":"Hardware Stores","shortName":"Hardware","icon":{"prefix":"https:\/\/ss1.4sqi.net\/img\/categories_v2\/shops\/hardware_","suffix":".png"},"primary":"true"}],"verified":"true","restricted":"true","stats":{"checkinsCount":"488","usersCount":"294","tipCount":"2"},"specials":{"count":"0"},"hereNow":{"count":"0"},"storeId":"","referralId":"v-1392477962"},{"id":"4b740ca9f964a52071c52de3","name":"Whole Foods Market","contact":{"phone":"+442074287575","formattedPhone":"+44 20 7428 7575"},"location":{"address":"49 Parkway","lat":"51.538013","lng":"-0.144575","distance":"432","postalCode":"NW1 7PN","cc":"GB","city":"Camden Town","state":"Greater London","country":"United Kingdom"},"categories":[{"id":"4bf58dd8d48988d118951735","name":"Grocery Store","pluralName":"Grocery Stores","shortName":"Grocery Store","icon":{"prefix":"https:\/\/ss1.4sqi.net\/img\/categories_v2\/shops\/food_grocery_","suffix":".png"},"primary":"true"}],"verified":"true","restricted":"true","stats":{"checkinsCount":"1393","usersCount":"545","tipCount":"12"},"url":"http:\/\/www.wholefoodsmarket.com","specials":{"count":"0"},"hereNow":{"count":"0"},"storeId":"CMD","referralId":"v-1392477962"},{"id":"5176d5c4e4b0128856403bec","name":"Finn Guild","location":{"address":"1A Mornington Court","crossStreet":"Arlington Road","lat":"51.53440059445104","lng":"-0.13980777893919658","distance":"207","postalCode":"NW1 7RD","cc":"GB","city":"London","state":"Greater London","country":"United Kingdom"},"categories":[{"id":"4f04b08c2fb6e1c99f3db0bd","name":"Travel Agency","pluralName":"Travel Agencies","shortName":"Travel Agency","icon":{"prefix":"https:\/\/ss1.4sqi.net\/img\/categories_v2\/travel\/travelagency_","suffix":".png"},"primary":"true"}],"verified":"false","restricted":"true","stats":{"checkinsCount":"189","usersCount":"6","tipCount":"0"},"specials":{"count":"0"},"hereNow":{"count":"0"},"referralId":"v-1392477962"},{"id":"4af5e443f964a52064fe21e3","name":"Belushi's","contact":{"phone":"+442073881012","formattedPhone":"+44 20 7388 1012","twitter":"belushis"},"location":{"address":"48-50 Camden High St.","lat":"51.535938","lng":"-0.139631","distance":"286","postalCode":"NW1 0LT","cc":"GB","city":"London","state":"Greater London","country":"United Kingdom"},"categories":[{"id":"4bf58dd8d48988d116941735","name":"Bar","pluralName":"Bars","shortName":"Bar","icon":{"prefix":"https:\/\/ss1.4sqi.net\/img\/categories_v2\/nightlife\/bar_","suffix":".png"},"primary":"true"}],"verified":"true","restricted":"true","stats":{"checkinsCount":"1408","usersCount":"698","tipCount":"9"},"url":"http:\/\/www.belushis.com\/bars\/london\/camden","specials":{"count":"0"},"hereNow":{"count":"0"},"referralId":"v-1392477962"},{"id":"4b084db3f964a520940823e3","name":"The Camden Head","contact":{"phone":"+442074854019","formattedPhone":"+44 20 7485 4019","twitter":"camdenhead"},"location":{"address":"100 Camden High St.","crossStreet":"at Pratt St.","lat":"51.53723338670592","lng":"-0.14095633023998652","distance":"351","postalCode":"NW1 0LU","cc":"GB","city":"Camden Town","state":"Greater London","country":"United Kingdom"},"categories":[{"id":"4bf58dd8d48988d116941735","name":"Bar","pluralName":"Bars","shortName":"Bar","icon":{"prefix":"https:\/\/ss1.4sqi.net\/img\/categories_v2\/nightlife\/bar_","suffix":".png"},"primary":"true"}],"verified":"false","restricted":"true","stats":{"checkinsCount":"2406","usersCount":"1566","tipCount":"25"},"url":"http:\/\/www.camdenhead.com","menu":{"type":"Menu","label":"Menu","anchor":"View Menu","url":"https:\/\/foursquare.com\/v\/the-camden-head\/4b084db3f964a520940823e3\/menu","mobileUrl":"https:\/\/foursquare.com\/v\/4b084db3f964a520940823e3\/device_menu"},"specials":{"count":"0"},"hereNow":{"count":"0"},"referralId":"v-1392477962"},{"id":"4ad64b39f964a5205e0621e3","name":"Edinboro Castle","contact":{"phone":"+442072559651","formattedPhone":"+44 20 7255 9651"},"location":{"address":"57 Mornington Terrace","crossStreet":"at Delancy St","lat":"51.536311","lng":"-0.145003","distance":"271","postalCode":"NW1 7RU","cc":"GB","city":"London","state":"Greater London","country":"United Kingdom"},"categories":[{"id":"4bf58dd8d48988d11b941735","name":"Pub","pluralName":"Pubs","shortName":"Pub","icon":{"prefix":"https:\/\/ss1.4sqi.net\/img\/categories_v2\/nightlife\/pub_","suffix":".png"},"primary":"true"}],"verified":"false","restricted":"true","stats":{"checkinsCount":"3351","usersCount":"1927","tipCount":"39"},"url":"http:\/\/www.edinborocastlepub.co.uk","menu":{"type":"Menu","label":"Menu","anchor":"View Menu","url":"https:\/\/foursquare.com\/v\/edinboro-castle\/4ad64b39f964a5205e0621e3\/menu","mobileUrl":"https:\/\/foursquare.com\/v\/4ad64b39f964a5205e0621e3\/device_menu"},"specials":{"count":"0"},"hereNow":{"count":"0"},"referralId":"v-1392477962"},{"id":"4ae60730f964a5202ea421e3","name":"York & Albany","contact":{"phone":"+442073883344","formattedPhone":"+44 20 7388 3344"},"location":{"address":"127-129 Parkway","lat":"51.536098948918685","lng":"-0.1463627815246582","distance":"318","postalCode":"NW1 7PS","cc":"GB","city":"London","state":"Greater London","country":"United Kingdom"},"categories":[{"id":"4bf58dd8d48988d1fa931735","name":"Hotel","pluralName":"Hotels","shortName":"Hotel","icon":{"prefix":"https:\/\/ss1.4sqi.net\/img\/categories_v2\/travel\/hotel_","suffix":".png"},"primary":"true"}],"verified":"true","restricted":"true","stats":{"checkinsCount":"1479","usersCount":"1001","tipCount":"26"},"url":"http:\/\/www.gordonramsay.com\/yorkandalbany\/","reservations":{"url":"http:\/\/www.toptable.co.uk\/single.aspx?rid=80224&ref=9601"},"menu":{"type":"Menu","label":"Menu","anchor":"View Menu","url":"https:\/\/foursquare.com\/v\/york--albany\/4ae60730f964a5202ea421e3\/menu","mobileUrl":"https:\/\/foursquare.com\/v\/4ae60730f964a5202ea421e3\/device_menu"},"specials":{"count":"0"},"hereNow":{"count":"0"},"storeId":"","referralId":"v-1392477962"},{"id":"5121f7d0e4b00c9531f1ab33","name":"VML London","contact":{"phone":"+442073433700","formattedPhone":"+44 20 7343 3700","twitter":"vml_london"},"location":{"address":"4th Floor, Greater London House, Hampstead Road","lat":"51.533188344304605","lng":"-0.13987653346437612","distance":"236","postalCode":"NW1 7QP","cc":"GB","city":"London","state":"Greater London","country":"United Kingdom"},"categories":[{"id":"4bf58dd8d48988d174941735","name":"Coworking Space","pluralName":"Coworking Spaces","shortName":"Coworking Space","icon":{"prefix":"https:\/\/ss1.4sqi.net\/img\/categories_v2\/building\/office_coworkingspace_","suffix":".png"},"primary":"true"}],"verified":"false","restricted":"true","stats":{"checkinsCount":"149","usersCount":"22","tipCount":"0"},"specials":{"count":"0"},"hereNow":{"count":"0"},"referralId":"v-1392477962"},{"id":"4f6303d80cd6efd2b0ddde47","name":"La Patagonia","contact":{"phone":"+442073889861","formattedPhone":"+44 20 7388 9861","twitter":"patagoniacamden","facebook":"239148026174868"},"location":{"address":"31 Camden High St","crossStreet":"at Symes Mews","lat":"51.5352981139543","lng":"-0.13934612274169922","distance":"264","postalCode":"NW1 7JE","cc":"GB","city":"Camden","state":"Greater London","country":"United Kingdom"},"categories":[{"id":"4bf58dd8d48988d107941735","name":"Argentinian Restaurant","pluralName":"Argentinian Restaurants","shortName":"Argentinian","icon":{"prefix":"https:\/\/ss1.4sqi.net\/img\/categories_v2\/food\/argentinian_","suffix":".png"},"primary":"true"}],"verified":"true","restricted":"true","stats":{"checkinsCount":"219","usersCount":"169","tipCount":"8"},"url":"http:\/\/www.lapatagonia.co.uk","reservations":{"url":"http:\/\/www.toptable.co.uk\/single.aspx?rid=93288&ref=9601"},"menu":{"type":"Menu","label":"Menu","anchor":"View Menu","url":"https:\/\/foursquare.com\/v\/la-patagonia-camden-greater-london\/4f6303d80cd6efd2b0ddde47\/menu","mobileUrl":"https:\/\/foursquare.com\/v\/4f6303d80cd6efd2b0ddde47\/device_menu"},"specials":{"count":"0"},"hereNow":{"count":"0"},"venuePage":{"id":"78020665"},"referralId":"v-1392477962"},{"id":"4ae0a9dbf964a5206b8121e3","name":"Asakusa","contact":{"phone":"+442073888533","formattedPhone":"+44 20 7388 8533"},"location":{"address":"265 Eversholt St.","lat":"51.53408918912271","lng":"-0.13822666391607744","distance":"317","postalCode":"NW1 1BA","cc":"GB","city":"Camden","state":"Greater London","country":"United Kingdom"},"categories":[{"id":"4bf58dd8d48988d111941735","name":"Japanese Restaurant","pluralName":"Japanese Restaurants","shortName":"Japanese","icon":{"prefix":"https:\/\/ss1.4sqi.net\/img\/categories_v2\/food\/japanese_","suffix":".png"},"primary":"true"}],"verified":"false","restricted":"true","stats":{"checkinsCount":"593","usersCount":"434","tipCount":"28"},"specials":{"count":"0"},"hereNow":{"count":"0"},"referralId":"v-1392477962"},{"id":"4b65bbf9f964a52072fc2ae3","name":"Marks & Spencer","contact":{"phone":"+442072676055","formattedPhone":"+44 20 7267 6055"},"location":{"address":"143-149 Camden High St.","lat":"51.53799256888557","lng":"-0.1418857264387377","distance":"417","postalCode":"NW1 7JX","cc":"GB","city":"Camden","state":"Greater London","country":"United Kingdom"},"categories":[{"id":"4bf58dd8d48988d118951735","name":"Grocery Store","pluralName":"Grocery Stores","shortName":"Grocery Store","icon":{"prefix":"https:\/\/ss1.4sqi.net\/img\/categories_v2\/shops\/food_grocery_","suffix":".png"},"primary":"true"}],"verified":"true","restricted":"true","stats":{"checkinsCount":"1802","usersCount":"388","tipCount":"4"},"specials":{"count":"0"},"hereNow":{"count":"0"},"storeId":"Camden Town","referralId":"v-1392477962"},{"id":"4b61bbfdf964a520701f2ae3","name":"Purple Turtle","contact":{"phone":"+442073834976","formattedPhone":"+44 20 7383 4976"},"location":{"address":"65 Crowndale Rd","lat":"51.53466980464441","lng":"-0.13811457735416802","distance":"327","postalCode":"NW1 1TN","cc":"GB","city":"Camden","state":"Greater London","country":"United Kingdom"},"categories":[{"id":"4bf58dd8d48988d1e9931735","name":"Rock Club","pluralName":"Rock Clubs","shortName":"Rock Club","icon":{"prefix":"https:\/\/ss1.4sqi.net\/img\/categories_v2\/arts_entertainment\/musicvenue_rockclub_","suffix":".png"},"primary":"true"}],"verified":"false","restricted":"true","stats":{"checkinsCount":"1324","usersCount":"662","tipCount":"6"},"url":"http:\/\/www.purpleturtlebar.com","specials":{"count":"0"},"hereNow":{"count":"0"},"referralId":"v-1392477962"},{"id":"5272ad5f11d21f18fbe13eaf","name":"Simmons Camden","contact":{"twitter":"simmonslondon"},"location":{"address":"7 Camden High Street","lat":"51.53471968411621","lng":"-0.13908045985414308","distance":"262","postalCode":"NW1","cc":"GB","city":"Camden","country":"United Kingdom"},"categories":[{"id":"4bf58dd8d48988d11e941735","name":"Cocktail Bar","pluralName":"Cocktail Bars","shortName":"Cocktail","icon":{"prefix":"https:\/\/ss1.4sqi.net\/img\/categories_v2\/nightlife\/cocktails_","suffix":".png"},"primary":"true"}],"verified":"false","restricted":"true","stats":{"checkinsCount":"41","usersCount":"37","tipCount":"3"},"specials":{"count":"0"},"hereNow":{"count":"0"},"referralId":"v-1392477962"},{"id":"4c3cf0397d002d7f2d25af18","name":"Regents Park Barracks","location":{"lat":"51.5323555266526","lng":"-0.14532538048943536","distance":"277","cc":"GB","country":"United Kingdom"},"categories":[{"id":"4e52adeebd41615f56317744","name":"Military Base","pluralName":"Military Bases","shortName":"Military Base","icon":{"prefix":"https:\/\/ss1.4sqi.net\/img\/categories_v2\/building\/militarybase_","suffix":".png"},"primary":"true"}],"verified":"false","restricted":"true","stats":{"checkinsCount":"427","usersCount":"92","tipCount":"1"},"specials":{"count":"0"},"hereNow":{"count":"0"},"referralId":"v-1392477962"},{"id":"4b50a689f964a5206b2b27e3","name":"Wunderman","contact":{"phone":"+442076116666","formattedPhone":"+44 20 7611 6666"},"location":{"address":"Greater London House, Hampstead Road","lat":"51.533256063734925","lng":"-0.13952322073656348","distance":"254","postalCode":"NW1 7QP","cc":"GB","city":"London","state":"Greater London","country":"United Kingdom"},"categories":[{"id":"4bf58dd8d48988d174941735","name":"Coworking Space","pluralName":"Coworking Spaces","shortName":"Coworking Space","icon":{"prefix":"https:\/\/ss1.4sqi.net\/img\/categories_v2\/building\/office_coworkingspace_","suffix":".png"},"primary":"true"}],"verified":"false","restricted":"true","stats":{"checkinsCount":"3250","usersCount":"319","tipCount":"8"},"specials":{"count":"0"},"hereNow":{"count":"0"},"referralId":"v-1392477962"},{"id":"4ae45c61f964a520239a21e3","name":"The Earl of Camden","location":{"address":"55 parkway","lat":"51.53774061654683","lng":"-0.1448822021484375","distance":"410","cc":"GB","city":"London","state":"Greater London","country":"United Kingdom"},"categories":[{"id":"4bf58dd8d48988d11b941735","name":"Pub","pluralName":"Pubs","shortName":"Pub","icon":{"prefix":"https:\/\/ss1.4sqi.net\/img\/categories_v2\/nightlife\/pub_","suffix":".png"},"primary":"true"}],"verified":"false","restricted":"true","stats":{"checkinsCount":"1816","usersCount":"1232","tipCount":"27"},"menu":{"type":"Menu","label":"Menu","anchor":"View Menu","url":"https:\/\/foursquare.com\/v\/the-earl-of-camden-london-uk\/4ae45c61f964a520239a21e3\/menu","mobileUrl":"https:\/\/foursquare.com\/v\/4ae45c61f964a520239a21e3\/device_menu"},"specials":{"count":"0"},"hereNow":{"count":"0"},"referralId":"v-1392477962"}],"confident":"false"}}