{"meta":{"code":"200"},"response":{"venues":[{"id":"4b472756f964a520072c26e3","name":"The Carpenters Arms","contact":{"phone":"+442077396342","formattedPhone":"+44 20 7739 6342"},"location":{"address":"73 Cheshire Street","crossStreet":"at St. Matthew's Row","lat":"51.52393141215938","lng":"-0.06734490394592285","distance":"50","postalCode":"E2 6EG","cc":"GB","city":"Bethnal Green","state":"Greater London","country":"United Kingdom"},"categories":[{"id":"4bf58dd8d48988d11b941735","name":"Pub","pluralName":"Pubs","shortName":"Pub","icon":{"prefix":"https:\/\/ss1.4sqi.net\/img\/categories_v2\/nightlife\/pub_","suffix":".png"},"primary":"true"}],"verified":"false","restricted":"true","stats":{"checkinsCount":"1870","usersCount":"886","tipCount":"22"},"url":"http:\/\/www.carpentersarmsfreehouse.com","menu":{"type":"Menu","label":"Menu","anchor":"View Menu","url":"https:\/\/foursquare.com\/v\/the-carpenters-arms\/4b472756f964a520072c26e3\/menu","mobileUrl":"https:\/\/foursquare.com\/v\/4b472756f964a520072c26e3\/device_menu"},"specials":{"count":"0"},"hereNow":{"count":"1","groups":[{"type":"others","name":"Other people here","count":"1"}]},"referralId":"v-1392477996"},{"id":"4b2a168cf964a5202ca524e3","name":"Beyond Retro","contact":{"phone":"+442076133636","formattedPhone":"+44 20 7613 3636","twitter":"beyondretrouk"},"location":{"address":"110-112 Cheshire St","lat":"51.5238773977676","lng":"-0.06731881163197903","distance":"56","postalCode":"E2 6EJ","cc":"GB","city":"Poplar","state":"Greater London","country":"United Kingdom"},"categories":[{"id":"4bf58dd8d48988d101951735","name":"Thrift \/ Vintage Store","pluralName":"Thrift \/ Vintage Stores","shortName":"Thrift \/ Vintage","icon":{"prefix":"https:\/\/ss1.4sqi.net\/img\/categories_v2\/shops\/default_","suffix":".png"},"primary":"true"}],"verified":"false","restricted":"true","stats":{"checkinsCount":"474","usersCount":"403","tipCount":"7"},"url":"http:\/\/www.beyondretro.com","specials":{"count":"0"},"hereNow":{"count":"0"},"referralId":"v-1392477996"},{"id":"4b4d03b9f964a520d2c726e3","name":"Reflection House","location":{"address":"Cheshire St","lat":"51.52382","lng":"-0.06672799587249756","distance":"90","postalCode":"E2 6EJ","cc":"GB","city":"Bethnal Green","state":"Greater London","country":"United Kingdom"},"categories":[{"id":"4bf58dd8d48988d124941735","name":"Office","pluralName":"Offices","shortName":"Office","icon":{"prefix":"https:\/\/ss1.4sqi.net\/img\/categories_v2\/building\/default_","suffix":".png"},"primary":"true"}],"verified":"false","restricted":"true","stats":{"checkinsCount":"186","usersCount":"57","tipCount":"2"},"specials":{"count":"0"},"hereNow":{"count":"0"},"referralId":"v-1392477996"},{"id":"4b30ce1ef964a520b6fb24e3","name":"Duke of Uke","location":{"address":"Cheshire Street","lat":"51.5235943490411","lng":"-0.06825889004148704","distance":"83","postalCode":"E1 6QR","cc":"GB","city":"London","state":"Greater London","country":"United Kingdom"},"categories":[{"id":"4bf58dd8d48988d1fe941735","name":"Music Store","pluralName":"Music Stores","shortName":"Music Store","icon":{"prefix":"https:\/\/ss1.4sqi.net\/img\/categories_v2\/shops\/music_instruments_","suffix":".png"},"primary":"true"}],"verified":"false","restricted":"true","stats":{"checkinsCount":"120","usersCount":"85","tipCount":"2"},"specials":{"count":"0"},"hereNow":{"count":"0"},"referralId":"v-1392477996"},{"id":"4b151e15f964a52074a823e3","name":"Tas Firin","location":{"address":"160 Bethnal Green Road","lat":"51.525494","lng":"-0.07037","distance":"222","postalCode":"E2 6dg","cc":"GB","city":"London","state":"Greater London","country":"United Kingdom"},"categories":[{"id":"4bf58dd8d48988d1c0941735","name":"Mediterranean Restaurant","pluralName":"Mediterranean Restaurants","shortName":"Mediterranean","icon":{"prefix":"https:\/\/ss1.4sqi.net\/img\/categories_v2\/food\/mediterranean_","suffix":".png"},"primary":"true"}],"verified":"false","restricted":"true","stats":{"checkinsCount":"620","usersCount":"375","tipCount":"20"},"specials":{"count":"0"},"hereNow":{"count":"0"},"referralId":"v-1392477996"},{"id":"526e350f11d24f040fa18f1c","name":"St Matthews Church","location":{"address":"Saint Matthews Row","lat":"51.52517598601211","lng":"-0.06750485552111486","distance":"100","cc":"GB","country":"United Kingdom"},"categories":[{"id":"4bf58dd8d48988d15a941735","name":"Garden","pluralName":"Gardens","shortName":"Garden","icon":{"prefix":"https:\/\/ss1.4sqi.net\/img\/categories_v2\/parks_outdoors\/garden_","suffix":".png"},"primary":"true"}],"verified":"false","restricted":"true","stats":{"checkinsCount":"14","usersCount":"3","tipCount":"0"},"specials":{"count":"0"},"hereNow":{"count":"0"},"referralId":"v-1392477996"},{"id":"50194cdce4b0dee93c462d85","name":"Morena Bakery","contact":{"phone":"+442070339057","formattedPhone":"+44 20 7033 9057","twitter":"morenabakery"},"location":{"address":"40 Cheshire St.","lat":"51.52356426643794","lng":"-0.0698232650756836","distance":"161","postalCode":"E2 6EH","cc":"GB","city":"London","state":"Greater London","country":"United Kingdom"},"categories":[{"id":"4bf58dd8d48988d16a941735","name":"Bakery","pluralName":"Bakeries","shortName":"Bakery","icon":{"prefix":"https:\/\/ss1.4sqi.net\/img\/categories_v2\/food\/bakery_","suffix":".png"},"primary":"true"}],"verified":"false","restricted":"true","stats":{"checkinsCount":"92","usersCount":"64","tipCount":"6"},"specials":{"count":"0"},"hereNow":{"count":"0"},"referralId":"v-1392477996"},{"id":"4e873315d5fbe9877097b626","name":"ed stonestreet","location":{"lat":"51.524485462825666","lng":"-0.06746292114257812","distance":"32","cc":"GB","country":"United Kingdom"},"verified":"false","restricted":"true","stats":{"checkinsCount":"0","usersCount":"0","tipCount":"0"},"specials":{"count":"0"},"hereNow":{"count":"0"},"referralId":"v-1392477996"},{"id":"524057ba7e489fd643e8b872","name":"Cloak and Dagger Tattoo Parlour","contact":{"phone":"+442071750133","formattedPhone":"+44 20 7175 0133","twitter":"canddlondon"},"location":{"address":"34 Cheshire Street","lat":"51.523577617243326","lng":"-0.07012903690338135","distance":"179","postalCode":"E2 6EH","cc":"GB","city":"London","state":"Greater London","country":"United Kingdom"},"categories":[{"id":"4bf58dd8d48988d1de931735","name":"Tattoo Parlor","pluralName":"Tattoo Parlors","shortName":"Tattoo","icon":{"prefix":"https:\/\/ss1.4sqi.net\/img\/categories_v2\/shops\/tattoos_","suffix":".png"},"primary":"true"}],"verified":"true","restricted":"true","stats":{"checkinsCount":"10","usersCount":"9","tipCount":"0"},"url":"http:\/\/www.cloakanddaggerlondon.co.uk","specials":{"count":"0"},"hereNow":{"count":"0"},"venuePage":{"id":"70583395"},"referralId":"v-1392477996"},{"id":"509e8b2be4b04eb23d26e757","name":"Gogo Philip","location":{"lat":"51.52361296231106","lng":"-0.0687752634393947","distance":"100","cc":"GB","country":"United Kingdom"},"categories":[{"id":"4bf58dd8d48988d111951735","name":"Jewelry Store","pluralName":"Jewelry Stores","shortName":"Jewelry","icon":{"prefix":"https:\/\/ss1.4sqi.net\/img\/categories_v2\/shops\/jewelry_","suffix":".png"},"primary":"true"}],"verified":"false","restricted":"true","stats":{"checkinsCount":"10","usersCount":"10","tipCount":"0"},"specials":{"count":"0"},"hereNow":{"count":"0"},"referralId":"v-1392477996"},{"id":"4f8dd2b1e4b0036b6e97eba7","name":"Cheshire Street","location":{"lat":"51.52346011136914","lng":"-0.06871804003801406","distance":"111","cc":"GB","country":"United Kingdom"},"categories":[{"id":"4bf58dd8d48988d122941735","name":"Whisky Bar","pluralName":"Whisky Bars","shortName":"Whisky Bar","icon":{"prefix":"https:\/\/ss1.4sqi.net\/img\/categories_v2\/nightlife\/whiskey_","suffix":".png"},"primary":"true"}],"verified":"false","restricted":"true","stats":{"checkinsCount":"58","usersCount":"35","tipCount":"0"},"specials":{"count":"0"},"hereNow":{"count":"0"},"referralId":"v-1392477996"},{"id":"4e22f2eee4cdf68591946e16","name":"T on the Green","location":{"lat":"51.524722","lng":"-0.067473","distance":"53","cc":"GB","city":"Poplar","state":"Greater London","country":"United Kingdom"},"categories":[{"id":"4bf58dd8d48988d163941735","name":"Park","pluralName":"Parks","shortName":"Park","icon":{"prefix":"https:\/\/ss1.4sqi.net\/img\/categories_v2\/parks_outdoors\/park_","suffix":".png"},"primary":"true"}],"verified":"false","restricted":"true","stats":{"checkinsCount":"2","usersCount":"2","tipCount":"0"},"specials":{"count":"0"},"hereNow":{"count":"0"},"referralId":"v-1392477996"},{"id":"4d3b10bd039eb60cbe8cf19c","name":"St Matthews Church","location":{"address":"St Matthew's Row","lat":"51.52476535706928","lng":"-0.06740021416632545","distance":"59","cc":"GB","city":"Poplar","state":"Greater London","country":"United Kingdom"},"categories":[{"id":"4bf58dd8d48988d132941735","name":"Church","pluralName":"Churches","shortName":"Church","icon":{"prefix":"https:\/\/ss1.4sqi.net\/img\/categories_v2\/building\/religious_church_","suffix":".png"},"primary":"true"}],"verified":"false","restricted":"true","stats":{"checkinsCount":"32","usersCount":"24","tipCount":"2"},"specials":{"count":"0"},"hereNow":{"count":"0"},"referralId":"v-1392477996"},{"id":"4ce4321405f7a093697fa428","name":"Chez Seb","location":{"address":"Wood close","lat":"51.523782","lng":"-0.067613","distance":"57","postalCode":"E26et","cc":"GB","city":"London","state":"Greater London","country":"United Kingdom"},"categories":[{"id":"4bf58dd8d48988d119941735","name":"Hookah Bar","pluralName":"Hookah Bars","shortName":"Hookah Bar","icon":{"prefix":"https:\/\/ss1.4sqi.net\/img\/categories_v2\/nightlife\/hookahbar_","suffix":".png"},"primary":"true"}],"verified":"false","restricted":"true","stats":{"checkinsCount":"4","usersCount":"3","tipCount":"1"},"specials":{"count":"0"},"hereNow":{"count":"0"},"referralId":"v-1392477996"},{"id":"52ebb1ea498e05d09ed7da1c","name":"beyond retro","location":{"address":"Brick Lane","lat":"51.523889","lng":"-0.067177","distance":"62","cc":"GB","city":"London","state":"Greater London","country":"United Kingdom"},"categories":[{"id":"4bf58dd8d48988d116951735","name":"Antique Shop","pluralName":"Antique Shops","shortName":"Antiques","icon":{"prefix":"https:\/\/ss1.4sqi.net\/img\/categories_v2\/shops\/antique_","suffix":".png"},"primary":"true"}],"verified":"false","restricted":"true","stats":{"checkinsCount":"1","usersCount":"1","tipCount":"0"},"specials":{"count":"0"},"hereNow":{"count":"0"},"referralId":"v-1392477996"},{"id":"4cc9877cf1cd9521f6749c0f","name":"Bethnal Green Street Market","location":{"address":"bethnal green road","lat":"51.52614293416905","lng":"-0.06695716132214004","distance":"214","postalCode":"e2 0ea","cc":"GB","city":"bethnal green","state":"Greater London","country":"United Kingdom"},"categories":[{"id":"50be8ee891d4fa8dcc7199a7","name":"Market","pluralName":"Markets","shortName":"Market","icon":{"prefix":"https:\/\/ss1.4sqi.net\/img\/categories_v2\/shops\/default_","suffix":".png"},"primary":"true"}],"verified":"false","restricted":"true","stats":{"checkinsCount":"66","usersCount":"39","tipCount":"2"},"specials":{"count":"0"},"hereNow":{"count":"0"},"referralId":"v-1392477996"},{"id":"4beac34a415e20a1e563e5bb","name":"William Davis Primary School","location":{"address":"Wood Close","lat":"51.523988","lng":"-0.066884","distance":"71","cc":"GB","city":"Tower Hamlets","state":"Greater London","country":"United Kingdom"},"categories":[{"id":"4bf58dd8d48988d13b941735","name":"School","pluralName":"Schools","shortName":"School","icon":{"prefix":"https:\/\/ss1.4sqi.net\/img\/categories_v2\/building\/school_","suffix":".png"},"primary":"true"}],"verified":"false","restricted":"true","stats":{"checkinsCount":"4","usersCount":"2","tipCount":"0"},"specials":{"count":"0"},"hereNow":{"count":"0"},"referralId":"v-1392477996"},{"id":"4b4923a8f964a520796726e3","name":"Yummy's Cafe","location":{"address":"60 Cheshire Street","lat":"51.52358293533325","lng":"-0.06876111030578613","distance":"102","postalCode":"E2 6EH","cc":"GB","city":"London","state":"Greater London","country":"United Kingdom"},"categories":[{"id":"4bf58dd8d48988d143941735","name":"Breakfast Spot","pluralName":"Breakfast Spots","shortName":"Breakfast","icon":{"prefix":"https:\/\/ss1.4sqi.net\/img\/categories_v2\/food\/breakfast_","suffix":".png"},"primary":"true"}],"verified":"false","restricted":"true","stats":{"checkinsCount":"126","usersCount":"55","tipCount":"3"},"specials":{"count":"0"},"hereNow":{"count":"0"},"referralId":"v-1392477996"},{"id":"51a904b4498e120e978a5ad0","name":"Ekol Food Centre","location":{"address":"161 Bethnal Green Rd","crossStreet":"Shacklewell St","lat":"51.52549784622036","lng":"-0.07031774033617244","distance":"220","cc":"GB","city":"Bethnal Green","state":"Greater London","country":"United Kingdom"},"categories":[{"id":"4bf58dd8d48988d1f9941735","name":"Food & Drink Shop","pluralName":"Food & Drink Shops","shortName":"Food & Drink","icon":{"prefix":"https:\/\/ss1.4sqi.net\/img\/categories_v2\/shops\/foodanddrink_","suffix":".png"},"primary":"true"}],"verified":"false","restricted":"true","stats":{"checkinsCount":"48","usersCount":"8","tipCount":"1"},"specials":{"count":"0"},"hereNow":{"count":"0"},"referralId":"v-1392477996"},{"id":"5210d960bce624acd5165d26","name":"Cock & Bull & Co.","contact":{"phone":"+442077295068","formattedPhone":"+44 20 7729 5068","twitter":"cockandbullmen"},"location":{"address":"30 Cheshire Street","crossStreet":"Brick Lane","lat":"51.52353422711156","lng":"-0.07033288478851318","distance":"194","postalCode":"E2 6EH","cc":"GB","city":"London","state":"Greater London","country":"United Kingdom"},"categories":[{"id":"4bf58dd8d48988d106951735","name":"Men's Store","pluralName":"Men's Stores","shortName":"Men's Store","icon":{"prefix":"https:\/\/ss1.4sqi.net\/img\/categories_v2\/shops\/apparel_men_","suffix":".png"},"primary":"true"}],"verified":"true","restricted":"true","stats":{"checkinsCount":"6","usersCount":"4","tipCount":"1"},"url":"http:\/\/www.cockandbullmenswear.co.uk","specials":{"count":"0"},"hereNow":{"count":"0"},"venuePage":{"id":"64140222"},"referralId":"v-1392477996"},{"id":"4c1d0d5f01379521d72d47f3","name":"Blackman's Shoes","location":{"address":"42-44 Cheshire Street","crossStreet":"at Grimsby Street","lat":"51.523530889407375","lng":"-0.06960868835449219","distance":"150","postalCode":"E2","cc":"GB","city":"Shoreditch","state":"Greater London","country":"United Kingdom"},"categories":[{"id":"4bf58dd8d48988d107951735","name":"Shoe Store","pluralName":"Shoe Stores","shortName":"Shoes","icon":{"prefix":"https:\/\/ss1.4sqi.net\/img\/categories_v2\/shops\/apparel_shoestore_","suffix":".png"},"primary":"true"}],"verified":"false","restricted":"true","stats":{"checkinsCount":"16","usersCount":"13","tipCount":"0"},"specials":{"count":"0"},"hereNow":{"count":"0"},"referralId":"v-1392477996"},{"id":"5173b9a8e4b0ffeb940e16c6","name":"Repton Boxing Club","location":{"lat":"51.524023","lng":"-0.066605","distance":"88","cc":"GB","country":"United Kingdom"},"categories":[{"id":"4bf58dd8d48988d130941735","name":"Building","pluralName":"Buildings","shortName":"Building","icon":{"prefix":"https:\/\/ss1.4sqi.net\/img\/categories_v2\/building\/default_","suffix":".png"},"primary":"true"}],"verified":"false","restricted":"true","stats":{"checkinsCount":"0","usersCount":"0","tipCount":"0"},"specials":{"count":"0"},"hereNow":{"count":"0"},"referralId":"v-1392477996"},{"id":"4bf40b3cff90c9b6bfc05428","name":"Ante London","location":{"address":"224 Brick Lane","lat":"51.52386227304094","lng":"-0.06658422018021616","distance":"96","postalCode":"E1 6SA","cc":"GB","city":"Poplar","state":"Greater London","country":"United Kingdom"},"categories":[{"id":"4bf58dd8d48988d104951735","name":"Boutique","pluralName":"Boutiques","shortName":"Boutique","icon":{"prefix":"https:\/\/ss1.4sqi.net\/img\/categories_v2\/shops\/apparel_boutique_","suffix":".png"},"primary":"true"}],"verified":"false","restricted":"true","stats":{"checkinsCount":"10","usersCount":"9","tipCount":"0"},"specials":{"count":"0"},"hereNow":{"count":"0"},"referralId":"v-1392477996"},{"id":"4f57a44ce4b07cf6e25a9e15","name":"The London Osteopath","location":{"lat":"51.52368","lng":"-0.068638","distance":"89","cc":"GB","country":"United Kingdom"},"verified":"false","restricted":"true","stats":{"checkinsCount":"5","usersCount":"5","tipCount":"0"},"specials":{"count":"0"},"hereNow":{"count":"0"},"referralId":"v-1392477996"},{"id":"4cec60988604a1cd6182ecc0","name":"Melrose Place","location":{"address":"112a cheshire street","lat":"51.523955","lng":"-0.06671","distance":"84","postalCode":"E26he","cc":"GB","city":"Poplar","state":"Greater London","country":"United Kingdom"},"categories":[{"id":"4bf58dd8d48988d1b0941735","name":"Fraternity House","pluralName":"Fraternity Houses","shortName":"Frat House","icon":{"prefix":"https:\/\/ss1.4sqi.net\/img\/categories_v2\/education\/frathouse_","suffix":".png"},"primary":"true"}],"verified":"false","restricted":"true","stats":{"checkinsCount":"33","usersCount":"4","tipCount":"0"},"specials":{"count":"0"},"hereNow":{"count":"0"},"referralId":"v-1392477996"},{"id":"52b9abdd11d2a2a2b11ddedd","name":"30 Hereford Street","location":{"address":"30 Hereford Street","lat":"51.523975","lng":"-0.066437","distance":"100","cc":"GB","country":"United Kingdom"},"categories":[{"id":"4d954b06a243a5684965b473","name":"Residential Building (Apartment \/ Condo)","pluralName":"Residential Buildings (Apartments \/ Condos)","shortName":"Residential","icon":{"prefix":"https:\/\/ss1.4sqi.net\/img\/categories_v2\/building\/apartment_","suffix":".png"},"primary":"true"}],"verified":"false","restricted":"true","stats":{"checkinsCount":"0","usersCount":"0","tipCount":"0"},"specials":{"count":"0"},"hereNow":{"count":"0"},"referralId":"v-1392477996"},{"id":"516ae12fe4b0c884d5fc23ee","name":"Trikki","location":{"address":"17 Cheshire Street","lat":"51.523711943311525","lng":"-0.06909112000205353","distance":"109","cc":"GB","city":"London","state":"Greater London","country":"United Kingdom"},"categories":[{"id":"4bf58dd8d48988d106951735","name":"Men's Store","pluralName":"Men's Stores","shortName":"Men's Store","icon":{"prefix":"https:\/\/ss1.4sqi.net\/img\/categories_v2\/shops\/apparel_men_","suffix":".png"},"primary":"true"}],"verified":"false","restricted":"true","stats":{"checkinsCount":"3","usersCount":"3","tipCount":"0"},"specials":{"count":"0"},"hereNow":{"count":"0"},"referralId":"v-1392477996"},{"id":"4e851194d3e3125eeb6eb42f","name":"Baumschlager HQ","location":{"lat":"51.52388801082868","lng":"-0.06646379800826697","distance":"102","cc":"GB","city":"London","state":"Greater London","country":"United Kingdom"},"categories":[{"id":"4bf58dd8d48988d118941735","name":"Dive Bar","pluralName":"Dive Bars","shortName":"Dive Bar","icon":{"prefix":"https:\/\/ss1.4sqi.net\/img\/categories_v2\/nightlife\/divebar_","suffix":".png"},"primary":"true"}],"verified":"false","restricted":"true","stats":{"checkinsCount":"5","usersCount":"3","tipCount":"1"},"specials":{"count":"0"},"hereNow":{"count":"0"},"referralId":"v-1392477996"},{"id":"4c35a96009a99c74bd7f0c2a","name":"Eye Culture","contact":{"phone":"+442073775468","formattedPhone":"+44 20 7377 5468"},"location":{"address":"225 Bethnal Green Road","lat":"51.52614089935105","lng":"-0.06709814071655273","distance":"211","postalCode":"E2 6AB","cc":"GB","city":"London","state":"Greater London","country":"United Kingdom"},"categories":[{"id":"4eb1bdde3b7b55596b4a7490","name":"Photography Lab","pluralName":"Photography Labs","shortName":"Photography Lab","icon":{"prefix":"https:\/\/ss1.4sqi.net\/img\/categories_v2\/shops\/photographylab_","suffix":".png"},"primary":"true"}],"verified":"false","restricted":"true","stats":{"checkinsCount":"86","usersCount":"13","tipCount":"4"},"specials":{"count":"0"},"hereNow":{"count":"0"},"referralId":"v-1392477996"},{"id":"4e5c1d87bd41ab6bfd124dde","name":"St Matthews Church - Bethnal Green","location":{"lat":"51.525165","lng":"-0.067213","distance":"105","cc":"GB","city":"London","state":"Greater London","country":"United Kingdom"},"verified":"false","restricted":"true","stats":{"checkinsCount":"5","usersCount":"5","tipCount":"0"},"specials":{"count":"0"},"hereNow":{"count":"0"},"referralId":"v-1392477996"}],"confident":"true"}}