{"meta":{"code":"200"},"response":{"venues":[{"id":"4acf135cf964a52060d220e3","name":"Royal Mint Court","location":{"address":"4 Royal Mint Court","crossStreet":"Mansell St","lat":"51.50929990492254","lng":"-0.07271442779967938","distance":"6","postalCode":"EC3N 4HJ","cc":"GB","city":"London","country":"United Kingdom"},"categories":[{"id":"4bf58dd8d48988d124941735","name":"Office","pluralName":"Offices","shortName":"Office","icon":{"prefix":"https:\/\/ss1.4sqi.net\/img\/categories_v2\/building\/default_","suffix":".png"},"primary":"true"}],"verified":"false","restricted":"true","stats":{"checkinsCount":"543","usersCount":"246","tipCount":"1"},"specials":{"count":"0"},"hereNow":{"count":"0"},"referralId":"v-1392478034"},{"id":"4b7436c3f964a52085cd2de3","name":"Truphone HQ","location":{"address":"4 Royal Mint Court","lat":"51.509330081722084","lng":"-0.07253766059875488","distance":"18","postalCode":"EC3N 4HJ","cc":"GB","city":"London","state":"Greater London","country":"United Kingdom"},"categories":[{"id":"4bf58dd8d48988d124941735","name":"Office","pluralName":"Offices","shortName":"Office","icon":{"prefix":"https:\/\/ss1.4sqi.net\/img\/categories_v2\/building\/default_","suffix":".png"},"primary":"true"}],"verified":"false","restricted":"true","stats":{"checkinsCount":"1563","usersCount":"76","tipCount":"1"},"specials":{"count":"0"},"hereNow":{"count":"0"},"referralId":"v-1392478034"},{"id":"4b6c591bf964a5208c322ce3","name":"Tower Gateway DLR Station","contact":{"phone":"+448432221234","formattedPhone":"+44 843 222 1234","twitter":"tflofficial","facebook":"212038972186253"},"location":{"address":"The Minories","lat":"51.51045188624859","lng":"-0.0747370719909668","distance":"186","postalCode":"EC3N 1JL","cc":"GB","city":"London","state":"Greater London","country":"United Kingdom"},"categories":[{"id":"4bf58dd8d48988d1fc931735","name":"Light Rail","pluralName":"Light Rails","shortName":"Light Rail","icon":{"prefix":"https:\/\/ss1.4sqi.net\/img\/categories_v2\/travel\/lightrail_","suffix":".png"},"primary":"true"}],"verified":"true","restricted":"true","stats":{"checkinsCount":"5584","usersCount":"2104","tipCount":"6"},"url":"http:\/\/www.tfl.gov.uk\/livetravelnews","specials":{"count":"0"},"hereNow":{"count":"0"},"storeId":"","referralId":"v-1392478034"},{"id":"5287b7ad11d233923dd16c53","name":"The Slug And Lettuce","location":{"address":"Unit 1","crossStreet":"Tower Bridge House, St Katherine Docks","lat":"51.508432450001784","lng":"-0.07353218185878396","distance":"107","cc":"GB","city":"London","state":"Greater London","country":"United Kingdom"},"categories":[{"id":"4bf58dd8d48988d11b941735","name":"Pub","pluralName":"Pubs","shortName":"Pub","icon":{"prefix":"https:\/\/ss1.4sqi.net\/img\/categories_v2\/nightlife\/pub_","suffix":".png"},"primary":"true"}],"verified":"false","restricted":"true","stats":{"checkinsCount":"79","usersCount":"75","tipCount":"3"},"specials":{"count":"0"},"hereNow":{"count":"0"},"referralId":"v-1392478034"},{"id":"4ac518f7f964a520bbaf20e3","name":"Dexter House","location":{"address":"No. 2 Royal Mint Court","lat":"51.50959050309191","lng":"-0.07175981998443604","distance":"79","postalCode":"EC3N 4QN","cc":"GB","city":"London","state":"Greater London","country":"United Kingdom"},"categories":[{"id":"4bf58dd8d48988d171941735","name":"Event Space","pluralName":"Event Spaces","shortName":"Event Space","icon":{"prefix":"https:\/\/ss1.4sqi.net\/img\/categories_v2\/building\/eventspace_","suffix":".png"},"primary":"true"}],"verified":"false","restricted":"true","stats":{"checkinsCount":"1006","usersCount":"450","tipCount":"6"},"specials":{"count":"0"},"hereNow":{"count":"0"},"referralId":"v-1392478034"},{"id":"4ac518e1f964a52063aa20e3","name":"Water Cafe","location":{"address":"St. Katharine's Way","lat":"51.509100988075296","lng":"-0.07316694796168247","distance":"32","postalCode":"E1W 1LD","cc":"GB","city":"London","state":"Greater London","country":"United Kingdom"},"categories":[{"id":"4bf58dd8d48988d1c4941735","name":"Restaurant","pluralName":"Restaurants","shortName":"Restaurant","icon":{"prefix":"https:\/\/ss1.4sqi.net\/img\/categories_v2\/food\/default_","suffix":".png"},"primary":"true"}],"verified":"false","restricted":"true","stats":{"checkinsCount":"35","usersCount":"8","tipCount":"0"},"specials":{"count":"0"},"hereNow":{"count":"0"},"referralId":"v-1392478034"},{"id":"4b5203d0f964a520686127e3","name":"Ping Pong","contact":{"phone":"+442076807850","formattedPhone":"+44 20 7680 7850","twitter":"pingpongdimsum"},"location":{"address":"Unit 3 Quayside Tower Bridge House","crossStreet":"St Katherine Docks","lat":"51.50810140697543","lng":"-0.07321357727050781","distance":"135","postalCode":"E1W 1BA","cc":"GB","city":"London","state":"Greater London","country":"United Kingdom"},"categories":[{"id":"4bf58dd8d48988d1f5931735","name":"Dim Sum Restaurant","pluralName":"Dim Sum Restaurants","shortName":"Dim Sum","icon":{"prefix":"https:\/\/ss1.4sqi.net\/img\/categories_v2\/food\/dimsum_","suffix":".png"},"primary":"true"}],"verified":"true","restricted":"true","stats":{"checkinsCount":"1090","usersCount":"819","tipCount":"32"},"url":"http:\/\/www.pingpongdimsum.com","specials":{"count":"0"},"hereNow":{"count":"0"},"referralId":"v-1392478034"},{"id":"4bc05acaabf49521b420bf93","name":"Caf\u00e9 Rouge","contact":{"phone":"+442077020195","formattedPhone":"+44 20 7702 0195","twitter":"caferougetweet","facebook":"207511922592337"},"location":{"address":"Unit 4 Quayside Road, St Katharine Docks","lat":"51.507971","lng":"-0.073117","distance":"148","postalCode":"E1W 1AA","cc":"GB","city":"London","state":"Greater London","country":"United Kingdom"},"categories":[{"id":"4bf58dd8d48988d10c941735","name":"French Restaurant","pluralName":"French Restaurants","shortName":"French","icon":{"prefix":"https:\/\/ss1.4sqi.net\/img\/categories_v2\/food\/french_","suffix":".png"},"primary":"true"}],"verified":"true","restricted":"true","stats":{"checkinsCount":"896","usersCount":"645","tipCount":"10"},"url":"http:\/\/www.caferouge.co.uk\/french-restaurant\/st-katharine-docks","specials":{"count":"0"},"hereNow":{"count":"0"},"storeId":"8106290","referralId":"v-1392478034"},{"id":"51dc151c8bbd5217cfa4a37a","name":"Rainmaking Loft","contact":{"twitter":"rainmakingloft"},"location":{"address":"1 St Katharine's Way","lat":"51.50764732314014","lng":"-0.07364273071289061","distance":"191","postalCode":"E1W 1TW","cc":"GB","city":"London","state":"Greater London","country":"United Kingdom"},"categories":[{"id":"4bf58dd8d48988d171941735","name":"Event Space","pluralName":"Event Spaces","shortName":"Event Space","icon":{"prefix":"https:\/\/ss1.4sqi.net\/img\/categories_v2\/building\/eventspace_","suffix":".png"},"primary":"true"}],"verified":"false","restricted":"true","stats":{"checkinsCount":"380","usersCount":"187","tipCount":"2"},"url":"http:\/\/www.rainmakingloft.com","specials":{"count":"0"},"hereNow":{"count":"0"},"referralId":"v-1392478034"},{"id":"4e5f541e149582866d3eff6c","name":"Ebiquity","location":{"address":"The Registry, Royal Mint Court","lat":"51.50972118826514","lng":"-0.0729332323335921","distance":"48","cc":"GB","city":"London","state":"Greater London","country":"United Kingdom"},"categories":[{"id":"4bf58dd8d48988d124941735","name":"Office","pluralName":"Offices","shortName":"Office","icon":{"prefix":"https:\/\/ss1.4sqi.net\/img\/categories_v2\/building\/default_","suffix":".png"},"primary":"true"}],"verified":"false","restricted":"true","stats":{"checkinsCount":"864","usersCount":"29","tipCount":"1"},"specials":{"count":"0"},"hereNow":{"count":"0"},"referralId":"v-1392478034"},{"id":"4b280aeef964a5201d8e24e3","name":"Strada","contact":{"phone":"+442077020123","formattedPhone":"+44 20 7702 0123","twitter":"stradatweet"},"location":{"address":"2 Tower Bridge Hse., St Katharine's Way","crossStreet":"St Katharine's Dock","lat":"51.508114762313845","lng":"-0.07329940795898438","distance":"135","postalCode":"E1W 1AA","cc":"GB","city":"London","state":"Greater London","country":"United Kingdom"},"categories":[{"id":"4bf58dd8d48988d110941735","name":"Italian Restaurant","pluralName":"Italian Restaurants","shortName":"Italian","icon":{"prefix":"https:\/\/ss1.4sqi.net\/img\/categories_v2\/food\/italian_","suffix":".png"},"primary":"true"}],"verified":"true","restricted":"true","stats":{"checkinsCount":"719","usersCount":"579","tipCount":"14"},"url":"http:\/\/www.strada.co.uk","specials":{"count":"0"},"hereNow":{"count":"0"},"storeId":"","referralId":"v-1392478034"},{"id":"5181855c498ead6183eb4570","name":"C\u00f4te Brasserie","contact":{"phone":"+442074883668","formattedPhone":"+44 20 7488 3668"},"location":{"address":"International House","crossStreet":"1 St Katharine\u2019s Way","lat":"51.50821211442916","lng":"-0.07330104465705242","distance":"124","postalCode":"E1W 1UN","cc":"GB","city":"St Katharine Docks","state":"Greater London","country":"United Kingdom"},"categories":[{"id":"4bf58dd8d48988d10c941735","name":"French Restaurant","pluralName":"French Restaurants","shortName":"French","icon":{"prefix":"https:\/\/ss1.4sqi.net\/img\/categories_v2\/food\/french_","suffix":".png"},"primary":"true"}],"verified":"false","restricted":"true","stats":{"checkinsCount":"153","usersCount":"112","tipCount":"11"},"url":"http:\/\/www.cote-restaurants.co.uk","specials":{"count":"0"},"hereNow":{"count":"0"},"referralId":"v-1392478034"},{"id":"506c5215e4b01c5d0440aad5","name":"Wiltons Music Hall","location":{"lat":"51.509318698548796","lng":"-0.07639270757913426","distance":"248","cc":"GB","country":"United Kingdom"},"categories":[{"id":"4bf58dd8d48988d116941735","name":"Bar","pluralName":"Bars","shortName":"Bar","icon":{"prefix":"https:\/\/ss1.4sqi.net\/img\/categories_v2\/nightlife\/bar_","suffix":".png"},"primary":"true"}],"verified":"false","restricted":"true","stats":{"checkinsCount":"24","usersCount":"23","tipCount":"1"},"specials":{"count":"0"},"hereNow":{"count":"0"},"referralId":"v-1392478034"},{"id":"51fcc649498e5634fea52725","name":"Tower of London Park","location":{"lat":"51.50888897311524","lng":"-0.07370448885243398","distance":"76","cc":"GB","country":"United Kingdom"},"categories":[{"id":"4bf58dd8d48988d15a941735","name":"Garden","pluralName":"Gardens","shortName":"Garden","icon":{"prefix":"https:\/\/ss1.4sqi.net\/img\/categories_v2\/parks_outdoors\/garden_","suffix":".png"},"primary":"true"}],"verified":"false","restricted":"true","stats":{"checkinsCount":"34","usersCount":"31","tipCount":"0"},"specials":{"count":"0"},"hereNow":{"count":"0"},"referralId":"v-1392478034"},{"id":"4b98bca5f964a520804d35e3","name":"Thomson Reuters","location":{"address":"East Smithfield","lat":"51.509094","lng":"-0.07261","distance":"25","postalCode":"E1w 1az","cc":"GB","city":"Tower Gateway","state":"Greater London","country":"United Kingdom"},"categories":[{"id":"4bf58dd8d48988d174941735","name":"Coworking Space","pluralName":"Coworking Spaces","shortName":"Coworking Space","icon":{"prefix":"https:\/\/ss1.4sqi.net\/img\/categories_v2\/building\/office_coworkingspace_","suffix":".png"},"primary":"true"}],"verified":"false","restricted":"true","stats":{"checkinsCount":"125","usersCount":"9","tipCount":"0"},"specials":{"count":"0"},"hereNow":{"count":"0"},"referralId":"v-1392478034"},{"id":"4ac518cbf964a520c0a520e3","name":"The Medieval Banquet","contact":{"phone":"+442074805353","formattedPhone":"+44 20 7480 5353"},"location":{"address":"St Katharine Docks","crossStreet":"50 Saint Katharine's Way","lat":"51.50768436941236","lng":"-0.07180925145657144","distance":"191","postalCode":"E1W 1BP","cc":"GB","city":"Tower Hamlets","state":"Greater London","country":"United Kingdom"},"categories":[{"id":"4bf58dd8d48988d1f1931735","name":"General Entertainment","pluralName":"General Entertainment","shortName":"Entertainment","icon":{"prefix":"https:\/\/ss1.4sqi.net\/img\/categories_v2\/arts_entertainment\/default_","suffix":".png"},"primary":"true"}],"verified":"false","restricted":"true","stats":{"checkinsCount":"545","usersCount":"271","tipCount":"11"},"url":"http:\/\/www.medievalbanquet.com","menu":{"type":"Menu","label":"Menu","anchor":"View Menu","url":"https:\/\/foursquare.com\/v\/the-medieval-banquet\/4ac518cbf964a520c0a520e3\/menu","mobileUrl":"https:\/\/foursquare.com\/v\/4ac518cbf964a520c0a520e3\/device_menu"},"specials":{"count":"0"},"hereNow":{"count":"0"},"referralId":"v-1392478034"},{"id":"4c2b678a77cfe21e1667b4f1","name":"International House","location":{"address":"1 St Katharine's Way","lat":"51.507545233552264","lng":"-0.07391675159660079","distance":"208","postalCode":"E1W 1","cc":"GB","city":"Poplar","state":"Greater London","country":"United Kingdom"},"categories":[{"id":"4bf58dd8d48988d124941735","name":"Office","pluralName":"Offices","shortName":"Office","icon":{"prefix":"https:\/\/ss1.4sqi.net\/img\/categories_v2\/building\/default_","suffix":".png"},"primary":"true"}],"verified":"false","restricted":"true","stats":{"checkinsCount":"909","usersCount":"211","tipCount":"1"},"specials":{"count":"0"},"hereNow":{"count":"0"},"referralId":"v-1392478034"},{"id":"4bbc876ce45295217bf855a4","name":"Left Hand Lift - HQ Truphone","location":{"address":"4 Royal Mint Court","lat":"51.509126171938604","lng":"-0.07279407614557623","distance":"18","postalCode":"EC3N 4HJ","cc":"GB","city":"Poplar","state":"Greater London","country":"United Kingdom"},"categories":[{"id":"4bf58dd8d48988d1f6931735","name":"General Travel","pluralName":"General Travel","shortName":"Travel","icon":{"prefix":"https:\/\/ss1.4sqi.net\/img\/categories_v2\/travel\/default_","suffix":".png"},"primary":"true"}],"verified":"false","restricted":"true","stats":{"checkinsCount":"304","usersCount":"9","tipCount":"0"},"specials":{"count":"0"},"hereNow":{"count":"0"},"referralId":"v-1392478034"},{"id":"4bd97c8c5cf276b072aa9d00","name":"Bean About Town","contact":{"phone":"+447973120254","formattedPhone":"+44 7973 120254"},"location":{"address":"St Katherine Docks","lat":"51.508421934016845","lng":"-0.07338523864746094","distance":"104","postalCode":"E1W 1LA","cc":"GB","city":"London","state":"Greater London","country":"United Kingdom"},"categories":[{"id":"4bf58dd8d48988d1e0931735","name":"Coffee Shop","pluralName":"Coffee Shops","shortName":"Coffee Shop","icon":{"prefix":"https:\/\/ss1.4sqi.net\/img\/categories_v2\/food\/coffeeshop_","suffix":".png"},"primary":"true"}],"verified":"true","restricted":"true","stats":{"checkinsCount":"495","usersCount":"112","tipCount":"4"},"specials":{"count":"1","items":[{"id":"4bd97ce086ba62b54e6f88b3","type":"frequency","message":"Check in 10 times and a free coffee of your choice is Free!","description":"Unlocked every 10 check-ins","icon":"frequency","title":"Loyalty Special","provider":"foursquare","redemption":"standard"}]},"hereNow":{"count":"0"},"referralId":"v-1392478034"},{"id":"4c581e69b13695214eba735a","name":"instinctif Ltd","contact":{"phone":"+442078667910","formattedPhone":"+44 20 7866 7910"},"location":{"address":"The Registry, 3 Royal Mint Court","crossStreet":"East Smithfield","lat":"51.5093167267399","lng":"-0.07284879684448242","distance":"4","postalCode":"EC3N 4QN","cc":"GB","city":"London","state":"Greater London","country":"United Kingdom"},"categories":[{"id":"4bf58dd8d48988d174941735","name":"Coworking Space","pluralName":"Coworking Spaces","shortName":"Coworking Space","icon":{"prefix":"https:\/\/ss1.4sqi.net\/img\/categories_v2\/building\/office_coworkingspace_","suffix":".png"},"primary":"true"}],"verified":"false","restricted":"true","stats":{"checkinsCount":"130","usersCount":"9","tipCount":"0"},"specials":{"count":"0"},"hereNow":{"count":"0"},"referralId":"v-1392478034"},{"id":"4cc9c4b3d338236a5799a47c","name":"Essence De Lebanon","location":{"lat":"51.509166688324804","lng":"-0.07284193879747607","distance":"13","cc":"GB","country":"United Kingdom"},"categories":[{"id":"4bf58dd8d48988d115941735","name":"Middle Eastern Restaurant","pluralName":"Middle Eastern Restaurants","shortName":"Middle Eastern","icon":{"prefix":"https:\/\/ss1.4sqi.net\/img\/categories_v2\/food\/default_","suffix":".png"},"primary":"true"}],"verified":"false","restricted":"true","stats":{"checkinsCount":"127","usersCount":"13","tipCount":"0"},"specials":{"count":"0"},"hereNow":{"count":"0"},"referralId":"v-1392478034"},{"id":"4bd940f95cf276b010a39d00","name":"The College","location":{"address":"The Registry","crossStreet":"Royal Mint Court","lat":"51.51014305888884","lng":"-0.07413893938064575","distance":"132","postalCode":"EC3N 4QN","cc":"GB","city":"London","state":"Greater London","country":"United Kingdom"},"categories":[{"id":"4bf58dd8d48988d124941735","name":"Office","pluralName":"Offices","shortName":"Office","icon":{"prefix":"https:\/\/ss1.4sqi.net\/img\/categories_v2\/building\/default_","suffix":".png"},"primary":"true"}],"verified":"false","restricted":"true","stats":{"checkinsCount":"161","usersCount":"18","tipCount":"1"},"specials":{"count":"0"},"hereNow":{"count":"0"},"referralId":"v-1392478034"},{"id":"50850193e4b00dbb9ec66c57","name":"QA Training","contact":{"phone":"+442072640150","formattedPhone":"+44 20 7264 0150","twitter":"qatraining"},"location":{"address":"1 St Katherine's Way","crossStreet":"Floor 3, International House","lat":"51.50753946496314","lng":"-0.073839223547768","distance":"207","postalCode":"E1W 1UN","cc":"GB","city":"London","state":"Greater London","country":"United Kingdom"},"categories":[{"id":"4bf58dd8d48988d1ad941735","name":"Trade School","pluralName":"Trade Schools","shortName":"Trade School","icon":{"prefix":"https:\/\/ss1.4sqi.net\/img\/categories_v2\/education\/tradeschool_","suffix":".png"},"primary":"true"}],"verified":"false","restricted":"true","stats":{"checkinsCount":"204","usersCount":"74","tipCount":"3"},"specials":{"count":"0"},"hereNow":{"count":"0"},"referralId":"v-1392478034"},{"id":"4bc5de696c26b713bbd9ebf3","name":"Zizzi","contact":{"phone":"+442074880130","formattedPhone":"+44 20 7488 0130"},"location":{"address":"12 Ivory House","lat":"51.50713981232172","lng":"-0.07244110107421875","distance":"240","postalCode":"E1W 1AT","cc":"GB","city":"St Katharine Docks","state":"Greater London","country":"United Kingdom"},"categories":[{"id":"4bf58dd8d48988d110941735","name":"Italian Restaurant","pluralName":"Italian Restaurants","shortName":"Italian","icon":{"prefix":"https:\/\/ss1.4sqi.net\/img\/categories_v2\/food\/italian_","suffix":".png"},"primary":"true"}],"verified":"true","restricted":"true","stats":{"checkinsCount":"611","usersCount":"460","tipCount":"16"},"url":"http:\/\/www.zizzi.co.uk","reservations":{"url":"http:\/\/www.toptable.co.uk\/single.aspx?rid=50121&ref=9601"},"menu":{"type":"Menu","label":"Menu","anchor":"View Menu","url":"https:\/\/foursquare.com\/v\/zizzi\/4bc5de696c26b713bbd9ebf3\/menu","mobileUrl":"https:\/\/foursquare.com\/v\/4bc5de696c26b713bbd9ebf3\/device_menu"},"specials":{"count":"0"},"hereNow":{"count":"0"},"referralId":"v-1392478034"},{"id":"4bf57bf7004ed13a10a240a0","name":"The Living Room","contact":{"phone":"+442077024210","formattedPhone":"+44 20 7702 4210","twitter":"livingroomstkat"},"location":{"address":"Unit 1, Tower Bridge House","crossStreet":"St. Katharine Docks","lat":"51.508383537667214","lng":"-0.0736132264137268","distance":"115","postalCode":"E1W 1AA","cc":"GB","city":"London","state":"Greater London","country":"United Kingdom"},"categories":[{"id":"4bf58dd8d48988d116941735","name":"Bar","pluralName":"Bars","shortName":"Bar","icon":{"prefix":"https:\/\/ss1.4sqi.net\/img\/categories_v2\/nightlife\/bar_","suffix":".png"},"primary":"true"}],"verified":"false","restricted":"true","stats":{"checkinsCount":"927","usersCount":"642","tipCount":"16"},"url":"http:\/\/www.thelivingroom.co.uk","menu":{"type":"Menu","label":"Menu","anchor":"View Menu","url":"https:\/\/foursquare.com\/v\/the-living-room\/4bf57bf7004ed13a10a240a0\/menu","mobileUrl":"https:\/\/foursquare.com\/v\/4bf57bf7004ed13a10a240a0\/device_menu"},"specials":{"count":"0"},"hereNow":{"count":"0"},"referralId":"v-1392478034"},{"id":"4c29a9c9e19720a148d8f958","name":"Soci\u00e9t\u00e9 G\u00e9n\u00e9rale House","contact":{"twitter":"societegenerale"},"location":{"address":"41 Tower Hill","crossStreet":"Tower of London","lat":"51.51014119520683","lng":"-0.07450560805106692","distance":"151","postalCode":"EC3N 4SG","cc":"GB","city":"London","state":"Greater London","country":"United Kingdom"},"categories":[{"id":"4bf58dd8d48988d124941735","name":"Office","pluralName":"Offices","shortName":"Office","icon":{"prefix":"https:\/\/ss1.4sqi.net\/img\/categories_v2\/building\/default_","suffix":".png"},"primary":"true"}],"verified":"false","restricted":"true","stats":{"checkinsCount":"885","usersCount":"83","tipCount":"0"},"specials":{"count":"0"},"hereNow":{"count":"0"},"referralId":"v-1392478034"},{"id":"4f674262e4b014afeda92171","name":"Valbury Capital","location":{"lat":"51.509061","lng":"-0.072832","distance":"25","cc":"GB","country":"United Kingdom"},"verified":"false","restricted":"true","stats":{"checkinsCount":"0","usersCount":"0","tipCount":"0"},"specials":{"count":"0"},"hereNow":{"count":"0"},"referralId":"v-1392478034"},{"id":"4bd17e5fb221c9b65694d5d0","name":"Times Building","location":{"lat":"51.509499","lng":"-0.073039","distance":"28","cc":"GB","country":"United Kingdom"},"categories":[{"id":"4bf58dd8d48988d130941735","name":"Building","pluralName":"Buildings","shortName":"Building","icon":{"prefix":"https:\/\/ss1.4sqi.net\/img\/categories_v2\/building\/default_","suffix":".png"},"primary":"true"}],"verified":"false","restricted":"true","stats":{"checkinsCount":"1","usersCount":"1","tipCount":"0"},"specials":{"count":"0"},"hereNow":{"count":"0"},"referralId":"v-1392478034"},{"id":"4c9230fcb641236ac6b18779","name":"etc.venues Dexter House","contact":{"phone":"+442079775310","formattedPhone":"+44 20 7977 5310","twitter":"etcvenues"},"location":{"address":"Dexter House","crossStreet":"Royal Mint Court","lat":"51.50937778790355","lng":"-0.07177437557572032","distance":"71","postalCode":"EC3N 4QN","cc":"GB","city":"London","state":"Greater London","country":"United Kingdom"},"categories":[{"id":"4bf58dd8d48988d171941735","name":"Event Space","pluralName":"Event Spaces","shortName":"Event Space","icon":{"prefix":"https:\/\/ss1.4sqi.net\/img\/categories_v2\/building\/eventspace_","suffix":".png"},"primary":"true"}],"verified":"true","restricted":"true","stats":{"checkinsCount":"152","usersCount":"84","tipCount":"0"},"url":"http:\/\/www.etcvenues.co.uk\/venues\/dexter-house","specials":{"count":"0"},"hereNow":{"count":"0"},"storeId":"","referralId":"v-1392478034"},{"id":"4ebb8f7577c8d9bd1b93da6e","name":"It's Liverpool in London Office","contact":{"phone":"+442079771433","formattedPhone":"+44 20 7977 1433","twitter":"liverpoollondon"},"location":{"address":"Royal Mint Court","crossStreet":"London Bridge Approach","lat":"51.50913585236525","lng":"-0.07317256192769202","distance":"30","postalCode":"EC3N 4HJ","cc":"GB","city":"Poplar","state":"Greater London","country":"United Kingdom"},"categories":[{"id":"4bf58dd8d48988d174941735","name":"Coworking Space","pluralName":"Coworking Spaces","shortName":"Coworking Space","icon":{"prefix":"https:\/\/ss1.4sqi.net\/img\/categories_v2\/building\/office_coworkingspace_","suffix":".png"},"primary":"true"}],"verified":"false","restricted":"true","stats":{"checkinsCount":"6","usersCount":"3","tipCount":"1"},"specials":{"count":"0"},"hereNow":{"count":"0"},"referralId":"v-1392478034"}],"confident":"true"}}