{"meta":{"code":"200"},"response":{"venues":[{"id":"4ac518d7f964a52060a820e3","name":"La Porte Des Indes","location":{"address":"32 Bryanston St","lat":"51.514524529026644","lng":"-0.15792248769416498","distance":"27","postalCode":"W1H 7EG","cc":"GB","city":"London","state":"Greater London","country":"United Kingdom"},"categories":[{"id":"4bf58dd8d48988d10c941735","name":"French Restaurant","pluralName":"French Restaurants","shortName":"French","icon":{"prefix":"https:\/\/ss1.4sqi.net\/img\/categories_v2\/food\/french_","suffix":".png"},"primary":"true"}],"verified":"false","restricted":"true","stats":{"checkinsCount":"893","usersCount":"741","tipCount":"23"},"url":"http:\/\/www.laportedesindes.com\/london\/","reservations":{"url":"http:\/\/www.toptable.co.uk\/single.aspx?rid=78055&ref=9601"},"menu":{"type":"Menu","label":"Menu","anchor":"View Menu","url":"https:\/\/foursquare.com\/v\/la-porte-des-indes-london-greater-london\/4ac518d7f964a52060a820e3\/menu","mobileUrl":"https:\/\/foursquare.com\/v\/4ac518d7f964a52060a820e3\/device_menu"},"specials":{"count":"0"},"hereNow":{"count":"1","groups":[{"type":"others","name":"Other people here","count":"1"}]},"referralId":"v-1392478013"},{"id":"4c359ed7ed37a593d4c47003","name":"Thistle Marble Arch Hotel","contact":{"phone":"+448713769027","formattedPhone":"+44 871 376 9027"},"location":{"address":"Bryanston St.","crossStreet":"Marble Arch","lat":"51.51418560154966","lng":"-0.1565301696419965","distance":"88","postalCode":"W1H 7EH","cc":"GB","city":"London","state":"Greater London","country":"United Kingdom"},"categories":[{"id":"4bf58dd8d48988d1fa931735","name":"Hotel","pluralName":"Hotels","shortName":"Hotel","icon":{"prefix":"https:\/\/ss1.4sqi.net\/img\/categories_v2\/travel\/hotel_","suffix":".png"},"primary":"true"}],"verified":"false","restricted":"true","stats":{"checkinsCount":"6297","usersCount":"2454","tipCount":"65"},"url":"http:\/\/www.thistle.com\/en\/hotels\/united_kingdom\/london\/thistle_marble_arch","reservations":{"url":"http:\/\/www.toptable.co.uk\/single.aspx?rid=77167&ref=9601"},"specials":{"count":"0"},"hereNow":{"count":"1","groups":[{"type":"others","name":"Other people here","count":"1"}]},"referralId":"v-1392478013"},{"id":"4ac518b5f964a520c5a020e3","name":"The Cumberland","contact":{"phone":"+448453058314","formattedPhone":"+44 845 305 8314"},"location":{"address":"Great Cumberland Pl","lat":"51.5137904267582","lng":"-0.15900135040283203","distance":"99","postalCode":"W1C 1LZ","cc":"GB","city":"Marble Arch","state":"Greater London","country":"United Kingdom"},"categories":[{"id":"4bf58dd8d48988d1fa931735","name":"Hotel","pluralName":"Hotels","shortName":"Hotel","icon":{"prefix":"https:\/\/ss1.4sqi.net\/img\/categories_v2\/travel\/hotel_","suffix":".png"},"primary":"true"}],"verified":"false","restricted":"true","stats":{"checkinsCount":"9496","usersCount":"4181","tipCount":"71"},"menu":{"type":"Menu","label":"Menu","anchor":"View Menu","url":"https:\/\/foursquare.com\/v\/the-cumberland\/4ac518b5f964a520c5a020e3\/menu","mobileUrl":"https:\/\/foursquare.com\/v\/4ac518b5f964a520c5a020e3\/device_menu"},"specials":{"count":"0"},"hereNow":{"count":"1","groups":[{"type":"others","name":"Other people here","count":"1"}]},"referralId":"v-1392478013"},{"id":"51541b63e0e24d0ce69d59d1","name":"Daisy Green Food","contact":{"phone":"+442077233301","formattedPhone":"+44 20 7723 3301","twitter":"daisygreenfood","facebook":"291087117633829"},"location":{"address":"20 Seymour St.","crossStreet":"at New Quebec St.","lat":"51.51487373057515","lng":"-0.15798211097717285","distance":"66","postalCode":"W1H 7HX","cc":"GB","city":"Marble Arch","state":"Greater London","country":"United Kingdom"},"categories":[{"id":"4bf58dd8d48988d169941735","name":"Australian Restaurant","pluralName":"Australian Restaurants","shortName":"Australian","icon":{"prefix":"https:\/\/ss1.4sqi.net\/img\/categories_v2\/food\/australian_","suffix":".png"},"primary":"true"}],"verified":"true","restricted":"true","stats":{"checkinsCount":"248","usersCount":"123","tipCount":"10"},"url":"http:\/\/www.daisygreenfood.com","menu":{"type":"Menu","label":"Menu","anchor":"View Menu","url":"https:\/\/foursquare.com\/v\/daisy-green-food-marble-arch-london\/51541b63e0e24d0ce69d59d1\/menu","mobileUrl":"https:\/\/foursquare.com\/v\/51541b63e0e24d0ce69d59d1\/device_menu"},"specials":{"count":"1","items":[{"id":"51c7d6598bbd8562f9dd7fa1","type":"count","message":"Free pastry for every new Four Square customer xx","description":"Unlocked on your 1st check-in","icon":"newbie","title":"Newbie Special","provider":"foursquare","redemption":"standard","page":{"id":"59316937","firstName":"Daisy Green Food","gender":"none","photo":{"prefix":"https:\/\/irs0.4sqi.net\/img\/user\/","suffix":"\/59316937-0UNECJ4EI1W4DJND.png"},"type":"venuePage","venue":{"id":"51541b63e0e24d0ce69d59d1"},"tips":{"count":"0"},"homeCity":"London","bio":"","contact":{"facebook":"291087117633829"}}}]},"hereNow":{"count":"1","groups":[{"type":"others","name":"Other people here","count":"1"}]},"venuePage":{"id":"59316937"},"storeId":"","referralId":"v-1392478013"},{"id":"4fb94003e4b0fee48ffc48cc","name":"Marble Arch Square","location":{"address":"Hyde Park, Marble Arch Corner","crossStreet":"west Of Oxford St","lat":"51.513383230569026","lng":"-0.15845092462190027","distance":"110","cc":"GB","city":"City of Westminster","state":"Greater London","country":"United Kingdom"},"categories":[{"id":"4bf58dd8d48988d163941735","name":"Park","pluralName":"Parks","shortName":"Park","icon":{"prefix":"https:\/\/ss1.4sqi.net\/img\/categories_v2\/parks_outdoors\/park_","suffix":".png"},"primary":"true"}],"verified":"false","restricted":"true","stats":{"checkinsCount":"2385","usersCount":"1682","tipCount":"6"},"specials":{"count":"0"},"hereNow":{"count":"0"},"referralId":"v-1392478013"},{"id":"4b2a786af964a520c9a924e3","name":"City Of Quebec","location":{"address":"1-6 New Quebec St","lat":"51.513874","lng":"-0.157827","distance":"46","postalCode":"W1H 7","cc":"GB","city":"Paddington","state":"Greater London","country":"United Kingdom"},"categories":[{"id":"4bf58dd8d48988d1d8941735","name":"Gay Bar","pluralName":"Gay Bars","shortName":"Gay Bar","icon":{"prefix":"https:\/\/ss1.4sqi.net\/img\/categories_v2\/nightlife\/gaybar_","suffix":".png"},"primary":"true"}],"verified":"false","restricted":"true","stats":{"checkinsCount":"616","usersCount":"451","tipCount":"7"},"specials":{"count":"0"},"hereNow":{"count":"0"},"referralId":"v-1392478013"},{"id":"512728e1e4b0410a7a07841b","name":"Costa","location":{"lat":"51.513805","lng":"-0.157307","distance":"63","cc":"GB","country":"United Kingdom"},"categories":[{"id":"4bf58dd8d48988d16d941735","name":"Caf\u00e9","pluralName":"Caf\u00e9s","shortName":"Caf\u00e9","icon":{"prefix":"https:\/\/ss1.4sqi.net\/img\/categories_v2\/food\/cafe_","suffix":".png"},"primary":"true"}],"verified":"false","restricted":"true","stats":{"checkinsCount":"81","usersCount":"55","tipCount":"1"},"specials":{"count":"0"},"hereNow":{"count":"1","groups":[{"type":"others","name":"Other people here","count":"1"}]},"referralId":"v-1392478013"},{"id":"4ac518c4f964a5206ca420e3","name":"Carbon @ The Cumberland","contact":{"phone":"+442074795050","formattedPhone":"+44 20 7479 5050","twitter":"hqcarbonbar"},"location":{"address":"Old Quebec St","lat":"51.51395969627756","lng":"-0.15796412902561002","distance":"38","postalCode":"W1C 1LZ","cc":"GB","city":"Marble Arch","state":"Greater London","country":"United Kingdom"},"categories":[{"id":"4bf58dd8d48988d116941735","name":"Bar","pluralName":"Bars","shortName":"Bar","icon":{"prefix":"https:\/\/ss1.4sqi.net\/img\/categories_v2\/nightlife\/bar_","suffix":".png"},"primary":"true"}],"verified":"false","restricted":"true","stats":{"checkinsCount":"1364","usersCount":"836","tipCount":"10"},"url":"http:\/\/www.carbonbar.co.uk","menu":{"type":"Menu","label":"Menu","anchor":"View Menu","url":"https:\/\/foursquare.com\/v\/carbon--the-cumberland\/4ac518c4f964a5206ca420e3\/menu","mobileUrl":"https:\/\/foursquare.com\/v\/4ac518c4f964a5206ca420e3\/device_menu"},"specials":{"count":"0"},"hereNow":{"count":"0"},"referralId":"v-1392478013"},{"id":"4cb1baa61463a143ada1a7a9","name":"Pizza Hut","contact":{"phone":"+442074936427","formattedPhone":"+44 20 7493 6427","twitter":"pizzahutuk"},"location":{"address":"523 Oxford St","lat":"51.51369876157045","lng":"-0.15731363610214327","distance":"73","postalCode":"W1C 2QJ","cc":"GB","city":"Marble Arch","state":"Greater London","country":"United Kingdom"},"categories":[{"id":"4bf58dd8d48988d1ca941735","name":"Pizza Place","pluralName":"Pizza Places","shortName":"Pizza","icon":{"prefix":"https:\/\/ss1.4sqi.net\/img\/categories_v2\/food\/pizza_","suffix":".png"},"primary":"true"}],"verified":"true","restricted":"true","stats":{"checkinsCount":"1277","usersCount":"1140","tipCount":"14"},"specials":{"count":"0"},"hereNow":{"count":"0"},"storeId":"214","referralId":"v-1392478013"},{"id":"4dc019804b2221ec2d68c817","name":"Costa Coffee","contact":{"twitter":"costacoffee"},"location":{"address":"Portman St","lat":"51.51441413581214","lng":"-0.1562664987364977","distance":"107","postalCode":"W1H 7EH","cc":"GB","city":"Marble Arch","state":"Greater London","country":"United Kingdom"},"categories":[{"id":"4bf58dd8d48988d1e0931735","name":"Coffee Shop","pluralName":"Coffee Shops","shortName":"Coffee Shop","icon":{"prefix":"https:\/\/ss1.4sqi.net\/img\/categories_v2\/food\/coffeeshop_","suffix":".png"},"primary":"true"}],"verified":"false","restricted":"true","stats":{"checkinsCount":"616","usersCount":"321","tipCount":"4"},"url":"http:\/\/www.costa.co.uk","specials":{"count":"0"},"hereNow":{"count":"0"},"referralId":"v-1392478013"},{"id":"4e381ec8091ae705a0fa2097","name":"The Sportsman Casino","contact":{"phone":"+442074140061","formattedPhone":"+44 20 7414 0061","twitter":"sportsmancasino"},"location":{"address":"14-22 Old Quebec Street","crossStreet":"Just north of Oxford Street","lat":"51.51412426735259","lng":"-0.15775680541992188","distance":"18","postalCode":"W1H 7AF","cc":"GB","city":"London","state":"Greater London","country":"United Kingdom"},"categories":[{"id":"4bf58dd8d48988d17c941735","name":"Casino","pluralName":"Casinos","shortName":"Casino","icon":{"prefix":"https:\/\/ss1.4sqi.net\/img\/categories_v2\/arts_entertainment\/casino_","suffix":".png"},"primary":"true"}],"verified":"true","restricted":"true","stats":{"checkinsCount":"237","usersCount":"143","tipCount":"1"},"menu":{"type":"Menu","label":"Menu","anchor":"View Menu","url":"https:\/\/foursquare.com\/v\/the-sportsman-casino\/4e381ec8091ae705a0fa2097\/menu","mobileUrl":"https:\/\/foursquare.com\/v\/4e381ec8091ae705a0fa2097\/device_menu"},"specials":{"count":"0"},"hereNow":{"count":"0"},"referralId":"v-1392478013"},{"id":"50b8d417e4b071d52f33bed7","name":"Top Shop","location":{"lat":"51.513677844474664","lng":"-0.15726174863683587","distance":"77","cc":"GB","country":"United Kingdom"},"categories":[{"id":"4bf58dd8d48988d104951735","name":"Boutique","pluralName":"Boutiques","shortName":"Boutique","icon":{"prefix":"https:\/\/ss1.4sqi.net\/img\/categories_v2\/shops\/apparel_boutique_","suffix":".png"},"primary":"true"}],"verified":"false","restricted":"true","stats":{"checkinsCount":"366","usersCount":"337","tipCount":"1"},"specials":{"count":"0"},"hereNow":{"count":"0"},"referralId":"v-1392478013"},{"id":"4b76caddf964a520785f2ee3","name":"Pierre Herm\u00e9","contact":{"phone":"+442073183908","formattedPhone":"+44 20 7318 3908"},"location":{"address":"400 Oxford St.","crossStreet":"Selfridges - Ground Floor","lat":"51.51369695095334","lng":"-0.1570594310760498","distance":"83","postalCode":"W1A 1AB","cc":"GB","city":"Paddington","state":"Greater London","country":"United Kingdom"},"categories":[{"id":"4bf58dd8d48988d16a941735","name":"Bakery","pluralName":"Bakeries","shortName":"Bakery","icon":{"prefix":"https:\/\/ss1.4sqi.net\/img\/categories_v2\/food\/bakery_","suffix":".png"},"primary":"true"}],"verified":"false","restricted":"true","stats":{"checkinsCount":"545","usersCount":"372","tipCount":"7"},"specials":{"count":"0"},"hereNow":{"count":"0"},"referralId":"v-1392478013"},{"id":"4e1c03f5d22de289c0be8757","name":"Europcar Car Rental Office","location":{"address":"Bryanston Street","lat":"51.5142176768475","lng":"-0.15463670088955966","distance":"219","cc":"GB","city":"Paddington","state":"Greater London","country":"United Kingdom"},"categories":[{"id":"4bf58dd8d48988d1ef941735","name":"Rental Car Location","pluralName":"Rental Car Locations","shortName":"Rental Car","icon":{"prefix":"https:\/\/ss1.4sqi.net\/img\/categories_v2\/shops\/airport_rentalcar_","suffix":".png"},"primary":"true"}],"verified":"false","restricted":"true","stats":{"checkinsCount":"23","usersCount":"14","tipCount":"0"},"specials":{"count":"0"},"hereNow":{"count":"0"},"referralId":"v-1392478013"},{"id":"50d196c8e4b01d819b374556","name":"DoubleTree by Hilton London Marble Arch","contact":{"phone":"+442079352361","formattedPhone":"+44 20 7935 2361","twitter":"doubletree"},"location":{"address":"4 Bryanston Street","crossStreet":"Portman Street","lat":"51.5146389113764","lng":"-0.15646390731814985","distance":"100","postalCode":"WH17BY","cc":"GB","city":"London","state":"Greater London","country":"United Kingdom"},"categories":[{"id":"4bf58dd8d48988d1fa931735","name":"Hotel","pluralName":"Hotels","shortName":"Hotel","icon":{"prefix":"https:\/\/ss1.4sqi.net\/img\/categories_v2\/travel\/hotel_","suffix":".png"},"primary":"true"}],"verified":"true","restricted":"true","stats":{"checkinsCount":"782","usersCount":"323","tipCount":"6"},"specials":{"count":"0"},"hereNow":{"count":"0"},"referralId":"v-1392478013"},{"id":"4ac518b5f964a520afa020e3","name":"Leonard Hotel","location":{"address":"15 Seymour St.","lat":"51.51473491271083","lng":"-0.15782590427050844","distance":"49","postalCode":"W1H 7JW","cc":"GB","city":"London","state":"Greater London","country":"United Kingdom"},"categories":[{"id":"4bf58dd8d48988d1fa931735","name":"Hotel","pluralName":"Hotels","shortName":"Hotel","icon":{"prefix":"https:\/\/ss1.4sqi.net\/img\/categories_v2\/travel\/hotel_","suffix":".png"},"primary":"true"}],"verified":"false","restricted":"true","stats":{"checkinsCount":"235","usersCount":"110","tipCount":"3"},"specials":{"count":"0"},"hereNow":{"count":"0"},"referralId":"v-1392478013"},{"id":"504d9ce1e4b086b5995870da","name":"The Gym Way","location":{"address":"Bryanston street","lat":"51.5142344260402","lng":"-0.15709982491844757","distance":"49","postalCode":"W1H 7AB","cc":"GB","city":"London","state":"Greater London","country":"United Kingdom"},"categories":[{"id":"4bf58dd8d48988d175941735","name":"Gym \/ Fitness Center","pluralName":"Gyms or Fitness Centers","shortName":"Gym \/ Fitness","icon":{"prefix":"https:\/\/ss1.4sqi.net\/img\/categories_v2\/building\/gym_","suffix":".png"},"primary":"true"}],"verified":"false","restricted":"true","stats":{"checkinsCount":"38","usersCount":"9","tipCount":"0"},"specials":{"count":"0"},"hereNow":{"count":"0"},"referralId":"v-1392478013"},{"id":"4ac518c4f964a52085a420e3","name":"Locanda Locatelli","location":{"address":"8 Seymour St.","lat":"51.51507493523088","lng":"-0.15705740876383506","distance":"101","postalCode":"W1H 7JZ","cc":"GB","city":"London","state":"Greater London","country":"United Kingdom"},"categories":[{"id":"4bf58dd8d48988d110941735","name":"Italian Restaurant","pluralName":"Italian Restaurants","shortName":"Italian","icon":{"prefix":"https:\/\/ss1.4sqi.net\/img\/categories_v2\/food\/italian_","suffix":".png"},"primary":"true"}],"verified":"false","restricted":"true","stats":{"checkinsCount":"721","usersCount":"568","tipCount":"22"},"menu":{"type":"Menu","label":"Menu","anchor":"View Menu","url":"https:\/\/foursquare.com\/v\/locanda-locatelli\/4ac518c4f964a52085a420e3\/menu","mobileUrl":"https:\/\/foursquare.com\/v\/4ac518c4f964a52085a420e3\/device_menu"},"specials":{"count":"0"},"hereNow":{"count":"0"},"referralId":"v-1392478013"},{"id":"4bf7c5e2b182c9b6ab37765a","name":"Apcoa","location":{"lat":"51.51443370651742","lng":"-0.15657687182106855","distance":"86","cc":"GB","country":"United Kingdom"},"categories":[{"id":"4c38df4de52ce0d596b336e1","name":"Parking","pluralName":"Parking","shortName":"Parking","icon":{"prefix":"https:\/\/ss1.4sqi.net\/img\/categories_v2\/building\/parking_","suffix":".png"},"primary":"true"}],"verified":"false","restricted":"true","stats":{"checkinsCount":"114","usersCount":"9","tipCount":"2"},"specials":{"count":"0"},"hereNow":{"count":"0"},"referralId":"v-1392478013"},{"id":"4be154d3a7380f47a2b319b0","name":"Prezzo","contact":{"phone":"+442077237172","formattedPhone":"+44 20 7723 7172","twitter":"love_prezzo"},"location":{"address":"7-9 Great Cumberland Pl","lat":"51.51376371940495","lng":"-0.15925884246826172","distance":"116","postalCode":"W1H 7LU","cc":"GB","city":"Marble Arch","state":"Greater London","country":"United Kingdom"},"categories":[{"id":"4bf58dd8d48988d110941735","name":"Italian Restaurant","pluralName":"Italian Restaurants","shortName":"Italian","icon":{"prefix":"https:\/\/ss1.4sqi.net\/img\/categories_v2\/food\/italian_","suffix":".png"},"primary":"true"}],"verified":"true","restricted":"true","stats":{"checkinsCount":"438","usersCount":"363","tipCount":"8"},"url":"http:\/\/www.prezzorestaurants.co.uk","specials":{"count":"0"},"hereNow":{"count":"0"},"referralId":"v-1392478013"},{"id":"506c3dfee4b072833fc7dfe1","name":"Asics","contact":{"phone":"+442076290154","formattedPhone":"+44 20 7629 0154","twitter":"asicseurope"},"location":{"address":"527 Oxford St","lat":"51.513673380154536","lng":"-0.15749193607120435","distance":"71","postalCode":"W1C 2QL","cc":"GB","city":"Marble Arch","state":"Greater London","country":"United Kingdom"},"categories":[{"id":"4bf58dd8d48988d1f2941735","name":"Sporting Goods Shop","pluralName":"Sporting Goods Shops","shortName":"Sporting Goods","icon":{"prefix":"https:\/\/ss1.4sqi.net\/img\/categories_v2\/shops\/sports_outdoors_","suffix":".png"},"primary":"true"}],"verified":"false","restricted":"true","stats":{"checkinsCount":"111","usersCount":"97","tipCount":"2"},"url":"http:\/\/www.asics.co.uk","specials":{"count":"0"},"hereNow":{"count":"0"},"referralId":"v-1392478013"},{"id":"4ac518eef964a520f2ac20e3","name":"Mothercare","contact":{"phone":"+442076599020","formattedPhone":"+44 20 7659 9020","twitter":"mothercareuk"},"location":{"address":"526-528 Oxford St","lat":"51.513719739331954","lng":"-0.15698620209189576","distance":"84","postalCode":"W1C 1LW","cc":"GB","city":"London","state":"Greater London","country":"United Kingdom"},"categories":[{"id":"4bf58dd8d48988d105951735","name":"Kids Store","pluralName":"Kids Stores","shortName":"Kids Store","icon":{"prefix":"https:\/\/ss1.4sqi.net\/img\/categories_v2\/shops\/apparel_kids_","suffix":".png"},"primary":"true"}],"verified":"true","restricted":"true","stats":{"checkinsCount":"301","usersCount":"250","tipCount":"1"},"url":"http:\/\/www.mothercare.com","specials":{"count":"0"},"hereNow":{"count":"0"},"storeId":"Mustafa Farah","referralId":"v-1392478013"},{"id":"4be9cc4f62c0c928b016e0d4","name":"KFC","contact":{"phone":"+448457532532","formattedPhone":"+44 845 753 2532"},"location":{"address":"542-544 Oxford St","lat":"51.51358177514427","lng":"-0.15806794166564941","distance":"80","postalCode":"W1C 1LT","cc":"GB","city":"London","state":"Greater London","country":"United Kingdom"},"categories":[{"id":"4d4ae6fc7a7b7dea34424761","name":"Fried Chicken Joint","pluralName":"Fried Chicken Joints","shortName":"Fried Chicken","icon":{"prefix":"https:\/\/ss1.4sqi.net\/img\/categories_v2\/food\/friedchicken_","suffix":".png"},"primary":"true"}],"verified":"false","restricted":"true","stats":{"checkinsCount":"1489","usersCount":"1286","tipCount":"19"},"specials":{"count":"0"},"hereNow":{"count":"0"},"referralId":"v-1392478013"},{"id":"5229034911d22c8558fcbb18","name":"Thistle Lobby","location":{"lat":"51.514069","lng":"-0.15642","distance":"98","cc":"GB","country":"United Kingdom"},"categories":[{"id":"4bf58dd8d48988d130941735","name":"Building","pluralName":"Buildings","shortName":"Building","icon":{"prefix":"https:\/\/ss1.4sqi.net\/img\/categories_v2\/building\/default_","suffix":".png"},"primary":"true"}],"verified":"false","restricted":"true","stats":{"checkinsCount":"33","usersCount":"17","tipCount":"0"},"specials":{"count":"0"},"hereNow":{"count":"0"},"referralId":"v-1392478013"},{"id":"4be87dfa4485d13ac10e94ee","name":"Zayna","contact":{"phone":"+442077232229","formattedPhone":"+44 20 7723 2229"},"location":{"address":"25 New Quebec St.","lat":"51.51507236129972","lng":"-0.1581859588623047","distance":"91","postalCode":"W1H 7SF","cc":"GB","city":"London","state":"Greater London","country":"United Kingdom"},"categories":[{"id":"4bf58dd8d48988d10f941735","name":"Indian Restaurant","pluralName":"Indian Restaurants","shortName":"Indian","icon":{"prefix":"https:\/\/ss1.4sqi.net\/img\/categories_v2\/food\/indian_","suffix":".png"},"primary":"true"}],"verified":"false","restricted":"true","stats":{"checkinsCount":"290","usersCount":"234","tipCount":"18"},"url":"http:\/\/www.thesportsmancasino.com\/restaurant-details\/the-sportsman-restaurant","reservations":{"url":"http:\/\/www.toptable.co.uk\/single.aspx?rid=87334&ref=9601"},"menu":{"type":"Menu","label":"Menu","anchor":"View Menu","url":"https:\/\/foursquare.com\/v\/zayna\/4be87dfa4485d13ac10e94ee\/menu","mobileUrl":"https:\/\/foursquare.com\/v\/4be87dfa4485d13ac10e94ee\/device_menu"},"specials":{"count":"0"},"hereNow":{"count":"0"},"referralId":"v-1392478013"},{"id":"4f45eab8e4b07a632968495a","name":"The Gym","location":{"address":"at The Cumberland Hotel","lat":"51.51400067649328","lng":"-0.1581007856766829","distance":"38","postalCode":"W1C 1LZ","cc":"GB","city":"London","state":"Greater London","country":"United Kingdom"},"categories":[{"id":"4bf58dd8d48988d176941735","name":"Gym","pluralName":"Gyms","shortName":"Gym","icon":{"prefix":"https:\/\/ss1.4sqi.net\/img\/categories_v2\/building\/gym_","suffix":".png"},"primary":"true"}],"verified":"false","restricted":"true","stats":{"checkinsCount":"31","usersCount":"21","tipCount":"0"},"specials":{"count":"0"},"hereNow":{"count":"0"},"referralId":"v-1392478013"},{"id":"4ac518edf964a520afac20e3","name":"Evans","contact":{"phone":"+442074990434","formattedPhone":"+44 20 7499 0434","twitter":"evansclothing"},"location":{"address":"529-533 Oxford St","lat":"51.51371030465148","lng":"-0.15672683715820312","distance":"98","postalCode":"W1C 2QN","cc":"GB","city":"London","state":"Greater London","country":"United Kingdom"},"categories":[{"id":"4bf58dd8d48988d108951735","name":"Women's Store","pluralName":"Women's Stores","shortName":"Women's Store","icon":{"prefix":"https:\/\/ss1.4sqi.net\/img\/categories_v2\/shops\/apparel_women_","suffix":".png"},"primary":"true"}],"verified":"false","restricted":"true","stats":{"checkinsCount":"222","usersCount":"122","tipCount":"3"},"url":"http:\/\/www.evans.co.uk","specials":{"count":"0"},"hereNow":{"count":"0"},"referralId":"v-1392478013"},{"id":"4bccc519fb84c9b6f8fe203e","name":"Red Sun","contact":{"phone":"+442077235350","formattedPhone":"+44 20 7723 5350"},"location":{"address":"2 New Quebec St","lat":"51.514996","lng":"-0.158075","distance":"80","postalCode":"W1H 7RB","cc":"GB","city":"London","state":"Greater London","country":"United Kingdom"},"categories":[{"id":"4bf58dd8d48988d145941735","name":"Chinese Restaurant","pluralName":"Chinese Restaurants","shortName":"Chinese","icon":{"prefix":"https:\/\/ss1.4sqi.net\/img\/categories_v2\/food\/chinese_","suffix":".png"},"primary":"true"}],"verified":"false","restricted":"true","stats":{"checkinsCount":"130","usersCount":"76","tipCount":"7"},"url":"http:\/\/www.redsunrestaurant.co.uk","specials":{"count":"0"},"hereNow":{"count":"0"},"referralId":"v-1392478013"},{"id":"52dd9ed6498e124c136a1bca","name":"Lin VIP bar @ Cumberland","location":{"lat":"51.51354872987327","lng":"-0.15899120328339555","distance":"116","cc":"GB","country":"United Kingdom"},"categories":[{"id":"4bf58dd8d48988d121941735","name":"Lounge","pluralName":"Lounges","shortName":"Lounge","icon":{"prefix":"https:\/\/ss1.4sqi.net\/img\/categories_v2\/nightlife\/lounge_","suffix":".png"},"primary":"true"}],"verified":"false","restricted":"true","stats":{"checkinsCount":"3","usersCount":"2","tipCount":"0"},"specials":{"count":"0"},"hereNow":{"count":"0"},"referralId":"v-1392478013"},{"id":"522b57f711d284ab817d0dc1","name":"Marble Arch Station Bus Stop P","contact":{"twitter":"tflbusalerts"},"location":{"address":"Oxford Street","crossStreet":"Old Quebec Street","lat":"51.51349330662239","lng":"-0.15757620331896757","distance":"89","postalCode":"W1","cc":"GB","city":"London","state":"Greater London","country":"United Kingdom"},"categories":[{"id":"4bf58dd8d48988d1fe931735","name":"Bus Station","pluralName":"Bus Stations","shortName":"Bus Station","icon":{"prefix":"https:\/\/ss1.4sqi.net\/img\/categories_v2\/travel\/busstation_","suffix":".png"},"primary":"true"}],"verified":"false","restricted":"true","stats":{"checkinsCount":"25","usersCount":"19","tipCount":"0"},"specials":{"count":"0"},"hereNow":{"count":"0"},"referralId":"v-1392478013"}],"confident":"true"}}