{"meta":{"code":"200"},"response":{"venues":[{"id":"4ac518ddf964a52068a920e3","name":"Ishtar","location":{"address":"10 Crawford Street","lat":"51.52003775798584","lng":"-0.1582919695088419","distance":"89","postalCode":"W1U 6AZ","cc":"GB","city":"London","state":"Greater London","country":"United Kingdom"},"categories":[{"id":"4f04af1f2fb6e1c99f3db0bb","name":"Turkish Restaurant","pluralName":"Turkish Restaurants","shortName":"Turkish","icon":{"prefix":"https:\/\/ss1.4sqi.net\/img\/categories_v2\/food\/turkish_","suffix":".png"},"primary":"true"}],"verified":"false","restricted":"true","stats":{"checkinsCount":"707","usersCount":"436","tipCount":"13"},"url":"http:\/\/www.ishtarrestaurant.com","menu":{"type":"Menu","label":"Menu","anchor":"View Menu","url":"https:\/\/foursquare.com\/v\/ishtar\/4ac518ddf964a52068a920e3\/menu","mobileUrl":"https:\/\/foursquare.com\/v\/4ac518ddf964a52068a920e3\/device_menu"},"specials":{"count":"0"},"hereNow":{"count":"0"},"referralId":"v-1392478000"},{"id":"4ad0e4fbf964a520d5da20e3","name":"Galvin Bistrot de Luxe","contact":{"phone":"+442079354007","formattedPhone":"+44 20 7935 4007","twitter":"saragalvin1"},"location":{"address":"66 Baker St.","lat":"51.51926443830815","lng":"-0.15629173586296902","distance":"104","postalCode":"W1U 7DJ","cc":"GB","city":"London","state":"Greater London","country":"United Kingdom"},"categories":[{"id":"4bf58dd8d48988d10c941735","name":"French Restaurant","pluralName":"French Restaurants","shortName":"French","icon":{"prefix":"https:\/\/ss1.4sqi.net\/img\/categories_v2\/food\/french_","suffix":".png"},"primary":"true"}],"verified":"false","restricted":"true","stats":{"checkinsCount":"596","usersCount":"442","tipCount":"21"},"url":"http:\/\/www.galvinrestaurants.com\/section.php\/4\/1\/galvin_bistrot_de_luxe","reservations":{"url":"http:\/\/www.toptable.co.uk\/single.aspx?rid=80353&ref=9601"},"menu":{"type":"Menu","label":"Menu","anchor":"View Menu","url":"https:\/\/foursquare.com\/v\/galvin-bistrot-de-luxe\/4ad0e4fbf964a520d5da20e3\/menu","mobileUrl":"https:\/\/foursquare.com\/v\/4ad0e4fbf964a520d5da20e3\/device_menu"},"specials":{"count":"0"},"hereNow":{"count":"1","groups":[{"type":"others","name":"Other people here","count":"1"}]},"referralId":"v-1392478000"},{"id":"4b4a256af964a520427c26e3","name":"Canteen","contact":{"phone":"+448456861122","formattedPhone":"+44 845 686 1122","twitter":"canteenlondon"},"location":{"address":"55 Baker St","crossStreet":"btw Dorset St & Blandford St","lat":"51.519310900090275","lng":"-0.15631690887844701","distance":"102","postalCode":"W1U 8EW","cc":"GB","city":"Marylebone","state":"Greater London","country":"United Kingdom"},"categories":[{"id":"4bf58dd8d48988d155941735","name":"Gastropub","pluralName":"Gastropubs","shortName":"Gastropub","icon":{"prefix":"https:\/\/ss1.4sqi.net\/img\/categories_v2\/food\/gastropub_","suffix":".png"},"primary":"true"}],"verified":"false","restricted":"true","stats":{"checkinsCount":"1036","usersCount":"640","tipCount":"31"},"menu":{"type":"Menu","label":"Menu","anchor":"View Menu","url":"https:\/\/foursquare.com\/v\/canteen\/4b4a256af964a520427c26e3\/menu","mobileUrl":"https:\/\/foursquare.com\/v\/4b4a256af964a520427c26e3\/device_menu"},"specials":{"count":"0"},"hereNow":{"count":"0"},"referralId":"v-1392478000"},{"id":"4c1fc6a28b3aa593fbfe9d5f","name":"Embassy Of The Republic Of Lithuania","location":{"address":"2 Bessborough Gardens","lat":"51.519465384126605","lng":"-0.15847563743591309","distance":"50","postalCode":"SW1V 2JE","cc":"GB","city":"London","state":"Greater London","country":"United Kingdom"},"categories":[{"id":"4bf58dd8d48988d12c951735","name":"Embassy \/ Consulate","pluralName":"Embassies \/ Consulates","shortName":"Embassy","icon":{"prefix":"https:\/\/ss1.4sqi.net\/img\/categories_v2\/travel\/embassy_","suffix":".png"},"primary":"true"}],"verified":"false","restricted":"true","stats":{"checkinsCount":"44","usersCount":"26","tipCount":"0"},"specials":{"count":"0"},"hereNow":{"count":"0"},"referralId":"v-1392478000"},{"id":"4ac518d9f964a520a2a820e3","name":"Reuben's","location":{"address":"79 Baker Street","lat":"51.51981837415035","lng":"-0.15676136506752897","distance":"93","postalCode":"W1U 6RG","cc":"GB","city":"London","state":"Greater London","country":"United Kingdom"},"categories":[{"id":"4bf58dd8d48988d146941735","name":"Deli \/ Bodega","pluralName":"Delis \/ Bodegas","shortName":"Deli \/ Bodega","icon":{"prefix":"https:\/\/ss1.4sqi.net\/img\/categories_v2\/food\/deli_","suffix":".png"},"primary":"true"}],"verified":"false","restricted":"true","stats":{"checkinsCount":"215","usersCount":"146","tipCount":"5"},"menu":{"type":"Menu","label":"Menu","anchor":"View Menu","url":"https:\/\/foursquare.com\/v\/reubens\/4ac518d9f964a520a2a820e3\/menu","mobileUrl":"https:\/\/foursquare.com\/v\/4ac518d9f964a520a2a820e3\/device_menu"},"specials":{"count":"0"},"hereNow":{"count":"0"},"referralId":"v-1392478000"},{"id":"4bf5590a94af2d7f78953b72","name":"Sara Cafe Shisha - London","contact":{"phone":"+442074865666","formattedPhone":"+44 20 7486 5666","facebook":"113136755382613"},"location":{"address":"13A Crawford Street","crossStreet":"at Gloucester Place","lat":"51.519952","lng":"-0.158705","distance":"96","postalCode":"W1U 6BZ","cc":"GB","city":"London","state":"Greater London","country":"United Kingdom"},"categories":[{"id":"4bf58dd8d48988d119941735","name":"Hookah Bar","pluralName":"Hookah Bars","shortName":"Hookah Bar","icon":{"prefix":"https:\/\/ss1.4sqi.net\/img\/categories_v2\/nightlife\/hookahbar_","suffix":".png"},"primary":"true"}],"verified":"true","restricted":"true","stats":{"checkinsCount":"217","usersCount":"132","tipCount":"3"},"url":"http:\/\/www.saracafe.co.uk","menu":{"type":"Menu","label":"Menu","anchor":"View Menu","url":"https:\/\/foursquare.com\/v\/sara-cafe-shisha--london\/4bf5590a94af2d7f78953b72\/menu","mobileUrl":"https:\/\/foursquare.com\/v\/4bf5590a94af2d7f78953b72\/device_menu"},"specials":{"count":"0"},"hereNow":{"count":"0"},"venuePage":{"id":"38741613"},"storeId":"","referralId":"v-1392478000"},{"id":"4d74185294985481648b257e","name":"Gloucester Place Hotel","location":{"address":"55 Gloucester Place London W1U 8JQ","lat":"51.518298983573914","lng":"-0.15841662883758545","distance":"118","postalCode":"United Kingd","cc":"GB","city":"London","state":"Greater London","country":"United Kingdom"},"categories":[{"id":"4bf58dd8d48988d1fa931735","name":"Hotel","pluralName":"Hotels","shortName":"Hotel","icon":{"prefix":"https:\/\/ss1.4sqi.net\/img\/categories_v2\/travel\/hotel_","suffix":".png"},"primary":"true"}],"verified":"false","restricted":"true","stats":{"checkinsCount":"177","usersCount":"79","tipCount":"1"},"specials":{"count":"0"},"hereNow":{"count":"0"},"referralId":"v-1392478000"},{"id":"4c402f1c6c1a9521932fb96a","name":"Pensar IT","contact":{"phone":"+448454026797","formattedPhone":"+44 845 402 6797","twitter":"pensar_it"},"location":{"address":"71 Gloucester Place","lat":"51.518897","lng":"-0.158335","distance":"57","postalCode":"W1U 8JW","cc":"GB","city":"London","state":"Greater London","country":"United Kingdom"},"categories":[{"id":"4bf58dd8d48988d124941735","name":"Office","pluralName":"Offices","shortName":"Office","icon":{"prefix":"https:\/\/ss1.4sqi.net\/img\/categories_v2\/building\/default_","suffix":".png"},"primary":"true"}],"verified":"false","restricted":"true","stats":{"checkinsCount":"310","usersCount":"14","tipCount":"0"},"specials":{"count":"0"},"hereNow":{"count":"0"},"referralId":"v-1392478000"},{"id":"511e2e05e4b07cd153233d45","name":"Angolan Embassy","location":{"address":"22 Dorset St","lat":"51.519345","lng":"-0.157922","distance":"10","cc":"GB","country":"United Kingdom"},"categories":[{"id":"4bf58dd8d48988d130941735","name":"Building","pluralName":"Buildings","shortName":"Building","icon":{"prefix":"https:\/\/ss1.4sqi.net\/img\/categories_v2\/building\/default_","suffix":".png"},"primary":"true"}],"verified":"false","restricted":"true","stats":{"checkinsCount":"3","usersCount":"3","tipCount":"0"},"specials":{"count":"0"},"hereNow":{"count":"0"},"referralId":"v-1392478000"},{"id":"525457b4498ea5d7bd467c36","name":"Nourish","location":{"lat":"51.519391","lng":"-0.156464","distance":"93","cc":"GB","country":"United Kingdom"},"categories":[{"id":"4bf58dd8d48988d112941735","name":"Juice Bar","pluralName":"Juice Bars","shortName":"Juice Bar","icon":{"prefix":"https:\/\/ss1.4sqi.net\/img\/categories_v2\/food\/juicebar_","suffix":".png"},"primary":"true"}],"verified":"false","restricted":"true","stats":{"checkinsCount":"11","usersCount":"11","tipCount":"0"},"specials":{"count":"0"},"hereNow":{"count":"0"},"referralId":"v-1392478000"},{"id":"4dc96255d4c0abe9b62e5338","name":"Dr Alia Faki","location":{"address":"62 gloucester pl","lat":"51.518713415485635","lng":"-0.15779014818281756","distance":"64","cc":"GB","city":"Paddington","state":"Greater London","country":"United Kingdom"},"categories":[{"id":"4bf58dd8d48988d178941735","name":"Dentist's Office","pluralName":"Dentist's Offices","shortName":"Dentist's Office","icon":{"prefix":"https:\/\/ss1.4sqi.net\/img\/categories_v2\/building\/medical_dentist_","suffix":".png"},"primary":"true"}],"verified":"false","restricted":"true","stats":{"checkinsCount":"11","usersCount":"3","tipCount":"0"},"specials":{"count":"0"},"hereNow":{"count":"0"},"referralId":"v-1392478000"},{"id":"5299c1ea498ede5cdedcae82","name":"Hob Salon Baker Street","location":{"address":"60 Baker Street","lat":"51.519105466576605","lng":"-0.15636707914785195","distance":"101","cc":"GB","city":"London","state":"Greater London","country":"United Kingdom"},"categories":[{"id":"4bf58dd8d48988d110951735","name":"Salon \/ Barbershop","pluralName":"Salons \/ Barbershops","shortName":"Salon \/ Barbershop","icon":{"prefix":"https:\/\/ss1.4sqi.net\/img\/categories_v2\/shops\/salon_barber_","suffix":".png"},"primary":"true"}],"verified":"false","restricted":"true","stats":{"checkinsCount":"7","usersCount":"6","tipCount":"0"},"specials":{"count":"0"},"hereNow":{"count":"0"},"referralId":"v-1392478000"},{"id":"4e287f571f6e88a15462e728","name":"Georgian Hotel","location":{"lat":"51.51943046181525","lng":"-0.1587595801606672","distance":"68","cc":"GB","city":"London","state":"Greater London","country":"United Kingdom"},"categories":[{"id":"4bf58dd8d48988d1fa931735","name":"Hotel","pluralName":"Hotels","shortName":"Hotel","icon":{"prefix":"https:\/\/ss1.4sqi.net\/img\/categories_v2\/travel\/hotel_","suffix":".png"},"primary":"true"}],"verified":"false","restricted":"true","stats":{"checkinsCount":"24","usersCount":"17","tipCount":"0"},"specials":{"count":"0"},"hereNow":{"count":"0"},"referralId":"v-1392478000"},{"id":"4eba61dd4901ce38961c2779","name":"Fibonacci @ BDO","location":{"address":"55 Baker Street","lat":"51.51889938296909","lng":"-0.15687989146402243","distance":"77","cc":"GB","city":"Paddington","state":"Greater London","country":"United Kingdom"},"categories":[{"id":"4bf58dd8d48988d1c4941735","name":"Restaurant","pluralName":"Restaurants","shortName":"Restaurant","icon":{"prefix":"https:\/\/ss1.4sqi.net\/img\/categories_v2\/food\/default_","suffix":".png"},"primary":"true"}],"verified":"false","restricted":"true","stats":{"checkinsCount":"141","usersCount":"7","tipCount":"1"},"specials":{"count":"0"},"hereNow":{"count":"0"},"referralId":"v-1392478000"},{"id":"504775fe72da5c96f5ae1c52","name":"Cordys UK","location":{"address":"83 Baker Street","crossStreet":"Marylebone","lat":"51.51989264641164","lng":"-0.1568126678466797","distance":"96","postalCode":"W1U6AG","cc":"GB","city":"London","state":"Greater London","country":"United Kingdom"},"categories":[{"id":"4bf58dd8d48988d124941735","name":"Office","pluralName":"Offices","shortName":"Office","icon":{"prefix":"https:\/\/ss1.4sqi.net\/img\/categories_v2\/building\/default_","suffix":".png"},"primary":"true"}],"verified":"false","restricted":"true","stats":{"checkinsCount":"9","usersCount":"2","tipCount":"0"},"specials":{"count":"0"},"hereNow":{"count":"0"},"referralId":"v-1392478000"},{"id":"5198e7df498e629829ebede6","name":"9MMN Quad","location":{"address":"9 Montagu Mews North","lat":"51.51936325882857","lng":"-0.15927103713478466","distance":"102","postalCode":"W1H 2JX","cc":"GB","city":"London","state":"Greater London","country":"United Kingdom"},"categories":[{"id":"4bf58dd8d48988d1a3941735","name":"College Residence Hall","pluralName":"College Residence Halls","shortName":"Residence Hall","icon":{"prefix":"https:\/\/ss1.4sqi.net\/img\/categories_v2\/education\/residencehall_","suffix":".png"},"primary":"true"}],"verified":"false","restricted":"true","stats":{"checkinsCount":"50","usersCount":"5","tipCount":"0"},"specials":{"count":"0"},"hereNow":{"count":"0"},"referralId":"v-1392478000"},{"id":"51121e20e4b02db8887d6448","name":"Total Wealth Solutions","contact":{"phone":"+442070090468","formattedPhone":"+44 20 7009 0468","twitter":"totalwealth"},"location":{"address":"29 Dorset Street","lat":"51.519124","lng":"-0.157789","distance":"18","postalCode":"W1U 8AT","cc":"GB","city":"London","state":"Greater London","country":"United Kingdom"},"categories":[{"id":"4bf58dd8d48988d124941735","name":"Office","pluralName":"Offices","shortName":"Office","icon":{"prefix":"https:\/\/ss1.4sqi.net\/img\/categories_v2\/building\/default_","suffix":".png"},"primary":"true"}],"verified":"false","restricted":"true","stats":{"checkinsCount":"1","usersCount":"1","tipCount":"0"},"specials":{"count":"0"},"hereNow":{"count":"0"},"referralId":"v-1392478000"},{"id":"4dc15ce022713750ba7ac2f6","name":"Nat West","location":{"address":"64 Baker St","lat":"51.519490161939665","lng":"-0.15644762342612814","distance":"96","postalCode":"W1","cc":"GB","city":"London","state":"Greater London","country":"United Kingdom"},"categories":[{"id":"4bf58dd8d48988d10a951735","name":"Bank","pluralName":"Banks","shortName":"Bank","icon":{"prefix":"https:\/\/ss1.4sqi.net\/img\/categories_v2\/shops\/financial_","suffix":".png"},"primary":"true"}],"verified":"false","restricted":"true","stats":{"checkinsCount":"28","usersCount":"11","tipCount":"0"},"menu":{"type":"Menu","label":"Menu","anchor":"View Menu","url":"https:\/\/foursquare.com\/v\/nat-west\/4dc15ce022713750ba7ac2f6\/menu","mobileUrl":"https:\/\/foursquare.com\/v\/4dc15ce022713750ba7ac2f6\/device_menu"},"specials":{"count":"0"},"hereNow":{"count":"0"},"referralId":"v-1392478000"},{"id":"4c16038682a3c9b66c97fff8","name":"Natwest","location":{"address":"69, Baker St.","lat":"51.51934617718236","lng":"-0.1563700991678746","distance":"99","cc":"GB","city":"Paddington","state":"Greater London","country":"United Kingdom"},"categories":[{"id":"4bf58dd8d48988d130941735","name":"Building","pluralName":"Buildings","shortName":"Building","icon":{"prefix":"https:\/\/ss1.4sqi.net\/img\/categories_v2\/building\/default_","suffix":".png"},"primary":"true"}],"verified":"false","restricted":"true","stats":{"checkinsCount":"54","usersCount":"35","tipCount":"0"},"specials":{"count":"0"},"hereNow":{"count":"0"},"referralId":"v-1392478000"},{"id":"505dd9bae4b0c3135557dc1e","name":"\u0644\u0646\u062f\u0646 \u064a\u0627 \u0628\u0644\u062f \u0627\u0644\u0636\u0628\u0627\u0628","location":{"lat":"51.51921303399415","lng":"-0.15654584089834228","distance":"87","cc":"GB","country":"United Kingdom"},"categories":[{"id":"4f04b25d2fb6e1c99f3db0c0","name":"Travel Lounge","pluralName":"Travel Lounges","shortName":"Lounge","icon":{"prefix":"https:\/\/ss1.4sqi.net\/img\/categories_v2\/travel\/lounge_","suffix":".png"},"primary":"true"}],"verified":"false","restricted":"true","stats":{"checkinsCount":"19","usersCount":"8","tipCount":"0"},"specials":{"count":"0"},"hereNow":{"count":"0"},"referralId":"v-1392478000"},{"id":"4d4be070a22c224be9dbf393","name":"AVG @ Baker Street","location":{"address":"83 Baker Street","lat":"51.52002349581803","lng":"-0.1568195508821714","distance":"106","cc":"GB","city":"Paddington","state":"Greater London","country":"United Kingdom"},"categories":[{"id":"4bf58dd8d48988d124941735","name":"Office","pluralName":"Offices","shortName":"Office","icon":{"prefix":"https:\/\/ss1.4sqi.net\/img\/categories_v2\/building\/default_","suffix":".png"},"primary":"true"}],"verified":"false","restricted":"true","stats":{"checkinsCount":"53","usersCount":"11","tipCount":"0"},"specials":{"count":"0"},"hereNow":{"count":"0"},"referralId":"v-1392478000"},{"id":"4c9b1ef378fc236a632c3b97","name":"Embassy of Switzerland","location":{"address":"16-18 Montagu Pl","lat":"51.5188864229217","lng":"-0.15895717024493375","distance":"91","postalCode":"W1H 2BQ","cc":"GB","city":"Paddington","state":"Greater London","country":"United Kingdom"},"categories":[{"id":"4bf58dd8d48988d126941735","name":"Government Building","pluralName":"Government Buildings","shortName":"Government","icon":{"prefix":"https:\/\/ss1.4sqi.net\/img\/categories_v2\/building\/government_","suffix":".png"},"primary":"true"}],"verified":"false","restricted":"true","stats":{"checkinsCount":"765","usersCount":"90","tipCount":"3"},"specials":{"count":"0"},"hereNow":{"count":"0"},"referralId":"v-1392478000"},{"id":"4f294f0ce4b018a0a0f60007","name":"Olderiswiser Ltd","location":{"lat":"51.51915594453454","lng":"-0.15748392561230873","distance":"26","cc":"GB","country":"United Kingdom"},"categories":[{"id":"4bf58dd8d48988d174941735","name":"Coworking Space","pluralName":"Coworking Spaces","shortName":"Coworking Space","icon":{"prefix":"https:\/\/ss1.4sqi.net\/img\/categories_v2\/building\/office_coworkingspace_","suffix":".png"},"primary":"true"}],"verified":"false","restricted":"true","stats":{"checkinsCount":"22","usersCount":"2","tipCount":"0"},"specials":{"count":"0"},"hereNow":{"count":"0"},"referralId":"v-1392478000"},{"id":"5097d53390e7b74069bea15e","name":"Imperial designs","location":{"address":"87-89 Baker Street","lat":"51.52009960013997","lng":"-0.15680193901062012","distance":"113","postalCode":"W1U 6RJ","cc":"GB","city":"London","state":"Greater London","country":"United Kingdom"},"categories":[{"id":"4bf58dd8d48988d124941735","name":"Office","pluralName":"Offices","shortName":"Office","icon":{"prefix":"https:\/\/ss1.4sqi.net\/img\/categories_v2\/building\/default_","suffix":".png"},"primary":"true"}],"verified":"false","restricted":"true","stats":{"checkinsCount":"20","usersCount":"5","tipCount":"0"},"specials":{"count":"0"},"hereNow":{"count":"0"},"referralId":"v-1392478000"},{"id":"518bd868498ee9446d681942","name":"Blanc Clean","contact":{"twitter":"blancclean"},"location":{"address":"79 George St","lat":"51.51957121734546","lng":"-0.15742142494011668","distance":"41","postalCode":"W1U 8AQ","cc":"GB","city":"London","state":"Greater London","country":"United Kingdom"},"categories":[{"id":"4bf58dd8d48988d1fc941735","name":"Laundry Service","pluralName":"Laundry Services","shortName":"Laundry","icon":{"prefix":"https:\/\/ss1.4sqi.net\/img\/categories_v2\/shops\/laundry_","suffix":".png"},"primary":"true"}],"verified":"false","restricted":"true","stats":{"checkinsCount":"3","usersCount":"3","tipCount":"1"},"specials":{"count":"0"},"hereNow":{"count":"0"},"referralId":"v-1392478000"},{"id":"4cb46fbfdb32f04d3496dd4d","name":"Green Shoots","location":{"address":"Westminster, London W1U 8JG","lat":"51.51911562","lng":"-0.15837285","distance":"43","postalCode":"W1U 8JG","cc":"GB","city":"London","state":"Greater London","country":"United Kingdom"},"categories":[{"id":"4bf58dd8d48988d130941735","name":"Building","pluralName":"Buildings","shortName":"Building","icon":{"prefix":"https:\/\/ss1.4sqi.net\/img\/categories_v2\/building\/default_","suffix":".png"},"primary":"true"}],"verified":"false","restricted":"true","stats":{"checkinsCount":"2","usersCount":"1","tipCount":"0"},"specials":{"count":"0"},"hereNow":{"count":"0"},"referralId":"v-1392478000"},{"id":"4c34754a7cc0c9b6d34cf39a","name":"Holland & Barrett","contact":{"phone":"+442079353544","formattedPhone":"+44 20 7935 3544","twitter":"holland_barrett"},"location":{"address":"78 Baker St","crossStreet":"at Paddington St","lat":"51.51984467731037","lng":"-0.15654487371058098","distance":"106","postalCode":"W1U 6TD","cc":"GB","city":"City of Westminster","state":"Greater London","country":"United Kingdom"},"categories":[{"id":"50aa9e744b90af0d42d5de0e","name":"Health Food Store","pluralName":"Health Food Stores","shortName":"Health Food Store","icon":{"prefix":"https:\/\/ss1.4sqi.net\/img\/categories_v2\/shops\/food_grocery_","suffix":".png"},"primary":"true"}],"verified":"false","restricted":"true","stats":{"checkinsCount":"51","usersCount":"33","tipCount":"1"},"url":"http:\/\/www.hollandandbarrett.com","specials":{"count":"0"},"hereNow":{"count":"0"},"referralId":"v-1392478000"},{"id":"4cda6b2f3f6a8cfadf33e4ea","name":"Myla Head Office","location":{"address":"1-6 clay st","lat":"51.519728","lng":"-0.158006","distance":"50","cc":"GB","country":"United Kingdom"},"categories":[{"id":"4bf58dd8d48988d124941735","name":"Office","pluralName":"Offices","shortName":"Office","icon":{"prefix":"https:\/\/ss1.4sqi.net\/img\/categories_v2\/building\/default_","suffix":".png"},"primary":"true"}],"verified":"false","restricted":"true","stats":{"checkinsCount":"4","usersCount":"3","tipCount":"0"},"specials":{"count":"0"},"hereNow":{"count":"0"},"referralId":"v-1392478000"},{"id":"4ed49fb8775b45f6ed8dcec9","name":"EYE","contact":{"phone":"+442073171010","formattedPhone":"+44 20 7317 1010"},"location":{"address":"74 Gloucester Pl.","lat":"51.519287366149285","lng":"-0.15854054034015738","distance":"51","postalCode":"W1U 6HH","cc":"GB","city":"City of Westminster","state":"Greater London","country":"United Kingdom"},"categories":[{"id":"4bf58dd8d48988d124941735","name":"Office","pluralName":"Offices","shortName":"Office","icon":{"prefix":"https:\/\/ss1.4sqi.net\/img\/categories_v2\/building\/default_","suffix":".png"},"primary":"true"}],"verified":"false","restricted":"true","stats":{"checkinsCount":"14","usersCount":"4","tipCount":"0"},"specials":{"count":"0"},"hereNow":{"count":"0"},"referralId":"v-1392478000"},{"id":"4ddb6ae5b0fb2604df68f110","name":"Yoo Moo HQoo","location":{"address":"1-6 Clay St","lat":"51.51979","lng":"-0.157947","distance":"56","cc":"GB","city":"Paddington","state":"Greater London","country":"United Kingdom"},"verified":"false","restricted":"true","stats":{"checkinsCount":"7","usersCount":"1","tipCount":"0"},"specials":{"count":"0"},"hereNow":{"count":"0"},"referralId":"v-1392478000"}],"confident":"false"}}