{"meta":{"code":"200"},"response":{"venues":[{"id":"4cfa6667ee9cb60c44fd89ad","name":"Department of Coffee & Social Affairs","contact":{"phone":"+442074196906","formattedPhone":"+44 20 7419 6906","twitter":"deptofcoffee"},"location":{"address":"14-16 Leather Ln.","lat":"51.519348553897686","lng":"-0.1090317964553833","distance":"85","postalCode":"EC1N 7SU","cc":"GB","city":"London","state":"Greater London","country":"United Kingdom"},"categories":[{"id":"4bf58dd8d48988d1e0931735","name":"Coffee Shop","pluralName":"Coffee Shops","shortName":"Coffee Shop","icon":{"prefix":"https:\/\/ss1.4sqi.net\/img\/categories_v2\/food\/coffeeshop_","suffix":".png"},"primary":"true"}],"verified":"false","restricted":"true","stats":{"checkinsCount":"5708","usersCount":"1441","tipCount":"85"},"url":"http:\/\/departmentofcoffee.co.uk","menu":{"type":"Menu","label":"Menu","anchor":"View Menu","url":"https:\/\/foursquare.com\/v\/department-of-coffee--social-affairs\/4cfa6667ee9cb60c44fd89ad\/menu","mobileUrl":"https:\/\/foursquare.com\/v\/4cfa6667ee9cb60c44fd89ad\/device_menu"},"specials":{"count":"0"},"hereNow":{"count":"0"},"referralId":"v-1392478005"},{"id":"5236d11c11d27df777598b72","name":"Headspace","location":{"address":"19-21 Hatton Garden","lat":"51.519031","lng":"-0.107785","distance":"28","cc":"GB","city":"London","state":"Greater London","country":"United Kingdom"},"categories":[{"id":"4bf58dd8d48988d174941735","name":"Coworking Space","pluralName":"Coworking Spaces","shortName":"Coworking Space","icon":{"prefix":"https:\/\/ss1.4sqi.net\/img\/categories_v2\/building\/office_coworkingspace_","suffix":".png"},"primary":"true"}],"verified":"false","restricted":"true","stats":{"checkinsCount":"98","usersCount":"10","tipCount":"0"},"specials":{"count":"0"},"hereNow":{"count":"0"},"referralId":"v-1392478005"},{"id":"4ac518baf964a520e0a120e3","name":"Ye Olde Mitre Tavern","contact":{"phone":"+442074054751","formattedPhone":"+44 20 7405 4751"},"location":{"address":"1 Ely Court, Ely Place","crossStreet":"at Hatton Garden","lat":"51.51832875608651","lng":"-0.10745974572136884","distance":"109","postalCode":"EC1N 6SJ","cc":"GB","city":"Holborn","state":"Greater London","country":"United Kingdom"},"categories":[{"id":"4bf58dd8d48988d11b941735","name":"Pub","pluralName":"Pubs","shortName":"Pub","icon":{"prefix":"https:\/\/ss1.4sqi.net\/img\/categories_v2\/nightlife\/pub_","suffix":".png"},"primary":"true"}],"verified":"false","restricted":"true","stats":{"checkinsCount":"2205","usersCount":"1316","tipCount":"36"},"url":"http:\/\/yeoldemitreholburn.co.uk","menu":{"type":"Menu","label":"Menu","anchor":"View Menu","url":"https:\/\/foursquare.com\/v\/ye-olde-mitre-tavern\/4ac518baf964a520e0a120e3\/menu","mobileUrl":"https:\/\/foursquare.com\/v\/4ac518baf964a520e0a120e3\/device_menu"},"specials":{"count":"0"},"hereNow":{"count":"0"},"referralId":"v-1392478005"},{"id":"5210a3d311d2caa819e582d6","name":"Hatton Garden","location":{"address":"Hatton Garden","lat":"51.51953265391656","lng":"-0.10829204666069904","distance":"43","cc":"GB","country":"United Kingdom"},"categories":[{"id":"4bf58dd8d48988d111951735","name":"Jewelry Store","pluralName":"Jewelry Stores","shortName":"Jewelry","icon":{"prefix":"https:\/\/ss1.4sqi.net\/img\/categories_v2\/shops\/jewelry_","suffix":".png"},"primary":"true"}],"verified":"false","restricted":"true","stats":{"checkinsCount":"66","usersCount":"43","tipCount":"1"},"specials":{"count":"0"},"hereNow":{"count":"0"},"referralId":"v-1392478005"},{"id":"4bd97a2e11dcc92810def933","name":"Barclays","location":{"address":"Hatton Garden","lat":"51.51892870417239","lng":"-0.10811544725646204","distance":"45","cc":"GB","city":"Islington","state":"Greater London","country":"United Kingdom"},"categories":[{"id":"4bf58dd8d48988d10a951735","name":"Bank","pluralName":"Banks","shortName":"Bank","icon":{"prefix":"https:\/\/ss1.4sqi.net\/img\/categories_v2\/shops\/financial_","suffix":".png"},"primary":"true"}],"verified":"false","restricted":"true","stats":{"checkinsCount":"81","usersCount":"32","tipCount":"0"},"specials":{"count":"0"},"hereNow":{"count":"0"},"referralId":"v-1392478005"},{"id":"4ba2a0b9f964a520960a38e3","name":"Bleeding Heart Yard Restaurant","location":{"address":"Bleeding Heart Yard","lat":"51.51925835867549","lng":"-0.10686519221538059","distance":"65","postalCode":"EC1N 8SJ","cc":"GB","city":"London","state":"Greater London","country":"United Kingdom"},"categories":[{"id":"4bf58dd8d48988d10c941735","name":"French Restaurant","pluralName":"French Restaurants","shortName":"French","icon":{"prefix":"https:\/\/ss1.4sqi.net\/img\/categories_v2\/food\/french_","suffix":".png"},"primary":"true"}],"verified":"false","restricted":"true","stats":{"checkinsCount":"376","usersCount":"287","tipCount":"5"},"url":"http:\/\/www.bleedingheart.co.uk\/restaurant\/index.php","reservations":{"url":"http:\/\/www.toptable.co.uk\/single.aspx?rid=47644&ref=9601"},"menu":{"type":"Menu","label":"Menu","anchor":"View Menu","url":"https:\/\/foursquare.com\/v\/bleeding-heart-yard-restaurant\/4ba2a0b9f964a520960a38e3\/menu","mobileUrl":"https:\/\/foursquare.com\/v\/4ba2a0b9f964a520960a38e3\/device_menu"},"specials":{"count":"0"},"hereNow":{"count":"1","groups":[{"type":"others","name":"Other people here","count":"1"}]},"referralId":"v-1392478005"},{"id":"4f0d73e6e4b0dd89305d0ebb","name":"FusePump","location":{"address":"20-23 Greville St, London, Greater London EC1N 8SS","lat":"51.519325376404076","lng":"-0.10663566434235215","distance":"80","postalCode":"EC1N 8SS","cc":"GB","city":"London","state":"Greater London","country":"United Kingdom"},"categories":[{"id":"4bf58dd8d48988d124941735","name":"Office","pluralName":"Offices","shortName":"Office","icon":{"prefix":"https:\/\/ss1.4sqi.net\/img\/categories_v2\/building\/default_","suffix":".png"},"primary":"true"}],"verified":"false","restricted":"true","stats":{"checkinsCount":"649","usersCount":"20","tipCount":"0"},"specials":{"count":"0"},"hereNow":{"count":"0"},"referralId":"v-1392478005"},{"id":"4b2df611f964a52037dc24e3","name":"The Argyle","contact":{"phone":"+442074050999","formattedPhone":"+44 20 7405 0999","twitter":"theargyleec1","facebook":"267519389985529"},"location":{"address":"1 Greville St","crossStreet":"at Leather Ln","lat":"51.51919166711881","lng":"-0.10904788970947266","distance":"86","postalCode":"EC1N 8PQ","cc":"GB","city":"High Holborn","state":"Greater London","country":"United Kingdom"},"categories":[{"id":"4bf58dd8d48988d11b941735","name":"Pub","pluralName":"Pubs","shortName":"Pub","icon":{"prefix":"https:\/\/ss1.4sqi.net\/img\/categories_v2\/nightlife\/pub_","suffix":".png"},"primary":"true"}],"verified":"true","restricted":"true","stats":{"checkinsCount":"1356","usersCount":"508","tipCount":"16"},"url":"http:\/\/www.theargylelondon.co.uk","menu":{"type":"Menu","label":"Menu","anchor":"View Menu","url":"https:\/\/foursquare.com\/v\/the-argyle\/4b2df611f964a52037dc24e3\/menu","mobileUrl":"https:\/\/foursquare.com\/v\/4b2df611f964a52037dc24e3\/device_menu"},"specials":{"count":"0"},"hereNow":{"count":"0"},"venuePage":{"id":"32969728"},"storeId":"","referralId":"v-1392478005"},{"id":"4ae0b1b8f964a520b38121e3","name":"Scotch Malt Whisky Society","contact":{"phone":"+442078314447","formattedPhone":"+44 20 7831 4447"},"location":{"address":"19 Greville St","lat":"51.51959720085443","lng":"-0.106837979973135","distance":"75","postalCode":"EC1N 8SQ","cc":"GB","city":"Holborn","state":"Greater London","country":"United Kingdom"},"categories":[{"id":"4bf58dd8d48988d122941735","name":"Whisky Bar","pluralName":"Whisky Bars","shortName":"Whisky Bar","icon":{"prefix":"https:\/\/ss1.4sqi.net\/img\/categories_v2\/nightlife\/whiskey_","suffix":".png"},"primary":"true"}],"verified":"false","restricted":"true","stats":{"checkinsCount":"955","usersCount":"366","tipCount":"10"},"url":"http:\/\/www.smws.co.uk\/venues\/19_Greville_Street,_London","specials":{"count":"0"},"hereNow":{"count":"0"},"referralId":"v-1392478005"},{"id":"4bb336d9eb3e952134d2ca0a","name":"The Buffet Bar","location":{"lat":"51.51953214412287","lng":"-0.10726690292358398","distance":"45","cc":"GB","country":"United Kingdom"},"categories":[{"id":"4bf58dd8d48988d146941735","name":"Deli \/ Bodega","pluralName":"Delis \/ Bodegas","shortName":"Deli \/ Bodega","icon":{"prefix":"https:\/\/ss1.4sqi.net\/img\/categories_v2\/food\/deli_","suffix":".png"},"primary":"true"}],"verified":"false","restricted":"true","stats":{"checkinsCount":"115","usersCount":"44","tipCount":"3"},"specials":{"count":"0"},"hereNow":{"count":"0"},"referralId":"v-1392478005"},{"id":"5257f1c511d2881fbbcd12c6","name":"Chilango","location":{"address":"Leather Lane","lat":"51.51882006267234","lng":"-0.10895433546539078","distance":"95","cc":"GB","city":"London","state":"Greater London","country":"United Kingdom"},"categories":[{"id":"4bf58dd8d48988d153941735","name":"Burrito Place","pluralName":"Burrito Places","shortName":"Burritos","icon":{"prefix":"https:\/\/ss1.4sqi.net\/img\/categories_v2\/food\/burrito_","suffix":".png"},"primary":"true"}],"verified":"false","restricted":"true","stats":{"checkinsCount":"145","usersCount":"97","tipCount":"4"},"specials":{"count":"0"},"hereNow":{"count":"0"},"referralId":"v-1392478005"},{"id":"4ac518bbf964a52011a220e3","name":"Bleeding Heart Bistro","location":{"address":"4 Bleeding Heart Yard","lat":"51.51946424271301","lng":"-0.10676719994941378","distance":"74","postalCode":"EC1N 8SJ","cc":"GB","city":"London","state":"Greater London","country":"United Kingdom"},"categories":[{"id":"4bf58dd8d48988d10c941735","name":"French Restaurant","pluralName":"French Restaurants","shortName":"French","icon":{"prefix":"https:\/\/ss1.4sqi.net\/img\/categories_v2\/food\/french_","suffix":".png"},"primary":"true"}],"verified":"false","restricted":"true","stats":{"checkinsCount":"313","usersCount":"248","tipCount":"9"},"url":"http:\/\/www.bleedingheart.co.uk\/bistro\/","reservations":{"url":"http:\/\/www.toptable.co.uk\/single.aspx?rid=46999&ref=9601"},"menu":{"type":"Menu","label":"Menu","anchor":"View Menu","url":"https:\/\/foursquare.com\/v\/bleeding-heart-bistro\/4ac518bbf964a52011a220e3\/menu","mobileUrl":"https:\/\/foursquare.com\/v\/4ac518bbf964a52011a220e3\/device_menu"},"specials":{"count":"0"},"hereNow":{"count":"0"},"referralId":"v-1392478005"},{"id":"4e7082fc89987b9ce4ece239","name":"Costa Coffee","location":{"address":"Hatton Garden","lat":"51.5197090065721","lng":"-0.10825658222598654","distance":"56","cc":"GB","city":"Camden Town","state":"Greater London","country":"United Kingdom"},"categories":[{"id":"4bf58dd8d48988d16d941735","name":"Caf\u00e9","pluralName":"Caf\u00e9s","shortName":"Caf\u00e9","icon":{"prefix":"https:\/\/ss1.4sqi.net\/img\/categories_v2\/food\/cafe_","suffix":".png"},"primary":"true"}],"verified":"false","restricted":"true","stats":{"checkinsCount":"386","usersCount":"151","tipCount":"1"},"specials":{"count":"0"},"hereNow":{"count":"0"},"referralId":"v-1392478005"},{"id":"4d7f7737564b8cfacc960565","name":"Integrated Mailing Limited","contact":{"phone":"+443336666828","formattedPhone":"+44 333 666 6828"},"location":{"address":"Suite 48","crossStreet":"88-90 Hatton Garden","lat":"51.519487945051075","lng":"-0.10845639536154447","distance":"50","postalCode":"EC1N 8PN","cc":"GB","city":"Holborn Circus","state":"Greater London","country":"United Kingdom"},"categories":[{"id":"4bf58dd8d48988d174941735","name":"Coworking Space","pluralName":"Coworking Spaces","shortName":"Coworking Space","icon":{"prefix":"https:\/\/ss1.4sqi.net\/img\/categories_v2\/building\/office_coworkingspace_","suffix":".png"},"primary":"true"}],"verified":"true","restricted":"true","stats":{"checkinsCount":"183","usersCount":"1","tipCount":"0"},"specials":{"count":"0"},"hereNow":{"count":"0"},"venuePage":{"id":"62308395"},"referralId":"v-1392478005"},{"id":"4c6d1e24c7edb713a5d213e7","name":"Pret A Manger","contact":{"phone":"+442079325232","formattedPhone":"+44 20 7932 5232","twitter":"pret","facebook":"162638680417951"},"location":{"address":"10 Leather Ln","lat":"51.5188182154","lng":"-0.108944785894","distance":"94","postalCode":"EC1N 7SS","cc":"GB","city":"Holborn","state":"Greater London","country":"United Kingdom"},"categories":[{"id":"4bf58dd8d48988d1c5941735","name":"Sandwich Place","pluralName":"Sandwich Places","shortName":"Sandwiches","icon":{"prefix":"https:\/\/ss1.4sqi.net\/img\/categories_v2\/food\/sandwiches_","suffix":".png"},"primary":"true"}],"verified":"true","restricted":"true","stats":{"checkinsCount":"447","usersCount":"146","tipCount":"2"},"url":"http:\/\/www.pret.com","specials":{"count":"0"},"hereNow":{"count":"0"},"storeId":"32","referralId":"v-1392478005"},{"id":"4ada5fc2f964a520ff2121e3","name":"The Bleeding Heart Tavern","location":{"address":"Bleeding Heart Yard","lat":"51.51959728949763","lng":"-0.10675724936412379","distance":"80","postalCode":"EC1N 8SJ","cc":"GB","city":"London","state":"Greater London","country":"United Kingdom"},"categories":[{"id":"4bf58dd8d48988d11b941735","name":"Pub","pluralName":"Pubs","shortName":"Pub","icon":{"prefix":"https:\/\/ss1.4sqi.net\/img\/categories_v2\/nightlife\/pub_","suffix":".png"},"primary":"true"}],"verified":"false","restricted":"true","stats":{"checkinsCount":"616","usersCount":"458","tipCount":"9"},"url":"http:\/\/www.bleedingheart.co.uk\/tavern","menu":{"type":"Menu","label":"Menu","anchor":"View Menu","url":"https:\/\/foursquare.com\/v\/the-bleeding-heart-tavern\/4ada5fc2f964a520ff2121e3\/menu","mobileUrl":"https:\/\/foursquare.com\/v\/4ada5fc2f964a520ff2121e3\/device_menu"},"specials":{"count":"0"},"hereNow":{"count":"0"},"referralId":"v-1392478005"},{"id":"4f79d0cae4b00562b8021775","name":"lastminute.com","location":{"address":"77 Hatton Garden","lat":"51.520144542509136","lng":"-0.10881450431916564","distance":"118","postalCode":"Ec1n 8js","cc":"GB","city":"London","state":"Greater London","country":"United Kingdom"},"categories":[{"id":"4bf58dd8d48988d124941735","name":"Office","pluralName":"Offices","shortName":"Office","icon":{"prefix":"https:\/\/ss1.4sqi.net\/img\/categories_v2\/building\/default_","suffix":".png"},"primary":"true"}],"verified":"false","restricted":"true","stats":{"checkinsCount":"1126","usersCount":"62","tipCount":"1"},"specials":{"count":"0"},"hereNow":{"count":"0"},"referralId":"v-1392478005"},{"id":"4b619760f964a52021192ae3","name":"Tajima Tei","location":{"address":"Leather Ln.","lat":"51.51943061967967","lng":"-0.10930082899691669","distance":"104","cc":"GB","city":"London","state":"Greater London","country":"United Kingdom"},"categories":[{"id":"4bf58dd8d48988d111941735","name":"Japanese Restaurant","pluralName":"Japanese Restaurants","shortName":"Japanese","icon":{"prefix":"https:\/\/ss1.4sqi.net\/img\/categories_v2\/food\/japanese_","suffix":".png"},"primary":"true"}],"verified":"false","restricted":"true","stats":{"checkinsCount":"351","usersCount":"203","tipCount":"9"},"menu":{"type":"Menu","label":"Menu","anchor":"View Menu","url":"https:\/\/foursquare.com\/v\/tajima-tei\/4b619760f964a52021192ae3\/menu","mobileUrl":"https:\/\/foursquare.com\/v\/4b619760f964a52021192ae3\/device_menu"},"specials":{"count":"0"},"hereNow":{"count":"0"},"referralId":"v-1392478005"},{"id":"4f02d22df9abd5b3934f5572","name":"100 Hatton Garden","location":{"address":"100 Hatton Garden","lat":"51.51846101414046","lng":"-0.10886364956057906","distance":"117","postalCode":"EC1N 8NX","cc":"GB","city":"London","state":"Greater London","country":"United Kingdom"},"categories":[{"id":"4bf58dd8d48988d124941735","name":"Office","pluralName":"Offices","shortName":"Office","icon":{"prefix":"https:\/\/ss1.4sqi.net\/img\/categories_v2\/building\/default_","suffix":".png"},"primary":"true"}],"verified":"false","restricted":"true","stats":{"checkinsCount":"69","usersCount":"10","tipCount":"0"},"specials":{"count":"0"},"hereNow":{"count":"0"},"referralId":"v-1392478005"},{"id":"52cf3851498e2adad933d732","name":"Rififi","location":{"address":"15a Hay Hill street","crossStreet":"Dover street","lat":"51.51942178918316","lng":"-0.10783029064319144","distance":"14","cc":"GB","city":"London","state":"Greater London","country":"United Kingdom"},"categories":[{"id":"4bf58dd8d48988d1d4941735","name":"Speakeasy","pluralName":"Speakeasies","shortName":"Speakeasy","icon":{"prefix":"https:\/\/ss1.4sqi.net\/img\/categories_v2\/nightlife\/secretbar_","suffix":".png"},"primary":"true"}],"verified":"false","restricted":"true","stats":{"checkinsCount":"2","usersCount":"2","tipCount":"0"},"specials":{"count":"0"},"hereNow":{"count":"0"},"referralId":"v-1392478005"},{"id":"4f0d7ee9e4b040d481d2b34a","name":"Soya","location":{"address":"41 Greville Street","lat":"51.51927693240879","lng":"-0.10925967377392742","distance":"100","postalCode":"EC1N 7SU","cc":"GB","city":"London","state":"Greater London","country":"United Kingdom"},"categories":[{"id":"4bf58dd8d48988d1d2941735","name":"Sushi Restaurant","pluralName":"Sushi Restaurants","shortName":"Sushi","icon":{"prefix":"https:\/\/ss1.4sqi.net\/img\/categories_v2\/food\/sushi_","suffix":".png"},"primary":"true"}],"verified":"false","restricted":"true","stats":{"checkinsCount":"279","usersCount":"108","tipCount":"4"},"specials":{"count":"0"},"hereNow":{"count":"0"},"referralId":"v-1392478005"},{"id":"512dd00de4b0255d5e792236","name":"Tenpilates","location":{"address":"Hatton Garden","lat":"51.519767781364976","lng":"-0.1083348499492801","distance":"64","cc":"GB","city":"London","state":"Greater London","country":"United Kingdom"},"categories":[{"id":"4bf58dd8d48988d175941735","name":"Gym \/ Fitness Center","pluralName":"Gyms or Fitness Centers","shortName":"Gym \/ Fitness","icon":{"prefix":"https:\/\/ss1.4sqi.net\/img\/categories_v2\/building\/gym_","suffix":".png"},"primary":"true"}],"verified":"false","restricted":"true","stats":{"checkinsCount":"39","usersCount":"13","tipCount":"1"},"specials":{"count":"0"},"hereNow":{"count":"0"},"referralId":"v-1392478005"},{"id":"4fd73b2ce4b0471859b7f74c","name":"Zou","location":{"address":"Leather Ln.","lat":"51.52160162827818","lng":"-0.10996321345814296","distance":"297","cc":"GB","city":"London","state":"Greater London","country":"United Kingdom"},"categories":[{"id":"4bf58dd8d48988d1cb941735","name":"Food Truck","pluralName":"Food Trucks","shortName":"Food Truck","icon":{"prefix":"https:\/\/ss1.4sqi.net\/img\/categories_v2\/food\/streetfood_","suffix":".png"},"primary":"true"}],"verified":"false","restricted":"true","stats":{"checkinsCount":"186","usersCount":"61","tipCount":"3"},"specials":{"count":"0"},"hereNow":{"count":"0"},"referralId":"v-1392478005"},{"id":"51dabe0c498e3dda71063bde","name":"Chick","location":{"address":"17-19 Leather Lane","lat":"51.519784901481785","lng":"-0.10931873720344118","distance":"118","postalCode":"EC1N 7TE","cc":"GB","city":"London","state":"Greater London","country":"United Kingdom"},"categories":[{"id":"4bf58dd8d48988d10b941735","name":"Falafel Restaurant","pluralName":"Falafel Restaurants","shortName":"Falafel","icon":{"prefix":"https:\/\/ss1.4sqi.net\/img\/categories_v2\/food\/falafel_","suffix":".png"},"primary":"true"}],"verified":"false","restricted":"true","stats":{"checkinsCount":"124","usersCount":"69","tipCount":"9"},"specials":{"count":"0"},"hereNow":{"count":"0"},"referralId":"v-1392478005"},{"id":"5197b551498e9c64f7c99f68","name":"Atelier EC1 Apartments","location":{"address":"30 Greville Street","lat":"51.519643","lng":"-0.106716","distance":"84","cc":"GB","city":"London","state":"Greater London","country":"United Kingdom"},"categories":[{"id":"4bf58dd8d48988d1fa931735","name":"Hotel","pluralName":"Hotels","shortName":"Hotel","icon":{"prefix":"https:\/\/ss1.4sqi.net\/img\/categories_v2\/travel\/hotel_","suffix":".png"},"primary":"true"}],"verified":"false","restricted":"true","stats":{"checkinsCount":"10","usersCount":"8","tipCount":"0"},"specials":{"count":"0"},"hereNow":{"count":"0"},"referralId":"v-1392478005"},{"id":"4ad8c990f964a520a41421e3","name":"Johnson Building","location":{"address":"77 Hatton Garden","lat":"51.520088597986266","lng":"-0.1084414650486389","distance":"99","postalCode":"EC1N 8JS","cc":"GB","city":"London","state":"Greater London","country":"United Kingdom"},"categories":[{"id":"4bf58dd8d48988d130941735","name":"Building","pluralName":"Buildings","shortName":"Building","icon":{"prefix":"https:\/\/ss1.4sqi.net\/img\/categories_v2\/building\/default_","suffix":".png"},"primary":"true"}],"verified":"false","restricted":"true","stats":{"checkinsCount":"382","usersCount":"63","tipCount":"0"},"specials":{"count":"0"},"hereNow":{"count":"0"},"referralId":"v-1392478005"},{"id":"4b866718f964a520c68831e3","name":"Portofino","contact":{"phone":"+442072428958","formattedPhone":"+44 20 7242 8958"},"location":{"address":"5 Kirby Street","crossStreet":"Greville Street","lat":"51.519787","lng":"-0.10718107223510431","distance":"70","postalCode":"EC1N 8TS","cc":"GB","city":"Camden Town","state":"Greater London","country":"United Kingdom"},"categories":[{"id":"4bf58dd8d48988d110941735","name":"Italian Restaurant","pluralName":"Italian Restaurants","shortName":"Italian","icon":{"prefix":"https:\/\/ss1.4sqi.net\/img\/categories_v2\/food\/italian_","suffix":".png"},"primary":"true"}],"verified":"false","restricted":"true","stats":{"checkinsCount":"297","usersCount":"48","tipCount":"4"},"specials":{"count":"0"},"hereNow":{"count":"0"},"referralId":"v-1392478005"},{"id":"5122402ee4b05d42302d0928","name":"Hair Razor","location":{"address":"199 High Holborn","lat":"51.51937040079188","lng":"-0.107887505206506","distance":"10","cc":"GB","country":"United Kingdom"},"categories":[{"id":"4bf58dd8d48988d110951735","name":"Salon \/ Barbershop","pluralName":"Salons \/ Barbershops","shortName":"Salon \/ Barbershop","icon":{"prefix":"https:\/\/ss1.4sqi.net\/img\/categories_v2\/shops\/salon_barber_","suffix":".png"},"primary":"true"}],"verified":"false","restricted":"true","stats":{"checkinsCount":"3","usersCount":"2","tipCount":"0"},"specials":{"count":"0"},"hereNow":{"count":"0"},"referralId":"v-1392478005"},{"id":"52e73f9c498e9a42bc16a84c","name":"Diamonds Factory","contact":{"phone":"+448082566374","formattedPhone":"+44 808 256 6374","twitter":"diamondsfactory"},"location":{"address":"2.05, 14","crossStreet":"Greville Street","lat":"51.51931851179036","lng":"-0.10793209075927734","distance":"9","postalCode":"EC1N 8SB","cc":"GB","city":"London","state":"Greater London","country":"United Kingdom"},"categories":[{"id":"4bf58dd8d48988d111951735","name":"Jewelry Store","pluralName":"Jewelry Stores","shortName":"Jewelry","icon":{"prefix":"https:\/\/ss1.4sqi.net\/img\/categories_v2\/shops\/jewelry_","suffix":".png"},"primary":"true"}],"verified":"false","restricted":"true","stats":{"checkinsCount":"0","usersCount":"0","tipCount":"0"},"url":"http:\/\/www.diamondsfactory.co.uk","specials":{"count":"0"},"hereNow":{"count":"0"},"referralId":"v-1392478005"},{"id":"5259528b498e2033e8b32167","name":"Channings","location":{"address":"Hatton Garden","lat":"51.51908280543941","lng":"-0.10801270124521505","distance":"27","cc":"GB","country":"United Kingdom"},"categories":[{"id":"4bf58dd8d48988d111951735","name":"Jewelry Store","pluralName":"Jewelry Stores","shortName":"Jewelry","icon":{"prefix":"https:\/\/ss1.4sqi.net\/img\/categories_v2\/shops\/jewelry_","suffix":".png"},"primary":"true"}],"verified":"false","restricted":"true","stats":{"checkinsCount":"4","usersCount":"3","tipCount":"0"},"specials":{"count":"0"},"hereNow":{"count":"0"},"referralId":"v-1392478005"}],"confident":"true"}}