{"meta":{"code":"200"},"response":{"venues":[{"id":"4ac518cef964a52033a620e3","name":"Paddington Recreation Ground","location":{"address":"Randolph Ave.","lat":"51.530239180823926","lng":"-0.1904153823852539","distance":"209","postalCode":"W9 1PD","cc":"GB","city":"London","state":"Greater London","country":"United Kingdom"},"categories":[{"id":"4bf58dd8d48988d163941735","name":"Park","pluralName":"Parks","shortName":"Park","icon":{"prefix":"https:\/\/ss1.4sqi.net\/img\/categories_v2\/parks_outdoors\/park_","suffix":".png"},"primary":"true"}],"verified":"false","restricted":"true","stats":{"checkinsCount":"1853","usersCount":"615","tipCount":"11"},"specials":{"count":"0"},"hereNow":{"count":"2","groups":[{"type":"others","name":"Other people here","count":"2"}]},"referralId":"v-1392477970"},{"id":"4b07e465f964a520cf0023e3","name":"Starbucks","contact":{"phone":"+442073725918","formattedPhone":"+44 20 7372 5918","twitter":"starbucksuk"},"location":{"address":"170 Randolph Ave.","crossStreet":"Elgin Ave.","lat":"51.53010569212588","lng":"-0.18603801727294922","distance":"152","postalCode":"W9 1PE","cc":"GB","city":"London","state":"Greater London","country":"United Kingdom"},"categories":[{"id":"4bf58dd8d48988d16d941735","name":"Caf\u00e9","pluralName":"Caf\u00e9s","shortName":"Caf\u00e9","icon":{"prefix":"https:\/\/ss1.4sqi.net\/img\/categories_v2\/food\/cafe_","suffix":".png"},"primary":"true"}],"verified":"true","restricted":"true","stats":{"checkinsCount":"1780","usersCount":"458","tipCount":"10"},"url":"http:\/\/starbucks.co.uk","specials":{"count":"0"},"hereNow":{"count":"0"},"storeId":"12437","referralId":"v-1392477970"},{"id":"4ae753ecf964a52073aa21e3","name":"Banana Tree","contact":{"phone":"+442072863869","formattedPhone":"+44 20 7286 3869"},"location":{"address":"166 Randolph Ave","lat":"51.529750314666835","lng":"-0.1858193350385725","distance":"146","postalCode":"W9 1PG","cc":"GB","city":"Maida Vale","country":"United Kingdom"},"categories":[{"id":"4bf58dd8d48988d149941735","name":"Thai Restaurant","pluralName":"Thai Restaurants","shortName":"Thai","icon":{"prefix":"https:\/\/ss1.4sqi.net\/img\/categories_v2\/food\/thai_","suffix":".png"},"primary":"true"}],"verified":"false","restricted":"true","stats":{"checkinsCount":"456","usersCount":"168","tipCount":"16"},"specials":{"count":"0"},"hereNow":{"count":"2","groups":[{"type":"others","name":"Other people here","count":"2"}]},"referralId":"v-1392477970"},{"id":"4aeda9e5f964a5200bce21e3","name":"The Elgin","contact":{"phone":"+442076255511","formattedPhone":"+44 20 7625 5511","twitter":"the_elgin"},"location":{"address":"255 Elgin Ave","crossStreet":"Lanark Rd.","lat":"51.530345971500516","lng":"-0.18556594848632812","distance":"194","postalCode":"W9 1NJ","cc":"GB","city":"London","state":"Greater London","country":"United Kingdom"},"categories":[{"id":"4bf58dd8d48988d11b941735","name":"Pub","pluralName":"Pubs","shortName":"Pub","icon":{"prefix":"https:\/\/ss1.4sqi.net\/img\/categories_v2\/nightlife\/pub_","suffix":".png"},"primary":"true"}],"verified":"false","restricted":"true","stats":{"checkinsCount":"885","usersCount":"433","tipCount":"21"},"url":"http:\/\/www.theelgin.com","specials":{"count":"0"},"hereNow":{"count":"0"},"referralId":"v-1392477970"},{"id":"4d790754ece5a1cd66bf9ea4","name":"Vineyard Pharmacy","contact":{"phone":"+442076272947","formattedPhone":"+44 20 7627 2947"},"location":{"address":"241","crossStreet":"Elgin Avenue","lat":"51.53016736459745","lng":"-0.1858280621139844","distance":"168","postalCode":"w9 1NJ","cc":"GB","city":"London","state":"Greater London","country":"United Kingdom"},"categories":[{"id":"4bf58dd8d48988d10f951735","name":"Drugstore \/ Pharmacy","pluralName":"Drugstores \/ Pharmacies","shortName":"Pharmacy","icon":{"prefix":"https:\/\/ss1.4sqi.net\/img\/categories_v2\/shops\/pharmacy_","suffix":".png"},"primary":"true"}],"verified":"false","restricted":"true","stats":{"checkinsCount":"23","usersCount":"3","tipCount":"0"},"specials":{"count":"0"},"hereNow":{"count":"1","groups":[{"type":"others","name":"Other people here","count":"1"}]},"referralId":"v-1392477970"},{"id":"4b7c7460f964a52083942fe3","name":"Le Cochonnet","location":{"address":"Lauderdale Road","crossStreet":"Elgin Avenue","lat":"51.527677","lng":"-0.190109","distance":"240","postalCode":"W9 1LU","cc":"GB","city":"London","state":"Greater London","country":"United Kingdom"},"categories":[{"id":"4bf58dd8d48988d1ca941735","name":"Pizza Place","pluralName":"Pizza Places","shortName":"Pizza","icon":{"prefix":"https:\/\/ss1.4sqi.net\/img\/categories_v2\/food\/pizza_","suffix":".png"},"primary":"true"}],"verified":"false","restricted":"true","stats":{"checkinsCount":"499","usersCount":"270","tipCount":"15"},"menu":{"type":"Menu","label":"Menu","anchor":"View Menu","url":"https:\/\/foursquare.com\/v\/le-cochonnet\/4b7c7460f964a52083942fe3\/menu","mobileUrl":"https:\/\/foursquare.com\/v\/4b7c7460f964a52083942fe3\/device_menu"},"specials":{"count":"0"},"hereNow":{"count":"0"},"referralId":"v-1392477970"},{"id":"4af75b73f964a520b50822e3","name":"Thai Rice","location":{"address":"239 Elgin Avenue","lat":"51.530032","lng":"-0.185811","distance":"160","postalCode":"W9 1NJ","cc":"GB","city":"London","state":"Greater London","country":"United Kingdom"},"categories":[{"id":"4bf58dd8d48988d149941735","name":"Thai Restaurant","pluralName":"Thai Restaurants","shortName":"Thai","icon":{"prefix":"https:\/\/ss1.4sqi.net\/img\/categories_v2\/food\/thai_","suffix":".png"},"primary":"true"}],"verified":"false","restricted":"true","stats":{"checkinsCount":"431","usersCount":"237","tipCount":"11"},"menu":{"type":"Menu","label":"Menu","anchor":"View Menu","url":"https:\/\/foursquare.com\/v\/thai-rice\/4af75b73f964a520b50822e3\/menu","mobileUrl":"https:\/\/foursquare.com\/v\/4af75b73f964a520b50822e3\/device_menu"},"specials":{"count":"0"},"hereNow":{"count":"0"},"referralId":"v-1392477970"},{"id":"4bee84853686c9b6a194246e","name":"Roma's","location":{"address":"302 Elgin Avenue","lat":"51.53020393192741","lng":"-0.1853175029784592","distance":"200","cc":"GB","city":"Paddington","state":"Greater London","country":"United Kingdom"},"categories":[{"id":"4bf58dd8d48988d16d941735","name":"Caf\u00e9","pluralName":"Caf\u00e9s","shortName":"Caf\u00e9","icon":{"prefix":"https:\/\/ss1.4sqi.net\/img\/categories_v2\/food\/cafe_","suffix":".png"},"primary":"true"}],"verified":"false","restricted":"true","stats":{"checkinsCount":"234","usersCount":"131","tipCount":"10"},"specials":{"count":"0"},"hereNow":{"count":"0"},"referralId":"v-1392477970"},{"id":"522c8920498e324774d0a5d0","name":"Model's Apartement","location":{"address":"254a Elgin Avenue","lat":"51.529095","lng":"-0.187498","distance":"30","cc":"GB","city":"London","state":"Greater London","country":"United Kingdom"},"categories":[{"id":"4d954b06a243a5684965b473","name":"Residential Building (Apartment \/ Condo)","pluralName":"Residential Buildings (Apartments \/ Condos)","shortName":"Residential","icon":{"prefix":"https:\/\/ss1.4sqi.net\/img\/categories_v2\/building\/apartment_","suffix":".png"},"primary":"true"}],"verified":"false","restricted":"true","stats":{"checkinsCount":"9","usersCount":"1","tipCount":"0"},"specials":{"count":"0"},"hereNow":{"count":"0"},"referralId":"v-1392477970"},{"id":"4f60b1d9e4b066d8c54f0644","name":"Lauderdale Mansions","location":{"address":"Lauderdale Road, Paddington","lat":"51.52744129786139","lng":"-0.18755388522825245","distance":"206","cc":"GB","city":"London","state":"Greater London","country":"United Kingdom"},"categories":[{"id":"4d954b06a243a5684965b473","name":"Residential Building (Apartment \/ Condo)","pluralName":"Residential Buildings (Apartments \/ Condos)","shortName":"Residential","icon":{"prefix":"https:\/\/ss1.4sqi.net\/img\/categories_v2\/building\/apartment_","suffix":".png"},"primary":"true"}],"verified":"false","restricted":"true","stats":{"checkinsCount":"85","usersCount":"15","tipCount":"0"},"specials":{"count":"0"},"hereNow":{"count":"0"},"referralId":"v-1392477970"},{"id":"52dbf113498eba3f0f8a2dde","name":"Sambal Shiok @ Lauderdale Market","contact":{"twitter":"sambalshiok"},"location":{"address":"Lauderdale Rd","crossStreet":"Elgin Av","lat":"51.52978219582036","lng":"-0.18595250139161135","distance":"139","postalCode":"W9 1LU","cc":"GB","city":"London","state":"Greater London","country":"United Kingdom"},"categories":[{"id":"4bf58dd8d48988d156941735","name":"Malaysian Restaurant","pluralName":"Malaysian Restaurants","shortName":"Malaysian","icon":{"prefix":"https:\/\/ss1.4sqi.net\/img\/categories_v2\/food\/default_","suffix":".png"},"primary":"true"}],"verified":"false","restricted":"true","stats":{"checkinsCount":"1","usersCount":"1","tipCount":"0"},"specials":{"count":"0"},"hereNow":{"count":"0"},"referralId":"v-1392477970"},{"id":"4d217dff5acaa35dbf9bd035","name":"Ashworth Mansions","location":{"address":"Elgin Avenue","lat":"51.52964997437192","lng":"-0.18836220994787117","distance":"55","cc":"GB","country":"United Kingdom"},"categories":[{"id":"4d954b06a243a5684965b473","name":"Residential Building (Apartment \/ Condo)","pluralName":"Residential Buildings (Apartments \/ Condos)","shortName":"Residential","icon":{"prefix":"https:\/\/ss1.4sqi.net\/img\/categories_v2\/building\/apartment_","suffix":".png"},"primary":"true"}],"verified":"false","restricted":"true","stats":{"checkinsCount":"153","usersCount":"18","tipCount":"2"},"specials":{"count":"0"},"hereNow":{"count":"0"},"referralId":"v-1392477970"},{"id":"4c33580b16adc9285470c39c","name":"The Randolph Surgery","location":{"address":"Randolph Avenue","crossStreet":"Elgin Avenue","lat":"51.53003208965015","lng":"-0.18601646548483042","distance":"148","postalCode":"W9","cc":"GB","city":"Paddington","state":"Greater London","country":"United Kingdom"},"categories":[{"id":"4bf58dd8d48988d177941735","name":"Doctor's Office","pluralName":"Doctor's Offices","shortName":"Doctor's Office","icon":{"prefix":"https:\/\/ss1.4sqi.net\/img\/categories_v2\/building\/medical_doctorsoffice_","suffix":".png"},"primary":"true"}],"verified":"false","restricted":"true","stats":{"checkinsCount":"44","usersCount":"7","tipCount":"0"},"specials":{"count":"0"},"hereNow":{"count":"0"},"referralId":"v-1392477970"},{"id":"526286e5498edeb98b152dd3","name":"The Dry Goods Store","location":{"address":"Lauderdale Road","lat":"51.527595","lng":"-0.189401","distance":"218","cc":"GB","country":"United Kingdom"},"categories":[{"id":"4bf58dd8d48988d16d941735","name":"Caf\u00e9","pluralName":"Caf\u00e9s","shortName":"Caf\u00e9","icon":{"prefix":"https:\/\/ss1.4sqi.net\/img\/categories_v2\/food\/cafe_","suffix":".png"},"primary":"true"}],"verified":"false","restricted":"true","stats":{"checkinsCount":"7","usersCount":"3","tipCount":"0"},"specials":{"count":"0"},"hereNow":{"count":"0"},"referralId":"v-1392477970"},{"id":"4b692b30f964a520d89a2be3","name":"Ammunition","location":{"address":"264 Elgin Avenue","lat":"51.529599","lng":"-0.18713","distance":"57","postalCode":"W91JR","cc":"GB","city":"London","state":"Greater London","country":"United Kingdom"},"verified":"false","restricted":"true","stats":{"checkinsCount":"44","usersCount":"1","tipCount":"0"},"specials":{"count":"0"},"hereNow":{"count":"0"},"referralId":"v-1392477970"},{"id":"5283d590498e42fdba23f8ba","name":"Tutun Specialist Tobacconist","location":{"address":"8 Lauderdale Parade","crossStreet":"Lauddale Road","lat":"51.52755806356081","lng":"-0.1892977688755386","distance":"218","postalCode":"W9 1LU","cc":"GB","city":"London","state":"Greater London","country":"United Kingdom"},"categories":[{"id":"4bf58dd8d48988d119941735","name":"Hookah Bar","pluralName":"Hookah Bars","shortName":"Hookah Bar","icon":{"prefix":"https:\/\/ss1.4sqi.net\/img\/categories_v2\/nightlife\/hookahbar_","suffix":".png"},"primary":"true"}],"verified":"false","restricted":"true","stats":{"checkinsCount":"6","usersCount":"2","tipCount":"0"},"specials":{"count":"0"},"hereNow":{"count":"0"},"referralId":"v-1392477970"},{"id":"4b9d4fbdf964a5208fa236e3","name":"Soloman","location":{"address":"247 Elgin Avenue","lat":"51.53003208965015","lng":"-0.18547731688302202","distance":"181","postalCode":"W9","cc":"GB","city":"Paddington","state":"Greater London","country":"United Kingdom"},"categories":[{"id":"4bf58dd8d48988d118951735","name":"Grocery Store","pluralName":"Grocery Stores","shortName":"Grocery Store","icon":{"prefix":"https:\/\/ss1.4sqi.net\/img\/categories_v2\/shops\/food_grocery_","suffix":".png"},"primary":"true"}],"verified":"false","restricted":"true","stats":{"checkinsCount":"65","usersCount":"21","tipCount":"2"},"specials":{"count":"0"},"hereNow":{"count":"0"},"referralId":"v-1392477970"},{"id":"4c08bb79ffb8c9b65cb86861","name":"Maida Vale Medical Centre","location":{"lat":"51.528728","lng":"-0.18817080000000003","distance":"67","cc":"GB","country":"United Kingdom"},"categories":[{"id":"4bf58dd8d48988d177941735","name":"Doctor's Office","pluralName":"Doctor's Offices","shortName":"Doctor's Office","icon":{"prefix":"https:\/\/ss1.4sqi.net\/img\/categories_v2\/building\/medical_doctorsoffice_","suffix":".png"},"primary":"true"}],"verified":"false","restricted":"true","stats":{"checkinsCount":"43","usersCount":"16","tipCount":"0"},"specials":{"count":"0"},"hereNow":{"count":"0"},"referralId":"v-1392477970"},{"id":"4bcaf7860687ef3b40d3dccc","name":"Park cafe","location":{"address":"Randolph avenue","lat":"51.530481","lng":"-0.19028","distance":"216","postalCode":"W91PD","cc":"GB","city":"City of Westminster","state":"Greater London","country":"United Kingdom"},"categories":[{"id":"4bf58dd8d48988d16d941735","name":"Caf\u00e9","pluralName":"Caf\u00e9s","shortName":"Caf\u00e9","icon":{"prefix":"https:\/\/ss1.4sqi.net\/img\/categories_v2\/food\/cafe_","suffix":".png"},"primary":"true"}],"verified":"false","restricted":"true","stats":{"checkinsCount":"3","usersCount":"3","tipCount":"0"},"specials":{"count":"0"},"hereNow":{"count":"0"},"referralId":"v-1392477970"},{"id":"52dbd6ab498ed2f61073678d","name":"Lauderdale Market","contact":{"twitter":"lauderdale_mrkt"},"location":{"address":"Lauderdale Road","lat":"51.527809","lng":"-0.189683","distance":"209","postalCode":"W9 1LU","cc":"GB","country":"United Kingdom"},"categories":[{"id":"4bf58dd8d48988d1cb941735","name":"Food Truck","pluralName":"Food Trucks","shortName":"Food Truck","icon":{"prefix":"https:\/\/ss1.4sqi.net\/img\/categories_v2\/food\/streetfood_","suffix":".png"},"primary":"true"}],"verified":"false","restricted":"true","stats":{"checkinsCount":"1","usersCount":"1","tipCount":"0"},"specials":{"count":"0"},"hereNow":{"count":"0"},"referralId":"v-1392477970"},{"id":"51fe5f7d498e2a8f6df0d1bc","name":"Petit Caf\u00e9","location":{"address":"81 Elgin Ave","crossStreet":"Castellain Rd","lat":"51.52769514211176","lng":"-0.19062226348055897","distance":"263","cc":"GB","city":"London","state":"Greater London","country":"United Kingdom"},"categories":[{"id":"4bf58dd8d48988d1e0931735","name":"Coffee Shop","pluralName":"Coffee Shops","shortName":"Coffee Shop","icon":{"prefix":"https:\/\/ss1.4sqi.net\/img\/categories_v2\/food\/coffeeshop_","suffix":".png"},"primary":"true"}],"verified":"false","restricted":"true","stats":{"checkinsCount":"32","usersCount":"24","tipCount":"6"},"specials":{"count":"0"},"hereNow":{"count":"0"},"referralId":"v-1392477970"},{"id":"4dabef82fa8cc7649757b510","name":"Elgin Dental Care","location":{"lat":"51.529815","lng":"-0.186127","distance":"130","cc":"GB","city":"Paddington","state":"Greater London","country":"United Kingdom"},"categories":[{"id":"4bf58dd8d48988d178941735","name":"Dentist's Office","pluralName":"Dentist's Offices","shortName":"Dentist's Office","icon":{"prefix":"https:\/\/ss1.4sqi.net\/img\/categories_v2\/building\/medical_dentist_","suffix":".png"},"primary":"true"}],"verified":"false","restricted":"true","stats":{"checkinsCount":"25","usersCount":"14","tipCount":"0"},"specials":{"count":"0"},"hereNow":{"count":"0"},"referralId":"v-1392477970"},{"id":"52a62648498ebf24c4d6af51","name":"Better Gym","location":{"address":"Paddington Recreational Ground","crossStreet":"Randolph Avenue","lat":"51.53079099267828","lng":"-0.19083983872015498","distance":"268","postalCode":"W9 1PD","cc":"GB","city":"London","state":"Greater London","country":"United Kingdom"},"categories":[{"id":"4bf58dd8d48988d176941735","name":"Gym","pluralName":"Gyms","shortName":"Gym","icon":{"prefix":"https:\/\/ss1.4sqi.net\/img\/categories_v2\/building\/gym_","suffix":".png"},"primary":"true"}],"verified":"false","restricted":"true","stats":{"checkinsCount":"9","usersCount":"1","tipCount":"0"},"specials":{"count":"0"},"hereNow":{"count":"0"},"referralId":"v-1392477970"},{"id":"4db440a2f7b121c29f479c46","name":"Wine Rack","location":{"lat":"51.529849287846126","lng":"-0.1860802247165518","distance":"134","cc":"GB","city":"Paddington","state":"Greater London","country":"United Kingdom"},"categories":[{"id":"4bf58dd8d48988d119951735","name":"Wine Shop","pluralName":"Wine Shops","shortName":"Wine Shop","icon":{"prefix":"https:\/\/ss1.4sqi.net\/img\/categories_v2\/shops\/food_wineshop_","suffix":".png"},"primary":"true"}],"verified":"false","restricted":"true","stats":{"checkinsCount":"31","usersCount":"21","tipCount":"0"},"specials":{"count":"0"},"hereNow":{"count":"0"},"referralId":"v-1392477970"},{"id":"508be837e4b0f38c00b5d48d","name":"The Marshmallowists","contact":{"twitter":"marshmallowists"},"location":{"address":"171 Portobello Road","lat":"51.528813","lng":"-0.184659","distance":"224","postalCode":"W11 2DY","cc":"GB","city":"London","state":"Greater London","country":"United Kingdom"},"categories":[{"id":"4bf58dd8d48988d1d0941735","name":"Dessert Shop","pluralName":"Dessert Shops","shortName":"Desserts","icon":{"prefix":"https:\/\/ss1.4sqi.net\/img\/categories_v2\/food\/dessert_","suffix":".png"},"primary":"true"}],"verified":"false","restricted":"true","stats":{"checkinsCount":"2","usersCount":"2","tipCount":"1"},"specials":{"count":"0"},"hereNow":{"count":"0"},"referralId":"v-1392477970"},{"id":"4c6be69e96eaa5936b6023df","name":"Barclays","location":{"address":"318 Elgin Ave","lat":"51.530372669130536","lng":"-0.1847076416015625","distance":"245","postalCode":"W9 1","cc":"GB","city":"Paddington","state":"Greater London","country":"United Kingdom"},"categories":[{"id":"4bf58dd8d48988d10a951735","name":"Bank","pluralName":"Banks","shortName":"Bank","icon":{"prefix":"https:\/\/ss1.4sqi.net\/img\/categories_v2\/shops\/financial_","suffix":".png"},"primary":"true"}],"verified":"false","restricted":"true","stats":{"checkinsCount":"86","usersCount":"31","tipCount":"0"},"specials":{"count":"0"},"hereNow":{"count":"0"},"referralId":"v-1392477970"},{"id":"4cb29b5cef1b3704969b4c00","name":"Morshead Mansions","location":{"lat":"51.52839666832986","lng":"-0.19180503382605593","distance":"294","cc":"GB","country":"United Kingdom"},"verified":"false","restricted":"true","stats":{"checkinsCount":"26","usersCount":"5","tipCount":"0"},"specials":{"count":"0"},"hereNow":{"count":"0"},"referralId":"v-1392477970"},{"id":"4c49fb14c668e21e69d2fcf7","name":"New Taxin Thai","contact":{"phone":"+442072863912","formattedPhone":"+44 20 7286 3912"},"location":{"address":"79 Castellain Road","lat":"51.527577","lng":"-0.190583","distance":"270","postalCode":"W9 1EU","cc":"GB","city":"London","state":"Greater London","country":"United Kingdom"},"categories":[{"id":"4bf58dd8d48988d149941735","name":"Thai Restaurant","pluralName":"Thai Restaurants","shortName":"Thai","icon":{"prefix":"https:\/\/ss1.4sqi.net\/img\/categories_v2\/food\/thai_","suffix":".png"},"primary":"true"}],"verified":"false","restricted":"true","stats":{"checkinsCount":"56","usersCount":"38","tipCount":"4"},"menu":{"type":"Menu","label":"Menu","anchor":"View Menu","url":"https:\/\/foursquare.com\/v\/new-taxin-thai\/4c49fb14c668e21e69d2fcf7\/menu","mobileUrl":"https:\/\/foursquare.com\/v\/4c49fb14c668e21e69d2fcf7\/device_menu"},"specials":{"count":"0"},"hereNow":{"count":"0"},"referralId":"v-1392477970"},{"id":"501547a4e4b0748a79cf5595","name":"iBUKi Sushi Bar","contact":{"phone":"+442072861496","formattedPhone":"+44 20 7286 1496"},"location":{"address":"Lauderdale Parade, Lauderdale Road","lat":"51.52753362449945","lng":"-0.18917487523939155","distance":"217","postalCode":"W9","cc":"GB","city":"London","state":"Greater London","country":"United Kingdom"},"categories":[{"id":"4bf58dd8d48988d111941735","name":"Japanese Restaurant","pluralName":"Japanese Restaurants","shortName":"Japanese","icon":{"prefix":"https:\/\/ss1.4sqi.net\/img\/categories_v2\/food\/japanese_","suffix":".png"},"primary":"true"}],"verified":"false","restricted":"true","stats":{"checkinsCount":"48","usersCount":"26","tipCount":"2"},"specials":{"count":"0"},"hereNow":{"count":"0"},"referralId":"v-1392477970"},{"id":"4f64703be4b05c1d59498840","name":"Castellain Mansions","location":{"address":"Castellain Rd.","lat":"51.52682549007454","lng":"-0.18863714757306516","distance":"280","postalCode":"W9 1HA","cc":"GB","city":"London","state":"Greater London","country":"United Kingdom"},"categories":[{"id":"4d954b06a243a5684965b473","name":"Residential Building (Apartment \/ Condo)","pluralName":"Residential Buildings (Apartments \/ Condos)","shortName":"Residential","icon":{"prefix":"https:\/\/ss1.4sqi.net\/img\/categories_v2\/building\/apartment_","suffix":".png"},"primary":"true"}],"verified":"false","restricted":"true","stats":{"checkinsCount":"229","usersCount":"36","tipCount":"0"},"specials":{"count":"0"},"hereNow":{"count":"0"},"referralId":"v-1392477970"}],"confident":"true"}}