{"meta":{"code":"200"},"response":{"venues":[{"id":"4b3a0c96f964a5208d6025e3","name":"RBS Aldgate Union","location":{"address":"10 Whitechapel High St","lat":"51.51482857969948","lng":"-0.07310638669938993","distance":"63","postalCode":"E1 8DX","cc":"GB","city":"London","state":"Greater London","country":"United Kingdom"},"categories":[{"id":"4bf58dd8d48988d124941735","name":"Office","pluralName":"Offices","shortName":"Office","icon":{"prefix":"https:\/\/ss1.4sqi.net\/img\/categories_v2\/building\/default_","suffix":".png"},"primary":"true"}],"verified":"false","restricted":"true","stats":{"checkinsCount":"1537","usersCount":"170","tipCount":"2"},"specials":{"count":"0"},"hereNow":{"count":"0"},"referralId":"v-1392478021"},{"id":"4def5c477d8bb02cbef78038","name":"Braham Street Park","location":{"address":"Braham St.","lat":"51.514204388731194","lng":"-0.07252693176269531","distance":"21","postalCode":"E1","cc":"GB","city":"London","state":"Greater London","country":"United Kingdom"},"categories":[{"id":"4bf58dd8d48988d163941735","name":"Park","pluralName":"Parks","shortName":"Park","icon":{"prefix":"https:\/\/ss1.4sqi.net\/img\/categories_v2\/parks_outdoors\/park_","suffix":".png"},"primary":"true"}],"verified":"false","restricted":"true","stats":{"checkinsCount":"36","usersCount":"12","tipCount":"0"},"specials":{"count":"0"},"hereNow":{"count":"0"},"referralId":"v-1392478021"},{"id":"4dbfe04693a0b5a1561e7785","name":"Costa Coffee","contact":{"phone":"+442073776202","formattedPhone":"+44 20 7377 6202","twitter":"costacoffee"},"location":{"address":"126 Whitechapel High St","lat":"51.51487467203585","lng":"-0.07268490719709506","distance":"65","postalCode":"E1 7PU","cc":"GB","city":"London","state":"Greater London","country":"United Kingdom"},"categories":[{"id":"4bf58dd8d48988d1e0931735","name":"Coffee Shop","pluralName":"Coffee Shops","shortName":"Coffee Shop","icon":{"prefix":"https:\/\/ss1.4sqi.net\/img\/categories_v2\/food\/coffeeshop_","suffix":".png"},"primary":"true"}],"verified":"false","restricted":"true","stats":{"checkinsCount":"709","usersCount":"325","tipCount":"9"},"url":"http:\/\/www.costa.co.uk","specials":{"count":"0"},"hereNow":{"count":"0"},"referralId":"v-1392478021"},{"id":"4e9d6244754ae3862f1c2910","name":"Pret A Manger","contact":{"phone":"+442079325456","formattedPhone":"+44 20 7932 5456","twitter":"pret","facebook":"162638680417951"},"location":{"address":"21 Mansell St","lat":"51.51369695095334","lng":"-0.0732564926147461","distance":"73","postalCode":"E1 8DA","cc":"GB","city":"London","state":"Greater London","country":"United Kingdom"},"categories":[{"id":"4bf58dd8d48988d1c5941735","name":"Sandwich Place","pluralName":"Sandwich Places","shortName":"Sandwiches","icon":{"prefix":"https:\/\/ss1.4sqi.net\/img\/categories_v2\/food\/sandwiches_","suffix":".png"},"primary":"true"}],"verified":"true","restricted":"true","stats":{"checkinsCount":"760","usersCount":"288","tipCount":"2"},"url":"http:\/\/www.pret.com","specials":{"count":"0"},"hereNow":{"count":"0"},"storeId":"294","referralId":"v-1392478021"},{"id":"4c81240e6cc2b713aa2b179b","name":"TfL Bus 25","contact":{"twitter":"tflbusalerts"},"location":{"address":"Moving Target!","lat":"51.514725174257","lng":"-0.07321357727050781","distance":"56","cc":"GB","city":"London","state":"Greater London","country":"United Kingdom"},"categories":[{"id":"4bf58dd8d48988d12b951735","name":"Bus Line","pluralName":"Bus Lines","shortName":"Bus","icon":{"prefix":"https:\/\/ss1.4sqi.net\/img\/categories_v2\/travel\/busstation_","suffix":".png"},"primary":"true"}],"verified":"false","restricted":"true","stats":{"checkinsCount":"685","usersCount":"244","tipCount":"13"},"url":"http:\/\/tfl.gov.uk","specials":{"count":"0"},"hereNow":{"count":"0"},"referralId":"v-1392478021"},{"id":"5281e31c11d2364742a8cb79","name":"Tesco Express","location":{"lat":"51.51491577704832","lng":"-0.07269175321880433","distance":"70","cc":"GB","country":"United Kingdom"},"categories":[{"id":"4bf58dd8d48988d1f9941735","name":"Food & Drink Shop","pluralName":"Food & Drink Shops","shortName":"Food & Drink","icon":{"prefix":"https:\/\/ss1.4sqi.net\/img\/categories_v2\/shops\/foodanddrink_","suffix":".png"},"primary":"true"}],"verified":"false","restricted":"true","stats":{"checkinsCount":"43","usersCount":"18","tipCount":"0"},"specials":{"count":"0"},"hereNow":{"count":"0"},"referralId":"v-1392478021"},{"id":"4c41b299ff711b8d32461205","name":"TfL Bus 15","contact":{"twitter":"tflbusalerts"},"location":{"address":"Moving Target!","lat":"51.514511519376946","lng":"-0.0720977783203125","distance":"54","cc":"GB","city":"London","state":"Greater London","country":"United Kingdom"},"categories":[{"id":"4bf58dd8d48988d12b951735","name":"Bus Line","pluralName":"Bus Lines","shortName":"Bus","icon":{"prefix":"https:\/\/ss1.4sqi.net\/img\/categories_v2\/travel\/busstation_","suffix":".png"},"primary":"true"}],"verified":"false","restricted":"true","stats":{"checkinsCount":"521","usersCount":"192","tipCount":"4"},"url":"http:\/\/tfl.gov.uk","specials":{"count":"0"},"hereNow":{"count":"0"},"referralId":"v-1392478021"},{"id":"5289021111d2bcbf74b14627","name":"Pret A Manger","contact":{"phone":"+447557742317","formattedPhone":"+44 7557 742317"},"location":{"address":"Unit 1, 1 Commercial St","crossStreet":"Whitechapel Rd","lat":"51.51511242117285","lng":"-0.07259130477905273","distance":"92","postalCode":"E1 6BF","cc":"GB","city":"London","state":"Greater London","country":"United Kingdom"},"categories":[{"id":"4bf58dd8d48988d1c5941735","name":"Sandwich Place","pluralName":"Sandwich Places","shortName":"Sandwiches","icon":{"prefix":"https:\/\/ss1.4sqi.net\/img\/categories_v2\/food\/sandwiches_","suffix":".png"},"primary":"true"}],"verified":"false","restricted":"true","stats":{"checkinsCount":"47","usersCount":"22","tipCount":"0"},"specials":{"count":"0"},"hereNow":{"count":"0"},"referralId":"v-1392478021"},{"id":"4cb416f2db32f04d4e20db4d","name":"Maersk House","location":{"address":"Braham St","crossStreet":"Leman Street","lat":"51.514639530091344","lng":"-0.07159836662274276","distance":"92","postalCode":"E1 8EP","cc":"GB","city":"London","state":"Greater London","country":"United Kingdom"},"categories":[{"id":"4bf58dd8d48988d124941735","name":"Office","pluralName":"Offices","shortName":"Office","icon":{"prefix":"https:\/\/ss1.4sqi.net\/img\/categories_v2\/building\/default_","suffix":".png"},"primary":"true"}],"verified":"false","restricted":"true","stats":{"checkinsCount":"410","usersCount":"73","tipCount":"0"},"specials":{"count":"0"},"hereNow":{"count":"0"},"referralId":"v-1392478021"},{"id":"4be5c4342468c92857840043","name":"Aldgate East Station Bus Stop","location":{"address":"Aldgate East Station Bus Stop","lat":"51.51493882813492","lng":"-0.0723123550415039","distance":"79","cc":"GB","city":"London","state":"Greater London","country":"United Kingdom"},"categories":[{"id":"4bf58dd8d48988d12b951735","name":"Bus Line","pluralName":"Bus Lines","shortName":"Bus","icon":{"prefix":"https:\/\/ss1.4sqi.net\/img\/categories_v2\/travel\/busstation_","suffix":".png"},"primary":"true"}],"verified":"false","restricted":"true","stats":{"checkinsCount":"573","usersCount":"287","tipCount":"1"},"specials":{"count":"0"},"hereNow":{"count":"0"},"referralId":"v-1392478021"},{"id":"4d875f88f1e56ea8aaabae8a","name":"Worldpay","location":{"lat":"51.51371906703312","lng":"-0.07347673844755723","distance":"78","cc":"GB","country":"United Kingdom"},"categories":[{"id":"4bf58dd8d48988d124941735","name":"Office","pluralName":"Offices","shortName":"Office","icon":{"prefix":"https:\/\/ss1.4sqi.net\/img\/categories_v2\/building\/default_","suffix":".png"},"primary":"true"}],"verified":"false","restricted":"true","stats":{"checkinsCount":"271","usersCount":"49","tipCount":"1"},"specials":{"count":"0"},"hereNow":{"count":"0"},"referralId":"v-1392478021"},{"id":"51910d33498e8a71955213fe","name":"Sainsbury's Local","contact":{"phone":"+442079411000","formattedPhone":"+44 20 7941 1000"},"location":{"address":"23 Mansell Street","crossStreet":"Alie Street","lat":"51.51347396911025","lng":"-0.07312691045254799","distance":"93","postalCode":"E1 8AA","cc":"GB","city":"London","state":"Greater London","country":"United Kingdom"},"categories":[{"id":"4bf58dd8d48988d118951735","name":"Grocery Store","pluralName":"Grocery Stores","shortName":"Grocery Store","icon":{"prefix":"https:\/\/ss1.4sqi.net\/img\/categories_v2\/shops\/food_grocery_","suffix":".png"},"primary":"true"}],"verified":"false","restricted":"true","stats":{"checkinsCount":"129","usersCount":"24","tipCount":"0"},"url":"http:\/\/www.sainsbury.co.uk","specials":{"count":"0"},"hereNow":{"count":"0"},"referralId":"v-1392478021"},{"id":"4f292c5ee4b01c8767fd6525","name":"RBS 1727","location":{"lat":"51.51453595800432","lng":"-0.07333565827240279","distance":"46","cc":"GB","city":"London","state":"Greater London","country":"United Kingdom"},"categories":[{"id":"4bf58dd8d48988d16d941735","name":"Caf\u00e9","pluralName":"Caf\u00e9s","shortName":"Caf\u00e9","icon":{"prefix":"https:\/\/ss1.4sqi.net\/img\/categories_v2\/food\/cafe_","suffix":".png"},"primary":"true"}],"verified":"false","restricted":"true","stats":{"checkinsCount":"150","usersCount":"13","tipCount":"1"},"specials":{"count":"0"},"hereNow":{"count":"0"},"referralId":"v-1392478021"},{"id":"4b658b99f964a520ecf32ae3","name":"Aldgate Exchange","contact":{"phone":"+442073771383","formattedPhone":"+44 20 7377 1383"},"location":{"address":"133-137 Whitechapel High St.","crossStreet":"at Goulston St.","lat":"51.514752","lng":"-0.073311","distance":"62","postalCode":"E1 7PE","cc":"GB","city":"London","state":"Greater London","country":"United Kingdom"},"categories":[{"id":"4bf58dd8d48988d11b941735","name":"Pub","pluralName":"Pubs","shortName":"Pub","icon":{"prefix":"https:\/\/ss1.4sqi.net\/img\/categories_v2\/nightlife\/pub_","suffix":".png"},"primary":"true"}],"verified":"false","restricted":"true","stats":{"checkinsCount":"370","usersCount":"281","tipCount":"6"},"specials":{"count":"0"},"hereNow":{"count":"0"},"referralId":"v-1392478021"},{"id":"4fa258bae4b08536fe5d3559","name":"London Metropolitan University - Calcutta House","location":{"address":"Calcutta House, Old Castle St, London, Greater London E1 7NT","lat":"51.51544465494438","lng":"-0.07403830871420448","distance":"154","postalCode":"E1","cc":"GB","city":"London","state":"Greater London","country":"United Kingdom"},"categories":[{"id":"4bf58dd8d48988d1ae941735","name":"University","pluralName":"Universities","shortName":"University","icon":{"prefix":"https:\/\/ss1.4sqi.net\/img\/categories_v2\/education\/default_","suffix":".png"},"primary":"true"}],"verified":"false","restricted":"true","stats":{"checkinsCount":"469","usersCount":"103","tipCount":"3"},"specials":{"count":"0"},"hereNow":{"count":"0"},"referralId":"v-1392478021"},{"id":"4ac518bef964a5201ca320e3","name":"The Hoop and Grapes","contact":{"phone":"+442074814583","formattedPhone":"+44 20 7481 4583"},"location":{"address":"47 Aldgate High St.","crossStreet":"at Mansell St.","lat":"51.51418435839977","lng":"-0.07418990135192871","distance":"96","postalCode":"EC3N 1AL","cc":"GB","city":"London","state":"Greater London","country":"United Kingdom"},"categories":[{"id":"4bf58dd8d48988d11b941735","name":"Pub","pluralName":"Pubs","shortName":"Pub","icon":{"prefix":"https:\/\/ss1.4sqi.net\/img\/categories_v2\/nightlife\/pub_","suffix":".png"},"primary":"true"}],"verified":"false","restricted":"true","stats":{"checkinsCount":"649","usersCount":"376","tipCount":"8"},"url":"http:\/\/www.nicholsonspubs.co.uk\/thehoopandgrapesaldgatelondon\/","specials":{"count":"0"},"hereNow":{"count":"0"},"referralId":"v-1392478021"},{"id":"4c8d05f3c37a6dcbcc4dfc7a","name":"TFL Barclays Cycle Hire","location":{"address":"Mansell St","crossStreet":"Braham Street","lat":"51.51459693362364","lng":"-0.07389826857108904","distance":"83","postalCode":"E1 8EP","cc":"GB","city":"London","state":"Greater London","country":"United Kingdom"},"categories":[{"id":"4e4c9077bd41f78e849722f9","name":"Bike Rental \/ Bike Share","pluralName":"Bike Rentals \/ Bike Shares","shortName":"Bike","icon":{"prefix":"https:\/\/ss1.4sqi.net\/img\/categories_v2\/shops\/bikeshop_","suffix":".png"},"primary":"true"}],"verified":"false","restricted":"true","stats":{"checkinsCount":"12","usersCount":"4","tipCount":"0"},"specials":{"count":"0"},"hereNow":{"count":"0"},"referralId":"v-1392478021"},{"id":"4bfadb48d0382d7febe2c80a","name":"Duke Of Somerset","contact":{"phone":"+448714329005","formattedPhone":"+44 871 432 9005"},"location":{"address":"15 Little Somerset St.","crossStreet":"Mansell St.","lat":"51.51357676749379","lng":"-0.07372856140136719","distance":"101","postalCode":"E1 8AH","cc":"GB","city":"London","state":"Greater London","country":"United Kingdom"},"categories":[{"id":"4bf58dd8d48988d11b941735","name":"Pub","pluralName":"Pubs","shortName":"Pub","icon":{"prefix":"https:\/\/ss1.4sqi.net\/img\/categories_v2\/nightlife\/pub_","suffix":".png"},"primary":"true"}],"verified":"false","restricted":"true","stats":{"checkinsCount":"367","usersCount":"144","tipCount":"2"},"specials":{"count":"0"},"hereNow":{"count":"0"},"referralId":"v-1392478021"},{"id":"52306786498e8dc394faa07a","name":"LAX","location":{"address":"St Botolph's Building","lat":"51.5145075467654","lng":"-0.07486664859938645","distance":"145","cc":"GB","country":"United Kingdom"},"categories":[{"id":"4bf58dd8d48988d176941735","name":"Gym","pluralName":"Gyms","shortName":"Gym","icon":{"prefix":"https:\/\/ss1.4sqi.net\/img\/categories_v2\/building\/gym_","suffix":".png"},"primary":"true"}],"verified":"false","restricted":"true","stats":{"checkinsCount":"44","usersCount":"18","tipCount":"0"},"specials":{"count":"0"},"hereNow":{"count":"0"},"referralId":"v-1392478021"},{"id":"4bc35a8f2a89ef3bb7e4f488","name":"The White Swan - Shepherd Neame","contact":{"phone":"+442077020448","formattedPhone":"+44 20 7702 0448","facebook":"8029823489"},"location":{"address":"21 - 23 Alie Street","lat":"51.513613490251196","lng":"-0.07173031568527222","distance":"105","postalCode":"E1 8DE","cc":"GB","city":"Aldgate East","state":"Greater London","country":"United Kingdom"},"categories":[{"id":"4bf58dd8d48988d11b941735","name":"Pub","pluralName":"Pubs","shortName":"Pub","icon":{"prefix":"https:\/\/ss1.4sqi.net\/img\/categories_v2\/nightlife\/pub_","suffix":".png"},"primary":"true"}],"verified":"true","restricted":"true","stats":{"checkinsCount":"247","usersCount":"97","tipCount":"2"},"url":"http:\/\/www.whiteswanaldgate.co.uk","menu":{"type":"Menu","label":"Menu","anchor":"View Menu","url":"https:\/\/foursquare.com\/v\/the-white-swan--shepherd-neame\/4bc35a8f2a89ef3bb7e4f488\/menu","mobileUrl":"https:\/\/foursquare.com\/v\/4bc35a8f2a89ef3bb7e4f488\/device_menu"},"specials":{"count":"0"},"hereNow":{"count":"0"},"storeId":"","referralId":"v-1392478021"},{"id":"4f32e88de4b0beffef8e7df6","name":"Royal Kitchen","contact":{"phone":"+442074881601","formattedPhone":"+44 20 7488 1601"},"location":{"address":"54 Aldgate High St","lat":"51.51413498251279","lng":"-0.07424729503387113","distance":"101","postalCode":"EC3N 1AL","cc":"GB","city":"London","state":"Greater London","country":"United Kingdom"},"categories":[{"id":"4bf58dd8d48988d16c941735","name":"Burger Joint","pluralName":"Burger Joints","shortName":"Burgers","icon":{"prefix":"https:\/\/ss1.4sqi.net\/img\/categories_v2\/food\/burger_","suffix":".png"},"primary":"true"}],"verified":"false","restricted":"true","stats":{"checkinsCount":"45","usersCount":"29","tipCount":"1"},"specials":{"count":"0"},"hereNow":{"count":"0"},"referralId":"v-1392478021"},{"id":"4bbf99ed461576b0cad57832","name":"The Dispensary","location":{"address":"19a Leman St","lat":"51.514039324978846","lng":"-0.07079916456402471","distance":"141","postalCode":"E1 8EN","cc":"GB","city":"Poplar","state":"Greater London","country":"United Kingdom"},"categories":[{"id":"4bf58dd8d48988d116941735","name":"Bar","pluralName":"Bars","shortName":"Bar","icon":{"prefix":"https:\/\/ss1.4sqi.net\/img\/categories_v2\/nightlife\/bar_","suffix":".png"},"primary":"true"}],"verified":"false","restricted":"true","stats":{"checkinsCount":"309","usersCount":"193","tipCount":"2"},"url":"http:\/\/www.thedispensarylondon.co.uk","menu":{"type":"Menu","label":"Menu","anchor":"View Menu","url":"https:\/\/foursquare.com\/v\/the-dispensary\/4bbf99ed461576b0cad57832\/menu","mobileUrl":"https:\/\/foursquare.com\/v\/4bbf99ed461576b0cad57832\/device_menu"},"specials":{"count":"0"},"hereNow":{"count":"0"},"referralId":"v-1392478021"},{"id":"4f950adee4b04c0ca0356b80","name":"The Knowledge Academy","location":{"address":"32 Leman St, London Borough of Tower Hamlets, London E1","lat":"51.51412063312736","lng":"-0.07093132242328587","distance":"131","cc":"GB","country":"United Kingdom"},"categories":[{"id":"4bf58dd8d48988d1a8941735","name":"General College & University","pluralName":"General Colleges & Universities","shortName":"Education","icon":{"prefix":"https:\/\/ss1.4sqi.net\/img\/categories_v2\/education\/other_","suffix":".png"},"primary":"true"}],"verified":"false","restricted":"true","stats":{"checkinsCount":"114","usersCount":"44","tipCount":"2"},"specials":{"count":"0"},"hereNow":{"count":"0"},"referralId":"v-1392478021"},{"id":"4bfa3509508c0f4745de3f31","name":"1 Alie St","location":{"lat":"51.513469937485795","lng":"-0.07295608520507812","distance":"91","cc":"GB","country":"United Kingdom"},"categories":[{"id":"4bf58dd8d48988d130941735","name":"Building","pluralName":"Buildings","shortName":"Building","icon":{"prefix":"https:\/\/ss1.4sqi.net\/img\/categories_v2\/building\/default_","suffix":".png"},"primary":"true"}],"verified":"false","restricted":"true","stats":{"checkinsCount":"459","usersCount":"40","tipCount":"0"},"specials":{"count":"0"},"hereNow":{"count":"0"},"referralId":"v-1392478021"},{"id":"4b5f3343f964a520d8ac29e3","name":"Still & Star","contact":{"phone":"+442077022899","formattedPhone":"+44 20 7702 2899"},"location":{"address":"1 Little Somerset St","lat":"51.513809","lng":"-0.074717","distance":"142","postalCode":"E1 8AH","cc":"GB","city":"London","state":"Greater London","country":"United Kingdom"},"categories":[{"id":"4bf58dd8d48988d11b941735","name":"Pub","pluralName":"Pubs","shortName":"Pub","icon":{"prefix":"https:\/\/ss1.4sqi.net\/img\/categories_v2\/nightlife\/pub_","suffix":".png"},"primary":"true"}],"verified":"false","restricted":"true","stats":{"checkinsCount":"179","usersCount":"98","tipCount":"2"},"specials":{"count":"0"},"hereNow":{"count":"0"},"referralId":"v-1392478021"},{"id":"4c173dc7cd4bc9b6009a4feb","name":"Aldgate House","location":{"address":"33 Aldgate High St","lat":"51.514392","lng":"-0.074704","distance":"132","postalCode":"EC3N 1","cc":"GB","city":"London","state":"Greater London","country":"United Kingdom"},"categories":[{"id":"4bf58dd8d48988d124941735","name":"Office","pluralName":"Offices","shortName":"Office","icon":{"prefix":"https:\/\/ss1.4sqi.net\/img\/categories_v2\/building\/default_","suffix":".png"},"primary":"true"}],"verified":"false","restricted":"true","stats":{"checkinsCount":"355","usersCount":"123","tipCount":"1"},"specials":{"count":"0"},"hereNow":{"count":"0"},"referralId":"v-1392478021"},{"id":"4fe17b96e4b039b195e9d167","name":"Coutts","location":{"address":"Aldgate Union, 10 Whitechapel High St.","lat":"51.514263401889586","lng":"-0.0735310672002534","distance":"50","postalCode":"E1 8DX","cc":"GB","city":"London","state":"Greater London","country":"United Kingdom"},"categories":[{"id":"4bf58dd8d48988d124941735","name":"Office","pluralName":"Offices","shortName":"Office","icon":{"prefix":"https:\/\/ss1.4sqi.net\/img\/categories_v2\/building\/default_","suffix":".png"},"primary":"true"}],"verified":"false","restricted":"true","stats":{"checkinsCount":"212","usersCount":"18","tipCount":"0"},"specials":{"count":"0"},"hereNow":{"count":"0"},"referralId":"v-1392478021"},{"id":"4b61cfc9f964a5207f242ae3","name":"Bamboo PR","location":{"lat":"51.514461985819736","lng":"-0.07274103861506714","distance":"19","cc":"GB","country":"United Kingdom"},"categories":[{"id":"4bf58dd8d48988d124941735","name":"Office","pluralName":"Offices","shortName":"Office","icon":{"prefix":"https:\/\/ss1.4sqi.net\/img\/categories_v2\/building\/default_","suffix":".png"},"primary":"true"}],"verified":"false","restricted":"true","stats":{"checkinsCount":"0","usersCount":"0","tipCount":"0"},"specials":{"count":"0"},"hereNow":{"count":"0"},"referralId":"v-1392478021"},{"id":"4be80de34485d13a040194ee","name":"Subway","contact":{"phone":"+442074884404","formattedPhone":"+44 20 7488 4404","twitter":"subwayukireland"},"location":{"address":"75 Aldgate High St","lat":"51.513870548723986","lng":"-0.0753164291381836","distance":"180","postalCode":"EC3N 1BD","cc":"GB","city":"London","state":"Greater London","country":"United Kingdom"},"categories":[{"id":"4bf58dd8d48988d1c5941735","name":"Sandwich Place","pluralName":"Sandwich Places","shortName":"Sandwiches","icon":{"prefix":"https:\/\/ss1.4sqi.net\/img\/categories_v2\/food\/sandwiches_","suffix":".png"},"primary":"true"}],"verified":"true","restricted":"true","stats":{"checkinsCount":"233","usersCount":"150","tipCount":"0"},"url":"http:\/\/www.subway.co.uk","specials":{"count":"0"},"hereNow":{"count":"0"},"storeId":"35641","referralId":"v-1392478021"},{"id":"525f97d111d294e4025dfffb","name":"Tecnology Solutions Centre London","location":{"lat":"51.514484","lng":"-0.073028","distance":"26","cc":"GB","country":"United Kingdom"},"categories":[{"id":"4bf58dd8d48988d130941735","name":"Building","pluralName":"Buildings","shortName":"Building","icon":{"prefix":"https:\/\/ss1.4sqi.net\/img\/categories_v2\/building\/default_","suffix":".png"},"primary":"true"}],"verified":"false","restricted":"true","stats":{"checkinsCount":"2","usersCount":"1","tipCount":"0"},"specials":{"count":"0"},"hereNow":{"count":"0"},"referralId":"v-1392478021"}],"confident":"false"}}