{"meta":{"code":"200"},"response":{"venues":[{"id":"4b6c1011f964a520f2212ce3","name":"The Bowler","contact":{"phone":"+442078378340","formattedPhone":"+44 20 7837 8340"},"location":{"address":"32 Bowling Green Ln","crossStreet":"Northampton Rd","lat":"51.52425229716138","lng":"-0.1081820311577547","distance":"26","postalCode":"EC1R 0BJ","cc":"GB","city":"London","state":"Greater London","country":"United Kingdom"},"categories":[{"id":"4bf58dd8d48988d11b941735","name":"Pub","pluralName":"Pubs","shortName":"Pub","icon":{"prefix":"https:\/\/ss1.4sqi.net\/img\/categories_v2\/nightlife\/pub_","suffix":".png"},"primary":"true"}],"verified":"false","restricted":"true","stats":{"checkinsCount":"555","usersCount":"343","tipCount":"14"},"menu":{"type":"Menu","label":"Menu","anchor":"View Menu","url":"https:\/\/foursquare.com\/v\/the-bowler\/4b6c1011f964a520f2212ce3\/menu","mobileUrl":"https:\/\/foursquare.com\/v\/4b6c1011f964a520f2212ce3\/device_menu"},"specials":{"count":"0"},"hereNow":{"count":"0"},"referralId":"v-1392477992"},{"id":"4b8d3a7ff964a5209eee32e3","name":"Clerkenwell Workshop","location":{"lat":"51.524227903187516","lng":"-0.10705088373831738","distance":"52","cc":"GB","country":"United Kingdom"},"categories":[{"id":"4bf58dd8d48988d174941735","name":"Coworking Space","pluralName":"Coworking Spaces","shortName":"Coworking Space","icon":{"prefix":"https:\/\/ss1.4sqi.net\/img\/categories_v2\/building\/office_coworkingspace_","suffix":".png"},"primary":"true"}],"verified":"false","restricted":"true","stats":{"checkinsCount":"462","usersCount":"126","tipCount":"1"},"specials":{"count":"0"},"hereNow":{"count":"0"},"referralId":"v-1392477992"},{"id":"5208a98793cdd851be069e79","name":"YPlan HQ","contact":{"twitter":"yplan"},"location":{"address":"Clover House","crossStreet":"147-149 Farringdon Road","lat":"51.523821268753764","lng":"-0.10925173759460448","distance":"113","postalCode":"EC1R 3HN","cc":"GB","city":"London","state":"Greater London","country":"United Kingdom"},"categories":[{"id":"4bf58dd8d48988d125941735","name":"Tech Startup","pluralName":"Tech Startups","shortName":"Tech Startup","icon":{"prefix":"https:\/\/ss1.4sqi.net\/img\/categories_v2\/shops\/technology_","suffix":".png"},"primary":"true"}],"verified":"false","restricted":"true","stats":{"checkinsCount":"503","usersCount":"40","tipCount":"3"},"url":"http:\/\/www.yplanapp.com","specials":{"count":"0"},"hereNow":{"count":"0"},"referralId":"v-1392477992"},{"id":"4b8a8011f964a5207d6f32e3","name":"Free Word Centre","contact":{"phone":"+442073242570","formattedPhone":"+44 20 7324 2570","twitter":"freewordcentre"},"location":{"address":"60 Farringdon Road","lat":"51.52367441046521","lng":"-0.10835587978363037","distance":"78","postalCode":"EC1R 3GA","cc":"GB","city":"London","state":"Greater London","country":"United Kingdom"},"categories":[{"id":"4bf58dd8d48988d171941735","name":"Event Space","pluralName":"Event Spaces","shortName":"Event Space","icon":{"prefix":"https:\/\/ss1.4sqi.net\/img\/categories_v2\/building\/eventspace_","suffix":".png"},"primary":"true"}],"verified":"false","restricted":"true","stats":{"checkinsCount":"477","usersCount":"183","tipCount":"4"},"url":"http:\/\/www.freewordonline.com","specials":{"count":"0"},"hereNow":{"count":"0"},"referralId":"v-1392477992"},{"id":"4ad31db8f964a5201ce320e3","name":"Betsey Trotwood","contact":{"phone":"+442072534285","formattedPhone":"+44 20 7253 4285","facebook":"8029823489"},"location":{"address":"56 Farringdon Rd","crossStreet":"at Peartree Ct","lat":"51.52339904989754","lng":"-0.10809838771820068","distance":"101","postalCode":"EC1R 3BL","cc":"GB","city":"Clerkenwell","state":"Greater London","country":"United Kingdom"},"categories":[{"id":"4bf58dd8d48988d11b941735","name":"Pub","pluralName":"Pubs","shortName":"Pub","icon":{"prefix":"https:\/\/ss1.4sqi.net\/img\/categories_v2\/nightlife\/pub_","suffix":".png"},"primary":"true"}],"verified":"true","restricted":"true","stats":{"checkinsCount":"1229","usersCount":"702","tipCount":"17"},"url":"http:\/\/www.thebetsey.com","menu":{"type":"Menu","label":"Menu","anchor":"View Menu","url":"https:\/\/foursquare.com\/v\/betsey-trotwood\/4ad31db8f964a5201ce320e3\/menu","mobileUrl":"https:\/\/foursquare.com\/v\/4ad31db8f964a5201ce320e3\/device_menu"},"specials":{"count":"0"},"hereNow":{"count":"0"},"storeId":"","referralId":"v-1392477992"},{"id":"4c729b0a376da09343c7a6c6","name":"Actionaid","location":{"address":"Bowling green lane","lat":"51.524525","lng":"-0.107731","distance":"26","cc":"GB","city":"Islington","state":"Greater London","country":"United Kingdom"},"categories":[{"id":"4bf58dd8d48988d124941735","name":"Office","pluralName":"Offices","shortName":"Office","icon":{"prefix":"https:\/\/ss1.4sqi.net\/img\/categories_v2\/building\/default_","suffix":".png"},"primary":"true"}],"verified":"false","restricted":"true","stats":{"checkinsCount":"144","usersCount":"43","tipCount":"0"},"specials":{"count":"0"},"hereNow":{"count":"0"},"referralId":"v-1392477992"},{"id":"4cffc0dfba1da1cd58fb8428","name":"Thirty Three","location":{"lat":"51.524117","lng":"-0.106295","distance":"106","cc":"GB","country":"United Kingdom"},"categories":[{"id":"4bf58dd8d48988d124941735","name":"Office","pluralName":"Offices","shortName":"Office","icon":{"prefix":"https:\/\/ss1.4sqi.net\/img\/categories_v2\/building\/default_","suffix":".png"},"primary":"true"}],"verified":"false","restricted":"true","stats":{"checkinsCount":"61","usersCount":"14","tipCount":"0"},"specials":{"count":"0"},"hereNow":{"count":"0"},"referralId":"v-1392477992"},{"id":"4decab8ae4cdc079f4bb345c","name":"Club Workspace","contact":{"phone":"+442031764006","formattedPhone":"+44 20 3176 4006","twitter":"clubworkspace"},"location":{"address":"Clerkenwell Workshops","crossStreet":"31 Clerkenwell Close","lat":"51.52417693333471","lng":"-0.10680894555979598","distance":"69","postalCode":"EC1R 0AT","cc":"GB","city":"Islington","state":"Greater London","country":"United Kingdom"},"categories":[{"id":"4bf58dd8d48988d174941735","name":"Coworking Space","pluralName":"Coworking Spaces","shortName":"Coworking Space","icon":{"prefix":"https:\/\/ss1.4sqi.net\/img\/categories_v2\/building\/office_coworkingspace_","suffix":".png"},"primary":"true"}],"verified":"true","restricted":"true","stats":{"checkinsCount":"358","usersCount":"167","tipCount":"2"},"url":"http:\/\/club.workspacegroup.co.uk","specials":{"count":"0"},"hereNow":{"count":"0"},"storeId":"","referralId":"v-1392477992"},{"id":"4ecd120e6c25f61c3287d3b1","name":"Spindrift","location":{"address":"31 Clerkenwell Close, Islington, Greater London EC1R 0","lat":"51.5239967","lng":"-0.106512","distance":"95","postalCode":"EC1R 0","cc":"GB","city":"Islington","state":"Greater London","country":"United Kingdom"},"categories":[{"id":"4bf58dd8d48988d124941735","name":"Office","pluralName":"Offices","shortName":"Office","icon":{"prefix":"https:\/\/ss1.4sqi.net\/img\/categories_v2\/building\/default_","suffix":".png"},"primary":"true"}],"verified":"false","restricted":"true","stats":{"checkinsCount":"83","usersCount":"10","tipCount":"0"},"specials":{"count":"0"},"hereNow":{"count":"0"},"referralId":"v-1392477992"},{"id":"4b94b9d0f964a5208a8134e3","name":"The Clerkenwell Kitchen","contact":{"phone":"+442071019959","formattedPhone":"+44 20 7101 9959"},"location":{"address":"27-31 Clerkenwell Cl","lat":"51.524119","lng":"-0.106573","distance":"87","postalCode":"EC1R 0AT","cc":"GB","city":"Clerkenwell","state":"Greater London","country":"United Kingdom"},"categories":[{"id":"4bf58dd8d48988d1c4941735","name":"Restaurant","pluralName":"Restaurants","shortName":"Restaurant","icon":{"prefix":"https:\/\/ss1.4sqi.net\/img\/categories_v2\/food\/default_","suffix":".png"},"primary":"true"}],"verified":"false","restricted":"true","stats":{"checkinsCount":"544","usersCount":"266","tipCount":"17"},"url":"http:\/\/www.theclerkenwellkitchen.co.uk","specials":{"count":"0"},"hereNow":{"count":"0"},"referralId":"v-1392477992"},{"id":"4c08b407009a0f47b98ae6bf","name":"Zaha Hadid","location":{"address":"Bowling Green Lane","lat":"51.524466","lng":"-0.107219","distance":"44","postalCode":"EC1R 0BQ","cc":"GB","city":"Islington","state":"Greater London","country":"United Kingdom"},"categories":[{"id":"4bf58dd8d48988d130941735","name":"Building","pluralName":"Buildings","shortName":"Building","icon":{"prefix":"https:\/\/ss1.4sqi.net\/img\/categories_v2\/building\/default_","suffix":".png"},"primary":"true"}],"verified":"false","restricted":"true","stats":{"checkinsCount":"227","usersCount":"50","tipCount":"3"},"specials":{"count":"0"},"hereNow":{"count":"0"},"referralId":"v-1392477992"},{"id":"4ada5f0bf964a520f82121e3","name":"The Horseshoe","contact":{"phone":"+442072536068","formattedPhone":"+44 20 7253 6068"},"location":{"address":"24 Clerkenwell Close","crossStreet":"near Pear Tree Ct.","lat":"51.52379","lng":"-0.106775","distance":"90","postalCode":"EC1R 0AG","cc":"GB","city":"London","state":"Greater London","country":"United Kingdom"},"categories":[{"id":"4bf58dd8d48988d11b941735","name":"Pub","pluralName":"Pubs","shortName":"Pub","icon":{"prefix":"https:\/\/ss1.4sqi.net\/img\/categories_v2\/nightlife\/pub_","suffix":".png"},"primary":"true"}],"verified":"false","restricted":"true","stats":{"checkinsCount":"267","usersCount":"161","tipCount":"5"},"specials":{"count":"0"},"hereNow":{"count":"0"},"referralId":"v-1392477992"},{"id":"4eb90e0b4901cef9da0bdf88","name":"Orangebox","location":{"lat":"51.5243090331714","lng":"-0.10774101313028525","distance":"4","cc":"GB","city":"London","state":"Greater London","country":"United Kingdom"},"categories":[{"id":"4bf58dd8d48988d1f8941735","name":"Furniture \/ Home Store","pluralName":"Furniture \/ Home Stores","shortName":"Furniture \/ Home","icon":{"prefix":"https:\/\/ss1.4sqi.net\/img\/categories_v2\/shops\/furniture_","suffix":".png"},"primary":"true"}],"verified":"false","restricted":"true","stats":{"checkinsCount":"10","usersCount":"8","tipCount":"0"},"specials":{"count":"0"},"hereNow":{"count":"0"},"referralId":"v-1392477992"},{"id":"4bffa7f61837d13acb23f069","name":"CarbonCopy.EU","contact":{"twitter":"carboncopyeu"},"location":{"address":"14 Bowling Green Lane","lat":"51.52423180191151","lng":"-0.10797500610351562","distance":"13","postalCode":"EC1R 0BD","cc":"GB","city":"Clerkenwell","state":"Greater London","country":"United Kingdom"},"categories":[{"id":"4bf58dd8d48988d125941735","name":"Tech Startup","pluralName":"Tech Startups","shortName":"Tech Startup","icon":{"prefix":"https:\/\/ss1.4sqi.net\/img\/categories_v2\/shops\/technology_","suffix":".png"},"primary":"true"}],"verified":"false","restricted":"true","stats":{"checkinsCount":"3","usersCount":"1","tipCount":"0"},"specials":{"count":"0"},"hereNow":{"count":"0"},"referralId":"v-1392477992"},{"id":"4ecb8abfb8f7782ab7dfde71","name":"Visible Futures","contact":{"phone":"+442072538558","formattedPhone":"+44 20 7253 8558"},"location":{"address":"14 Bowling Green Lane","lat":"51.524412","lng":"-0.107803","distance":"13","postalCode":"EC1R 0BD","cc":"GB","city":"Islington","state":"Greater London","country":"United Kingdom"},"categories":[{"id":"4bf58dd8d48988d124941735","name":"Office","pluralName":"Offices","shortName":"Office","icon":{"prefix":"https:\/\/ss1.4sqi.net\/img\/categories_v2\/building\/default_","suffix":".png"},"primary":"true"}],"verified":"true","restricted":"true","stats":{"checkinsCount":"12","usersCount":"2","tipCount":"0"},"specials":{"count":"0"},"hereNow":{"count":"0"},"referralId":"v-1392477992"},{"id":"4e897226f5b9e612f256a0ad","name":"Studio Coffee Bar","location":{"address":"Bowling Green Lane","lat":"51.524416","lng":"-0.107869","distance":"14","cc":"GB","city":"Islington","state":"Greater London","country":"United Kingdom"},"categories":[{"id":"4bf58dd8d48988d16d941735","name":"Caf\u00e9","pluralName":"Caf\u00e9s","shortName":"Caf\u00e9","icon":{"prefix":"https:\/\/ss1.4sqi.net\/img\/categories_v2\/food\/cafe_","suffix":".png"},"primary":"true"}],"verified":"false","restricted":"true","stats":{"checkinsCount":"153","usersCount":"26","tipCount":"1"},"specials":{"count":"0"},"hereNow":{"count":"0"},"referralId":"v-1392477992"},{"id":"505c7db4e4b027df9b7c56e6","name":"Brothers and Sisters","contact":{"twitter":"broandsis"},"location":{"address":"31a Clerkenwell Close","lat":"51.524510609481624","lng":"-0.10664806802836783","distance":"83","postalCode":"EC1R 0AT","cc":"GB","city":"London","state":"Greater London","country":"United Kingdom"},"categories":[{"id":"4bf58dd8d48988d130941735","name":"Building","pluralName":"Buildings","shortName":"Building","icon":{"prefix":"https:\/\/ss1.4sqi.net\/img\/categories_v2\/building\/default_","suffix":".png"},"primary":"true"}],"verified":"false","restricted":"true","stats":{"checkinsCount":"20","usersCount":"10","tipCount":"0"},"specials":{"count":"0"},"hereNow":{"count":"0"},"referralId":"v-1392477992"},{"id":"517f6f47c84c966b9c63d00e","name":"Ministry of Paintball","contact":{"phone":"+448707246822","formattedPhone":"+44 870 724 6822","twitter":"mopgreatbritain"},"location":{"address":"40 Bowling Green Lane","lat":"51.52423180191151","lng":"-0.10801792144775389","distance":"16","postalCode":"EC1R 0NE","cc":"GB","city":"London","state":"Greater London","country":"United Kingdom"},"categories":[{"id":"5032829591d4c4b30a586d5e","name":"Paintball Field","pluralName":"Paintball Fields","shortName":"Paintball Field","icon":{"prefix":"https:\/\/ss1.4sqi.net\/img\/categories_v2\/parks_outdoors\/default_","suffix":".png"},"primary":"true"}],"verified":"false","restricted":"true","stats":{"checkinsCount":"0","usersCount":"0","tipCount":"0"},"specials":{"count":"0"},"hereNow":{"count":"0"},"referralId":"v-1392477992"},{"id":"4c724a3ad944224be23b0c29","name":"London Metropolitan Archives","contact":{"phone":"+442073323820","formattedPhone":"+44 20 7332 3820"},"location":{"address":"40 Northampton Rd.","lat":"51.52537","lng":"-0.107544","distance":"121","postalCode":"EC1R 0HB","cc":"GB","city":"Clerkenwell","state":"Greater London","country":"United Kingdom"},"categories":[{"id":"4bf58dd8d48988d12f941735","name":"Library","pluralName":"Libraries","shortName":"Library","icon":{"prefix":"https:\/\/ss1.4sqi.net\/img\/categories_v2\/building\/library_","suffix":".png"},"primary":"true"}],"verified":"false","restricted":"true","stats":{"checkinsCount":"112","usersCount":"69","tipCount":"2"},"url":"http:\/\/www.cityoflondon.gov.uk\/lma","specials":{"count":"0"},"hereNow":{"count":"0"},"referralId":"v-1392477992"},{"id":"4b67e594f964a52080602be3","name":"The Grubberie","contact":{"phone":"+442072515355","formattedPhone":"+44 20 7251 5355"},"location":{"address":"12a Bowling Green Lane","lat":"51.524431","lng":"-0.107639","distance":"19","cc":"GB","city":"Islington","state":"Greater London","country":"United Kingdom"},"categories":[{"id":"4bf58dd8d48988d16d941735","name":"Caf\u00e9","pluralName":"Caf\u00e9s","shortName":"Caf\u00e9","icon":{"prefix":"https:\/\/ss1.4sqi.net\/img\/categories_v2\/food\/cafe_","suffix":".png"},"primary":"true"}],"verified":"false","restricted":"true","stats":{"checkinsCount":"63","usersCount":"30","tipCount":"8"},"specials":{"count":"0"},"hereNow":{"count":"0"},"referralId":"v-1392477992"},{"id":"4eef5f4f30f824cfc71ca505","name":"Getlunched Global HQ","location":{"lat":"51.52411499810656","lng":"-0.10797572477190918","distance":"22","cc":"GB","country":"United Kingdom"},"categories":[{"id":"4eb1bea83b7b6f98df247e06","name":"Factory","pluralName":"Factories","shortName":"Factory","icon":{"prefix":"https:\/\/ss1.4sqi.net\/img\/categories_v2\/building\/factory_","suffix":".png"},"primary":"true"}],"verified":"false","restricted":"true","stats":{"checkinsCount":"3","usersCount":"1","tipCount":"0"},"specials":{"count":"0"},"hereNow":{"count":"0"},"referralId":"v-1392477992"},{"id":"4b162b9af964a52052b723e3","name":"Wilkinson Eyre Architects","location":{"address":"24 Britton St.","crossStreet":"Clerkenwell Rd.","lat":"51.522785195538965","lng":"-0.10693605745923908","distance":"177","postalCode":"EC1M 5UA","cc":"GB","city":"London","state":"Greater London","country":"United Kingdom"},"categories":[{"id":"4bf58dd8d48988d124941735","name":"Office","pluralName":"Offices","shortName":"Office","icon":{"prefix":"https:\/\/ss1.4sqi.net\/img\/categories_v2\/building\/default_","suffix":".png"},"primary":"true"}],"verified":"false","restricted":"true","stats":{"checkinsCount":"6","usersCount":"5","tipCount":"0"},"specials":{"count":"0"},"hereNow":{"count":"0"},"referralId":"v-1392477992"},{"id":"52e8f3ce498e2143f9395fbc","name":"CORY Environmental","location":{"address":"2 Coldbath Square","lat":"51.52348234094803","lng":"-0.10809863582029428","distance":"92","postalCode":"EC1R 5HL","cc":"GB","city":"London","state":"Greater London","country":"United Kingdom"},"categories":[{"id":"4bf58dd8d48988d124941735","name":"Office","pluralName":"Offices","shortName":"Office","icon":{"prefix":"https:\/\/ss1.4sqi.net\/img\/categories_v2\/building\/default_","suffix":".png"},"primary":"true"}],"verified":"false","restricted":"true","stats":{"checkinsCount":"2","usersCount":"1","tipCount":"0"},"specials":{"count":"0"},"hereNow":{"count":"0"},"referralId":"v-1392477992"},{"id":"4efdbfaa2c5b66f33a360a00","name":"Footfall123","contact":{"phone":"+442070788333","formattedPhone":"+44 20 7078 8333","twitter":"footfall123"},"location":{"address":"River House, 143-145 Farringdon Road","lat":"51.523630312169274","lng":"-0.10908687986584562","distance":"115","postalCode":"EC1R 3AB","cc":"GB","city":"London","state":"Greater London","country":"United Kingdom"},"categories":[{"id":"4bf58dd8d48988d125941735","name":"Tech Startup","pluralName":"Tech Startups","shortName":"Tech Startup","icon":{"prefix":"https:\/\/ss1.4sqi.net\/img\/categories_v2\/shops\/technology_","suffix":".png"},"primary":"true"}],"verified":"true","restricted":"true","stats":{"checkinsCount":"272","usersCount":"10","tipCount":"0"},"url":"http:\/\/footfall123.com","specials":{"count":"0"},"hereNow":{"count":"0"},"venuePage":{"id":"43263646"},"referralId":"v-1392477992"},{"id":"4ff82859e4b042cc2ab66193","name":"ActionAid UK Head office","location":{"address":"33-39 Bowling Green Lane,\n\rLondon EC1R 0BJ\n\rTel: +44 (0)20 3122 0561\n\rFax: +44 (0)20 7278 5667","lat":"51.52466351004011","lng":"-0.10770700503634804","distance":"42","cc":"GB","city":"London","state":"Greater London","country":"United Kingdom"},"categories":[{"id":"4bf58dd8d48988d124941735","name":"Office","pluralName":"Offices","shortName":"Office","icon":{"prefix":"https:\/\/ss1.4sqi.net\/img\/categories_v2\/building\/default_","suffix":".png"},"primary":"true"}],"verified":"false","restricted":"true","stats":{"checkinsCount":"23","usersCount":"12","tipCount":"1"},"specials":{"count":"0"},"hereNow":{"count":"0"},"referralId":"v-1392477992"},{"id":"4bff801b369476b015e98d1f","name":"Finsbury Health Centre","location":{"address":"Pine Street","lat":"51.52480121389389","lng":"-0.10908019097770683","distance":"105","postalCode":"EC1R 0LP","cc":"GB","city":"Islington","state":"Greater London","country":"United Kingdom"},"categories":[{"id":"4bf58dd8d48988d177941735","name":"Doctor's Office","pluralName":"Doctor's Offices","shortName":"Doctor's Office","icon":{"prefix":"https:\/\/ss1.4sqi.net\/img\/categories_v2\/building\/medical_doctorsoffice_","suffix":".png"},"primary":"true"}],"verified":"false","restricted":"true","stats":{"checkinsCount":"31","usersCount":"21","tipCount":"0"},"specials":{"count":"0"},"hereNow":{"count":"0"},"referralId":"v-1392477992"},{"id":"4ddbd0c6fa7637ab73e32ae3","name":"Companeo","location":{"lat":"51.523830417458946","lng":"-0.10925334686857546","distance":"112","cc":"GB","city":"Islington","state":"Greater London","country":"United Kingdom"},"categories":[{"id":"4bf58dd8d48988d124941735","name":"Office","pluralName":"Offices","shortName":"Office","icon":{"prefix":"https:\/\/ss1.4sqi.net\/img\/categories_v2\/building\/default_","suffix":".png"},"primary":"true"}],"verified":"false","restricted":"true","stats":{"checkinsCount":"203","usersCount":"6","tipCount":"0"},"specials":{"count":"0"},"hereNow":{"count":"0"},"referralId":"v-1392477992"},{"id":"4e3a9898e4cdcd1068428171","name":"The Clearing","location":{"lat":"51.524537","lng":"-0.10778","distance":"27","cc":"GB","city":"London","state":"Greater London","country":"United Kingdom"},"categories":[{"id":"4bf58dd8d48988d124941735","name":"Office","pluralName":"Offices","shortName":"Office","icon":{"prefix":"https:\/\/ss1.4sqi.net\/img\/categories_v2\/building\/default_","suffix":".png"},"primary":"true"}],"verified":"false","restricted":"true","stats":{"checkinsCount":"5","usersCount":"1","tipCount":"0"},"specials":{"count":"0"},"hereNow":{"count":"0"},"referralId":"v-1392477992"},{"id":"508e431ce4b01ff7536ea5d0","name":"Soluis Group London","location":{"address":"Clerkenwell Close","lat":"51.52418692544366","lng":"-0.10660765756460411","distance":"83","cc":"GB","city":"London","state":"Greater London","country":"United Kingdom"},"categories":[{"id":"4bf58dd8d48988d124941735","name":"Office","pluralName":"Offices","shortName":"Office","icon":{"prefix":"https:\/\/ss1.4sqi.net\/img\/categories_v2\/building\/default_","suffix":".png"},"primary":"true"}],"verified":"false","restricted":"true","stats":{"checkinsCount":"44","usersCount":"4","tipCount":"0"},"specials":{"count":"0"},"hereNow":{"count":"0"},"referralId":"v-1392477992"},{"id":"4d55bfdb16a6b60c6c8e4ef8","name":"Fever Design Marketing","location":{"address":"15 Bowling Green Lane","lat":"51.524061","lng":"-0.108056","distance":"30","postalCode":"EC1R 0BD","cc":"GB","city":"London","state":"Greater London","country":"United Kingdom"},"categories":[{"id":"4bf58dd8d48988d130941735","name":"Building","pluralName":"Buildings","shortName":"Building","icon":{"prefix":"https:\/\/ss1.4sqi.net\/img\/categories_v2\/building\/default_","suffix":".png"},"primary":"true"}],"verified":"false","restricted":"true","stats":{"checkinsCount":"25","usersCount":"1","tipCount":"0"},"specials":{"count":"0"},"hereNow":{"count":"0"},"referralId":"v-1392477992"}],"confident":"true"}}