{"meta":{"code":"200"},"response":{"venues":[{"id":"4ac518ecf964a52075ac20e3","name":"Fortnum & Mason","contact":{"phone":"+448456025694","formattedPhone":"+44 845 602 5694"},"location":{"address":"181 Piccadilly","lat":"51.50844864450185","lng":"-0.1382732391357422","distance":"99","postalCode":"W1A 1ER","cc":"GB","city":"London","state":"Greater London","country":"United Kingdom"},"categories":[{"id":"4bf58dd8d48988d1f6941735","name":"Department Store","pluralName":"Department Stores","shortName":"Department Store","icon":{"prefix":"https:\/\/ss1.4sqi.net\/img\/categories_v2\/shops\/departmentstore_","suffix":".png"},"primary":"true"}],"verified":"false","restricted":"true","stats":{"checkinsCount":"11851","usersCount":"8629","tipCount":"119"},"url":"http:\/\/www.fortnumandmason.com","menu":{"type":"Menu","label":"Menu","anchor":"View Menu","url":"https:\/\/foursquare.com\/v\/fortnum--mason\/4ac518ecf964a52075ac20e3\/menu","mobileUrl":"https:\/\/foursquare.com\/v\/4ac518ecf964a52075ac20e3\/device_menu"},"specials":{"count":"0"},"hereNow":{"count":"3","groups":[{"type":"others","name":"Other people here","count":"3"}]},"referralId":"v-1392478028"},{"id":"4b4f58a3f964a520690227e3","name":"Bentley's Oyster Bar & Grill","contact":{"phone":"+442077344756","formattedPhone":"+44 20 7734 4756","twitter":"bentleys_london"},"location":{"address":"11-15 Swallow St","lat":"51.50941688901074","lng":"-0.1376509666442871","distance":"17","postalCode":"W1B 4DG","cc":"GB","city":"Mayfair","state":"Greater London","country":"United Kingdom"},"categories":[{"id":"4bf58dd8d48988d1ce941735","name":"Seafood Restaurant","pluralName":"Seafood Restaurants","shortName":"Seafood","icon":{"prefix":"https:\/\/ss1.4sqi.net\/img\/categories_v2\/food\/seafood_","suffix":".png"},"primary":"true"}],"verified":"true","restricted":"true","stats":{"checkinsCount":"1082","usersCount":"760","tipCount":"34"},"url":"http:\/\/www.bentleys.org","reservations":{"url":"http:\/\/www.toptable.co.uk\/single.aspx?rid=45385&ref=9601"},"menu":{"type":"Menu","label":"Menu","anchor":"View Menu","url":"https:\/\/foursquare.com\/v\/bentleys-oyster-bar--grill\/4b4f58a3f964a520690227e3\/menu","mobileUrl":"https:\/\/foursquare.com\/v\/4b4f58a3f964a520690227e3\/device_menu"},"specials":{"count":"0"},"hereNow":{"count":"0"},"referralId":"v-1392478028"},{"id":"4ac518d5f964a520d9a720e3","name":"Gaucho","contact":{"phone":"+442077344040","formattedPhone":"+44 20 7734 4040","twitter":"gauchogroup"},"location":{"address":"25 Swallow St","crossStreet":"at Regent St","lat":"51.50969066476084","lng":"-0.13776898384094238","distance":"44","postalCode":"W1B 4QR","cc":"GB","city":"London","state":"Greater London","country":"United Kingdom"},"categories":[{"id":"4bf58dd8d48988d107941735","name":"Argentinian Restaurant","pluralName":"Argentinian Restaurants","shortName":"Argentinian","icon":{"prefix":"https:\/\/ss1.4sqi.net\/img\/categories_v2\/food\/argentinian_","suffix":".png"},"primary":"true"}],"verified":"false","restricted":"true","stats":{"checkinsCount":"3667","usersCount":"3014","tipCount":"64"},"url":"http:\/\/www.gauchorestaurants.co.uk","reservations":{"url":"http:\/\/www.toptable.co.uk\/single.aspx?rid=14449&ref=9601"},"menu":{"type":"Menu","label":"Menu","anchor":"View Menu","url":"https:\/\/foursquare.com\/v\/gaucho\/4ac518d5f964a520d9a720e3\/menu","mobileUrl":"https:\/\/foursquare.com\/v\/4ac518d5f964a520d9a720e3\/device_menu"},"specials":{"count":"0"},"hereNow":{"count":"0"},"referralId":"v-1392478028"},{"id":"4b8824c3f964a520cbe231e3","name":"Benihana","contact":{"phone":"+442074942525","formattedPhone":"+44 20 7494 2525"},"location":{"address":"37 Sackville St.","lat":"51.50904628750873","lng":"-0.13810157775878906","distance":"34","postalCode":"W1S 3DQ","cc":"GB","city":"London","state":"Greater London","country":"United Kingdom"},"categories":[{"id":"4bf58dd8d48988d111941735","name":"Japanese Restaurant","pluralName":"Japanese Restaurants","shortName":"Japanese","icon":{"prefix":"https:\/\/ss1.4sqi.net\/img\/categories_v2\/food\/japanese_","suffix":".png"},"primary":"true"}],"verified":"false","restricted":"true","stats":{"checkinsCount":"896","usersCount":"809","tipCount":"22"},"url":"http:\/\/www.benihana.co.uk","menu":{"type":"Menu","label":"Menu","anchor":"View Menu","url":"https:\/\/foursquare.com\/v\/benihana\/4b8824c3f964a520cbe231e3\/menu","mobileUrl":"https:\/\/foursquare.com\/v\/4b8824c3f964a520cbe231e3\/device_menu"},"specials":{"count":"0"},"hereNow":{"count":"0"},"referralId":"v-1392478028"},{"id":"4acf1d2ef964a52074d220e3","name":"BAFTA","contact":{"phone":"+442077340022","formattedPhone":"+44 20 7734 0022","twitter":"bafta"},"location":{"address":"195 Piccadilly","lat":"51.508822589647636","lng":"-0.1375436782836914","distance":"54","postalCode":"W1J 9LN","cc":"GB","city":"London","state":"Greater London","country":"United Kingdom"},"categories":[{"id":"4bf58dd8d48988d17f941735","name":"Movie Theater","pluralName":"Movie Theaters","shortName":"Movie Theater","icon":{"prefix":"https:\/\/ss1.4sqi.net\/img\/categories_v2\/arts_entertainment\/movietheater_","suffix":".png"},"primary":"true"}],"verified":"true","restricted":"true","stats":{"checkinsCount":"3786","usersCount":"2027","tipCount":"16"},"specials":{"count":"0"},"hereNow":{"count":"0"},"referralId":"v-1392478028"},{"id":"4eb9916f4901236a181d570c","name":"Superdry","contact":{"phone":"+442074405100","formattedPhone":"+44 20 7440 5100","twitter":"superdry"},"location":{"address":"103-113 Regent St","lat":"51.50981085847292","lng":"-0.13750076293945312","distance":"61","postalCode":"W1B 4HL","cc":"GB","city":"London","state":"Greater London","country":"United Kingdom"},"categories":[{"id":"4bf58dd8d48988d103951735","name":"Clothing Store","pluralName":"Clothing Stores","shortName":"Apparel","icon":{"prefix":"https:\/\/ss1.4sqi.net\/img\/categories_v2\/shops\/apparel_","suffix":".png"},"primary":"true"}],"verified":"false","restricted":"true","stats":{"checkinsCount":"1721","usersCount":"1443","tipCount":"17"},"url":"http:\/\/www.superdry.com","specials":{"count":"0"},"hereNow":{"count":"0"},"referralId":"v-1392478028"},{"id":"51f18541498e00632e46a847","name":"The Rancho Grill","location":{"address":"8a Sackville Street","lat":"51.509271","lng":"-0.137955","distance":"10","postalCode":"W1S 3DF","cc":"GB","city":"London","state":"Greater London","country":"United Kingdom"},"categories":[{"id":"4bf58dd8d48988d107941735","name":"Argentinian Restaurant","pluralName":"Argentinian Restaurants","shortName":"Argentinian","icon":{"prefix":"https:\/\/ss1.4sqi.net\/img\/categories_v2\/food\/argentinian_","suffix":".png"},"primary":"true"}],"verified":"false","restricted":"true","stats":{"checkinsCount":"31","usersCount":"22","tipCount":"4"},"specials":{"count":"0"},"hereNow":{"count":"0"},"referralId":"v-1392478028"},{"id":"4ac518edf964a520c7ac20e3","name":"Hatchards","contact":{"phone":"+448432908373","formattedPhone":"+44 843 290 8373"},"location":{"address":"187 Piccadilly","lat":"51.508828","lng":"-0.138146","distance":"56","postalCode":"W1J 9LE","cc":"GB","city":"London","state":"Greater London","country":"United Kingdom"},"categories":[{"id":"4bf58dd8d48988d114951735","name":"Bookstore","pluralName":"Bookstores","shortName":"Bookstore","icon":{"prefix":"https:\/\/ss1.4sqi.net\/img\/categories_v2\/shops\/bookstore_","suffix":".png"},"primary":"true"}],"verified":"false","restricted":"true","stats":{"checkinsCount":"808","usersCount":"568","tipCount":"20"},"url":"http:\/\/www.hatchards.co.uk","specials":{"count":"0"},"hereNow":{"count":"0"},"referralId":"v-1392478028"},{"id":"4ac518c6f964a520faa420e3","name":"Cuckoo Club","location":{"address":"Swallow St","lat":"51.50982588266463","lng":"-0.13762682676315308","distance":"60","postalCode":"W1B 4EZ","cc":"GB","city":"London","state":"Greater London","country":"United Kingdom"},"categories":[{"id":"4bf58dd8d48988d11f941735","name":"Nightclub","pluralName":"Nightclubs","shortName":"Nightclub","icon":{"prefix":"https:\/\/ss1.4sqi.net\/img\/categories_v2\/nightlife\/nightclub_","suffix":".png"},"primary":"true"}],"verified":"false","restricted":"true","stats":{"checkinsCount":"1441","usersCount":"883","tipCount":"9"},"url":"http:\/\/velvet-pr.com\/guestlists\/cuckoo-club-guestlist\/","specials":{"count":"0"},"hereNow":{"count":"0"},"referralId":"v-1392478028"},{"id":"4f7a17ede4b007b4085cee26","name":"Hollister Co.","contact":{"phone":"+448008595920","formattedPhone":"+44 800 859 5920","twitter":"hollisterco"},"location":{"address":"83-97 Regent St","lat":"51.510228175569104","lng":"-0.13755467566539434","distance":"105","postalCode":"W1B 4EW","cc":"GB","city":"London","state":"Greater London","country":"United Kingdom"},"categories":[{"id":"4bf58dd8d48988d103951735","name":"Clothing Store","pluralName":"Clothing Stores","shortName":"Apparel","icon":{"prefix":"https:\/\/ss1.4sqi.net\/img\/categories_v2\/shops\/apparel_","suffix":".png"},"primary":"true"}],"verified":"true","restricted":"true","stats":{"checkinsCount":"1896","usersCount":"1517","tipCount":"11"},"url":"http:\/\/www.hollisterco.com","specials":{"count":"0"},"hereNow":{"count":"0"},"storeId":"Regent Street","referralId":"v-1392478028"},{"id":"4ad7ee3bf964a520291021e3","name":"Le M\u00e9ridien Piccadilly","contact":{"phone":"+442077348000","formattedPhone":"+44 20 7734 8000","twitter":"spg"},"location":{"address":"21 Piccadilly","lat":"51.50935679167466","lng":"-0.1363849639892578","distance":"98","postalCode":"W1J 0BH","cc":"GB","city":"London","state":"Greater London","country":"United Kingdom"},"categories":[{"id":"4bf58dd8d48988d1fa931735","name":"Hotel","pluralName":"Hotels","shortName":"Hotel","icon":{"prefix":"https:\/\/ss1.4sqi.net\/img\/categories_v2\/travel\/hotel_","suffix":".png"},"primary":"true"}],"verified":"true","restricted":"true","stats":{"checkinsCount":"5144","usersCount":"2206","tipCount":"33"},"url":"http:\/\/www.lemeridienpiccadilly.co.uk","specials":{"count":"0"},"hereNow":{"count":"0"},"storeId":"1925","referralId":"v-1392478028"},{"id":"4b3f214af964a5202ca425e3","name":"Caffe Concerto","location":{"address":"79-81 Regent St","lat":"51.50995694430941","lng":"-0.1366656752546077","distance":"108","postalCode":"W1B 4EG","cc":"GB","city":"London","state":"Greater London","country":"United Kingdom"},"categories":[{"id":"4bf58dd8d48988d16d941735","name":"Caf\u00e9","pluralName":"Caf\u00e9s","shortName":"Caf\u00e9","icon":{"prefix":"https:\/\/ss1.4sqi.net\/img\/categories_v2\/food\/cafe_","suffix":".png"},"primary":"true"}],"verified":"false","restricted":"true","stats":{"checkinsCount":"1897","usersCount":"1575","tipCount":"33"},"menu":{"type":"Menu","label":"Menu","anchor":"View Menu","url":"https:\/\/foursquare.com\/v\/caffe-concerto\/4b3f214af964a5202ca425e3\/menu","mobileUrl":"https:\/\/foursquare.com\/v\/4b3f214af964a5202ca425e3\/device_menu"},"specials":{"count":"0"},"hereNow":{"count":"1","groups":[{"type":"others","name":"Other people here","count":"1"}]},"referralId":"v-1392478028"},{"id":"4c76d039923ba1431a1b65e6","name":"Veeraswamy Restaurant","contact":{"phone":"+442077341401","formattedPhone":"+44 20 7734 1401"},"location":{"address":"99-101 Regent St","crossStreet":"at Swallow St","lat":"51.51000450323092","lng":"-0.13775289058685303","distance":"79","postalCode":"W1B 4RS","cc":"GB","city":"London","state":"Greater London","country":"United Kingdom"},"categories":[{"id":"4bf58dd8d48988d10f941735","name":"Indian Restaurant","pluralName":"Indian Restaurants","shortName":"Indian","icon":{"prefix":"https:\/\/ss1.4sqi.net\/img\/categories_v2\/food\/indian_","suffix":".png"},"primary":"true"}],"verified":"true","restricted":"true","stats":{"checkinsCount":"1083","usersCount":"903","tipCount":"31"},"url":"http:\/\/www.realindianfood.com","reservations":{"url":"http:\/\/www.toptable.co.uk\/single.aspx?rid=83056&ref=9601"},"menu":{"type":"Menu","label":"Menu","anchor":"View Menu","url":"https:\/\/foursquare.com\/v\/veeraswamy-restaurant\/4c76d039923ba1431a1b65e6\/menu","mobileUrl":"https:\/\/foursquare.com\/v\/4c76d039923ba1431a1b65e6\/device_menu"},"specials":{"count":"0"},"hereNow":{"count":"1","groups":[{"type":"others","name":"Other people here","count":"1"}]},"referralId":"v-1392478028"},{"id":"4e031c93483bb38cf0f1b830","name":"Fish Works","contact":{"phone":"+442077345813","formattedPhone":"+44 20 7734 5813"},"location":{"address":"7-9 Swallow St","crossStreet":"Regent St","lat":"51.50939","lng":"-0.137312","distance":"35","postalCode":"W1B 4DE","cc":"GB","city":"London","state":"Greater London","country":"United Kingdom"},"categories":[{"id":"4bf58dd8d48988d1ce941735","name":"Seafood Restaurant","pluralName":"Seafood Restaurants","shortName":"Seafood","icon":{"prefix":"https:\/\/ss1.4sqi.net\/img\/categories_v2\/food\/seafood_","suffix":".png"},"primary":"true"}],"verified":"false","restricted":"true","stats":{"checkinsCount":"227","usersCount":"191","tipCount":"4"},"specials":{"count":"0"},"hereNow":{"count":"0"},"referralId":"v-1392478028"},{"id":"4ac518eef964a5201dad20e3","name":"Piccadilly Market","location":{"address":"St James's Church","lat":"51.50892408745829","lng":"-0.1369012079226831","distance":"74","postalCode":"W1J 9LL","cc":"GB","city":"London","state":"Greater London","country":"United Kingdom"},"categories":[{"id":"4bf58dd8d48988d1f7941735","name":"Flea Market","pluralName":"Flea Markets","shortName":"Flea Market","icon":{"prefix":"https:\/\/ss1.4sqi.net\/img\/categories_v2\/shops\/fleamarket_","suffix":".png"},"primary":"true"}],"verified":"false","restricted":"true","stats":{"checkinsCount":"590","usersCount":"525","tipCount":"2"},"specials":{"count":"0"},"hereNow":{"count":"0"},"referralId":"v-1392478028"},{"id":"4c0392be39d476b0934130a7","name":"Pret A Manger","contact":{"phone":"+442079325247","formattedPhone":"+44 20 7932 5247","twitter":"pret","facebook":"162638680417951"},"location":{"address":"41\/42 Piccadilly","crossStreet":"Sackville St","lat":"51.5088299163","lng":"-0.137826571131","distance":"51","postalCode":"W1J 0DS","cc":"GB","city":"London","state":"Greater London","country":"United Kingdom"},"categories":[{"id":"4bf58dd8d48988d1c5941735","name":"Sandwich Place","pluralName":"Sandwich Places","shortName":"Sandwiches","icon":{"prefix":"https:\/\/ss1.4sqi.net\/img\/categories_v2\/food\/sandwiches_","suffix":".png"},"primary":"true"}],"verified":"true","restricted":"true","stats":{"checkinsCount":"537","usersCount":"383","tipCount":"4"},"url":"http:\/\/www.pret.com","specials":{"count":"0"},"hereNow":{"count":"0"},"storeId":"47","referralId":"v-1392478028"},{"id":"4b2630f7f964a5200a7924e3","name":"Costa Coffee","contact":{"phone":"+442079309596","formattedPhone":"+44 20 7930 9596"},"location":{"address":"200 Piccadilly","lat":"51.50902805461914","lng":"-0.13661490937492357","distance":"87","postalCode":"W1J 9HU","cc":"GB","city":"London","state":"Greater London","country":"United Kingdom"},"categories":[{"id":"4bf58dd8d48988d1e0931735","name":"Coffee Shop","pluralName":"Coffee Shops","shortName":"Coffee Shop","icon":{"prefix":"https:\/\/ss1.4sqi.net\/img\/categories_v2\/food\/coffeeshop_","suffix":".png"},"primary":"true"}],"verified":"false","restricted":"true","stats":{"checkinsCount":"1529","usersCount":"1175","tipCount":"15"},"url":"http:\/\/www.costa.co.uk","specials":{"count":"0"},"hereNow":{"count":"0"},"referralId":"v-1392478028"},{"id":"4b4d944ef964a52059d426e3","name":"Caff\u00e8 Nero","contact":{"phone":"+442074349339","formattedPhone":"+44 20 7434 9339","twitter":"_caffenero"},"location":{"address":"26-28 Piccadilly","crossStreet":"btwn Piccadilly Pl & Air St","lat":"51.509135","lng":"-0.136572","distance":"86","postalCode":"W1J 0DJ","cc":"GB","city":"London","state":"Greater London","country":"United Kingdom"},"categories":[{"id":"4bf58dd8d48988d1e0931735","name":"Coffee Shop","pluralName":"Coffee Shops","shortName":"Coffee Shop","icon":{"prefix":"https:\/\/ss1.4sqi.net\/img\/categories_v2\/food\/coffeeshop_","suffix":".png"},"primary":"true"}],"verified":"false","restricted":"true","stats":{"checkinsCount":"1262","usersCount":"984","tipCount":"10"},"menu":{"type":"Menu","label":"Menu","anchor":"View Menu","url":"https:\/\/foursquare.com\/v\/caff%C3%A8-nero\/4b4d944ef964a52059d426e3\/menu","mobileUrl":"https:\/\/foursquare.com\/v\/4b4d944ef964a52059d426e3\/device_menu"},"specials":{"count":"0"},"hereNow":{"count":"0"},"referralId":"v-1392478028"},{"id":"4b8a8cb1f964a520cf7132e3","name":"Wasabi","location":{"address":"42 Piccadilly","lat":"51.508582196691954","lng":"-0.13792991638183594","distance":"79","postalCode":"W1J 0DS","cc":"GB","city":"London","state":"Greater London","country":"United Kingdom"},"categories":[{"id":"4bf58dd8d48988d1d2941735","name":"Sushi Restaurant","pluralName":"Sushi Restaurants","shortName":"Sushi","icon":{"prefix":"https:\/\/ss1.4sqi.net\/img\/categories_v2\/food\/sushi_","suffix":".png"},"primary":"true"}],"verified":"false","restricted":"true","stats":{"checkinsCount":"579","usersCount":"353","tipCount":"9"},"specials":{"count":"0"},"hereNow":{"count":"0"},"referralId":"v-1392478028"},{"id":"4b268d2af964a520627d24e3","name":"UNIQLO","contact":{"phone":"+442074349688","formattedPhone":"+44 20 7434 9688","twitter":"uniqlo_uk"},"location":{"address":"84-86 Regent St","lat":"51.510097","lng":"-0.137245","distance":"97","postalCode":"W1B 5RR","cc":"GB","city":"London","state":"Greater London","country":"United Kingdom"},"categories":[{"id":"4bf58dd8d48988d103951735","name":"Clothing Store","pluralName":"Clothing Stores","shortName":"Apparel","icon":{"prefix":"https:\/\/ss1.4sqi.net\/img\/categories_v2\/shops\/apparel_","suffix":".png"},"primary":"true"}],"verified":"true","restricted":"true","stats":{"checkinsCount":"1251","usersCount":"940","tipCount":"11"},"url":"http:\/\/www.uniqlo.com\/uk\/","specials":{"count":"0"},"hereNow":{"count":"0"},"storeId":"","referralId":"v-1392478028"},{"id":"52b479d0498e774bb24eb73a","name":"Regent Street","location":{"lat":"51.510494903362634","lng":"-0.13845545488515457","distance":"141","cc":"GB","country":"United Kingdom"},"categories":[{"id":"4bf58dd8d48988d1ff941735","name":"Miscellaneous Shop","pluralName":"Miscellaneous Shops","shortName":"Shop","icon":{"prefix":"https:\/\/ss1.4sqi.net\/img\/categories_v2\/shops\/default_","suffix":".png"},"primary":"true"}],"verified":"false","restricted":"true","stats":{"checkinsCount":"124","usersCount":"115","tipCount":"0"},"specials":{"count":"0"},"hereNow":{"count":"0"},"referralId":"v-1392478028"},{"id":"4ac518e9f964a520c0ab20e3","name":"St. James's Church","contact":{"phone":"+442077344511","formattedPhone":"+44 20 7734 4511"},"location":{"address":"197 Piccadilly","lat":"51.50883774221905","lng":"-0.13684786391547288","distance":"83","postalCode":"W1J 9LL","cc":"GB","city":"London","state":"Greater London","country":"United Kingdom"},"categories":[{"id":"4bf58dd8d48988d132941735","name":"Church","pluralName":"Churches","shortName":"Church","icon":{"prefix":"https:\/\/ss1.4sqi.net\/img\/categories_v2\/building\/religious_church_","suffix":".png"},"primary":"true"}],"verified":"false","restricted":"true","stats":{"checkinsCount":"841","usersCount":"650","tipCount":"9"},"specials":{"count":"0"},"hereNow":{"count":"0"},"referralId":"v-1392478028"},{"id":"4baa0f65f964a52074473ae3","name":"Subway","contact":{"phone":"+442077342999","formattedPhone":"+44 20 7734 2999","twitter":"subwayukireland"},"location":{"address":"8 Sackville St.","crossStreet":"Near Piccadilly","lat":"51.509292","lng":"-0.138135","distance":"23","postalCode":"W1S 3EZ","cc":"GB","city":"London","state":"Greater London","country":"United Kingdom"},"categories":[{"id":"4bf58dd8d48988d1c5941735","name":"Sandwich Place","pluralName":"Sandwich Places","shortName":"Sandwiches","icon":{"prefix":"https:\/\/ss1.4sqi.net\/img\/categories_v2\/food\/sandwiches_","suffix":".png"},"primary":"true"}],"verified":"true","restricted":"true","stats":{"checkinsCount":"168","usersCount":"95","tipCount":"2"},"url":"http:\/\/www.subway.co.uk","specials":{"count":"0"},"hereNow":{"count":"0"},"storeId":"33882","referralId":"v-1392478028"},{"id":"50017c4ae4b02f063cb83f6e","name":"BAFTA Members Bar","location":{"address":"195 Piccadilly","lat":"51.50878537550311","lng":"-0.13783832025832682","distance":"56","cc":"GB","city":"London","state":"Greater London","country":"United Kingdom"},"categories":[{"id":"4bf58dd8d48988d121941735","name":"Lounge","pluralName":"Lounges","shortName":"Lounge","icon":{"prefix":"https:\/\/ss1.4sqi.net\/img\/categories_v2\/nightlife\/lounge_","suffix":".png"},"primary":"true"}],"verified":"false","restricted":"true","stats":{"checkinsCount":"128","usersCount":"77","tipCount":"1"},"specials":{"count":"0"},"hereNow":{"count":"0"},"referralId":"v-1392478028"},{"id":"4baa01e9f964a5204d433ae3","name":"EAT.","contact":{"phone":"+442076368392","formattedPhone":"+44 20 7636 8392","twitter":"eat_news"},"location":{"address":"36\/38 Piccadilly","crossStreet":"at Swallow St","lat":"51.50898452029865","lng":"-0.13716548681259155","distance":"55","postalCode":"W1J 0DP","cc":"GB","city":"London","state":"Greater London","country":"United Kingdom"},"categories":[{"id":"4bf58dd8d48988d1c5941735","name":"Sandwich Place","pluralName":"Sandwich Places","shortName":"Sandwiches","icon":{"prefix":"https:\/\/ss1.4sqi.net\/img\/categories_v2\/food\/sandwiches_","suffix":".png"},"primary":"true"}],"verified":"true","restricted":"true","stats":{"checkinsCount":"427","usersCount":"327","tipCount":"5"},"url":"http:\/\/www.eat.co.uk","menu":{"type":"Menu","label":"Menu","anchor":"View Menu","url":"https:\/\/foursquare.com\/v\/eat\/4baa01e9f964a5204d433ae3\/menu","mobileUrl":"https:\/\/foursquare.com\/v\/4baa01e9f964a5204d433ae3\/device_menu"},"specials":{"count":"0"},"hereNow":{"count":"0"},"storeId":"EAT - Piccadilly","referralId":"v-1392478028"},{"id":"4ac518e1f964a5204faa20e3","name":"Fishworks","location":{"address":"7-9 Swallow St.","lat":"51.5093983","lng":"-0.1374605","distance":"26","postalCode":"W1B 4DG","cc":"GB","city":"London","state":"Greater London","country":"United Kingdom"},"categories":[{"id":"4bf58dd8d48988d1ce941735","name":"Seafood Restaurant","pluralName":"Seafood Restaurants","shortName":"Seafood","icon":{"prefix":"https:\/\/ss1.4sqi.net\/img\/categories_v2\/food\/seafood_","suffix":".png"},"primary":"true"}],"verified":"false","restricted":"true","stats":{"checkinsCount":"243","usersCount":"186","tipCount":"6"},"url":"http:\/\/www.fishworks.co.uk","menu":{"type":"Menu","label":"Menu","anchor":"View Menu","url":"https:\/\/foursquare.com\/v\/fishworks\/4ac518e1f964a5204faa20e3\/menu","mobileUrl":"https:\/\/foursquare.com\/v\/4ac518e1f964a5204faa20e3\/device_menu"},"specials":{"count":"0"},"hereNow":{"count":"0"},"referralId":"v-1392478028"},{"id":"4ac518dbf964a52004a920e3","name":"Yoshino","location":{"address":"3 Piccadilly Pl","lat":"51.509274973354295","lng":"-0.13698356878996756","distance":"56","postalCode":"W1J 0DB","cc":"GB","city":"London","state":"Greater London","country":"United Kingdom"},"categories":[{"id":"4bf58dd8d48988d1d2941735","name":"Sushi Restaurant","pluralName":"Sushi Restaurants","shortName":"Sushi","icon":{"prefix":"https:\/\/ss1.4sqi.net\/img\/categories_v2\/food\/sushi_","suffix":".png"},"primary":"true"}],"verified":"false","restricted":"true","stats":{"checkinsCount":"504","usersCount":"310","tipCount":"17"},"specials":{"count":"0"},"hereNow":{"count":"0"},"referralId":"v-1392478028"},{"id":"524fe77011d21928769778ad","name":"Keeper's House","location":{"lat":"51.509068","lng":"-0.139196","distance":"99","cc":"GB","country":"United Kingdom"},"categories":[{"id":"4bf58dd8d48988d1e2931735","name":"Art Gallery","pluralName":"Art Galleries","shortName":"Art Gallery","icon":{"prefix":"https:\/\/ss1.4sqi.net\/img\/categories_v2\/arts_entertainment\/artgallery_","suffix":".png"},"primary":"true"}],"verified":"false","restricted":"true","stats":{"checkinsCount":"12","usersCount":"9","tipCount":"2"},"reservations":{"url":"http:\/\/www.toptable.co.uk\/single.aspx?rid=99879&ref=9601"},"specials":{"count":"0"},"hereNow":{"count":"1","groups":[{"type":"others","name":"Other people here","count":"1"}]},"referralId":"v-1392478028"},{"id":"4ac518f2f964a5204fae20e3","name":"Minamoto Japanese Confectionary","location":{"address":"44 Piccadilly","lat":"51.50867215901494","lng":"-0.13800353988161926","distance":"70","postalCode":"W1J ODS","cc":"GB","city":"London","state":"Greater London","country":"United Kingdom"},"categories":[{"id":"4bf58dd8d48988d1d0941735","name":"Dessert Shop","pluralName":"Dessert Shops","shortName":"Desserts","icon":{"prefix":"https:\/\/ss1.4sqi.net\/img\/categories_v2\/food\/dessert_","suffix":".png"},"primary":"true"}],"verified":"false","restricted":"true","stats":{"checkinsCount":"258","usersCount":"201","tipCount":"8"},"specials":{"count":"0"},"hereNow":{"count":"0"},"referralId":"v-1392478028"},{"id":"4b4d924ef964a5203fd426e3","name":"Caff\u00e8 Nero","contact":{"phone":"+442074379419","formattedPhone":"+44 20 7437 9419"},"location":{"address":"35 Jermyn St.","crossStreet":"In St. James Church Courtyard off Picadilly","lat":"51.508552","lng":"-0.13693749904632568","distance":"101","postalCode":"SW1 6DT","cc":"GB","city":"London","state":"Greater London","country":"United Kingdom"},"categories":[{"id":"4bf58dd8d48988d1e0931735","name":"Coffee Shop","pluralName":"Coffee Shops","shortName":"Coffee Shop","icon":{"prefix":"https:\/\/ss1.4sqi.net\/img\/categories_v2\/food\/coffeeshop_","suffix":".png"},"primary":"true"}],"verified":"false","restricted":"true","stats":{"checkinsCount":"659","usersCount":"367","tipCount":"7"},"menu":{"type":"Menu","label":"Menu","anchor":"View Menu","url":"https:\/\/foursquare.com\/v\/caff%C3%A8-nero\/4b4d924ef964a5203fd426e3\/menu","mobileUrl":"https:\/\/foursquare.com\/v\/4b4d924ef964a5203fd426e3\/device_menu"},"specials":{"count":"0"},"hereNow":{"count":"0"},"referralId":"v-1392478028"}],"confident":"true"}}