{"meta":{"code":"200"},"response":{"venues":[{"id":"4ac518c3f964a52043a420e3","name":"Cittie of Yorke","contact":{"phone":"+442072427670","formattedPhone":"+44 20 7242 7670"},"location":{"address":"22 High Holborn","lat":"51.518339067403815","lng":"-0.11267739115098095","distance":"106","postalCode":"WC1V 6BN","cc":"GB","city":"Holborn","state":"Greater London","country":"United Kingdom"},"categories":[{"id":"4bf58dd8d48988d11b941735","name":"Pub","pluralName":"Pubs","shortName":"Pub","icon":{"prefix":"https:\/\/ss1.4sqi.net\/img\/categories_v2\/nightlife\/pub_","suffix":".png"},"primary":"true"}],"verified":"false","restricted":"true","stats":{"checkinsCount":"2288","usersCount":"1539","tipCount":"32"},"specials":{"count":"0"},"hereNow":{"count":"0"},"referralId":"v-1392478004"},{"id":"4c29e0b6fe6e2d7ff169553c","name":"Konditor & Cook","contact":{"phone":"+448448549365","formattedPhone":"+44 844 854 9365","twitter":"kc_graysinn"},"location":{"address":"46 Grays Inn Rd.","crossStreet":"Baldwin's Gdns.","lat":"51.51963895991333","lng":"-0.11202782392501831","distance":"66","postalCode":"WC1X 8LR","cc":"GB","city":"London","state":"Greater London","country":"United Kingdom"},"categories":[{"id":"4bf58dd8d48988d1bc941735","name":"Cupcake Shop","pluralName":"Cupcake Shops","shortName":"Cupcakes","icon":{"prefix":"https:\/\/ss1.4sqi.net\/img\/categories_v2\/food\/cupcakes_","suffix":".png"},"primary":"true"}],"verified":"false","restricted":"true","stats":{"checkinsCount":"469","usersCount":"221","tipCount":"12"},"url":"http:\/\/www.konditorandcook.com","specials":{"count":"0"},"hereNow":{"count":"0"},"referralId":"v-1392478004"},{"id":"4b02d2f8f964a520204a22e3","name":"EAT.","contact":{"phone":"+442076368411","formattedPhone":"+44 20 7636 8411","twitter":"eat_news"},"location":{"address":"2 Grays Inn Rd.","lat":"51.51833044921744","lng":"-0.11222362518310547","distance":"114","postalCode":"WC1X 8HG","cc":"GB","city":"Holborn","state":"Greater London","country":"United Kingdom"},"categories":[{"id":"4bf58dd8d48988d1c5941735","name":"Sandwich Place","pluralName":"Sandwich Places","shortName":"Sandwiches","icon":{"prefix":"https:\/\/ss1.4sqi.net\/img\/categories_v2\/food\/sandwiches_","suffix":".png"},"primary":"true"}],"verified":"true","restricted":"true","stats":{"checkinsCount":"888","usersCount":"283","tipCount":"5"},"url":"http:\/\/www.eat.co.uk","specials":{"count":"0"},"hereNow":{"count":"0"},"storeId":"EAT - Grays Inn","referralId":"v-1392478004"},{"id":"50b609aae4b09eef28a9a03d","name":"abokado","location":{"address":"48 Grays Inn Road","lat":"51.519582124898456","lng":"-0.11193524533158739","distance":"68","cc":"GB","city":"London","state":"Greater London","country":"United Kingdom"},"categories":[{"id":"4bf58dd8d48988d1c7941735","name":"Snack Place","pluralName":"Snack Places","shortName":"Snacks","icon":{"prefix":"https:\/\/ss1.4sqi.net\/img\/categories_v2\/food\/snacks_","suffix":".png"},"primary":"true"}],"verified":"false","restricted":"true","stats":{"checkinsCount":"155","usersCount":"43","tipCount":"2"},"specials":{"count":"0"},"hereNow":{"count":"0"},"referralId":"v-1392478004"},{"id":"5062c28be4b0b8d63d7a571f","name":"Play.com London","location":{"lat":"51.518431","lng":"-0.112136","distance":"106","cc":"GB","country":"United Kingdom"},"categories":[{"id":"4bf58dd8d48988d124941735","name":"Office","pluralName":"Offices","shortName":"Office","icon":{"prefix":"https:\/\/ss1.4sqi.net\/img\/categories_v2\/building\/default_","suffix":".png"},"primary":"true"}],"verified":"false","restricted":"true","stats":{"checkinsCount":"264","usersCount":"14","tipCount":"0"},"specials":{"count":"0"},"hereNow":{"count":"0"},"referralId":"v-1392478004"},{"id":"4b7d4059f964a520bab42fe3","name":"Marks & Spencer","contact":{"phone":"+442072426538","formattedPhone":"+44 20 7242 6538"},"location":{"address":"323-324 High Holborn","lat":"51.51831902245046","lng":"-0.1123000767140577","distance":"113","postalCode":"WC1V 7PU","cc":"GB","city":"Holborn","state":"Greater London","country":"United Kingdom"},"categories":[{"id":"4bf58dd8d48988d118951735","name":"Grocery Store","pluralName":"Grocery Stores","shortName":"Grocery Store","icon":{"prefix":"https:\/\/ss1.4sqi.net\/img\/categories_v2\/shops\/food_grocery_","suffix":".png"},"primary":"true"}],"verified":"true","restricted":"true","stats":{"checkinsCount":"998","usersCount":"293","tipCount":"4"},"specials":{"count":"0"},"hereNow":{"count":"0"},"storeId":"Chancery Lane Simply Food","referralId":"v-1392478004"},{"id":"4c7e4c3bd598a093eb44c562","name":"Holborn Muslim Community Centre","location":{"address":"Brookes Court","lat":"51.51941182697849","lng":"-0.1116313019915275","distance":"82","cc":"GB","city":"Camden Town","state":"Greater London","country":"United Kingdom"},"categories":[{"id":"4bf58dd8d48988d138941735","name":"Mosque","pluralName":"Mosques","shortName":"Mosque","icon":{"prefix":"https:\/\/ss1.4sqi.net\/img\/categories_v2\/building\/religious_mosque_","suffix":".png"},"primary":"true"}],"verified":"false","restricted":"true","stats":{"checkinsCount":"459","usersCount":"28","tipCount":"3"},"specials":{"count":"0"},"hereNow":{"count":"0"},"referralId":"v-1392478004"},{"id":"4b9fae0bf964a5203e3437e3","name":"Costa Coffee","location":{"address":"311-318 High Holborn","lat":"51.518333597464114","lng":"-0.11303888720513147","distance":"107","postalCode":"WC1V 7BB","cc":"GB","city":"Chancery Lane","state":"Greater London","country":"United Kingdom"},"categories":[{"id":"4bf58dd8d48988d1e0931735","name":"Coffee Shop","pluralName":"Coffee Shops","shortName":"Coffee Shop","icon":{"prefix":"https:\/\/ss1.4sqi.net\/img\/categories_v2\/food\/coffeeshop_","suffix":".png"},"primary":"true"}],"verified":"false","restricted":"true","stats":{"checkinsCount":"608","usersCount":"310","tipCount":"4"},"specials":{"count":"0"},"hereNow":{"count":"0"},"referralId":"v-1392478004"},{"id":"50699ab7e4b0298866015510","name":"Salon House","contact":{"phone":"+442074047067","formattedPhone":"+44 20 7404 7067"},"location":{"address":"42 Grays Inn Road","lat":"51.51939750724861","lng":"-0.11183236666796054","distance":"68","postalCode":"WC1X 8LR","cc":"GB","city":"London","state":"Greater London","country":"United Kingdom"},"categories":[{"id":"4bf58dd8d48988d110951735","name":"Salon \/ Barbershop","pluralName":"Salons \/ Barbershops","shortName":"Salon \/ Barbershop","icon":{"prefix":"https:\/\/ss1.4sqi.net\/img\/categories_v2\/shops\/salon_barber_","suffix":".png"},"primary":"true"}],"verified":"false","restricted":"true","stats":{"checkinsCount":"23","usersCount":"13","tipCount":"1"},"specials":{"count":"0"},"hereNow":{"count":"0"},"referralId":"v-1392478004"},{"id":"4af42e2ef964a5206ef021e3","name":"Argos","contact":{"twitter":"argos_online"},"location":{"address":"5 Gray'S Inn Road","crossStreet":"btwn. Gray's Inn & High Holborn","lat":"51.518585","lng":"-0.111566","distance":"116","postalCode":"WC1X 8PH","cc":"GB","country":"United Kingdom"},"categories":[{"id":"4bf58dd8d48988d1f6941735","name":"Department Store","pluralName":"Department Stores","shortName":"Department Store","icon":{"prefix":"https:\/\/ss1.4sqi.net\/img\/categories_v2\/shops\/departmentstore_","suffix":".png"},"primary":"true"}],"verified":"true","restricted":"true","stats":{"checkinsCount":"428","usersCount":"331","tipCount":"5"},"specials":{"count":"0"},"hereNow":{"count":"0"},"storeId":"","referralId":"v-1392478004"},{"id":"4bb4ec8a310276b0038acf90","name":"The Fullwood","location":{"address":"Fullwood Place","crossStreet":"Off High Holborn","lat":"51.51875772214974","lng":"-0.11363983154296875","distance":"82","postalCode":"Wc1v 6hz","cc":"GB","city":"London","state":"Greater London","country":"United Kingdom"},"categories":[{"id":"4bf58dd8d48988d116941735","name":"Bar","pluralName":"Bars","shortName":"Bar","icon":{"prefix":"https:\/\/ss1.4sqi.net\/img\/categories_v2\/nightlife\/bar_","suffix":".png"},"primary":"true"}],"verified":"false","restricted":"true","stats":{"checkinsCount":"109","usersCount":"69","tipCount":"0"},"specials":{"count":"0"},"hereNow":{"count":"0"},"referralId":"v-1392478004"},{"id":"527bd31f498e2d6762ce85a8","name":"Gray's Inn","location":{"lat":"51.51912408792328","lng":"-0.11214090500107156","distance":"49","cc":"GB","country":"United Kingdom"},"categories":[{"id":"50328a8e91d4c4b30a586d6c","name":"Non-Profit","pluralName":"Non-Profits","shortName":"Non-Profit","icon":{"prefix":"https:\/\/ss1.4sqi.net\/img\/categories_v2\/building\/default_","suffix":".png"},"primary":"true"}],"verified":"false","restricted":"true","stats":{"checkinsCount":"4","usersCount":"4","tipCount":"0"},"specials":{"count":"0"},"hereNow":{"count":"0"},"referralId":"v-1392478004"},{"id":"4cd2a28ddf88a35d86e469a0","name":"Chancery Lane Station Bus Stop","location":{"address":"High Holborn","lat":"51.51830925862426","lng":"-0.11162387661607838","distance":"136","postalCode":"WC1V 6DR","cc":"GB","city":"Holborn","state":"Greater London","country":"United Kingdom"},"categories":[{"id":"4bf58dd8d48988d12b951735","name":"Bus Line","pluralName":"Bus Lines","shortName":"Bus","icon":{"prefix":"https:\/\/ss1.4sqi.net\/img\/categories_v2\/travel\/busstation_","suffix":".png"},"primary":"true"}],"verified":"false","restricted":"true","stats":{"checkinsCount":"574","usersCount":"260","tipCount":"0"},"specials":{"count":"0"},"hereNow":{"count":"0"},"referralId":"v-1392478004"},{"id":"4f17d71ae4b02d2c5a94e1e9","name":"Abokado","location":{"address":"14 High Holborn","lat":"51.5182780860309","lng":"-0.11210888950016108","distance":"122","cc":"GB","city":"London","country":"United Kingdom"},"categories":[{"id":"4bf58dd8d48988d146941735","name":"Deli \/ Bodega","pluralName":"Delis \/ Bodegas","shortName":"Deli \/ Bodega","icon":{"prefix":"https:\/\/ss1.4sqi.net\/img\/categories_v2\/food\/deli_","suffix":".png"},"primary":"true"}],"verified":"false","restricted":"true","stats":{"checkinsCount":"207","usersCount":"82","tipCount":"4"},"specials":{"count":"0"},"hereNow":{"count":"0"},"referralId":"v-1392478004"},{"id":"4b055044f964a520b15722e3","name":"Appetite","contact":{"phone":"+442072421050","formattedPhone":"+44 20 7242 1050"},"location":{"address":"38 Gray's Inn Rd","crossStreet":"Brooke's court","lat":"51.519349","lng":"-0.11192","distance":"61","postalCode":"WC1X 8JP","cc":"GB","city":"London","state":"Greater London","country":"United Kingdom"},"categories":[{"id":"4bf58dd8d48988d1c5941735","name":"Sandwich Place","pluralName":"Sandwich Places","shortName":"Sandwiches","icon":{"prefix":"https:\/\/ss1.4sqi.net\/img\/categories_v2\/food\/sandwiches_","suffix":".png"},"primary":"true"}],"verified":"false","restricted":"true","stats":{"checkinsCount":"61","usersCount":"23","tipCount":"2"},"menu":{"type":"Menu","label":"Menu","anchor":"View Menu","url":"https:\/\/foursquare.com\/v\/appetite\/4b055044f964a520b15722e3\/menu","mobileUrl":"https:\/\/foursquare.com\/v\/4b055044f964a520b15722e3\/device_menu"},"specials":{"count":"0"},"hereNow":{"count":"0"},"referralId":"v-1392478004"},{"id":"4bf284449319a593c201cb51","name":"HostelBookers","location":{"address":"52 - 54 High Holborn","lat":"51.518410563197584","lng":"-0.11338233947753906","distance":"105","postalCode":"WC1V 6RL","cc":"GB","city":"London","state":"Greater London","country":"United Kingdom"},"categories":[{"id":"4bf58dd8d48988d124941735","name":"Office","pluralName":"Offices","shortName":"Office","icon":{"prefix":"https:\/\/ss1.4sqi.net\/img\/categories_v2\/building\/default_","suffix":".png"},"primary":"true"}],"verified":"false","restricted":"true","stats":{"checkinsCount":"1640","usersCount":"20","tipCount":"5"},"specials":{"count":"0"},"hereNow":{"count":"0"},"referralId":"v-1392478004"},{"id":"5126156ee4b0d2fe635f9b46","name":"Rakuten Marketing","location":{"address":"16 High Holborn","lat":"51.518387","lng":"-0.112208","distance":"108","postalCode":"WC1V 6BX","cc":"GB","city":"London","state":"Greater London","country":"United Kingdom"},"categories":[{"id":"4bf58dd8d48988d124941735","name":"Office","pluralName":"Offices","shortName":"Office","icon":{"prefix":"https:\/\/ss1.4sqi.net\/img\/categories_v2\/building\/default_","suffix":".png"},"primary":"true"}],"verified":"false","restricted":"true","stats":{"checkinsCount":"167","usersCount":"9","tipCount":"0"},"specials":{"count":"0"},"hereNow":{"count":"0"},"referralId":"v-1392478004"},{"id":"4ceea4c0f368b1f761c481f7","name":"City Law School Library","location":{"address":"Gray's Inn","lat":"51.518998061412674","lng":"-0.1144176721572876","distance":"116","cc":"GB","city":"London","state":"Greater London","country":"United Kingdom"},"categories":[{"id":"4bf58dd8d48988d12f941735","name":"Library","pluralName":"Libraries","shortName":"Library","icon":{"prefix":"https:\/\/ss1.4sqi.net\/img\/categories_v2\/building\/library_","suffix":".png"},"primary":"true"}],"verified":"false","restricted":"true","stats":{"checkinsCount":"123","usersCount":"21","tipCount":"0"},"specials":{"count":"0"},"hereNow":{"count":"0"},"referralId":"v-1392478004"},{"id":"50eb66fb7043f5c9b55e454e","name":"Chancery Station House","location":{"address":"32 High Holborn","crossStreet":"on High Holborn","lat":"51.51835047772569","lng":"-0.11314630508422853","distance":"107","postalCode":"WC1V 6AX","cc":"GB","city":"Holborn","state":"Greater London","country":"United Kingdom"},"categories":[{"id":"4d954b06a243a5684965b473","name":"Residential Building (Apartment \/ Condo)","pluralName":"Residential Buildings (Apartments \/ Condos)","shortName":"Residential","icon":{"prefix":"https:\/\/ss1.4sqi.net\/img\/categories_v2\/building\/apartment_","suffix":".png"},"primary":"true"}],"verified":"false","restricted":"true","stats":{"checkinsCount":"1","usersCount":"1","tipCount":"0"},"specials":{"count":"0"},"hereNow":{"count":"0"},"referralId":"v-1392478004"},{"id":"4bb34ae814cfd13affd115ab","name":"Holland & Barrett","contact":{"phone":"+442074309346","formattedPhone":"+44 20 7430 9346","twitter":"holland_barrett"},"location":{"address":"8 High Holborn","crossStreet":"at Gray's Inn Rd","lat":"51.518290392174535","lng":"-0.11190176010131836","distance":"127","postalCode":"WC1V 6DR","cc":"GB","city":"Holborn","state":"Greater London","country":"United Kingdom"},"categories":[{"id":"50aa9e744b90af0d42d5de0e","name":"Health Food Store","pluralName":"Health Food Stores","shortName":"Health Food Store","icon":{"prefix":"https:\/\/ss1.4sqi.net\/img\/categories_v2\/shops\/food_grocery_","suffix":".png"},"primary":"true"}],"verified":"false","restricted":"true","stats":{"checkinsCount":"179","usersCount":"61","tipCount":"1"},"url":"http:\/\/www.hollandandbarrett.com","specials":{"count":"0"},"hereNow":{"count":"0"},"referralId":"v-1392478004"},{"id":"527b6b41498e9643bc800768","name":"Santander","location":{"address":"High Holborn","lat":"51.518286","lng":"-0.113393","distance":"118","cc":"GB","country":"United Kingdom"},"categories":[{"id":"4bf58dd8d48988d124941735","name":"Office","pluralName":"Offices","shortName":"Office","icon":{"prefix":"https:\/\/ss1.4sqi.net\/img\/categories_v2\/building\/default_","suffix":".png"},"primary":"true"}],"verified":"false","restricted":"true","stats":{"checkinsCount":"14","usersCount":"2","tipCount":"0"},"specials":{"count":"0"},"hereNow":{"count":"0"},"referralId":"v-1392478004"},{"id":"4f44d61be4b0d8525e4a1f2e","name":"WCG","location":{"address":"16 High Holborn","crossStreet":"Gray's Inn Road","lat":"51.51833449416371","lng":"-0.11222971033037617","distance":"113","postalCode":"WC1V 6BX","cc":"GB","city":"London","state":"Greater London","country":"United Kingdom"},"categories":[{"id":"4bf58dd8d48988d124941735","name":"Office","pluralName":"Offices","shortName":"Office","icon":{"prefix":"https:\/\/ss1.4sqi.net\/img\/categories_v2\/building\/default_","suffix":".png"},"primary":"true"}],"verified":"false","restricted":"true","stats":{"checkinsCount":"58","usersCount":"11","tipCount":"1"},"specials":{"count":"0"},"hereNow":{"count":"0"},"referralId":"v-1392478004"},{"id":"524175e011d2fccf22568b05","name":"Academy Of Experts","location":{"address":"Grays Inn Square","lat":"51.51956087714277","lng":"-0.11264466099661673","distance":"32","cc":"GB","country":"United Kingdom"},"categories":[{"id":"50328a8e91d4c4b30a586d6c","name":"Non-Profit","pluralName":"Non-Profits","shortName":"Non-Profit","icon":{"prefix":"https:\/\/ss1.4sqi.net\/img\/categories_v2\/building\/default_","suffix":".png"},"primary":"true"}],"verified":"false","restricted":"true","stats":{"checkinsCount":"2","usersCount":"1","tipCount":"0"},"specials":{"count":"0"},"hereNow":{"count":"0"},"referralId":"v-1392478004"},{"id":"4fc388cce4b07c20ea86ad31","name":"Post Office","location":{"address":"19\/20 High Holborn","lat":"51.518354682438336","lng":"-0.11280414314481604","distance":"104","cc":"GB","city":"London","state":"Greater London","country":"United Kingdom"},"categories":[{"id":"4bf58dd8d48988d172941735","name":"Post Office","pluralName":"Post Offices","shortName":"Post Office","icon":{"prefix":"https:\/\/ss1.4sqi.net\/img\/categories_v2\/building\/postoffice_","suffix":".png"},"primary":"true"}],"verified":"false","restricted":"true","stats":{"checkinsCount":"97","usersCount":"51","tipCount":"1"},"specials":{"count":"0"},"hereNow":{"count":"0"},"referralId":"v-1392478004"},{"id":"4be1974658102d7f51ed4156","name":"Ryness Holborn","location":{"lat":"51.51824543515964","lng":"-0.113727558138368","distance":"132","cc":"GB","country":"United Kingdom"},"categories":[{"id":"4bf58dd8d48988d112951735","name":"Hardware Store","pluralName":"Hardware Stores","shortName":"Hardware","icon":{"prefix":"https:\/\/ss1.4sqi.net\/img\/categories_v2\/shops\/hardware_","suffix":".png"},"primary":"true"}],"verified":"false","restricted":"true","stats":{"checkinsCount":"18","usersCount":"13","tipCount":"1"},"specials":{"count":"0"},"hereNow":{"count":"0"},"referralId":"v-1392478004"},{"id":"52cdc89111d22fb22c14c1a8","name":"Bus Stop F","location":{"lat":"51.51845169067383","lng":"-0.11200056970119476","distance":"108","cc":"GB","country":"United Kingdom"},"categories":[{"id":"4bf58dd8d48988d1fe931735","name":"Bus Station","pluralName":"Bus Stations","shortName":"Bus Station","icon":{"prefix":"https:\/\/ss1.4sqi.net\/img\/categories_v2\/travel\/busstation_","suffix":".png"},"primary":"true"}],"verified":"false","restricted":"true","stats":{"checkinsCount":"1","usersCount":"1","tipCount":"0"},"specials":{"count":"0"},"hereNow":{"count":"0"},"referralId":"v-1392478004"},{"id":"4bb514b046d4a5933e86c4c0","name":"Peter Gold's House","location":{"lat":"51.518257140656424","lng":"-0.11230974157419896","distance":"119","cc":"GB","country":"United Kingdom"},"categories":[{"id":"4bf58dd8d48988d159941735","name":"Trail","pluralName":"Trails","shortName":"Trail","icon":{"prefix":"https:\/\/ss1.4sqi.net\/img\/categories_v2\/parks_outdoors\/hikingtrail_","suffix":".png"},"primary":"true"}],"verified":"false","restricted":"true","stats":{"checkinsCount":"126","usersCount":"20","tipCount":"7"},"specials":{"count":"0"},"hereNow":{"count":"0"},"referralId":"v-1392478004"},{"id":"4c487b5c889fc9b69ec41e34","name":"7 High Holborn","location":{"address":"7 High Holborn","lat":"51.51858132319752","lng":"-0.11182928119706927","distance":"103","cc":"GB","city":"London","state":"Greater London","country":"United Kingdom"},"categories":[{"id":"4bf58dd8d48988d130941735","name":"Building","pluralName":"Buildings","shortName":"Building","icon":{"prefix":"https:\/\/ss1.4sqi.net\/img\/categories_v2\/building\/default_","suffix":".png"},"primary":"true"}],"verified":"false","restricted":"true","stats":{"checkinsCount":"109","usersCount":"21","tipCount":"0"},"specials":{"count":"0"},"hereNow":{"count":"0"},"referralId":"v-1392478004"},{"id":"4e1d87652271ff848fe7307d","name":"World Gourmet Wraps","location":{"lat":"51.519644","lng":"-0.112462","distance":"46","cc":"GB","city":"London","state":"Greater London","country":"United Kingdom"},"categories":[{"id":"4d4b7105d754a06374d81259","name":"Food","pluralName":"Food","shortName":"Food","icon":{"prefix":"https:\/\/ss1.4sqi.net\/img\/categories_v2\/food\/default_","suffix":".png"},"primary":"true"}],"verified":"false","restricted":"true","stats":{"checkinsCount":"3","usersCount":"3","tipCount":"1"},"specials":{"count":"0"},"hereNow":{"count":"0"},"referralId":"v-1392478004"},{"id":"52bd7f41498ed0449f2f009f","name":"Hands-on Therapies","location":{"address":"239 HIgh Holborn","lat":"51.5197","lng":"-0.1119","distance":"77","cc":"GB","city":"London","state":"Greater London","country":"United Kingdom"},"categories":[{"id":"4bf58dd8d48988d175941735","name":"Gym \/ Fitness Center","pluralName":"Gyms or Fitness Centers","shortName":"Gym \/ Fitness","icon":{"prefix":"https:\/\/ss1.4sqi.net\/img\/categories_v2\/building\/gym_","suffix":".png"},"primary":"true"}],"verified":"false","restricted":"true","stats":{"checkinsCount":"2","usersCount":"1","tipCount":"0"},"specials":{"count":"0"},"hereNow":{"count":"0"},"referralId":"v-1392478004"}],"confident":"true"}}