{"meta":{"code":"200"},"response":{"venues":[{"id":"4ac518cef964a520f7a520e3","name":"Tower of London","contact":{"phone":"+448444827777","formattedPhone":"+44 844 482 7777"},"location":{"address":"Tower Hill","lat":"51.50802127486276","lng":"-0.07626056671142578","distance":"177","postalCode":"EC3N 4AB","cc":"GB","city":"London","state":"Greater London","country":"United Kingdom"},"categories":[{"id":"50aaa49e4b90af0d42d5de11","name":"Castle","pluralName":"Castles","shortName":"Castle","icon":{"prefix":"https:\/\/ss1.4sqi.net\/img\/categories_v2\/parks_outdoors\/default_","suffix":".png"},"primary":"true"}],"verified":"true","restricted":"true","stats":{"checkinsCount":"33807","usersCount":"28150","tipCount":"416"},"url":"http:\/\/www.hrp.org.uk","specials":{"count":"1","items":[{"id":"4d5b9cad528d8eecc4513889","type":"frequency","message":"HISTORY Channel offers a 10% discount in the restaurants and cafes at the Tower of London for hot and cold drinks and cakes\/pastries. Unfortunately not during school and bank holidays. T&Cs apply.","description":"Unlocked every check-in","icon":"check-in","title":"Check-in Special","provider":"foursquare","redemption":"standard"}]},"hereNow":{"count":"10","groups":[{"type":"others","name":"Other people here","count":"10"}]},"storeId":"","referralId":"v-1392478034"},{"id":"4b5c746ff964a520b43029e3","name":"Liberty Bounds (Wetherspoon)","contact":{"phone":"+442074810513","formattedPhone":"+44 20 7481 0513"},"location":{"address":"15 Trinity Sq.","lat":"51.50959718054336","lng":"-0.07862091064453125","distance":"66","postalCode":"EC3N 4AA","cc":"GB","city":"London","state":"Greater London","country":"United Kingdom"},"categories":[{"id":"4bf58dd8d48988d11b941735","name":"Pub","pluralName":"Pubs","shortName":"Pub","icon":{"prefix":"https:\/\/ss1.4sqi.net\/img\/categories_v2\/nightlife\/pub_","suffix":".png"},"primary":"true"}],"verified":"true","restricted":"true","stats":{"checkinsCount":"2919","usersCount":"1860","tipCount":"31"},"url":"http:\/\/www.jdwetherspoon.co.uk","specials":{"count":"0"},"hereNow":{"count":"1","groups":[{"type":"others","name":"Other people here","count":"1"}]},"referralId":"v-1392478034"},{"id":"4b70510cf964a52028122de3","name":"Tower of London Riverside Walk","location":{"address":"Thames Path","lat":"51.50786101021461","lng":"-0.07862091064453125","distance":"168","postalCode":"EC3","cc":"GB","city":"Tower of London","state":"Greater London","country":"United Kingdom"},"categories":[{"id":"4bf58dd8d48988d165941735","name":"Scenic Lookout","pluralName":"Scenic Lookouts","shortName":"Scenic Lookout","icon":{"prefix":"https:\/\/ss1.4sqi.net\/img\/categories_v2\/parks_outdoors\/sceniclookout_","suffix":".png"},"primary":"true"}],"verified":"false","restricted":"true","stats":{"checkinsCount":"4544","usersCount":"3715","tipCount":"13"},"specials":{"count":"0"},"hereNow":{"count":"2","groups":[{"type":"others","name":"Other people here","count":"2"}]},"referralId":"v-1392478034"},{"id":"4b9cbed4f964a5206e7936e3","name":"Starbucks","contact":{"twitter":"starbucksuk"},"location":{"address":"3 Tower Place, East Building","crossStreet":"East Building","lat":"51.50818153894719","lng":"-0.07892131805419922","distance":"145","postalCode":"EC3R 5BT","cc":"GB","city":"London","state":"Greater London","country":"United Kingdom"},"categories":[{"id":"4bf58dd8d48988d1e0931735","name":"Coffee Shop","pluralName":"Coffee Shops","shortName":"Coffee Shop","icon":{"prefix":"https:\/\/ss1.4sqi.net\/img\/categories_v2\/food\/coffeeshop_","suffix":".png"},"primary":"true"}],"verified":"true","restricted":"true","stats":{"checkinsCount":"2965","usersCount":"2568","tipCount":"18"},"url":"http:\/\/starbucks.co.uk","specials":{"count":"0"},"hereNow":{"count":"2","groups":[{"type":"others","name":"Other people here","count":"2"}]},"storeId":"1171","referralId":"v-1392478034"},{"id":"4c444a8c8c1f20a192263c99","name":"Tower Hill","location":{"address":"Tower Hill","crossStreet":"City of London","lat":"51.509837568143645","lng":"-0.07638931274414062","distance":"115","postalCode":"EC3N 4AB","cc":"GB","city":"London","state":"Greater London","country":"United Kingdom"},"categories":[{"id":"4f2a25ac4b909258e854f55f","name":"Neighborhood","pluralName":"Neighborhoods","shortName":"Neighborhood","icon":{"prefix":"https:\/\/ss1.4sqi.net\/img\/categories_v2\/parks_outdoors\/neighborhood_","suffix":".png"},"primary":"true"}],"verified":"false","restricted":"true","stats":{"checkinsCount":"5841","usersCount":"3600","tipCount":"4"},"specials":{"count":"0"},"hereNow":{"count":"0"},"referralId":"v-1392478034"},{"id":"528a80d811d2ec961071fabb","name":"Tower Hill Ice Skating","contact":{"phone":"+442082419818","formattedPhone":"+44 20 8241 9818","twitter":"iceatthetower"},"location":{"address":"Tower of London","lat":"51.5087737610735","lng":"-0.0775649200121808","distance":"59","postalCode":"EC3N 4AB","cc":"GB","city":"London","state":"Greater London","country":"United Kingdom"},"categories":[{"id":"4bf58dd8d48988d168941735","name":"Skating Rink","pluralName":"Skating Rinks","shortName":"Skating Rink","icon":{"prefix":"https:\/\/ss1.4sqi.net\/img\/categories_v2\/parks_outdoors\/skatingrink_","suffix":".png"},"primary":"true"}],"verified":"false","restricted":"true","stats":{"checkinsCount":"86","usersCount":"85","tipCount":"5"},"url":"http:\/\/www.toweroflondonicerink.com","specials":{"count":"0"},"hereNow":{"count":"0"},"referralId":"v-1392478034"},{"id":"4b77e7cbf964a52046ae2ee3","name":"Bodean's BBQ","contact":{"phone":"+442074883883","formattedPhone":"+44 20 7488 3883"},"location":{"address":"16 Byward St","lat":"51.509784148786515","lng":"-0.07922172546386719","distance":"112","postalCode":"EC3R 5BA","cc":"GB","city":"London","state":"Greater London","country":"United Kingdom"},"categories":[{"id":"4bf58dd8d48988d1df931735","name":"BBQ Joint","pluralName":"BBQ Joints","shortName":"BBQ","icon":{"prefix":"https:\/\/ss1.4sqi.net\/img\/categories_v2\/food\/bbq_","suffix":".png"},"primary":"true"}],"verified":"false","restricted":"true","stats":{"checkinsCount":"2209","usersCount":"1404","tipCount":"43"},"url":"http:\/\/www.bodeansbbq.com\/ourbranches\/branches.asp?location=tower","specials":{"count":"0"},"hereNow":{"count":"0"},"referralId":"v-1392478034"},{"id":"4af806e4f964a520bc0a22e3","name":"Wagamama","contact":{"phone":"+442072835897","formattedPhone":"+44 20 7283 5897"},"location":{"address":"2b Tower Place","lat":"51.508819128488135","lng":"-0.07880941269165355","distance":"87","postalCode":"EC3N 4EE","cc":"GB","city":"Tower Hill","state":"Greater London","country":"United Kingdom"},"categories":[{"id":"4bf58dd8d48988d1d1941735","name":"Ramen \/ Noodle House","pluralName":"Ramen \/ Noodle House","shortName":"Ramen \/ Noodles","icon":{"prefix":"https:\/\/ss1.4sqi.net\/img\/categories_v2\/food\/ramen_","suffix":".png"},"primary":"true"}],"verified":"false","restricted":"true","stats":{"checkinsCount":"1123","usersCount":"886","tipCount":"13"},"url":"http:\/\/wagamama.com","specials":{"count":"0"},"hereNow":{"count":"1","groups":[{"type":"others","name":"Other people here","count":"1"}]},"referralId":"v-1392478034"},{"id":"4db4228e81543d71da3ef5a4","name":"The Crown Jewels","contact":{"phone":"+448444827777","formattedPhone":"+44 844 482 7777"},"location":{"address":"The Jewel House","crossStreet":"The Tower of London","lat":"51.508416040403645","lng":"-0.07580235034272623","distance":"169","postalCode":"EC3N 4AB","cc":"GB","city":"London","state":"Greater London","country":"United Kingdom"},"categories":[{"id":"4bf58dd8d48988d190941735","name":"History Museum","pluralName":"History Museums","shortName":"History Museum","icon":{"prefix":"https:\/\/ss1.4sqi.net\/img\/categories_v2\/arts_entertainment\/museum_history_","suffix":".png"},"primary":"true"}],"verified":"false","restricted":"true","stats":{"checkinsCount":"2059","usersCount":"1848","tipCount":"15"},"specials":{"count":"0"},"hereNow":{"count":"2","groups":[{"type":"others","name":"Other people here","count":"2"}]},"referralId":"v-1392478034"},{"id":"50a2601dd86c571124aba3eb","name":"Starbucks","contact":{"twitter":"starbucksuk"},"location":{"address":"9 Byward Street","lat":"51.50954376090435","lng":"-0.078277587890625","distance":"43","postalCode":"EC3R 5AS","cc":"GB","city":"London","state":"Greater London","country":"United Kingdom"},"categories":[{"id":"4bf58dd8d48988d1e0931735","name":"Coffee Shop","pluralName":"Coffee Shops","shortName":"Coffee Shop","icon":{"prefix":"https:\/\/ss1.4sqi.net\/img\/categories_v2\/food\/coffeeshop_","suffix":".png"},"primary":"true"}],"verified":"true","restricted":"true","stats":{"checkinsCount":"349","usersCount":"153","tipCount":"1"},"specials":{"count":"0"},"hereNow":{"count":"0"},"referralId":"v-1392478034"},{"id":"4f2168ace4b0b69d787ef112","name":"DoubleTree by Hilton Hotel","contact":{"phone":"+442077091000","formattedPhone":"+44 20 7709 1000","twitter":"doubletree"},"location":{"address":"7 Pepys St","lat":"51.51093265116127","lng":"-0.07870674133300781","distance":"193","postalCode":"EC3N 4AF","cc":"GB","city":"London","state":"Greater London","country":"United Kingdom"},"categories":[{"id":"4bf58dd8d48988d1fa931735","name":"Hotel","pluralName":"Hotels","shortName":"Hotel","icon":{"prefix":"https:\/\/ss1.4sqi.net\/img\/categories_v2\/travel\/hotel_","suffix":".png"},"primary":"true"}],"verified":"true","restricted":"true","stats":{"checkinsCount":"5644","usersCount":"1977","tipCount":"42"},"url":"http:\/\/www.doubletree.hilton.com","specials":{"count":"0"},"hereNow":{"count":"0"},"storeId":"LONTL","referralId":"v-1392478034"},{"id":"50c33ca7e4b0bc536dc96bd4","name":"Costa Coffee","location":{"address":"1 Tower Hill Terrace","lat":"51.50894749368184","lng":"-0.07874119303963147","distance":"75","postalCode":"EC3N 4EE","cc":"GB","city":"London","state":"Greater London","country":"United Kingdom"},"categories":[{"id":"4bf58dd8d48988d1e0931735","name":"Coffee Shop","pluralName":"Coffee Shops","shortName":"Coffee Shop","icon":{"prefix":"https:\/\/ss1.4sqi.net\/img\/categories_v2\/food\/coffeeshop_","suffix":".png"},"primary":"true"}],"verified":"false","restricted":"true","stats":{"checkinsCount":"397","usersCount":"319","tipCount":"10"},"specials":{"count":"0"},"hereNow":{"count":"0"},"referralId":"v-1392478034"},{"id":"4ba74639f964a5201f8939e3","name":"EAT.","contact":{"phone":"+442076368337","formattedPhone":"+44 20 7636 8337","twitter":"eat_news"},"location":{"address":"Tower Hill Terrace","lat":"51.50899620599346","lng":"-0.0784921646118164","distance":"57","postalCode":"EC3N 4EE","cc":"GB","city":"London","state":"Greater London","country":"United Kingdom"},"categories":[{"id":"4bf58dd8d48988d1c5941735","name":"Sandwich Place","pluralName":"Sandwich Places","shortName":"Sandwiches","icon":{"prefix":"https:\/\/ss1.4sqi.net\/img\/categories_v2\/food\/sandwiches_","suffix":".png"},"primary":"true"}],"verified":"true","restricted":"true","stats":{"checkinsCount":"127","usersCount":"122","tipCount":"1"},"url":"http:\/\/www.eat.co.uk","specials":{"count":"0"},"hereNow":{"count":"0"},"storeId":"EAT - Tower Hill","referralId":"v-1392478034"},{"id":"5010714de4b003da88e4e101","name":"Brasserie Blanc","contact":{"twitter":"brasserieblanc"},"location":{"address":"14 Trinity Square","lat":"51.50969225380205","lng":"-0.07810696294149382","distance":"49","cc":"GB","city":"London","state":"Greater London","country":"United Kingdom"},"categories":[{"id":"4bf58dd8d48988d10c941735","name":"French Restaurant","pluralName":"French Restaurants","shortName":"French","icon":{"prefix":"https:\/\/ss1.4sqi.net\/img\/categories_v2\/food\/french_","suffix":".png"},"primary":"true"}],"verified":"false","restricted":"true","stats":{"checkinsCount":"75","usersCount":"66","tipCount":"3"},"menu":{"type":"Menu","label":"Menu","anchor":"View Menu","url":"https:\/\/foursquare.com\/v\/brasserie-blanc\/5010714de4b003da88e4e101\/menu","mobileUrl":"https:\/\/foursquare.com\/v\/5010714de4b003da88e4e101\/device_menu"},"specials":{"count":"0"},"hereNow":{"count":"0"},"referralId":"v-1392478034"},{"id":"4c304b436f1fef3b21b9eb3d","name":"Royal Armouries at The Tower of London","contact":{"twitter":"royal_armouries"},"location":{"address":"Tower Hill","lat":"51.507941142609155","lng":"-0.0762176513671875","distance":"185","postalCode":"EC3N 4AB","cc":"GB","city":"London","state":"Greater London","country":"United Kingdom"},"categories":[{"id":"4deefb944765f83613cdba6e","name":"Historic Site","pluralName":"Historic Sites","shortName":"Historic Site","icon":{"prefix":"https:\/\/ss1.4sqi.net\/img\/categories_v2\/arts_entertainment\/historicsite_","suffix":".png"},"primary":"true"}],"verified":"true","restricted":"true","stats":{"checkinsCount":"1176","usersCount":"1068","tipCount":"8"},"url":"http:\/\/www.royalarmouries.org","specials":{"count":"1","items":[{"id":"4d5bbfcb0f352d438322f7ec","type":"count","message":"HISTORY Channel offers a 10% discount in the Royal Armouries online shop http:\/\/www.royalarmouriesshop.org\/ quote TOL-10-FSQ T&Cs apply.","description":"Unlocked on your 1st check-in","icon":"newbie","title":"Newbie Special","provider":"foursquare","redemption":"standard"}]},"hereNow":{"count":"0"},"referralId":"v-1392478034"},{"id":"4c63eae17c9def3b2825e61c","name":"KFC","location":{"address":"1 Tower Hill Terrace","lat":"51.50892943055412","lng":"-0.0787496566772461","distance":"76","postalCode":"EC3N 4EE","cc":"GB","city":"London","state":"Greater London","country":"United Kingdom"},"categories":[{"id":"4d4ae6fc7a7b7dea34424761","name":"Fried Chicken Joint","pluralName":"Fried Chicken Joints","shortName":"Fried Chicken","icon":{"prefix":"https:\/\/ss1.4sqi.net\/img\/categories_v2\/food\/friedchicken_","suffix":".png"},"primary":"true"}],"verified":"false","restricted":"true","stats":{"checkinsCount":"482","usersCount":"302","tipCount":"8"},"specials":{"count":"0"},"hereNow":{"count":"0"},"referralId":"v-1392478034"},{"id":"4bc885e3af07a59356fe802d","name":"Trinity Square Gardens","contact":{"phone":"+442073642494","formattedPhone":"+44 20 7364 2494"},"location":{"address":"Trinity Square","lat":"51.50986093909267","lng":"-0.07745683193206787","distance":"68","postalCode":"EC3N 4DR","cc":"GB","city":"Tower Hill","state":"Greater London","country":"United Kingdom"},"categories":[{"id":"4bf58dd8d48988d163941735","name":"Park","pluralName":"Parks","shortName":"Park","icon":{"prefix":"https:\/\/ss1.4sqi.net\/img\/categories_v2\/parks_outdoors\/park_","suffix":".png"},"primary":"true"}],"verified":"false","restricted":"true","stats":{"checkinsCount":"1953","usersCount":"895","tipCount":"1"},"specials":{"count":"0"},"hereNow":{"count":"0"},"referralId":"v-1392478034"},{"id":"4b8f97adf964a520395933e3","name":"Pret A Manger","contact":{"phone":"+442079325378","formattedPhone":"+44 20 7932 5378","twitter":"pret","facebook":"162638680417951"},"location":{"address":"12 Byward St","lat":"51.5097702172","lng":"-0.0785991842118","distance":"76","postalCode":"EC3R 5AS","cc":"GB","city":"Byward Street, London","country":"United Kingdom"},"categories":[{"id":"4bf58dd8d48988d1c5941735","name":"Sandwich Place","pluralName":"Sandwich Places","shortName":"Sandwiches","icon":{"prefix":"https:\/\/ss1.4sqi.net\/img\/categories_v2\/food\/sandwiches_","suffix":".png"},"primary":"true"}],"verified":"true","restricted":"true","stats":{"checkinsCount":"560","usersCount":"251","tipCount":"2"},"url":"http:\/\/www.pret.com","specials":{"count":"0"},"hereNow":{"count":"0"},"storeId":"178","referralId":"v-1392478034"},{"id":"4b7c4836f964a5207d892fe3","name":"Gourmet Burger Kitchen","contact":{"phone":"+442079292222","formattedPhone":"+44 20 7929 2222","twitter":"gbkburgers","facebook":"109876765711105"},"location":{"address":"Unit 2A","crossStreet":"Tower Place","lat":"51.50887601013219","lng":"-0.0791788101196289","distance":"105","postalCode":"EC3R 5BU","cc":"GB","city":"London","state":"Greater London","country":"United Kingdom"},"categories":[{"id":"4bf58dd8d48988d16c941735","name":"Burger Joint","pluralName":"Burger Joints","shortName":"Burgers","icon":{"prefix":"https:\/\/ss1.4sqi.net\/img\/categories_v2\/food\/burger_","suffix":".png"},"primary":"true"}],"verified":"true","restricted":"true","stats":{"checkinsCount":"538","usersCount":"381","tipCount":"14"},"url":"http:\/\/www.gbk.co.uk","specials":{"count":"0"},"hereNow":{"count":"0"},"storeId":"Tower Bridge","referralId":"v-1392478034"},{"id":"4b437a9af964a52058e125e3","name":"All Bar One","contact":{"phone":"+442075530301","formattedPhone":"+44 20 7553 0301"},"location":{"address":"16 Byward St","crossStreet":"Great Tower St","lat":"51.509626","lng":"-0.07941","distance":"117","postalCode":"EC3R 5BA","cc":"GB","city":"London","state":"Greater London","country":"United Kingdom"},"categories":[{"id":"4bf58dd8d48988d116941735","name":"Bar","pluralName":"Bars","shortName":"Bar","icon":{"prefix":"https:\/\/ss1.4sqi.net\/img\/categories_v2\/nightlife\/bar_","suffix":".png"},"primary":"true"}],"verified":"false","restricted":"true","stats":{"checkinsCount":"630","usersCount":"453","tipCount":"8"},"specials":{"count":"0"},"hereNow":{"count":"0"},"referralId":"v-1392478034"},{"id":"4d1a4fdc401db60c07f200a5","name":"Sky Lounge","contact":{"phone":"+442077091043","formattedPhone":"+44 20 7709 1043","twitter":"skyloungelondon","facebook":"183240478373063"},"location":{"address":"7 Pepys St","crossStreet":"at DoubleTree Hotel","lat":"51.51089848289669","lng":"-0.07819607723100931","distance":"181","postalCode":"EC3N 4AF","cc":"GB","city":"London","state":"Greater London","country":"United Kingdom"},"categories":[{"id":"4bf58dd8d48988d1d5941735","name":"Hotel Bar","pluralName":"Hotel Bars","shortName":"Hotel Bar","icon":{"prefix":"https:\/\/ss1.4sqi.net\/img\/categories_v2\/travel\/hotel_bar_","suffix":".png"},"primary":"true"}],"verified":"true","restricted":"true","stats":{"checkinsCount":"2142","usersCount":"1414","tipCount":"33"},"url":"http:\/\/doubletree3.hilton.com","menu":{"type":"Menu","label":"Menu","anchor":"View Menu","url":"https:\/\/foursquare.com\/v\/sky-lounge\/4d1a4fdc401db60c07f200a5\/menu","mobileUrl":"https:\/\/foursquare.com\/v\/4d1a4fdc401db60c07f200a5\/device_menu"},"specials":{"count":"0"},"hereNow":{"count":"1","groups":[{"type":"others","name":"Other people here","count":"1"}]},"venuePage":{"id":"46032509"},"storeId":"","referralId":"v-1392478034"},{"id":"52853d5211d21362edff231f","name":"Tower of London Icerink","location":{"lat":"51.508645245244765","lng":"-0.07803474675168985","distance":"73","cc":"GB","country":"United Kingdom"},"categories":[{"id":"4bf58dd8d48988d168941735","name":"Skating Rink","pluralName":"Skating Rinks","shortName":"Skating Rink","icon":{"prefix":"https:\/\/ss1.4sqi.net\/img\/categories_v2\/parks_outdoors\/skatingrink_","suffix":".png"},"primary":"true"}],"verified":"false","restricted":"true","stats":{"checkinsCount":"38","usersCount":"38","tipCount":"2"},"specials":{"count":"0"},"hereNow":{"count":"0"},"referralId":"v-1392478034"},{"id":"4b0bc9f6f964a520a63323e3","name":"Grange City Hotel","contact":{"phone":"+442078633700","formattedPhone":"+44 20 7863 3700","twitter":"grangehotels","facebook":"1407377219476804"},"location":{"address":"8-14 Coopers Row","lat":"51.51071989599471","lng":"-0.07689816807572929","distance":"171","postalCode":"EC3N 2BQ","cc":"GB","city":"London","state":"Greater London","country":"United Kingdom"},"categories":[{"id":"4bf58dd8d48988d1fa931735","name":"Hotel","pluralName":"Hotels","shortName":"Hotel","icon":{"prefix":"https:\/\/ss1.4sqi.net\/img\/categories_v2\/travel\/hotel_","suffix":".png"},"primary":"true"}],"verified":"true","restricted":"true","stats":{"checkinsCount":"1791","usersCount":"913","tipCount":"16"},"specials":{"count":"0"},"hereNow":{"count":"0"},"referralId":"v-1392478034"},{"id":"520a091a04934807d7d107ea","name":"Draft House","contact":{"phone":"+442036647378","formattedPhone":"+44 20 3664 7378","twitter":"drafthousesl"},"location":{"address":"14-15 Seething Ln","crossStreet":"Muscovy St","lat":"51.50994440666998","lng":"-0.07927536964416504","distance":"125","postalCode":"EC3N 4AX","cc":"GB","city":"London","state":"Greater London","country":"United Kingdom"},"categories":[{"id":"4bf58dd8d48988d11b941735","name":"Pub","pluralName":"Pubs","shortName":"Pub","icon":{"prefix":"https:\/\/ss1.4sqi.net\/img\/categories_v2\/nightlife\/pub_","suffix":".png"},"primary":"true"}],"verified":"false","restricted":"true","stats":{"checkinsCount":"255","usersCount":"160","tipCount":"8"},"menu":{"type":"Menu","label":"Menu","anchor":"View Menu","url":"https:\/\/foursquare.com\/v\/draft-house\/520a091a04934807d7d107ea\/menu","mobileUrl":"https:\/\/foursquare.com\/v\/520a091a04934807d7d107ea\/device_menu"},"specials":{"count":"0"},"hereNow":{"count":"0"},"referralId":"v-1392478034"},{"id":"4c2d0a71e760c9b665324449","name":"All Hallows By The Tower","contact":{"phone":"+442074812928","formattedPhone":"+44 20 7481 2928"},"location":{"address":"Byward St.","crossStreet":"at Seething Ln.","lat":"51.509455381826974","lng":"-0.0791959749947094","distance":"98","postalCode":"EC3R 5BJ","cc":"GB","city":"London","state":"Greater London","country":"United Kingdom"},"categories":[{"id":"4bf58dd8d48988d132941735","name":"Church","pluralName":"Churches","shortName":"Church","icon":{"prefix":"https:\/\/ss1.4sqi.net\/img\/categories_v2\/building\/religious_church_","suffix":".png"},"primary":"true"}],"verified":"false","restricted":"true","stats":{"checkinsCount":"217","usersCount":"177","tipCount":"4"},"url":"http:\/\/www.allhallowsbythetower.org.uk","specials":{"count":"0"},"hereNow":{"count":"0"},"referralId":"v-1392478034"},{"id":"4d31884c5c2db60c76eeb86c","name":"Star Mugs Coffee","location":{"lat":"51.50903507237931","lng":"-0.07835733555957908","distance":"47","cc":"GB","country":"United Kingdom"},"categories":[{"id":"4bf58dd8d48988d1e0931735","name":"Coffee Shop","pluralName":"Coffee Shops","shortName":"Coffee Shop","icon":{"prefix":"https:\/\/ss1.4sqi.net\/img\/categories_v2\/food\/coffeeshop_","suffix":".png"},"primary":"true"}],"verified":"false","restricted":"true","stats":{"checkinsCount":"19","usersCount":"16","tipCount":"1"},"specials":{"count":"0"},"hereNow":{"count":"0"},"referralId":"v-1392478034"},{"id":"4c2a35fc2219c9287abda248","name":"Zizzi","contact":{"twitter":"wearezizzi"},"location":{"address":"Unit 1, Plaza Level West. Tower Place","crossStreet":"Tower Hill","lat":"51.50935679167466","lng":"-0.0798654556274414","distance":"143","postalCode":"EC3R 5BU","cc":"GB","city":"London","state":"Greater London","country":"United Kingdom"},"categories":[{"id":"4bf58dd8d48988d110941735","name":"Italian Restaurant","pluralName":"Italian Restaurants","shortName":"Italian","icon":{"prefix":"https:\/\/ss1.4sqi.net\/img\/categories_v2\/food\/italian_","suffix":".png"},"primary":"true"}],"verified":"false","restricted":"true","stats":{"checkinsCount":"411","usersCount":"276","tipCount":"10"},"url":"http:\/\/zizzi.co.uk","reservations":{"url":"http:\/\/www.toptable.co.uk\/single.aspx?rid=55383&ref=9601"},"menu":{"type":"Menu","label":"Menu","anchor":"View Menu","url":"https:\/\/foursquare.com\/v\/zizzi\/4c2a35fc2219c9287abda248\/menu","mobileUrl":"https:\/\/foursquare.com\/v\/4c2a35fc2219c9287abda248\/device_menu"},"specials":{"count":"0"},"hereNow":{"count":"0"},"referralId":"v-1392478034"},{"id":"4ac518b8f964a5205fa120e3","name":"Novotel","contact":{"phone":"+442076600675","formattedPhone":"+44 20 7660 0675"},"location":{"address":"10 Pepys St","lat":"51.51072962266962","lng":"-0.07714599798991359","distance":"166","postalCode":"EC3N 2NR","cc":"GB","city":"London","state":"Greater London","country":"United Kingdom"},"categories":[{"id":"4bf58dd8d48988d1fa931735","name":"Hotel","pluralName":"Hotels","shortName":"Hotel","icon":{"prefix":"https:\/\/ss1.4sqi.net\/img\/categories_v2\/travel\/hotel_","suffix":".png"},"primary":"true"}],"verified":"true","restricted":"true","stats":{"checkinsCount":"1852","usersCount":"571","tipCount":"18"},"url":"http:\/\/www.novotel.com","menu":{"type":"Menu","label":"Menu","anchor":"View Menu","url":"https:\/\/foursquare.com\/v\/novotel\/4ac518b8f964a5205fa120e3\/menu","mobileUrl":"https:\/\/foursquare.com\/v\/4ac518b8f964a5205fa120e3\/device_menu"},"specials":{"count":"0"},"hereNow":{"count":"0"},"storeId":"","referralId":"v-1392478034"},{"id":"4bd6d02f6f649521e35671ec","name":"Tower Hill Memorial","location":{"address":"Trinity Square Gardens","lat":"51.50969744364504","lng":"-0.07741316468319832","distance":"52","cc":"GB","city":"London","state":"Greater London","country":"United Kingdom"},"categories":[{"id":"4deefb944765f83613cdba6e","name":"Historic Site","pluralName":"Historic Sites","shortName":"Historic Site","icon":{"prefix":"https:\/\/ss1.4sqi.net\/img\/categories_v2\/arts_entertainment\/historicsite_","suffix":".png"},"primary":"true"}],"verified":"false","restricted":"true","stats":{"checkinsCount":"347","usersCount":"243","tipCount":"0"},"specials":{"count":"0"},"hereNow":{"count":"0"},"referralId":"v-1392478034"},{"id":"4c555a6930f92d7f418ff8bb","name":"White Tower","location":{"address":"London Borough of Tower Hamlets","lat":"51.50800791949694","lng":"-0.07602453231811523","distance":"188","postalCode":"E1W","cc":"GB","city":"London","state":"Greater London","country":"United Kingdom"},"categories":[{"id":"4bf58dd8d48988d12d941735","name":"Monument \/ Landmark","pluralName":"Monuments \/ Landmarks","shortName":"Landmark","icon":{"prefix":"https:\/\/ss1.4sqi.net\/img\/categories_v2\/building\/government_monument_","suffix":".png"},"primary":"true"}],"verified":"false","restricted":"true","stats":{"checkinsCount":"787","usersCount":"741","tipCount":"4"},"specials":{"count":"0"},"hereNow":{"count":"0"},"referralId":"v-1392478034"}],"confident":"true"}}