{"meta":{"code":"200"},"response":{"venues":[{"id":"528a790c498e858fe961a01e","name":"Steam and Rye","contact":{"twitter":"steamandrye"},"location":{"address":"147 Leadenhall St","crossStreet":"at Bishopsgate","lat":"51.513661","lng":"-0.083365","distance":"80","postalCode":"EC3V 4QT","cc":"GB","city":"London","state":"Greater London","country":"United Kingdom"},"categories":[{"id":"4bf58dd8d48988d11e941735","name":"Cocktail Bar","pluralName":"Cocktail Bars","shortName":"Cocktail","icon":{"prefix":"https:\/\/ss1.4sqi.net\/img\/categories_v2\/nightlife\/cocktails_","suffix":".png"},"primary":"true"}],"verified":"false","restricted":"true","stats":{"checkinsCount":"131","usersCount":"111","tipCount":"3"},"url":"http:\/\/www.steamandrye.com","reservations":{"url":"http:\/\/www.toptable.co.uk\/single.aspx?rid=99156&ref=9601"},"menu":{"type":"Menu","label":"Menu","anchor":"View Menu","url":"https:\/\/foursquare.com\/v\/steam-and-rye\/528a790c498e858fe961a01e\/menu","mobileUrl":"https:\/\/foursquare.com\/v\/528a790c498e858fe961a01e\/device_menu"},"specials":{"count":"0"},"hereNow":{"count":"0"},"referralId":"v-1392478020"},{"id":"4b82557cf964a52019d030e3","name":"Deutsche Bank AG","location":{"address":"6 Bishopsgate","lat":"51.51368359725126","lng":"-0.083770751953125","distance":"95","postalCode":"EC2N 4DA","cc":"GB","city":"London","state":"Greater London","country":"United Kingdom"},"categories":[{"id":"4bf58dd8d48988d124941735","name":"Office","pluralName":"Offices","shortName":"Office","icon":{"prefix":"https:\/\/ss1.4sqi.net\/img\/categories_v2\/building\/default_","suffix":".png"},"primary":"true"}],"verified":"false","restricted":"true","stats":{"checkinsCount":"3687","usersCount":"205","tipCount":"2"},"specials":{"count":"0"},"hereNow":{"count":"0"},"referralId":"v-1392478020"},{"id":"4e9486a377c82b6a71f95032","name":"Jamie's Italian","contact":{"twitter":"jamieoliver"},"location":{"address":"38 Threadneedle St.","lat":"51.51443103963641","lng":"-0.08396606398475405","distance":"82","postalCode":"EC2N 3","cc":"GB","city":"London","state":"Greater London","country":"United Kingdom"},"categories":[{"id":"4bf58dd8d48988d110941735","name":"Italian Restaurant","pluralName":"Italian Restaurants","shortName":"Italian","icon":{"prefix":"https:\/\/ss1.4sqi.net\/img\/categories_v2\/food\/italian_","suffix":".png"},"primary":"true"}],"verified":"true","restricted":"true","stats":{"checkinsCount":"641","usersCount":"556","tipCount":"11"},"url":"http:\/\/www.jamieoliver.com\/italian\/threadneedle-street","menu":{"type":"Menu","label":"Menu","anchor":"View Menu","url":"https:\/\/foursquare.com\/v\/jamies-italian-london-greater-london\/4e9486a377c82b6a71f95032\/menu","mobileUrl":"https:\/\/foursquare.com\/v\/4e9486a377c82b6a71f95032\/device_menu"},"specials":{"count":"0"},"hereNow":{"count":"0"},"storeId":"","referralId":"v-1392478020"},{"id":"4c3dd2bd7c1ee21e3d688e71","name":"Bannatyne's Health Club","contact":{"phone":"+442076382225","formattedPhone":"+44 20 7638 2225"},"location":{"address":"21B Old Broad St.","lat":"51.514464703869955","lng":"-0.0832693574562885","distance":"37","postalCode":"EC2N 1HQ","cc":"GB","city":"London","state":"Greater London","country":"United Kingdom"},"categories":[{"id":"4bf58dd8d48988d175941735","name":"Gym \/ Fitness Center","pluralName":"Gyms or Fitness Centers","shortName":"Gym \/ Fitness","icon":{"prefix":"https:\/\/ss1.4sqi.net\/img\/categories_v2\/building\/gym_","suffix":".png"},"primary":"true"}],"verified":"false","restricted":"true","stats":{"checkinsCount":"505","usersCount":"33","tipCount":"1"},"url":"http:\/\/www.bannatyne.co.uk\/fitness\/tower-42.htm","specials":{"count":"0"},"hereNow":{"count":"0"},"referralId":"v-1392478020"},{"id":"4b2b67bef964a5202eb624e3","name":"St Helen's","location":{"address":"1 Undershaft","crossStreet":"St Mary's Axe","lat":"51.51463783624687","lng":"-0.08168109858458526","distance":"86","postalCode":"EC3P 3DQ","cc":"GB","city":"London","state":"Greater London","country":"United Kingdom"},"categories":[{"id":"4bf58dd8d48988d124941735","name":"Office","pluralName":"Offices","shortName":"Office","icon":{"prefix":"https:\/\/ss1.4sqi.net\/img\/categories_v2\/building\/default_","suffix":".png"},"primary":"true"}],"verified":"false","restricted":"true","stats":{"checkinsCount":"1374","usersCount":"152","tipCount":"2"},"specials":{"count":"0"},"hereNow":{"count":"0"},"referralId":"v-1392478020"},{"id":"4bac0523f964a5209cde3ae3","name":"Tower 42","location":{"address":"25 Old Broad St.","lat":"51.51516583428218","lng":"-0.08381366729736328","distance":"120","postalCode":"EC2N 1HQ","cc":"GB","city":"London","state":"Greater London","country":"United Kingdom"},"categories":[{"id":"4bf58dd8d48988d124941735","name":"Office","pluralName":"Offices","shortName":"Office","icon":{"prefix":"https:\/\/ss1.4sqi.net\/img\/categories_v2\/building\/default_","suffix":".png"},"primary":"true"}],"verified":"false","restricted":"true","stats":{"checkinsCount":"2520","usersCount":"901","tipCount":"9"},"specials":{"count":"0"},"hereNow":{"count":"0"},"referralId":"v-1392478020"},{"id":"4ac518c0f964a5209fa320e3","name":"Vertigo 42","contact":{"phone":"+442078777842","formattedPhone":"+44 20 7877 7842","twitter":"vertigo42bar"},"location":{"address":"25 Old Broad St, Tower 42","lat":"51.51520589407308","lng":"-0.08388876914978027","distance":"126","postalCode":"EC2N 1HQ","cc":"GB","city":"London","state":"Greater London","country":"United Kingdom"},"categories":[{"id":"4bf58dd8d48988d11e941735","name":"Cocktail Bar","pluralName":"Cocktail Bars","shortName":"Cocktail","icon":{"prefix":"https:\/\/ss1.4sqi.net\/img\/categories_v2\/nightlife\/cocktails_","suffix":".png"},"primary":"true"}],"verified":"false","restricted":"true","stats":{"checkinsCount":"930","usersCount":"793","tipCount":"29"},"url":"http:\/\/www.vertigo42.co.uk","reservations":{"url":"http:\/\/www.toptable.co.uk\/single.aspx?rid=82123&ref=9601"},"menu":{"type":"Menu","label":"Menu","anchor":"View Menu","url":"https:\/\/foursquare.com\/v\/vertigo-42\/4ac518c0f964a5209fa320e3\/menu","mobileUrl":"https:\/\/foursquare.com\/v\/4ac518c0f964a5209fa320e3\/device_menu"},"specials":{"count":"0"},"hereNow":{"count":"1","groups":[{"type":"others","name":"Other people here","count":"1"}]},"referralId":"v-1392478020"},{"id":"4cd26cf9f4bfb1f7c6d8352f","name":"Hiscox","contact":{"phone":"+442075586000","formattedPhone":"+44 20 7558 6000","twitter":"hiscoxcomms"},"location":{"address":"1 Great St Helens","lat":"51.514725483078024","lng":"-0.08296304430554634","distance":"49","postalCode":"EC3A 6HX","cc":"GB","city":"London","state":"Greater London","country":"United Kingdom"},"categories":[{"id":"4bf58dd8d48988d124941735","name":"Office","pluralName":"Offices","shortName":"Office","icon":{"prefix":"https:\/\/ss1.4sqi.net\/img\/categories_v2\/building\/default_","suffix":".png"},"primary":"true"}],"verified":"false","restricted":"true","stats":{"checkinsCount":"416","usersCount":"39","tipCount":"1"},"url":"http:\/\/www.hiscox.com","specials":{"count":"0"},"hereNow":{"count":"0"},"referralId":"v-1392478020"},{"id":"4c0e7daa336220a11f4bcc77","name":"Leadenhall Building","location":{"address":"122 Leadenhall Street","lat":"51.514021340297546","lng":"-0.08202852629229503","distance":"61","postalCode":"EC3","cc":"GB","city":"London","state":"Greater London","country":"United Kingdom"},"categories":[{"id":"4bf58dd8d48988d130941735","name":"Building","pluralName":"Buildings","shortName":"Building","icon":{"prefix":"https:\/\/ss1.4sqi.net\/img\/categories_v2\/building\/default_","suffix":".png"},"primary":"true"}],"verified":"false","restricted":"true","stats":{"checkinsCount":"90","usersCount":"53","tipCount":"2"},"specials":{"count":"0"},"hereNow":{"count":"0"},"referralId":"v-1392478020"},{"id":"4b61ebf0f964a520702b2ae3","name":"Revolution","contact":{"phone":"+442076219955","formattedPhone":"+44 20 7621 9955","twitter":"revolutionbars"},"location":{"address":"140-144 Leadenhall St.","crossStreet":"near Bishopsgate","lat":"51.51352001408324","lng":"-0.08284807205200195","distance":"85","postalCode":"EC3V 4QT","cc":"GB","city":"London","state":"Greater London","country":"United Kingdom"},"categories":[{"id":"4bf58dd8d48988d116941735","name":"Bar","pluralName":"Bars","shortName":"Bar","icon":{"prefix":"https:\/\/ss1.4sqi.net\/img\/categories_v2\/nightlife\/bar_","suffix":".png"},"primary":"true"}],"verified":"false","restricted":"true","stats":{"checkinsCount":"898","usersCount":"632","tipCount":"6"},"url":"http:\/\/www.revolution-bars.co.uk\/leadenhall\/","menu":{"type":"Menu","label":"Menu","anchor":"View Menu","url":"https:\/\/foursquare.com\/v\/revolution\/4b61ebf0f964a520702b2ae3\/menu","mobileUrl":"https:\/\/foursquare.com\/v\/4b61ebf0f964a520702b2ae3\/device_menu"},"specials":{"count":"0"},"hereNow":{"count":"0"},"referralId":"v-1392478020"},{"id":"4ef094f90aaf9ae2834ca1cb","name":"Aon Benfield","location":{"address":"55 Bishopsgate","lat":"51.515346103063784","lng":"-0.0826120376586914","distance":"118","cc":"GB","city":"London","state":"Greater London","country":"United Kingdom"},"categories":[{"id":"4bf58dd8d48988d124941735","name":"Office","pluralName":"Offices","shortName":"Office","icon":{"prefix":"https:\/\/ss1.4sqi.net\/img\/categories_v2\/building\/default_","suffix":".png"},"primary":"true"}],"verified":"false","restricted":"true","stats":{"checkinsCount":"594","usersCount":"22","tipCount":"0"},"specials":{"count":"0"},"hereNow":{"count":"0"},"referralId":"v-1392478020"},{"id":"4c4ede7cc1f5ef3b1fef50ab","name":"Better Brief","contact":{"phone":"+442071839266","formattedPhone":"+44 20 7183 9266","twitter":"betterbrief"},"location":{"address":"42-44 Bishopsgate","crossStreet":"Great Saint Helen's","lat":"51.5149221364618","lng":"-0.08281052112579346","distance":"70","postalCode":"EC2N 4AH","cc":"GB","city":"London","state":"Greater London","country":"United Kingdom"},"categories":[{"id":"4bf58dd8d48988d125941735","name":"Tech Startup","pluralName":"Tech Startups","shortName":"Tech Startup","icon":{"prefix":"https:\/\/ss1.4sqi.net\/img\/categories_v2\/shops\/technology_","suffix":".png"},"primary":"true"}],"verified":"false","restricted":"true","stats":{"checkinsCount":"258","usersCount":"11","tipCount":"1"},"specials":{"count":"0"},"hereNow":{"count":"0"},"referralId":"v-1392478020"},{"id":"4b1cb740f964a520310924e3","name":"Starbucks","contact":{"phone":"+442076231745","formattedPhone":"+44 20 7623 1745","twitter":"starbucksuk"},"location":{"address":"11 Leadenhall St","lat":"51.513353091877676","lng":"-0.08289098739624023","distance":"104","postalCode":"EC3V 1LP","cc":"GB","city":"London","state":"Greater London","country":"United Kingdom"},"categories":[{"id":"4bf58dd8d48988d1e0931735","name":"Coffee Shop","pluralName":"Coffee Shops","shortName":"Coffee Shop","icon":{"prefix":"https:\/\/ss1.4sqi.net\/img\/categories_v2\/food\/coffeeshop_","suffix":".png"},"primary":"true"}],"verified":"true","restricted":"true","stats":{"checkinsCount":"1275","usersCount":"383","tipCount":"7"},"url":"http:\/\/starbucks.co.uk","specials":{"count":"0"},"hereNow":{"count":"0"},"storeId":"12202","referralId":"v-1392478020"},{"id":"4d1b3e5b5acb721ec1b10cb2","name":"Tossed","contact":{"phone":"+442072838218","formattedPhone":"+44 20 7283 8218","twitter":"tosseduk"},"location":{"address":"Unit B Leadenhall Court, 1 Leadenhall St","lat":"51.513396491709955","lng":"-0.0832986831665039","distance":"105","postalCode":"EC3V 1AB","cc":"GB","city":"London","state":"Greater London","country":"United Kingdom"},"categories":[{"id":"4bf58dd8d48988d1bd941735","name":"Salad Place","pluralName":"Salad Shop","shortName":"Salad","icon":{"prefix":"https:\/\/ss1.4sqi.net\/img\/categories_v2\/food\/salad_","suffix":".png"},"primary":"true"}],"verified":"true","restricted":"true","stats":{"checkinsCount":"683","usersCount":"170","tipCount":"2"},"url":"http:\/\/www.tosseduk.com","specials":{"count":"0"},"hereNow":{"count":"0"},"storeId":"","referralId":"v-1392478020"},{"id":"4bea67c761aca593e6b58300","name":"Threadneedle","location":{"address":"60 St Mary's Axe","lat":"51.512846290226115","lng":"-0.08353428957668604","distance":"168","postalCode":"EC3A 8JQ","cc":"GB","city":"London","state":"Greater London","country":"United Kingdom"},"categories":[{"id":"4bf58dd8d48988d124941735","name":"Office","pluralName":"Offices","shortName":"Office","icon":{"prefix":"https:\/\/ss1.4sqi.net\/img\/categories_v2\/building\/default_","suffix":".png"},"primary":"true"}],"verified":"false","restricted":"true","stats":{"checkinsCount":"130","usersCount":"22","tipCount":"0"},"specials":{"count":"0"},"hereNow":{"count":"0"},"referralId":"v-1392478020"},{"id":"4e8315d0be7b92ebc8b39ead","name":"Sainsbury's Local","contact":{"phone":"+442072001860","formattedPhone":"+44 20 7200 1860","twitter":"sainsburys"},"location":{"address":"62-64 Cornhill","crossStreet":"at Bishopsgate","lat":"51.51354204768719","lng":"-0.08433043913100846","distance":"134","postalCode":"EC3V 3PL","cc":"GB","city":"London","state":"Greater London","country":"United Kingdom"},"categories":[{"id":"4bf58dd8d48988d118951735","name":"Grocery Store","pluralName":"Grocery Stores","shortName":"Grocery Store","icon":{"prefix":"https:\/\/ss1.4sqi.net\/img\/categories_v2\/shops\/food_grocery_","suffix":".png"},"primary":"true"}],"verified":"false","restricted":"true","stats":{"checkinsCount":"438","usersCount":"86","tipCount":"1"},"url":"http:\/\/www.sainsburys.co.uk","specials":{"count":"0"},"hereNow":{"count":"0"},"referralId":"v-1392478020"},{"id":"4e8c4a9461af432b3575f81a","name":"BPP London University - Business School","contact":{"phone":"+442074302304","formattedPhone":"+44 20 7430 2304"},"location":{"address":"2 St Mary Axe","lat":"51.514222631703376","lng":"-0.08114834550287939","distance":"114","postalCode":"EC3A8BF","cc":"GB","city":"London","state":"Greater London","country":"United Kingdom"},"categories":[{"id":"4bf58dd8d48988d1a8941735","name":"General College & University","pluralName":"General Colleges & Universities","shortName":"Education","icon":{"prefix":"https:\/\/ss1.4sqi.net\/img\/categories_v2\/education\/other_","suffix":".png"},"primary":"true"}],"verified":"false","restricted":"true","stats":{"checkinsCount":"839","usersCount":"94","tipCount":"2"},"specials":{"count":"0"},"hereNow":{"count":"0"},"referralId":"v-1392478020"},{"id":"50a4d7cbe4b0755d9a3a3468","name":"KERB Gherkin","contact":{"twitter":"kerb_"},"location":{"address":"30 St Mary Axe","lat":"51.514767132993036","lng":"-0.08076906245067701","distance":"150","postalCode":"EC3A 8TP","cc":"GB","city":"London","state":"Greater London","country":"United Kingdom"},"categories":[{"id":"4bf58dd8d48988d1cb941735","name":"Food Truck","pluralName":"Food Trucks","shortName":"Food Truck","icon":{"prefix":"https:\/\/ss1.4sqi.net\/img\/categories_v2\/food\/streetfood_","suffix":".png"},"primary":"true"}],"verified":"false","restricted":"true","stats":{"checkinsCount":"241","usersCount":"80","tipCount":"4"},"specials":{"count":"0"},"hereNow":{"count":"0"},"referralId":"v-1392478020"},{"id":"5249a03811d2f2655decc5ff","name":"Threadneedle Street Bus Stop (Northbound)","location":{"lat":"51.51424212706574","lng":"-0.08254257680144997","distance":"18","cc":"GB","country":"United Kingdom"},"categories":[{"id":"4bf58dd8d48988d1f6931735","name":"General Travel","pluralName":"General Travel","shortName":"Travel","icon":{"prefix":"https:\/\/ss1.4sqi.net\/img\/categories_v2\/travel\/default_","suffix":".png"},"primary":"true"}],"verified":"false","restricted":"true","stats":{"checkinsCount":"2","usersCount":"2","tipCount":"0"},"specials":{"count":"0"},"hereNow":{"count":"0"},"referralId":"v-1392478020"},{"id":"4b716147f964a520b9432de3","name":"Pret A Manger","contact":{"phone":"+442076261846","formattedPhone":"+44 20 7626 1846","twitter":"pret","facebook":"162638680417951"},"location":{"address":"25 St Mary Axe","lat":"51.514466","lng":"-0.081034","distance":"124","postalCode":"EC3A 8AA","cc":"GB","city":"London","state":"Greater London","country":"United Kingdom"},"categories":[{"id":"4bf58dd8d48988d1c5941735","name":"Sandwich Place","pluralName":"Sandwich Places","shortName":"Sandwiches","icon":{"prefix":"https:\/\/ss1.4sqi.net\/img\/categories_v2\/food\/sandwiches_","suffix":".png"},"primary":"true"}],"verified":"true","restricted":"true","stats":{"checkinsCount":"418","usersCount":"198","tipCount":"5"},"url":"http:\/\/www.pret.com","specials":{"count":"0"},"hereNow":{"count":"0"},"storeId":"89","referralId":"v-1392478020"},{"id":"51dbce67498e71fba930e9db","name":"Benugo","location":{"lat":"51.51350260204314","lng":"-0.08303951918204348","distance":"89","cc":"GB","country":"United Kingdom"},"categories":[{"id":"4bf58dd8d48988d16d941735","name":"Caf\u00e9","pluralName":"Caf\u00e9s","shortName":"Caf\u00e9","icon":{"prefix":"https:\/\/ss1.4sqi.net\/img\/categories_v2\/food\/cafe_","suffix":".png"},"primary":"true"}],"verified":"false","restricted":"true","stats":{"checkinsCount":"24","usersCount":"2","tipCount":"0"},"specials":{"count":"0"},"hereNow":{"count":"0"},"referralId":"v-1392478020"},{"id":"510bbd1ae4b0e2f92e2d4872","name":"Hardy Underwriting","location":{"address":"10 St Mary Axe","lat":"51.51419689461185","lng":"-0.08122279286161142","distance":"109","postalCode":"EC3A 8NA","cc":"GB","country":"United Kingdom"},"categories":[{"id":"4bf58dd8d48988d124941735","name":"Office","pluralName":"Offices","shortName":"Office","icon":{"prefix":"https:\/\/ss1.4sqi.net\/img\/categories_v2\/building\/default_","suffix":".png"},"primary":"true"}],"verified":"false","restricted":"true","stats":{"checkinsCount":"187","usersCount":"7","tipCount":"0"},"specials":{"count":"0"},"hereNow":{"count":"0"},"referralId":"v-1392478020"},{"id":"4c17b8821436a59324418c75","name":"Chapters","contact":{"phone":"+448721483094","formattedPhone":"+44 872 148 3094"},"location":{"address":"50 Bishopsgate","lat":"51.5151816944983","lng":"-0.08232155057464564","distance":"104","postalCode":"EC2M 4AJ","cc":"GB","city":"London","state":"Greater London","country":"United Kingdom"},"categories":[{"id":"4bf58dd8d48988d146941735","name":"Deli \/ Bodega","pluralName":"Delis \/ Bodegas","shortName":"Deli \/ Bodega","icon":{"prefix":"https:\/\/ss1.4sqi.net\/img\/categories_v2\/food\/deli_","suffix":".png"},"primary":"true"}],"verified":"false","restricted":"true","stats":{"checkinsCount":"155","usersCount":"28","tipCount":"0"},"specials":{"count":"0"},"hereNow":{"count":"0"},"referralId":"v-1392478020"},{"id":"4ad4d8dff964a52034fc20e3","name":"Wagamama","contact":{"phone":"+442072569992","formattedPhone":"+44 20 7256 9992"},"location":{"address":"22 Old Broad St.","lat":"51.515264","lng":"-0.084252","distance":"147","postalCode":"EC2N 1HQ","cc":"GB","city":"London","state":"Greater London","country":"United Kingdom"},"categories":[{"id":"4bf58dd8d48988d1d1941735","name":"Ramen \/ Noodle House","pluralName":"Ramen \/ Noodle House","shortName":"Ramen \/ Noodles","icon":{"prefix":"https:\/\/ss1.4sqi.net\/img\/categories_v2\/food\/ramen_","suffix":".png"},"primary":"true"}],"verified":"false","restricted":"true","stats":{"checkinsCount":"388","usersCount":"285","tipCount":"14"},"url":"http:\/\/wagamama.com","specials":{"count":"0"},"hereNow":{"count":"0"},"referralId":"v-1392478020"},{"id":"4eef1eff9911d70cb9a468ae","name":"RKH Group","location":{"address":"One Whittington Avenue","crossStreet":"Leadenhall Street","lat":"51.51325601384855","lng":"-0.08310876228530283","distance":"116","postalCode":"EC3V 1","cc":"GB","city":"London","state":"Greater London","country":"United Kingdom"},"categories":[{"id":"4bf58dd8d48988d130941735","name":"Building","pluralName":"Buildings","shortName":"Building","icon":{"prefix":"https:\/\/ss1.4sqi.net\/img\/categories_v2\/building\/default_","suffix":".png"},"primary":"true"}],"verified":"false","restricted":"true","stats":{"checkinsCount":"33","usersCount":"9","tipCount":"0"},"specials":{"count":"0"},"hereNow":{"count":"0"},"referralId":"v-1392478020"},{"id":"4ac518d0f964a520b4a620e3","name":"St. Helen's Bishopgate","location":{"address":"Great St. Helen's","lat":"51.514715053729454","lng":"-0.08175212353818014","distance":"86","postalCode":"EC3A 6AT","cc":"GB","city":"London","state":"Greater London","country":"United Kingdom"},"categories":[{"id":"4bf58dd8d48988d132941735","name":"Church","pluralName":"Churches","shortName":"Church","icon":{"prefix":"https:\/\/ss1.4sqi.net\/img\/categories_v2\/building\/religious_church_","suffix":".png"},"primary":"true"}],"verified":"false","restricted":"true","stats":{"checkinsCount":"234","usersCount":"93","tipCount":"3"},"specials":{"count":"0"},"hereNow":{"count":"0"},"referralId":"v-1392478020"},{"id":"4d25f2da37a1b60ca36b9bb8","name":"Hiscox Art Cafe","contact":{"phone":"+442074486507","formattedPhone":"+44 20 7448 6507"},"location":{"address":"1 Great St Helen's","crossStreet":"near Bishopsgate","lat":"51.51463771227692","lng":"-0.08224637457117812","distance":"54","postalCode":"EC3A 6HX","cc":"GB","city":"London","state":"Greater London","country":"United Kingdom"},"categories":[{"id":"4bf58dd8d48988d16d941735","name":"Caf\u00e9","pluralName":"Caf\u00e9s","shortName":"Caf\u00e9","icon":{"prefix":"https:\/\/ss1.4sqi.net\/img\/categories_v2\/food\/cafe_","suffix":".png"},"primary":"true"}],"verified":"false","restricted":"true","stats":{"checkinsCount":"72","usersCount":"14","tipCount":"0"},"specials":{"count":"0"},"hereNow":{"count":"0"},"referralId":"v-1392478020"},{"id":"4e8dbc3b29c2f38812682e71","name":"Verdasys","location":{"address":"11 Leadenhall Str","lat":"51.513323","lng":"-0.082848","distance":"107","postalCode":"Ec3v 1lp","cc":"GB","city":"London","state":"Greater London","country":"United Kingdom"},"categories":[{"id":"4bf58dd8d48988d124941735","name":"Office","pluralName":"Offices","shortName":"Office","icon":{"prefix":"https:\/\/ss1.4sqi.net\/img\/categories_v2\/building\/default_","suffix":".png"},"primary":"true"}],"verified":"false","restricted":"true","stats":{"checkinsCount":"18","usersCount":"2","tipCount":"0"},"specials":{"count":"0"},"hereNow":{"count":"0"},"referralId":"v-1392478020"},{"id":"52d4f2e4498e8f66bddef8ee","name":"The Cheesegrater","location":{"lat":"51.513692","lng":"-0.081574","distance":"108","cc":"GB","country":"United Kingdom"},"categories":[{"id":"4bf58dd8d48988d130941735","name":"Building","pluralName":"Buildings","shortName":"Building","icon":{"prefix":"https:\/\/ss1.4sqi.net\/img\/categories_v2\/building\/default_","suffix":".png"},"primary":"true"}],"verified":"false","restricted":"true","stats":{"checkinsCount":"4","usersCount":"2","tipCount":"0"},"specials":{"count":"0"},"hereNow":{"count":"0"},"referralId":"v-1392478020"},{"id":"50ed5e9fe4b0dbe95c7e93c2","name":"The Wurst Club","location":{"address":"56-57 Cornhill","lat":"51.51346995223142","lng":"-0.08434726295882884","distance":"140","postalCode":"EC3V 3PD","cc":"GB","city":"London","state":"Greater London","country":"United Kingdom"},"categories":[{"id":"4bf58dd8d48988d10d941735","name":"German Restaurant","pluralName":"German Restaurants","shortName":"German","icon":{"prefix":"https:\/\/ss1.4sqi.net\/img\/categories_v2\/food\/german_","suffix":".png"},"primary":"true"}],"verified":"false","restricted":"true","stats":{"checkinsCount":"88","usersCount":"64","tipCount":"2"},"menu":{"type":"Menu","label":"Menu","anchor":"View Menu","url":"https:\/\/foursquare.com\/v\/the-wurst-club\/50ed5e9fe4b0dbe95c7e93c2\/menu","mobileUrl":"https:\/\/foursquare.com\/v\/50ed5e9fe4b0dbe95c7e93c2\/device_menu"},"specials":{"count":"0"},"hereNow":{"count":"0"},"referralId":"v-1392478020"}],"confident":"false"}}