{"meta":{"code":"200"},"response":{"venues":[{"id":"4ac518d1f964a520caa620e3","name":"Little Venice","location":{"address":"Blomfield Rd.","lat":"51.52257629597823","lng":"-0.1876688003540039","distance":"366","postalCode":"W2 1TH","cc":"GB","city":"London","state":"Greater London","country":"United Kingdom"},"categories":[{"id":"4bf58dd8d48988d1e0941735","name":"Harbor \/ Marina","pluralName":"Harbors \/ Marinas","shortName":"Harbor \/ Marina","icon":{"prefix":"https:\/\/ss1.4sqi.net\/img\/categories_v2\/parks_outdoors\/harbor_","suffix":".png"},"primary":"true"}],"verified":"false","restricted":"true","stats":{"checkinsCount":"4140","usersCount":"1911","tipCount":"19"},"specials":{"count":"0"},"hereNow":{"count":"0"},"referralId":"v-1392477997"},{"id":"4ac518f6f964a52081af20e3","name":"The Porchester Centre","location":{"address":"Porchester Rd.","lat":"51.51657624512577","lng":"-0.18896825320515317","distance":"312","postalCode":"W2 5HS","cc":"GB","city":"London","state":"Greater London","country":"United Kingdom"},"categories":[{"id":"4bf58dd8d48988d175941735","name":"Gym \/ Fitness Center","pluralName":"Gyms or Fitness Centers","shortName":"Gym \/ Fitness","icon":{"prefix":"https:\/\/ss1.4sqi.net\/img\/categories_v2\/building\/gym_","suffix":".png"},"primary":"true"}],"verified":"false","restricted":"true","stats":{"checkinsCount":"1180","usersCount":"246","tipCount":"5"},"specials":{"count":"0"},"hereNow":{"count":"1","groups":[{"type":"others","name":"Other people here","count":"1"}]},"referralId":"v-1392477997"},{"id":"4ad09467f964a5208cd820e3","name":"The Oak","location":{"address":"Roayal Oak","lat":"51.519077","lng":"-0.187865","distance":"23","cc":"GB","city":"London","state":"Greater London","country":"United Kingdom"},"categories":[{"id":"4bf58dd8d48988d1ca941735","name":"Pizza Place","pluralName":"Pizza Places","shortName":"Pizza","icon":{"prefix":"https:\/\/ss1.4sqi.net\/img\/categories_v2\/food\/pizza_","suffix":".png"},"primary":"true"}],"verified":"false","restricted":"true","stats":{"checkinsCount":"132","usersCount":"104","tipCount":"0"},"specials":{"count":"0"},"hereNow":{"count":"0"},"referralId":"v-1392477997"},{"id":"4b4ac16af964a520f48d26e3","name":"Waitrose","contact":{"phone":"+442072435714","formattedPhone":"+44 20 7243 5714","twitter":"waitroseuk"},"location":{"address":"38 Porchester Rd.","lat":"51.516447730116504","lng":"-0.1874864101409912","distance":"317","postalCode":"W2 6ES","cc":"GB","city":"Paddington","state":"Greater London","country":"United Kingdom"},"categories":[{"id":"4bf58dd8d48988d118951735","name":"Grocery Store","pluralName":"Grocery Stores","shortName":"Grocery Store","icon":{"prefix":"https:\/\/ss1.4sqi.net\/img\/categories_v2\/shops\/food_grocery_","suffix":".png"},"primary":"true"}],"verified":"false","restricted":"true","stats":{"checkinsCount":"1379","usersCount":"426","tipCount":"5"},"url":"http:\/\/www.waitrose.com","specials":{"count":"0"},"hereNow":{"count":"2","groups":[{"type":"others","name":"Other people here","count":"2"}]},"referralId":"v-1392477997"},{"id":"4c455b07dd1f2d7fc91f81f9","name":"Metropole College","location":{"lat":"51.519093939253025","lng":"-0.18818140000896522","distance":"34","cc":"GB","country":"United Kingdom"},"categories":[{"id":"4bf58dd8d48988d1a0941735","name":"College Classroom","pluralName":"College Classrooms","shortName":"Classroom","icon":{"prefix":"https:\/\/ss1.4sqi.net\/img\/categories_v2\/education\/classroom_","suffix":".png"},"primary":"true"}],"verified":"false","restricted":"true","stats":{"checkinsCount":"8","usersCount":"5","tipCount":"0"},"specials":{"count":"0"},"hereNow":{"count":"0"},"referralId":"v-1392477997"},{"id":"4ac518e1f964a52065aa20e3","name":"The Waterway","contact":{"phone":"+442072663557","formattedPhone":"+44 20 7266 3557"},"location":{"address":"54 Formosa St.","lat":"51.522675","lng":"-0.187816","distance":"376","postalCode":"W9 2JU","cc":"GB","city":"Maida Vale","state":"Greater London","country":"United Kingdom"},"categories":[{"id":"4bf58dd8d48988d1c4941735","name":"Restaurant","pluralName":"Restaurants","shortName":"Restaurant","icon":{"prefix":"https:\/\/ss1.4sqi.net\/img\/categories_v2\/food\/default_","suffix":".png"},"primary":"true"}],"verified":"false","restricted":"true","stats":{"checkinsCount":"2153","usersCount":"1286","tipCount":"32"},"url":"http:\/\/www.thewaterway.co.uk","reservations":{"url":"http:\/\/www.toptable.co.uk\/single.aspx?rid=6753&ref=9601"},"menu":{"type":"Menu","label":"Menu","anchor":"View Menu","url":"https:\/\/foursquare.com\/v\/the-waterway\/4ac518e1f964a52065aa20e3\/menu","mobileUrl":"https:\/\/foursquare.com\/v\/4ac518e1f964a52065aa20e3\/device_menu"},"specials":{"count":"0"},"hereNow":{"count":"0"},"referralId":"v-1392477997"},{"id":"525c324011d227afe1b9d460","name":"Vyzantio","location":{"lat":"51.519099072778886","lng":"-0.18872218708097382","distance":"67","cc":"GB","country":"United Kingdom"},"categories":[{"id":"4bf58dd8d48988d128941735","name":"Cafeteria","pluralName":"Cafeterias","shortName":"Cafeteria","icon":{"prefix":"https:\/\/ss1.4sqi.net\/img\/categories_v2\/food\/cafeteria_","suffix":".png"},"primary":"true"}],"verified":"false","restricted":"true","stats":{"checkinsCount":"6","usersCount":"6","tipCount":"0"},"specials":{"count":"0"},"hereNow":{"count":"0"},"referralId":"v-1392477997"},{"id":"4bbf30c1ba9776b08fabfec8","name":"Porchester Square Gardens","location":{"lat":"51.51765499276949","lng":"-0.18750682874264196","distance":"183","cc":"GB","city":"City of Westminster","state":"Greater London","country":"United Kingdom"},"categories":[{"id":"4bf58dd8d48988d15a941735","name":"Garden","pluralName":"Gardens","shortName":"Garden","icon":{"prefix":"https:\/\/ss1.4sqi.net\/img\/categories_v2\/parks_outdoors\/garden_","suffix":".png"},"primary":"true"}],"verified":"false","restricted":"true","stats":{"checkinsCount":"245","usersCount":"89","tipCount":"0"},"specials":{"count":"0"},"hereNow":{"count":"0"},"referralId":"v-1392477997"},{"id":"4badd687f964a520966c3be3","name":"Porchester Spa","location":{"address":"Porchester Centre, Porchester Rd.","lat":"51.517205500531055","lng":"-0.18840909004211426","distance":"235","postalCode":"W2 5HS","cc":"GB","city":"Paddington","state":"Greater London","country":"United Kingdom"},"categories":[{"id":"4bf58dd8d48988d1ed941735","name":"Spa","pluralName":"Spas","shortName":"Spa","icon":{"prefix":"https:\/\/ss1.4sqi.net\/img\/categories_v2\/shops\/spa_","suffix":".png"},"primary":"true"}],"verified":"false","restricted":"true","stats":{"checkinsCount":"488","usersCount":"117","tipCount":"7"},"specials":{"count":"0"},"hereNow":{"count":"0"},"referralId":"v-1392477997"},{"id":"51dd744e498e8af530d04f9e","name":"Royal Rock","location":{"lat":"51.51858040409044","lng":"-0.1889039552725466","distance":"109","cc":"GB","country":"United Kingdom"},"categories":[{"id":"4bf58dd8d48988d110941735","name":"Italian Restaurant","pluralName":"Italian Restaurants","shortName":"Italian","icon":{"prefix":"https:\/\/ss1.4sqi.net\/img\/categories_v2\/food\/italian_","suffix":".png"},"primary":"true"}],"verified":"false","restricted":"true","stats":{"checkinsCount":"19","usersCount":"10","tipCount":"0"},"specials":{"count":"0"},"hereNow":{"count":"0"},"referralId":"v-1392477997"},{"id":"4aeae724f964a52087bc21e3","name":"The Bridge House","contact":{"phone":"+442072664326","formattedPhone":"+44 20 7266 4326","twitter":"bridgehousew2"},"location":{"address":"13 Westbourne Terrace Rd.","lat":"51.520994163502024","lng":"-0.18421411514282227","distance":"312","postalCode":"W2 6NG","cc":"GB","city":"London","state":"Greater London","country":"United Kingdom"},"categories":[{"id":"4bf58dd8d48988d11b941735","name":"Pub","pluralName":"Pubs","shortName":"Pub","icon":{"prefix":"https:\/\/ss1.4sqi.net\/img\/categories_v2\/nightlife\/pub_","suffix":".png"},"primary":"true"}],"verified":"false","restricted":"true","stats":{"checkinsCount":"1084","usersCount":"568","tipCount":"20"},"menu":{"type":"Menu","label":"Menu","anchor":"View Menu","url":"https:\/\/foursquare.com\/v\/the-bridge-house\/4aeae724f964a52087bc21e3\/menu","mobileUrl":"https:\/\/foursquare.com\/v\/4aeae724f964a52087bc21e3\/device_menu"},"specials":{"count":"0"},"hereNow":{"count":"0"},"referralId":"v-1392477997"},{"id":"4c60ef51cd522d7f7870cf3f","name":"BFLS","location":{"address":"66 Porchester Road","lat":"51.51883783537832","lng":"-0.1886129379272461","distance":"75","cc":"GB","city":"City of Westminster","state":"Greater London","country":"United Kingdom"},"categories":[{"id":"4bf58dd8d48988d124941735","name":"Office","pluralName":"Offices","shortName":"Office","icon":{"prefix":"https:\/\/ss1.4sqi.net\/img\/categories_v2\/building\/default_","suffix":".png"},"primary":"true"}],"verified":"false","restricted":"true","stats":{"checkinsCount":"5","usersCount":"4","tipCount":"0"},"specials":{"count":"0"},"hereNow":{"count":"0"},"referralId":"v-1392477997"},{"id":"50281b03e4b0f67567af61ed","name":"Pizza Hut (Baker St.)-London","location":{"lat":"51.519121134675835","lng":"-0.18776769784835778","distance":"18","cc":"GB","country":"United Kingdom"},"categories":[{"id":"4bf58dd8d48988d1ca941735","name":"Pizza Place","pluralName":"Pizza Places","shortName":"Pizza","icon":{"prefix":"https:\/\/ss1.4sqi.net\/img\/categories_v2\/food\/pizza_","suffix":".png"},"primary":"true"}],"verified":"false","restricted":"true","stats":{"checkinsCount":"9","usersCount":"8","tipCount":"0"},"specials":{"count":"0"},"hereNow":{"count":"0"},"referralId":"v-1392477997"},{"id":"4bbcfc528ec3d13a46841b28","name":"Berdees Coffee Shop","location":{"address":"84 Bishop's Bridge Road","lat":"51.516403","lng":"-0.18689095973968506","distance":"327","postalCode":"W2 6BB","cc":"GB","city":"Paddington","state":"Greater London","country":"United Kingdom"},"categories":[{"id":"4bf58dd8d48988d1e0931735","name":"Coffee Shop","pluralName":"Coffee Shops","shortName":"Coffee Shop","icon":{"prefix":"https:\/\/ss1.4sqi.net\/img\/categories_v2\/food\/coffeeshop_","suffix":".png"},"primary":"true"}],"verified":"false","restricted":"true","stats":{"checkinsCount":"218","usersCount":"115","tipCount":"3"},"specials":{"count":"0"},"hereNow":{"count":"0"},"referralId":"v-1392477997"},{"id":"4cc6336ab2beb1f7b647274c","name":"The Colonnades","location":{"address":"111 The Colonnades","crossStreet":"34 Porchester Road","lat":"51.51689470426334","lng":"-0.1867521066343396","distance":"276","postalCode":"W2 5DR","cc":"GB","city":"Paddington","state":"Greater London","country":"United Kingdom"},"categories":[{"id":"4d954b06a243a5684965b473","name":"Residential Building (Apartment \/ Condo)","pluralName":"Residential Buildings (Apartments \/ Condos)","shortName":"Residential","icon":{"prefix":"https:\/\/ss1.4sqi.net\/img\/categories_v2\/building\/apartment_","suffix":".png"},"primary":"true"}],"verified":"false","restricted":"true","stats":{"checkinsCount":"149","usersCount":"38","tipCount":"0"},"specials":{"count":"0"},"hereNow":{"count":"0"},"referralId":"v-1392477997"},{"id":"4e61e723b3ad629a3a61f294","name":"Paddington Library","contact":{"phone":"+442076411300","formattedPhone":"+44 20 7641 1300","twitter":"wcclibraries"},"location":{"address":"Adult Library, Porchester Rd.","lat":"51.517702884830896","lng":"-0.18867731094360352","distance":"186","postalCode":"W2 5DU","cc":"GB","city":"Paddington","state":"Greater London","country":"United Kingdom"},"categories":[{"id":"4bf58dd8d48988d12f941735","name":"Library","pluralName":"Libraries","shortName":"Library","icon":{"prefix":"https:\/\/ss1.4sqi.net\/img\/categories_v2\/building\/library_","suffix":".png"},"primary":"true"}],"verified":"false","restricted":"true","stats":{"checkinsCount":"181","usersCount":"103","tipCount":"0"},"url":"http:\/\/www.westminster.gov.uk\/libraries","specials":{"count":"0"},"hereNow":{"count":"0"},"referralId":"v-1392477997"},{"id":"4dadc0976a23037eec96fcad","name":"Westway Basketball Courts","location":{"address":"1 Crowthorne Road","crossStreet":"Westway Sports Centre","lat":"51.51901734623421","lng":"-0.18914119885271105","distance":"97","postalCode":"W10 6RP","cc":"GB","city":"Paddington","state":"Greater London","country":"United Kingdom"},"categories":[{"id":"4bf58dd8d48988d1e1941735","name":"Basketball Court","pluralName":"Basketball Courts","shortName":"Basketball Court","icon":{"prefix":"https:\/\/ss1.4sqi.net\/img\/categories_v2\/parks_outdoors\/basketballcourt_","suffix":".png"},"primary":"true"}],"verified":"false","restricted":"true","stats":{"checkinsCount":"129","usersCount":"62","tipCount":"1"},"specials":{"count":"0"},"hereNow":{"count":"0"},"referralId":"v-1392477997"},{"id":"4da358a8d686b60c54f6ca28","name":"The Bengal","location":{"address":"62 Porchester Rd.","lat":"51.51830273448158","lng":"-0.1890173368955044","distance":"138","postalCode":"W2 6ET","cc":"GB","city":"Paddington","state":"Greater London","country":"United Kingdom"},"categories":[{"id":"4bf58dd8d48988d10f941735","name":"Indian Restaurant","pluralName":"Indian Restaurants","shortName":"Indian","icon":{"prefix":"https:\/\/ss1.4sqi.net\/img\/categories_v2\/food\/indian_","suffix":".png"},"primary":"true"}],"verified":"false","restricted":"true","stats":{"checkinsCount":"101","usersCount":"45","tipCount":"1"},"url":"http:\/\/www.thebengal.co.uk","reservations":{"url":"http:\/\/www.toptable.co.uk\/single.aspx?rid=68380&ref=9601"},"menu":{"type":"Menu","label":"Menu","anchor":"View Menu","url":"https:\/\/foursquare.com\/v\/the-bengal-paddington-greater-london\/4da358a8d686b60c54f6ca28\/menu","mobileUrl":"https:\/\/foursquare.com\/v\/4da358a8d686b60c54f6ca28\/device_menu"},"specials":{"count":"0"},"hereNow":{"count":"0"},"referralId":"v-1392477997"},{"id":"52d6bf7411d2dbc1fca16530","name":"Ralph Court Flat50","location":{"address":"QUEENS WAY","lat":"51.516523","lng":"-0.188905","distance":"317","postalCode":"W2 5HT","cc":"GB","city":"London","state":"Greater London","country":"United Kingdom"},"categories":[{"id":"4d954b06a243a5684965b473","name":"Residential Building (Apartment \/ Condo)","pluralName":"Residential Buildings (Apartments \/ Condos)","shortName":"Residential","icon":{"prefix":"https:\/\/ss1.4sqi.net\/img\/categories_v2\/building\/apartment_","suffix":".png"},"primary":"true"}],"verified":"false","restricted":"true","stats":{"checkinsCount":"28","usersCount":"1","tipCount":"0"},"specials":{"count":"0"},"hereNow":{"count":"0"},"referralId":"v-1392477997"},{"id":"4ca3a35e7f84224be790c658","name":"Bishop's court","location":{"lat":"51.51669926234659","lng":"-0.18669058781387127","distance":"298","cc":"GB","city":"Paddington","state":"Greater London","country":"United Kingdom"},"categories":[{"id":"4bf58dd8d48988d164941735","name":"Plaza","pluralName":"Plazas","shortName":"Plaza","icon":{"prefix":"https:\/\/ss1.4sqi.net\/img\/categories_v2\/parks_outdoors\/plaza_","suffix":".png"},"primary":"true"}],"verified":"false","restricted":"true","stats":{"checkinsCount":"235","usersCount":"25","tipCount":"0"},"specials":{"count":"0"},"hereNow":{"count":"0"},"referralId":"v-1392477997"},{"id":"505c4f99e4b0b64eba114845","name":"Novatel Paddington","location":{"lat":"51.519014","lng":"-0.187417","distance":"40","cc":"GB","country":"United Kingdom"},"categories":[{"id":"4bf58dd8d48988d1fa931735","name":"Hotel","pluralName":"Hotels","shortName":"Hotel","icon":{"prefix":"https:\/\/ss1.4sqi.net\/img\/categories_v2\/travel\/hotel_","suffix":".png"},"primary":"true"}],"verified":"false","restricted":"true","stats":{"checkinsCount":"7","usersCount":"6","tipCount":"0"},"specials":{"count":"0"},"hereNow":{"count":"0"},"referralId":"v-1392477997"},{"id":"4bea5a0a6295c9b60e598608","name":"66 Porchester Road","location":{"address":"66 Porchester Road","lat":"51.51886931674867","lng":"-0.18789238205025718","distance":"47","postalCode":"W2 6ET","cc":"GB","city":"London","state":"Greater London","country":"United Kingdom"},"categories":[{"id":"4bf58dd8d48988d124941735","name":"Office","pluralName":"Offices","shortName":"Office","icon":{"prefix":"https:\/\/ss1.4sqi.net\/img\/categories_v2\/building\/default_","suffix":".png"},"primary":"true"}],"verified":"false","restricted":"true","stats":{"checkinsCount":"42","usersCount":"9","tipCount":"0"},"specials":{"count":"0"},"hereNow":{"count":"0"},"referralId":"v-1392477997"},{"id":"4de420e9091a303de3218221","name":"Orsett Terrace","location":{"address":"Orsett Terrace","lat":"51.517475891327564","lng":"-0.18524408340454102","distance":"268","cc":"GB","city":"London","state":"Greater London","country":"United Kingdom"},"categories":[{"id":"4d954b06a243a5684965b473","name":"Residential Building (Apartment \/ Condo)","pluralName":"Residential Buildings (Apartments \/ Condos)","shortName":"Residential","icon":{"prefix":"https:\/\/ss1.4sqi.net\/img\/categories_v2\/building\/apartment_","suffix":".png"},"primary":"true"}],"verified":"false","restricted":"true","stats":{"checkinsCount":"170","usersCount":"39","tipCount":"0"},"specials":{"count":"0"},"hereNow":{"count":"0"},"referralId":"v-1392477997"},{"id":"4bbf88d0abf49521c4cebd93","name":"The Summer House","contact":{"phone":"+442072866752","formattedPhone":"+44 20 7286 6752"},"location":{"address":"60 Blomfield Rd","lat":"51.522085833924386","lng":"-0.18629093520872844","distance":"328","postalCode":"W9 2PA","cc":"GB","city":"City of Westminster","state":"Greater London","country":"United Kingdom"},"categories":[{"id":"4bf58dd8d48988d1c4941735","name":"Restaurant","pluralName":"Restaurants","shortName":"Restaurant","icon":{"prefix":"https:\/\/ss1.4sqi.net\/img\/categories_v2\/food\/default_","suffix":".png"},"primary":"true"}],"verified":"false","restricted":"true","stats":{"checkinsCount":"583","usersCount":"472","tipCount":"19"},"url":"http:\/\/www.thesummerhouse.co","reservations":{"url":"http:\/\/www.toptable.co.uk\/single.aspx?rid=43699&ref=9601"},"menu":{"type":"Menu","label":"Menu","anchor":"View Menu","url":"https:\/\/foursquare.com\/v\/the-summer-house\/4bbf88d0abf49521c4cebd93\/menu","mobileUrl":"https:\/\/foursquare.com\/v\/4bbf88d0abf49521c4cebd93\/device_menu"},"specials":{"count":"0"},"hereNow":{"count":"0"},"referralId":"v-1392477997"},{"id":"52764e9711d2c89d052c0cdd","name":"Shimmy London","contact":{"phone":"+442077279950","formattedPhone":"+44 20 7727 9950","twitter":"weloveshimmy"},"location":{"address":"58 Porchester Road","lat":"51.51828705408604","lng":"-0.1889348030090332","distance":"136","postalCode":"W2 6ET","cc":"GB","city":"London","state":"Greater London","country":"United Kingdom"},"categories":[{"id":"4bf58dd8d48988d11f941735","name":"Nightclub","pluralName":"Nightclubs","shortName":"Nightclub","icon":{"prefix":"https:\/\/ss1.4sqi.net\/img\/categories_v2\/nightlife\/nightclub_","suffix":".png"},"primary":"true"}],"verified":"true","restricted":"true","stats":{"checkinsCount":"8","usersCount":"7","tipCount":"0"},"url":"http:\/\/www.weloveshimmy.com","specials":{"count":"0"},"hereNow":{"count":"0"},"venuePage":{"id":"70804651"},"referralId":"v-1392477997"},{"id":"4f21e7bce4b067a32442dfa0","name":"thepad@westbournegardens","location":{"address":"Notting Hill","lat":"51.517843099250996","lng":"-0.18974994709385334","distance":"209","cc":"GB","city":"London","state":"Greater London","country":"United Kingdom"},"categories":[{"id":"4d954b06a243a5684965b473","name":"Residential Building (Apartment \/ Condo)","pluralName":"Residential Buildings (Apartments \/ Condos)","shortName":"Residential","icon":{"prefix":"https:\/\/ss1.4sqi.net\/img\/categories_v2\/building\/apartment_","suffix":".png"},"primary":"true"}],"verified":"false","restricted":"true","stats":{"checkinsCount":"66","usersCount":"4","tipCount":"0"},"specials":{"count":"0"},"hereNow":{"count":"0"},"referralId":"v-1392477997"},{"id":"4ac518e9f964a520dcab20e3","name":"Porchester Hall","location":{"address":"Porchester Road","lat":"51.517453","lng":"-0.188452","distance":"209","postalCode":"W2 5HS","cc":"GB","city":"London","state":"Greater London","country":"United Kingdom"},"categories":[{"id":"5032792091d4c4b30a586d5c","name":"Concert Hall","pluralName":"Concert Halls","shortName":"Concert Hall","icon":{"prefix":"https:\/\/ss1.4sqi.net\/img\/categories_v2\/arts_entertainment\/musicvenue_","suffix":".png"},"primary":"true"}],"verified":"false","restricted":"true","stats":{"checkinsCount":"192","usersCount":"161","tipCount":"0"},"specials":{"count":"0"},"hereNow":{"count":"0"},"referralId":"v-1392477997"},{"id":"52cd99ea498e4255abcf51ec","name":"\u0627\u0644\u0625\u0634\u0627\u0631\u0629 \u0627\u0644\u062b\u0627\u0646\u064a\u0629 \u0627\u0644\u0644\u064a \u062a\u0648\u0642\u0641 \u0643\u0644 \u062b\u0627\u0646\u064a\u062a\u064a\u0646","location":{"lat":"51.519727","lng":"-0.185799","distance":"147","cc":"GB","country":"United Kingdom"},"verified":"false","restricted":"true","stats":{"checkinsCount":"1","usersCount":"1","tipCount":"0"},"specials":{"count":"0"},"hereNow":{"count":"0"},"referralId":"v-1392477997"},{"id":"4f0c5744e4b0ece6d137f417","name":"St Mary Magdalene Primary School","location":{"address":"Rowington Close","lat":"51.52222019182377","lng":"-0.18920459732349387","distance":"340","cc":"GB","country":"United Kingdom"},"categories":[{"id":"4bf58dd8d48988d13b941735","name":"School","pluralName":"Schools","shortName":"School","icon":{"prefix":"https:\/\/ss1.4sqi.net\/img\/categories_v2\/building\/school_","suffix":".png"},"primary":"true"}],"verified":"false","restricted":"true","stats":{"checkinsCount":"32","usersCount":"3","tipCount":"0"},"specials":{"count":"0"},"hereNow":{"count":"0"},"referralId":"v-1392477997"},{"id":"4ac518bef964a52019a320e3","name":"The Daniel Gooch","location":{"address":"40 Porchester Road","lat":"51.517153","lng":"-0.188115","distance":"238","postalCode":"W2 6ES","cc":"GB","city":"London","state":"Greater London","country":"United Kingdom"},"categories":[{"id":"4bf58dd8d48988d116941735","name":"Bar","pluralName":"Bars","shortName":"Bar","icon":{"prefix":"https:\/\/ss1.4sqi.net\/img\/categories_v2\/nightlife\/bar_","suffix":".png"},"primary":"true"}],"verified":"false","restricted":"true","stats":{"checkinsCount":"166","usersCount":"78","tipCount":"1"},"specials":{"count":"0"},"hereNow":{"count":"0"},"referralId":"v-1392477997"}],"confident":"true"}}