{"meta":{"code":"200"},"response":{"venues":[{"id":"4bd937cd11dcc9282e43f933","name":"Fitness First","contact":{"phone":"+448445712947","formattedPhone":"+44 844 571 2947","twitter":"fitnessfirstuk"},"location":{"address":"15 Thomas More Square","lat":"51.50784765480179","lng":"-0.06731271743774414","distance":"164","postalCode":"E1W 1YW","cc":"GB","city":"London","state":"Greater London","country":"United Kingdom"},"categories":[{"id":"4bf58dd8d48988d175941735","name":"Gym \/ Fitness Center","pluralName":"Gyms or Fitness Centers","shortName":"Gym \/ Fitness","icon":{"prefix":"https:\/\/ss1.4sqi.net\/img\/categories_v2\/building\/gym_","suffix":".png"},"primary":"true"}],"verified":"false","restricted":"true","stats":{"checkinsCount":"1146","usersCount":"127","tipCount":"5"},"url":"http:\/\/www.fitnessfirst.co.uk","specials":{"count":"0"},"hereNow":{"count":"0"},"referralId":"v-1392478035"},{"id":"4ac518eaf964a520f7ab20e3","name":"Wilton's Music Hall","contact":{"phone":"+442077022789","formattedPhone":"+44 20 7702 2789","twitter":"wiltonmusichall"},"location":{"address":"Graces Alley","crossStreet":"near Cable St","lat":"51.51045188624859","lng":"-0.06688356399536133","distance":"144","postalCode":"E1 8JB","cc":"GB","city":"London","state":"Greater London","country":"United Kingdom"},"categories":[{"id":"4bf58dd8d48988d137941735","name":"Theater","pluralName":"Theaters","shortName":"Theater","icon":{"prefix":"https:\/\/ss1.4sqi.net\/img\/categories_v2\/arts_entertainment\/performingarts_theater_","suffix":".png"},"primary":"true"}],"verified":"false","restricted":"true","stats":{"checkinsCount":"1547","usersCount":"1057","tipCount":"28"},"url":"http:\/\/wiltons.org.uk","specials":{"count":"0"},"hereNow":{"count":"0"},"referralId":"v-1392478035"},{"id":"4f3ccfcce4b0c1f277558aa2","name":"TFL Barclays Cycle Hire Point Vaughan Way","location":{"lat":"51.50906223735988","lng":"-0.06751248765902249","distance":"32","cc":"GB","country":"United Kingdom"},"categories":[{"id":"4e4c9077bd41f78e849722f9","name":"Bike Rental \/ Bike Share","pluralName":"Bike Rentals \/ Bike Shares","shortName":"Bike","icon":{"prefix":"https:\/\/ss1.4sqi.net\/img\/categories_v2\/shops\/bikeshop_","suffix":".png"},"primary":"true"}],"verified":"false","restricted":"true","stats":{"checkinsCount":"22","usersCount":"13","tipCount":"1"},"specials":{"count":"0"},"hereNow":{"count":"0"},"referralId":"v-1392478035"},{"id":"4b82b9abf964a5209ee030e3","name":"News International","location":{"address":"1 Virginia Street","lat":"51.50850206542486","lng":"-0.0657033920288086","distance":"169","postalCode":"E98 1XY","cc":"GB","city":"Poplar","state":"Greater London","country":"United Kingdom"},"categories":[{"id":"4bf58dd8d48988d124941735","name":"Office","pluralName":"Offices","shortName":"Office","icon":{"prefix":"https:\/\/ss1.4sqi.net\/img\/categories_v2\/building\/default_","suffix":".png"},"primary":"true"}],"verified":"false","restricted":"true","stats":{"checkinsCount":"714","usersCount":"221","tipCount":"6"},"specials":{"count":"0"},"hereNow":{"count":"0"},"referralId":"v-1392478035"},{"id":"50ec63468302ccb5ec80a996","name":"The Massage Room","contact":{"phone":"+442032907995","formattedPhone":"+44 20 3290 7995","twitter":"massageroomtms"},"location":{"address":"Fitness First, 15 Thomas More Square","lat":"51.50826167077801","lng":"-0.0673985481262207","distance":"117","postalCode":"E1W 1WY","cc":"GB","city":"London","state":"Greater London","country":"United Kingdom"},"categories":[{"id":"4bf58dd8d48988d1ed941735","name":"Spa","pluralName":"Spas","shortName":"Spa","icon":{"prefix":"https:\/\/ss1.4sqi.net\/img\/categories_v2\/shops\/spa_","suffix":".png"},"primary":"true"}],"verified":"true","restricted":"true","stats":{"checkinsCount":"9","usersCount":"8","tipCount":"1"},"url":"http:\/\/themassageroom.net","specials":{"count":"1","items":[{"id":"51da7bcaccdad678bc126b91","type":"count","message":"Get a free 15 minute taster massage session","description":"Unlocked on your 1st check-in","finePrint":"Only one session per person call 020 3290 7995 to claim your massage","icon":"newbie","title":"Newbie Special","provider":"foursquare","redemption":"standard","page":{"id":"45392560","firstName":"The Massage Room","gender":"none","photo":{"prefix":"https:\/\/irs1.4sqi.net\/img\/user\/","suffix":"\/TV21HHBEANWISSV1.jpg"},"type":"venuePage","venue":{"id":"50ec63468302ccb5ec80a996"},"tips":{"count":"0"},"homeCity":"London","bio":"","contact":{"facebook":"165794733501948"}}}]},"hereNow":{"count":"1","groups":[{"type":"others","name":"Other people here","count":"1"}]},"venuePage":{"id":"45392560"},"storeId":"","referralId":"v-1392478035"},{"id":"4b65c414f964a52051fe2ae3","name":"Thomas More Square","location":{"address":"Thomas More Square","lat":"51.507967853376","lng":"-0.06793498992919922","distance":"147","cc":"GB","city":"London","state":"Greater London","country":"United Kingdom"},"categories":[{"id":"4bf58dd8d48988d164941735","name":"Plaza","pluralName":"Plazas","shortName":"Plaza","icon":{"prefix":"https:\/\/ss1.4sqi.net\/img\/categories_v2\/parks_outdoors\/plaza_","suffix":".png"},"primary":"true"}],"verified":"false","restricted":"true","stats":{"checkinsCount":"1461","usersCount":"353","tipCount":"4"},"specials":{"count":"0"},"hereNow":{"count":"0"},"referralId":"v-1392478035"},{"id":"4cea3538f3bda143a177c4e4","name":"Pret A Manger","contact":{"phone":"+442079325279","formattedPhone":"+44 20 7932 5279","twitter":"pret","facebook":"162638680417951"},"location":{"address":"Retail Unit 1, Thomas More Sq","lat":"51.50796","lng":"-0.06849","distance":"155","postalCode":"E1W 1YN","cc":"GB","city":"Thomas More Street, London","country":"United Kingdom"},"categories":[{"id":"4bf58dd8d48988d1c5941735","name":"Sandwich Place","pluralName":"Sandwich Places","shortName":"Sandwiches","icon":{"prefix":"https:\/\/ss1.4sqi.net\/img\/categories_v2\/food\/sandwiches_","suffix":".png"},"primary":"true"}],"verified":"true","restricted":"true","stats":{"checkinsCount":"729","usersCount":"432","tipCount":"6"},"url":"http:\/\/www.pret.com","specials":{"count":"0"},"hereNow":{"count":"0"},"storeId":"274","referralId":"v-1392478035"},{"id":"4ad063fff964a520f2d720e3","name":"Poppies Diner","location":{"address":"8 Cable Street","lat":"51.51091523333333","lng":"-0.068359","distance":"185","postalCode":"E1 8JG","cc":"GB","city":"London","state":"Greater London","country":"United Kingdom"},"categories":[{"id":"4bf58dd8d48988d14e941735","name":"American Restaurant","pluralName":"American Restaurants","shortName":"American","icon":{"prefix":"https:\/\/ss1.4sqi.net\/img\/categories_v2\/food\/default_","suffix":".png"},"primary":"true"}],"verified":"false","restricted":"true","stats":{"checkinsCount":"105","usersCount":"60","tipCount":"1"},"specials":{"count":"0"},"hereNow":{"count":"2","groups":[{"type":"others","name":"Other people here","count":"2"}]},"referralId":"v-1392478035"},{"id":"4ca609e2f47ea14393865c21","name":"The Times - TMS 3","location":{"address":"3 Thomas More Square","lat":"51.508099","lng":"-0.067516","distance":"133","cc":"GB","city":"London","state":"Greater London","country":"United Kingdom"},"categories":[{"id":"4bf58dd8d48988d174941735","name":"Coworking Space","pluralName":"Coworking Spaces","shortName":"Coworking Space","icon":{"prefix":"https:\/\/ss1.4sqi.net\/img\/categories_v2\/building\/office_coworkingspace_","suffix":".png"},"primary":"true"}],"verified":"false","restricted":"true","stats":{"checkinsCount":"656","usersCount":"126","tipCount":"8"},"specials":{"count":"0"},"hereNow":{"count":"0"},"referralId":"v-1392478035"},{"id":"4f68a913e4b0c2cd00a68f02","name":"The Sun","contact":{"phone":"+442077824100","formattedPhone":"+44 20 7782 4100","twitter":"thesunnewspaper"},"location":{"address":"3 Thomas More Sq","lat":"51.50808704939413","lng":"-0.0677198662387734","distance":"133","postalCode":"E98 1SN","cc":"GB","city":"London","state":"Greater London","country":"United Kingdom"},"categories":[{"id":"4bf58dd8d48988d124941735","name":"Office","pluralName":"Offices","shortName":"Office","icon":{"prefix":"https:\/\/ss1.4sqi.net\/img\/categories_v2\/building\/default_","suffix":".png"},"primary":"true"}],"verified":"false","restricted":"true","stats":{"checkinsCount":"290","usersCount":"34","tipCount":"0"},"specials":{"count":"0"},"hereNow":{"count":"0"},"referralId":"v-1392478035"},{"id":"52ab0a7911d28ddbfde0ce1c","name":"Freebird","location":{"lat":"51.507797","lng":"-0.06774","distance":"166","cc":"GB","country":"United Kingdom"},"categories":[{"id":"4bf58dd8d48988d1c1941735","name":"Mexican Restaurant","pluralName":"Mexican Restaurants","shortName":"Mexican","icon":{"prefix":"https:\/\/ss1.4sqi.net\/img\/categories_v2\/food\/mexican_","suffix":".png"},"primary":"true"}],"verified":"false","restricted":"true","stats":{"checkinsCount":"13","usersCount":"7","tipCount":"0"},"specials":{"count":"0"},"hereNow":{"count":"0"},"referralId":"v-1392478035"},{"id":"4c9001076fbf224be712508f","name":"Mahogany Bar","location":{"address":"1 Graces Alley","lat":"51.51035624040217","lng":"-0.06699360472861739","distance":"131","postalCode":"E1 8JB","cc":"GB","city":"London","state":"Greater London","country":"United Kingdom"},"categories":[{"id":"4bf58dd8d48988d118941735","name":"Dive Bar","pluralName":"Dive Bars","shortName":"Dive Bar","icon":{"prefix":"https:\/\/ss1.4sqi.net\/img\/categories_v2\/nightlife\/divebar_","suffix":".png"},"primary":"true"}],"verified":"false","restricted":"true","stats":{"checkinsCount":"62","usersCount":"29","tipCount":"2"},"menu":{"type":"Menu","label":"Menu","anchor":"View Menu","url":"https:\/\/foursquare.com\/v\/mahogany-bar\/4c9001076fbf224be712508f\/menu","mobileUrl":"https:\/\/foursquare.com\/v\/4c9001076fbf224be712508f\/device_menu"},"specials":{"count":"0"},"hereNow":{"count":"0"},"referralId":"v-1392478035"},{"id":"52e115f6498ed61d001d8cda","name":"Freebird Burritos","location":{"address":"Thomas More Square","lat":"51.50856929424609","lng":"-0.06790102974032268","distance":"80","cc":"GB","city":"London","state":"Greater London","country":"United Kingdom"},"categories":[{"id":"4bf58dd8d48988d153941735","name":"Burrito Place","pluralName":"Burrito Places","shortName":"Burritos","icon":{"prefix":"https:\/\/ss1.4sqi.net\/img\/categories_v2\/food\/burrito_","suffix":".png"},"primary":"true"}],"verified":"false","restricted":"true","stats":{"checkinsCount":"2","usersCount":"1","tipCount":"0"},"specials":{"count":"0"},"hereNow":{"count":"0"},"referralId":"v-1392478035"},{"id":"4e216ffdfa761d67107be324","name":"Osprey Court","location":{"address":"Osprey Court, Star Place","crossStreet":"East Smithfield & Thomas More St","lat":"51.50782328481472","lng":"-0.0701413714903847","distance":"229","postalCode":"E1W 1AG","cc":"GB","city":"London","state":"Greater London","country":"United Kingdom"},"categories":[{"id":"4bf58dd8d48988d130941735","name":"Building","pluralName":"Buildings","shortName":"Building","icon":{"prefix":"https:\/\/ss1.4sqi.net\/img\/categories_v2\/building\/default_","suffix":".png"},"primary":"true"}],"verified":"false","restricted":"true","stats":{"checkinsCount":"721","usersCount":"11","tipCount":"0"},"specials":{"count":"0"},"hereNow":{"count":"0"},"referralId":"v-1392478035"},{"id":"5267b299498e77d145b560ea","name":"Illustrated London News","location":{"address":"46-48 East Smithfield Street","lat":"51.509096796216966","lng":"-0.06905931388874396","distance":"89","postalCode":"E1W 1AW","cc":"GB","city":"London","state":"Greater London","country":"United Kingdom"},"categories":[{"id":"4bf58dd8d48988d124941735","name":"Office","pluralName":"Offices","shortName":"Office","icon":{"prefix":"https:\/\/ss1.4sqi.net\/img\/categories_v2\/building\/default_","suffix":".png"},"primary":"true"}],"verified":"false","restricted":"true","stats":{"checkinsCount":"8","usersCount":"4","tipCount":"3"},"specials":{"count":"0"},"hereNow":{"count":"0"},"referralId":"v-1392478035"},{"id":"4f4bb4b1e4b0eddb547eb65b","name":"kingsferry 719","location":{"lat":"51.50919595237369","lng":"-0.06813340878247443","distance":"25","cc":"GB","country":"United Kingdom"},"categories":[{"id":"4bf58dd8d48988d12b951735","name":"Bus Line","pluralName":"Bus Lines","shortName":"Bus","icon":{"prefix":"https:\/\/ss1.4sqi.net\/img\/categories_v2\/travel\/busstation_","suffix":".png"},"primary":"true"}],"verified":"false","restricted":"true","stats":{"checkinsCount":"37","usersCount":"2","tipCount":"0"},"specials":{"count":"0"},"hereNow":{"count":"0"},"referralId":"v-1392478035"},{"id":"4c875de5d8086dcbbe5ba152","name":"News Int. iPad team","location":{"address":"1 Virginia Street","lat":"51.509007","lng":"-0.067959","distance":"33","postalCode":"E981XY","cc":"GB","city":"Poplar","state":"Greater London","country":"United Kingdom"},"categories":[{"id":"4bf58dd8d48988d124941735","name":"Office","pluralName":"Offices","shortName":"Office","icon":{"prefix":"https:\/\/ss1.4sqi.net\/img\/categories_v2\/building\/default_","suffix":".png"},"primary":"true"}],"verified":"false","restricted":"true","stats":{"checkinsCount":"5","usersCount":"4","tipCount":"0"},"specials":{"count":"0"},"hereNow":{"count":"0"},"referralId":"v-1392478035"},{"id":"4bc9f923511f9521d8abaec7","name":"Cape","contact":{"phone":"+442077029222","formattedPhone":"+44 20 7702 9222"},"location":{"address":"Thomas More St.","lat":"51.507133","lng":"-0.067572","distance":"240","postalCode":"E1W 1YY","cc":"GB","city":"Poplar","state":"Greater London","country":"United Kingdom"},"categories":[{"id":"4bf58dd8d48988d116941735","name":"Bar","pluralName":"Bars","shortName":"Bar","icon":{"prefix":"https:\/\/ss1.4sqi.net\/img\/categories_v2\/nightlife\/bar_","suffix":".png"},"primary":"true"}],"verified":"false","restricted":"true","stats":{"checkinsCount":"486","usersCount":"252","tipCount":"4"},"specials":{"count":"0"},"hereNow":{"count":"0"},"referralId":"v-1392478035"},{"id":"5064c4bbe4b07031a9c03a29","name":"Cirilo Noodle Bar And Grill","location":{"address":"4 Cable St.","crossStreet":"at Dock St.","lat":"51.510930131535495","lng":"-0.06836556093930646","distance":"186","postalCode":"E1","cc":"GB","city":"London","state":"Greater London","country":"United Kingdom"},"categories":[{"id":"4eb1bd1c3b7b55596b4a748f","name":"Filipino Restaurant","pluralName":"Filipino Restaurants","shortName":"Filipino","icon":{"prefix":"https:\/\/ss1.4sqi.net\/img\/categories_v2\/food\/default_","suffix":".png"},"primary":"true"}],"verified":"false","restricted":"true","stats":{"checkinsCount":"52","usersCount":"42","tipCount":"2"},"url":"http:\/\/www.cirilonoodlebar.co.uk","reservations":{"url":"http:\/\/www.toptable.co.uk\/single.aspx?rid=89092&ref=9601"},"menu":{"type":"Menu","label":"Menu","anchor":"View Menu","url":"https:\/\/foursquare.com\/v\/cirilo-noodle-bar-and-grill\/5064c4bbe4b07031a9c03a29\/menu","mobileUrl":"https:\/\/foursquare.com\/v\/5064c4bbe4b07031a9c03a29\/device_menu"},"specials":{"count":"0"},"hereNow":{"count":"0"},"referralId":"v-1392478035"},{"id":"4b83bb58f964a520890e31e3","name":"datrix business centre","location":{"lat":"51.508908065954685","lng":"-0.06788465067281729","distance":"42","cc":"GB","country":"United Kingdom"},"categories":[{"id":"4bf58dd8d48988d174941735","name":"Coworking Space","pluralName":"Coworking Spaces","shortName":"Coworking Space","icon":{"prefix":"https:\/\/ss1.4sqi.net\/img\/categories_v2\/building\/office_coworkingspace_","suffix":".png"},"primary":"true"}],"verified":"false","restricted":"true","stats":{"checkinsCount":"8","usersCount":"4","tipCount":"0"},"specials":{"count":"0"},"hereNow":{"count":"0"},"referralId":"v-1392478035"},{"id":"4e91cabe49013919db557a7a","name":"Pepper Pot House","location":{"lat":"51.51006813779349","lng":"-0.06820866264943433","distance":"91","cc":"GB","country":"United Kingdom"},"categories":[{"id":"4bf58dd8d48988d116941735","name":"Bar","pluralName":"Bars","shortName":"Bar","icon":{"prefix":"https:\/\/ss1.4sqi.net\/img\/categories_v2\/nightlife\/bar_","suffix":".png"},"primary":"true"}],"verified":"false","restricted":"true","stats":{"checkinsCount":"61","usersCount":"47","tipCount":"0"},"specials":{"count":"0"},"hereNow":{"count":"0"},"referralId":"v-1392478035"},{"id":"4bdb3d36c712b7133a9f63b4","name":"The Empress","location":{"address":"141 Leman St","lat":"51.51129989871824","lng":"-0.06854653358459473","distance":"229","postalCode":"E1 8EY","cc":"GB","city":"London","state":"Greater London","country":"United Kingdom"},"categories":[{"id":"4bf58dd8d48988d10f941735","name":"Indian Restaurant","pluralName":"Indian Restaurants","shortName":"Indian","icon":{"prefix":"https:\/\/ss1.4sqi.net\/img\/categories_v2\/food\/indian_","suffix":".png"},"primary":"true"}],"verified":"false","restricted":"true","stats":{"checkinsCount":"181","usersCount":"115","tipCount":"8"},"url":"http:\/\/www.empressindian.co.uk","reservations":{"url":"http:\/\/www.toptable.co.uk\/single.aspx?rid=71053&ref=9601"},"menu":{"type":"Menu","label":"Menu","anchor":"View Menu","url":"https:\/\/foursquare.com\/v\/the-empress\/4bdb3d36c712b7133a9f63b4\/menu","mobileUrl":"https:\/\/foursquare.com\/v\/4bdb3d36c712b7133a9f63b4\/device_menu"},"specials":{"count":"0"},"hereNow":{"count":"0"},"referralId":"v-1392478035"},{"id":"4ec4e19b30f81945151265eb","name":"SJ INFRASTRUCTURE & TECHNOLOGY","location":{"lat":"51.50894522643497","lng":"-0.06741510218220507","distance":"46","cc":"GB","country":"United Kingdom"},"categories":[{"id":"4bf58dd8d48988d124941735","name":"Office","pluralName":"Offices","shortName":"Office","icon":{"prefix":"https:\/\/ss1.4sqi.net\/img\/categories_v2\/building\/default_","suffix":".png"},"primary":"true"}],"verified":"false","restricted":"true","stats":{"checkinsCount":"19","usersCount":"2","tipCount":"0"},"specials":{"count":"0"},"hereNow":{"count":"0"},"referralId":"v-1392478035"},{"id":"4cb982094495721e28b84a7a","name":"Pumblechook's","location":{"address":"Tower Hamlets, London E1W 1YY","lat":"51.50714244403687","lng":"-0.06778327699999917","distance":"238","postalCode":"E1W 1YY","cc":"GB","city":"London","state":"Greater London","country":"United Kingdom"},"categories":[{"id":"4bf58dd8d48988d16d941735","name":"Caf\u00e9","pluralName":"Caf\u00e9s","shortName":"Caf\u00e9","icon":{"prefix":"https:\/\/ss1.4sqi.net\/img\/categories_v2\/food\/cafe_","suffix":".png"},"primary":"true"}],"verified":"false","restricted":"true","stats":{"checkinsCount":"116","usersCount":"63","tipCount":"4"},"menu":{"type":"Menu","label":"Menu","anchor":"View Menu","url":"https:\/\/foursquare.com\/v\/pumblechooks\/4cb982094495721e28b84a7a\/menu","mobileUrl":"https:\/\/foursquare.com\/v\/4cb982094495721e28b84a7a\/device_menu"},"specials":{"count":"0"},"hereNow":{"count":"0"},"referralId":"v-1392478035"},{"id":"4af5a472f964a520b6fa21e3","name":"The Brown Bear","location":{"address":"Leman Rd","lat":"51.511429","lng":"-0.068811","distance":"248","cc":"GB","city":"London","state":"Greater London","country":"United Kingdom"},"categories":[{"id":"4bf58dd8d48988d11b941735","name":"Pub","pluralName":"Pubs","shortName":"Pub","icon":{"prefix":"https:\/\/ss1.4sqi.net\/img\/categories_v2\/nightlife\/pub_","suffix":".png"},"primary":"true"}],"verified":"false","restricted":"true","stats":{"checkinsCount":"220","usersCount":"146","tipCount":"2"},"specials":{"count":"0"},"hereNow":{"count":"0"},"referralId":"v-1392478035"},{"id":"4d39b4c4039eb60c8063e49c","name":"Admiral House (Dow Jones)","location":{"address":"66-68 East Smithfield","lat":"51.508978","lng":"-0.067955","distance":"36","cc":"GB","city":"Poplar","state":"Greater London","country":"United Kingdom"},"categories":[{"id":"4bf58dd8d48988d124941735","name":"Office","pluralName":"Offices","shortName":"Office","icon":{"prefix":"https:\/\/ss1.4sqi.net\/img\/categories_v2\/building\/default_","suffix":".png"},"primary":"true"}],"verified":"false","restricted":"true","stats":{"checkinsCount":"216","usersCount":"33","tipCount":"0"},"specials":{"count":"0"},"hereNow":{"count":"0"},"referralId":"v-1392478035"},{"id":"4e2d8273e4cd3bc166aa2442","name":"The Rumhouse","location":{"lat":"51.5093865","lng":"-0.0669221","distance":"61","cc":"GB","city":"London","state":"Greater London","country":"United Kingdom"},"categories":[{"id":"4bf58dd8d48988d124941735","name":"Office","pluralName":"Offices","shortName":"Office","icon":{"prefix":"https:\/\/ss1.4sqi.net\/img\/categories_v2\/building\/default_","suffix":".png"},"primary":"true"}],"verified":"false","restricted":"true","stats":{"checkinsCount":"2","usersCount":"2","tipCount":"0"},"specials":{"count":"0"},"hereNow":{"count":"0"},"referralId":"v-1392478035"},{"id":"50780d72e4b0e1f13745fb90","name":"The R&D Lab","location":{"address":"News International","crossStreet":"Thomas More Square","lat":"51.508738","lng":"-0.067776","distance":"61","postalCode":"E98 1XY","cc":"GB","city":"London","state":"Greater London","country":"United Kingdom"},"categories":[{"id":"4bf58dd8d48988d124941735","name":"Office","pluralName":"Offices","shortName":"Office","icon":{"prefix":"https:\/\/ss1.4sqi.net\/img\/categories_v2\/building\/default_","suffix":".png"},"primary":"true"}],"verified":"false","restricted":"true","stats":{"checkinsCount":"14","usersCount":"3","tipCount":"0"},"url":"http:\/\/labs.newsint.co.uk","specials":{"count":"0"},"hereNow":{"count":"0"},"storeId":"","referralId":"v-1392478035"},{"id":"4c83f84ed4e23704a9cd7588","name":"Red Chilli Restaurant","location":{"address":"137 Leman St.","lat":"51.51142776956171","lng":"-0.06882551678158826","distance":"248","postalCode":"E1 8EY","cc":"GB","city":"London","state":"Greater London","country":"United Kingdom"},"categories":[{"id":"4bf58dd8d48988d10f941735","name":"Indian Restaurant","pluralName":"Indian Restaurants","shortName":"Indian","icon":{"prefix":"https:\/\/ss1.4sqi.net\/img\/categories_v2\/food\/indian_","suffix":".png"},"primary":"true"}],"verified":"false","restricted":"true","stats":{"checkinsCount":"154","usersCount":"83","tipCount":"1"},"url":"http:\/\/www.redchillicurryclub.co.uk","reservations":{"url":"http:\/\/www.toptable.co.uk\/single.aspx?rid=28746&ref=9601"},"menu":{"type":"Menu","label":"Menu","anchor":"View Menu","url":"https:\/\/foursquare.com\/v\/red-chilli-restaurant\/4c83f84ed4e23704a9cd7588\/menu","mobileUrl":"https:\/\/foursquare.com\/v\/4c83f84ed4e23704a9cd7588\/device_menu"},"specials":{"count":"0"},"hereNow":{"count":"0"},"referralId":"v-1392478035"},{"id":"52cff7fb11d2d53314be8db4","name":"Tulum Tacos","location":{"address":"Thomas More Square","lat":"51.507647","lng":"-0.066744","distance":"196","cc":"GB","city":"London","state":"Greater London","country":"United Kingdom"},"categories":[{"id":"4bf58dd8d48988d1c1941735","name":"Mexican Restaurant","pluralName":"Mexican Restaurants","shortName":"Mexican","icon":{"prefix":"https:\/\/ss1.4sqi.net\/img\/categories_v2\/food\/mexican_","suffix":".png"},"primary":"true"}],"verified":"false","restricted":"true","stats":{"checkinsCount":"2","usersCount":"2","tipCount":"1"},"specials":{"count":"0"},"hereNow":{"count":"0"},"referralId":"v-1392478035"}],"confident":"true"}}