{"meta":{"code":"200"},"response":{"venues":[{"id":"4dda1bbb7d8b3226642ef30e","name":"Aegis Media \/ Carat Global Management \/ Vizeum Global Management","contact":{"phone":"+442075503200","formattedPhone":"+44 20 7550 3200"},"location":{"address":"2nd Floor\n10 Triton Street \nRegents Place","lat":"51.52432805180038","lng":"-0.14298755027300702","distance":"13","postalCode":"NW1 3BF","cc":"GB","city":"Camden Town","state":"Greater London","country":"United Kingdom"},"categories":[{"id":"4bf58dd8d48988d124941735","name":"Office","pluralName":"Offices","shortName":"Office","icon":{"prefix":"https:\/\/ss1.4sqi.net\/img\/categories_v2\/building\/default_","suffix":".png"},"primary":"true"}],"verified":"false","restricted":"true","stats":{"checkinsCount":"1403","usersCount":"182","tipCount":"0"},"specials":{"count":"0"},"hereNow":{"count":"0"},"referralId":"v-1392477988"},{"id":"4db56269ec8e571a35db9056","name":"Isobar","contact":{"phone":"+442035359700","formattedPhone":"+44 20 3535 9700","twitter":"isobar"},"location":{"address":"10 Triton St","lat":"51.52423180191151","lng":"-0.14295101165771484","distance":"12","postalCode":"NW1 3BF","cc":"GB","city":"London","state":"Greater London","country":"United Kingdom"},"categories":[{"id":"4bf58dd8d48988d124941735","name":"Office","pluralName":"Offices","shortName":"Office","icon":{"prefix":"https:\/\/ss1.4sqi.net\/img\/categories_v2\/building\/default_","suffix":".png"},"primary":"true"}],"verified":"true","restricted":"true","stats":{"checkinsCount":"1760","usersCount":"224","tipCount":"4"},"url":"http:\/\/www.isobar.com","specials":{"count":"0"},"hereNow":{"count":"0"},"venuePage":{"id":"62233776"},"storeId":"","referralId":"v-1392477988"},{"id":"4dec8dd01fc7d5135cc06c5b","name":"Carat","contact":{"phone":"+442075503200","formattedPhone":"+44 20 7550 3200","twitter":"caratuk","facebook":"37944864271"},"location":{"address":"10 Triton St","crossStreet":"Regents Pl.","lat":"51.52441871009052","lng":"-0.14295101165771484","distance":"17","postalCode":"NW1 3BF","cc":"GB","city":"Camden Town","state":"Greater London","country":"United Kingdom"},"categories":[{"id":"4bf58dd8d48988d124941735","name":"Office","pluralName":"Offices","shortName":"Office","icon":{"prefix":"https:\/\/ss1.4sqi.net\/img\/categories_v2\/building\/default_","suffix":".png"},"primary":"true"}],"verified":"true","restricted":"true","stats":{"checkinsCount":"1602","usersCount":"231","tipCount":"4"},"url":"http:\/\/www.carat.co.uk","specials":{"count":"0"},"hereNow":{"count":"0"},"venuePage":{"id":"33704566"},"storeId":"","referralId":"v-1392477988"},{"id":"4da59457f7b16ce044a64550","name":"Aegis Media","location":{"address":"10 Triton St","lat":"51.52445663111114","lng":"-0.1429135561265002","distance":"20","postalCode":"NW1 3BF","cc":"GB","city":"London","state":"Greater London","country":"United Kingdom"},"categories":[{"id":"4bf58dd8d48988d124941735","name":"Office","pluralName":"Offices","shortName":"Office","icon":{"prefix":"https:\/\/ss1.4sqi.net\/img\/categories_v2\/building\/default_","suffix":".png"},"primary":"true"}],"verified":"false","restricted":"true","stats":{"checkinsCount":"249","usersCount":"42","tipCount":"1"},"specials":{"count":"0"},"hereNow":{"count":"0"},"referralId":"v-1392477988"},{"id":"4dd0d9277d8b975f1908319d","name":"iProspect","contact":{"phone":"+442074922800","formattedPhone":"+44 20 7492 2800","twitter":"iprospectuk"},"location":{"address":"5th Floor","crossStreet":"10 Triton Street","lat":"51.524685720443955","lng":"-0.1430797576904297","distance":"48","postalCode":"NW1 3BF","cc":"GB","city":"London","state":"Greater London","country":"United Kingdom"},"categories":[{"id":"4bf58dd8d48988d124941735","name":"Office","pluralName":"Offices","shortName":"Office","icon":{"prefix":"https:\/\/ss1.4sqi.net\/img\/categories_v2\/building\/default_","suffix":".png"},"primary":"true"}],"verified":"false","restricted":"true","stats":{"checkinsCount":"1205","usersCount":"101","tipCount":"0"},"url":"http:\/\/www.iprospect.co.uk","specials":{"count":"0"},"hereNow":{"count":"0"},"referralId":"v-1392477988"},{"id":"5289e4af11d2e7a5e9479e8b","name":"Great Portland Street Station Bus Stop H","location":{"lat":"51.52405607886925","lng":"-0.1429577397259414","distance":"28","cc":"GB","country":"United Kingdom"},"categories":[{"id":"4bf58dd8d48988d1fe931735","name":"Bus Station","pluralName":"Bus Stations","shortName":"Bus Station","icon":{"prefix":"https:\/\/ss1.4sqi.net\/img\/categories_v2\/travel\/busstation_","suffix":".png"},"primary":"true"}],"verified":"false","restricted":"true","stats":{"checkinsCount":"17","usersCount":"3","tipCount":"0"},"specials":{"count":"0"},"hereNow":{"count":"0"},"referralId":"v-1392477988"},{"id":"4c17674959cc2d7fda875287","name":"The Green Man","contact":{"phone":"+442075809087","formattedPhone":"+44 20 7580 9087","twitter":"greenmannw1"},"location":{"address":"383 Euston Rd.","crossStreet":"at Osnaburgh St.","lat":"51.5239","lng":"-0.14334261417388916","distance":"57","postalCode":"NW1 3AU","cc":"GB","city":"London","state":"Greater London","country":"United Kingdom"},"categories":[{"id":"4bf58dd8d48988d11b941735","name":"Pub","pluralName":"Pubs","shortName":"Pub","icon":{"prefix":"https:\/\/ss1.4sqi.net\/img\/categories_v2\/nightlife\/pub_","suffix":".png"},"primary":"true"}],"verified":"false","restricted":"true","stats":{"checkinsCount":"1562","usersCount":"991","tipCount":"14"},"specials":{"count":"0"},"hereNow":{"count":"0"},"referralId":"v-1392477988"},{"id":"4e60878545ddda3528b93cc6","name":"Aegis Media Caf\u00e9","location":{"address":"10 Triton St.","lat":"51.524252","lng":"-0.143048","distance":"17","postalCode":"NW1 3BF","cc":"GB","city":"London","country":"United Kingdom"},"categories":[{"id":"4bf58dd8d48988d1e0931735","name":"Coffee Shop","pluralName":"Coffee Shops","shortName":"Coffee Shop","icon":{"prefix":"https:\/\/ss1.4sqi.net\/img\/categories_v2\/food\/coffeeshop_","suffix":".png"},"primary":"true"}],"verified":"false","restricted":"true","stats":{"checkinsCount":"135","usersCount":"37","tipCount":"2"},"specials":{"count":"0"},"hereNow":{"count":"0"},"referralId":"v-1392477988"},{"id":"52fc8ea511d27564dd57c316","name":"Dentsu Aegis Network","contact":{"twitter":"dentsuaegis"},"location":{"address":"10 Triton Street","crossStreet":"Regents Place","lat":"51.524539","lng":"-0.142782","distance":"27","postalCode":"NW1 3BF","cc":"GB","city":"London","state":"Greater London","country":"United Kingdom"},"categories":[{"id":"4bf58dd8d48988d124941735","name":"Office","pluralName":"Offices","shortName":"Office","icon":{"prefix":"https:\/\/ss1.4sqi.net\/img\/categories_v2\/building\/default_","suffix":".png"},"primary":"true"}],"verified":"false","restricted":"true","stats":{"checkinsCount":"7","usersCount":"4","tipCount":"0"},"specials":{"count":"0"},"hereNow":{"count":"0"},"referralId":"v-1392477988"},{"id":"4f0c8296e4b04487f9991f03","name":"The Union","contact":{"phone":"+442073870391","formattedPhone":"+44 20 7387 0391"},"location":{"address":"Regents Pl, 11 Triton St","lat":"51.52473918776166","lng":"-0.1425598979261693","distance":"52","postalCode":"NW1 3BF","cc":"GB","city":"London","state":"Greater London","country":"United Kingdom"},"categories":[{"id":"4bf58dd8d48988d116941735","name":"Bar","pluralName":"Bars","shortName":"Bar","icon":{"prefix":"https:\/\/ss1.4sqi.net\/img\/categories_v2\/nightlife\/bar_","suffix":".png"},"primary":"true"}],"verified":"false","restricted":"true","stats":{"checkinsCount":"658","usersCount":"256","tipCount":"5"},"menu":{"type":"Menu","label":"Menu","anchor":"View Menu","url":"https:\/\/foursquare.com\/v\/the-union\/4f0c8296e4b04487f9991f03\/menu","mobileUrl":"https:\/\/foursquare.com\/v\/4f0c8296e4b04487f9991f03\/device_menu"},"specials":{"count":"0"},"hereNow":{"count":"0"},"referralId":"v-1392477988"},{"id":"4bc71f3d0050b713260bb83b","name":"Melia White House Hotel","location":{"address":"1 Albany St.","lat":"51.52511758372206","lng":"-0.1436006946377455","distance":"107","postalCode":"NW1 4","cc":"GB","city":"Camden Town","state":"Greater London","country":"United Kingdom"},"categories":[{"id":"4bf58dd8d48988d1fa931735","name":"Hotel","pluralName":"Hotels","shortName":"Hotel","icon":{"prefix":"https:\/\/ss1.4sqi.net\/img\/categories_v2\/travel\/hotel_","suffix":".png"},"primary":"true"}],"verified":"false","restricted":"true","stats":{"checkinsCount":"4011","usersCount":"1582","tipCount":"55"},"url":"http:\/\/www.melia-whitehouse.com\/en\/restaurants\/the-place.html","reservations":{"url":"http:\/\/www.toptable.co.uk\/single.aspx?rid=25701&ref=9601"},"menu":{"type":"Menu","label":"Menu","anchor":"View Menu","url":"https:\/\/foursquare.com\/v\/melia-white-house-hotel\/4bc71f3d0050b713260bb83b\/menu","mobileUrl":"https:\/\/foursquare.com\/v\/4bc71f3d0050b713260bb83b\/device_menu"},"specials":{"count":"0"},"hereNow":{"count":"0"},"referralId":"v-1392477988"},{"id":"4bed416991380f471f989f18","name":"Wasabi","location":{"address":"Euston Road","lat":"51.52425228913983","lng":"-0.14193021231398656","distance":"60","cc":"GB","city":"Paddington","state":"Greater London","country":"United Kingdom"},"categories":[{"id":"4bf58dd8d48988d1d2941735","name":"Sushi Restaurant","pluralName":"Sushi Restaurants","shortName":"Sushi","icon":{"prefix":"https:\/\/ss1.4sqi.net\/img\/categories_v2\/food\/sushi_","suffix":".png"},"primary":"true"}],"verified":"false","restricted":"true","stats":{"checkinsCount":"647","usersCount":"278","tipCount":"11"},"specials":{"count":"0"},"hereNow":{"count":"0"},"referralId":"v-1392477988"},{"id":"517e51f3e4b0a19987897bff","name":"AMNET UK","location":{"address":"7th Floor, 10 Triton St","lat":"51.52412847688212","lng":"-0.14252712737080686","distance":"26","postalCode":"NW1 3BF","cc":"GB","city":"London","state":"Greater London","country":"United Kingdom"},"categories":[{"id":"4bf58dd8d48988d124941735","name":"Office","pluralName":"Offices","shortName":"Office","icon":{"prefix":"https:\/\/ss1.4sqi.net\/img\/categories_v2\/building\/default_","suffix":".png"},"primary":"true"}],"verified":"false","restricted":"true","stats":{"checkinsCount":"9","usersCount":"6","tipCount":"0"},"specials":{"count":"0"},"hereNow":{"count":"0"},"referralId":"v-1392477988"},{"id":"4bbc393dafe1b7131a31304b","name":"One Marylebone Place","location":{"address":"1 Marylebone Road","lat":"51.524157523967496","lng":"-0.1436189257257876","distance":"58","postalCode":"NW1 4AQ","cc":"GB","city":"London","state":"Greater London","country":"United Kingdom"},"categories":[{"id":"4bf58dd8d48988d171941735","name":"Event Space","pluralName":"Event Spaces","shortName":"Event Space","icon":{"prefix":"https:\/\/ss1.4sqi.net\/img\/categories_v2\/building\/eventspace_","suffix":".png"},"primary":"true"}],"verified":"false","restricted":"true","stats":{"checkinsCount":"462","usersCount":"401","tipCount":"3"},"specials":{"count":"0"},"hereNow":{"count":"0"},"referralId":"v-1392477988"},{"id":"4eb78950dab4fe5112895b61","name":"Giovanni Rana","contact":{"phone":"+442070969878","formattedPhone":"+44 20 7096 9878"},"location":{"address":"Triton St, Regent's Place","lat":"51.524724731450334","lng":"-0.1423453907221916","distance":"57","postalCode":"NW1 3BF","cc":"GB","city":"Camden Town","state":"Greater London","country":"United Kingdom"},"categories":[{"id":"4bf58dd8d48988d110941735","name":"Italian Restaurant","pluralName":"Italian Restaurants","shortName":"Italian","icon":{"prefix":"https:\/\/ss1.4sqi.net\/img\/categories_v2\/food\/italian_","suffix":".png"},"primary":"true"}],"verified":"false","restricted":"true","stats":{"checkinsCount":"327","usersCount":"178","tipCount":"10"},"url":"http:\/\/www.dagiovannirana.co.uk","reservations":{"url":"http:\/\/www.toptable.co.uk\/single.aspx?rid=100383&ref=9601"},"specials":{"count":"0"},"hereNow":{"count":"0"},"referralId":"v-1392477988"},{"id":"4c3c70ea933b0f479c06e421","name":"EAT.","contact":{"phone":"+442076368398","formattedPhone":"+44 20 7636 8398","twitter":"eat_news"},"location":{"address":"350 Euston Road, London NW1 3AX","lat":"51.52415966301052","lng":"-0.1421243071382656","distance":"49","postalCode":"NW1 3AX","cc":"GB","city":"London","state":"Greater London","country":"United Kingdom"},"categories":[{"id":"4bf58dd8d48988d1c5941735","name":"Sandwich Place","pluralName":"Sandwich Places","shortName":"Sandwiches","icon":{"prefix":"https:\/\/ss1.4sqi.net\/img\/categories_v2\/food\/sandwiches_","suffix":".png"},"primary":"true"}],"verified":"true","restricted":"true","stats":{"checkinsCount":"431","usersCount":"178","tipCount":"5"},"url":"http:\/\/www.eat.co.uk","specials":{"count":"0"},"hereNow":{"count":"0"},"storeId":"EAT - Euston Road","referralId":"v-1392477988"},{"id":"4af5ab76f964a5200ffb21e3","name":"Tesco Express","contact":{"phone":"+448450269337","formattedPhone":"+44 845 026 9337","twitter":"uktescooffers"},"location":{"address":"385 Euston Road","lat":"51.52382456301073","lng":"-0.1435733762533098","distance":"74","postalCode":"NW1 3AU","cc":"GB","city":"London","state":"Greater London","country":"United Kingdom"},"categories":[{"id":"4bf58dd8d48988d118951735","name":"Grocery Store","pluralName":"Grocery Stores","shortName":"Grocery Store","icon":{"prefix":"https:\/\/ss1.4sqi.net\/img\/categories_v2\/shops\/food_grocery_","suffix":".png"},"primary":"true"}],"verified":"true","restricted":"true","stats":{"checkinsCount":"914","usersCount":"314","tipCount":"2"},"url":"http:\/\/www.tesco.com","specials":{"count":"0"},"hereNow":{"count":"0"},"storeId":"2722","referralId":"v-1392477988"},{"id":"4dc7b5da52b1e8f9f8099300","name":"Vizeum","location":{"address":"10 Triton Square","lat":"51.524554441415795","lng":"-0.1428798394711185","distance":"30","cc":"GB","city":"Paddington","state":"Greater London","country":"United Kingdom"},"categories":[{"id":"4bf58dd8d48988d124941735","name":"Office","pluralName":"Offices","shortName":"Office","icon":{"prefix":"https:\/\/ss1.4sqi.net\/img\/categories_v2\/building\/default_","suffix":".png"},"primary":"true"}],"verified":"false","restricted":"true","stats":{"checkinsCount":"462","usersCount":"122","tipCount":"4"},"specials":{"count":"0"},"hereNow":{"count":"0"},"referralId":"v-1392477988"},{"id":"5178de11e4b07f1159e37451","name":"Dimensional Fund Advisors","location":{"address":"5th Floor, 20 Triton Street","lat":"51.524634","lng":"-0.142847","distance":"38","postalCode":"NW1 3BF","cc":"GB","city":"London","state":"Greater London","country":"United Kingdom"},"categories":[{"id":"4bf58dd8d48988d124941735","name":"Office","pluralName":"Offices","shortName":"Office","icon":{"prefix":"https:\/\/ss1.4sqi.net\/img\/categories_v2\/building\/default_","suffix":".png"},"primary":"true"}],"verified":"false","restricted":"true","stats":{"checkinsCount":"9","usersCount":"3","tipCount":"0"},"specials":{"count":"0"},"hereNow":{"count":"0"},"referralId":"v-1392477988"},{"id":"519f2246498e67ae2c7d51e5","name":"BBC Comedy","location":{"lat":"51.52373797159735","lng":"-0.1427336824636471","distance":"61","cc":"GB","country":"United Kingdom"},"categories":[{"id":"4bf58dd8d48988d130941735","name":"Building","pluralName":"Buildings","shortName":"Building","icon":{"prefix":"https:\/\/ss1.4sqi.net\/img\/categories_v2\/building\/default_","suffix":".png"},"primary":"true"}],"verified":"false","restricted":"true","stats":{"checkinsCount":"114","usersCount":"14","tipCount":"0"},"specials":{"count":"0"},"hereNow":{"count":"0"},"referralId":"v-1392477988"},{"id":"52795104498e4fafe9619ae9","name":"Great Portland Street Tube","location":{"lat":"51.52398284377886","lng":"-0.14372127902309828","distance":"72","cc":"GB","country":"United Kingdom"},"categories":[{"id":"4bf58dd8d48988d129951735","name":"Train Station","pluralName":"Train Stations","shortName":"Train Station","icon":{"prefix":"https:\/\/ss1.4sqi.net\/img\/categories_v2\/travel\/trainstation_","suffix":".png"},"primary":"true"}],"verified":"false","restricted":"true","stats":{"checkinsCount":"38","usersCount":"30","tipCount":"0"},"specials":{"count":"0"},"hereNow":{"count":"0"},"referralId":"v-1392477988"},{"id":"512c9e27e4b0bbd70314871d","name":"Reapit - London office","contact":{"twitter":"reapitsoftware"},"location":{"address":"38 Warren Street","lat":"51.523974556530405","lng":"-0.14244589197207513","distance":"42","postalCode":"W1T 6AE","cc":"GB","city":"London","state":"Greater London","country":"United Kingdom"},"categories":[{"id":"4bf58dd8d48988d124941735","name":"Office","pluralName":"Offices","shortName":"Office","icon":{"prefix":"https:\/\/ss1.4sqi.net\/img\/categories_v2\/building\/default_","suffix":".png"},"primary":"true"}],"verified":"false","restricted":"true","stats":{"checkinsCount":"7","usersCount":"2","tipCount":"0"},"specials":{"count":"0"},"hereNow":{"count":"0"},"referralId":"v-1392477988"},{"id":"4ad45732f964a520a0e720e3","name":"Which? Head Office","contact":{"phone":"+442077707000","formattedPhone":"+44 20 7770 7000"},"location":{"address":"Peto Place","crossStreet":"Marylebone Road","lat":"51.52410065640063","lng":"-0.14416236257317996","distance":"96","postalCode":"NW1 4DF","cc":"GB","city":"London","state":"Greater London","country":"United Kingdom"},"categories":[{"id":"4bf58dd8d48988d124941735","name":"Office","pluralName":"Offices","shortName":"Office","icon":{"prefix":"https:\/\/ss1.4sqi.net\/img\/categories_v2\/building\/default_","suffix":".png"},"primary":"true"}],"verified":"false","restricted":"true","stats":{"checkinsCount":"554","usersCount":"109","tipCount":"1"},"specials":{"count":"0"},"hereNow":{"count":"0"},"referralId":"v-1392477988"},{"id":"4b728fa2f964a5207b7e2de3","name":"Hachette UK","location":{"address":"338 Euston Road","lat":"51.52443051338196","lng":"-0.1411217451095581","distance":"117","postalCode":"NW1 3BH","cc":"GB","city":"London","state":"Greater London","country":"United Kingdom"},"categories":[{"id":"4bf58dd8d48988d124941735","name":"Office","pluralName":"Offices","shortName":"Office","icon":{"prefix":"https:\/\/ss1.4sqi.net\/img\/categories_v2\/building\/default_","suffix":".png"},"primary":"true"}],"verified":"false","restricted":"true","stats":{"checkinsCount":"250","usersCount":"59","tipCount":"1"},"url":"http:\/\/www.hachette.co.uk","specials":{"count":"0"},"hereNow":{"count":"0"},"referralId":"v-1392477988"},{"id":"5273d29011d2fcbedc060020","name":"Great Portland Street Bus Stop G","location":{"lat":"51.523985","lng":"-0.143889","distance":"82","cc":"GB","country":"United Kingdom"},"categories":[{"id":"4bf58dd8d48988d1fe931735","name":"Bus Station","pluralName":"Bus Stations","shortName":"Bus Station","icon":{"prefix":"https:\/\/ss1.4sqi.net\/img\/categories_v2\/travel\/busstation_","suffix":".png"},"primary":"true"}],"verified":"false","restricted":"true","stats":{"checkinsCount":"30","usersCount":"16","tipCount":"0"},"specials":{"count":"0"},"hereNow":{"count":"0"},"referralId":"v-1392477988"},{"id":"4bdef259c3392d7f42a39bd5","name":"New Diorama Theatre","contact":{"phone":"+448442090344","formattedPhone":"+44 844 209 0344"},"location":{"address":"15 Triton St.","lat":"51.524868898559454","lng":"-0.14184686153312398","distance":"92","postalCode":"NW1 3BF","cc":"GB","city":"Camden Town","state":"Greater London","country":"United Kingdom"},"categories":[{"id":"4bf58dd8d48988d1f1931735","name":"General Entertainment","pluralName":"General Entertainment","shortName":"Entertainment","icon":{"prefix":"https:\/\/ss1.4sqi.net\/img\/categories_v2\/arts_entertainment\/default_","suffix":".png"},"primary":"true"}],"verified":"false","restricted":"true","stats":{"checkinsCount":"354","usersCount":"157","tipCount":"4"},"specials":{"count":"0"},"hereNow":{"count":"0"},"referralId":"v-1392477988"},{"id":"512f542ae4b05f7484db5027","name":"MSD","location":{"lat":"51.524663539260445","lng":"-0.14135560778052444","distance":"108","cc":"GB","country":"United Kingdom"},"categories":[{"id":"4bf58dd8d48988d174941735","name":"Coworking Space","pluralName":"Coworking Spaces","shortName":"Coworking Space","icon":{"prefix":"https:\/\/ss1.4sqi.net\/img\/categories_v2\/building\/office_coworkingspace_","suffix":".png"},"primary":"true"}],"verified":"false","restricted":"true","stats":{"checkinsCount":"30","usersCount":"2","tipCount":"0"},"specials":{"count":"0"},"hereNow":{"count":"0"},"referralId":"v-1392477988"},{"id":"4f0332eb30f899233570e92e","name":"Gazprom marketing & trading","location":{"address":"20 Triton Street","lat":"51.524753582773194","lng":"-0.14310028702073258","distance":"55","postalCode":"NW1 3BF","cc":"GB","city":"London","state":"Greater London","country":"United Kingdom"},"categories":[{"id":"4bf58dd8d48988d124941735","name":"Office","pluralName":"Offices","shortName":"Office","icon":{"prefix":"https:\/\/ss1.4sqi.net\/img\/categories_v2\/building\/default_","suffix":".png"},"primary":"true"}],"verified":"false","restricted":"true","stats":{"checkinsCount":"291","usersCount":"44","tipCount":"0"},"url":"http:\/\/www.gazprom-mt.com","specials":{"count":"0"},"hereNow":{"count":"0"},"referralId":"v-1392477988"},{"id":"4fc682e4e4b0e5e0735ae4cf","name":"taylor walker pub","location":{"address":"Euston Road","lat":"51.52388590361128","lng":"-0.14357748520905814","distance":"69","cc":"GB","city":"London","state":"Greater London","country":"United Kingdom"},"categories":[{"id":"4bf58dd8d48988d11b941735","name":"Pub","pluralName":"Pubs","shortName":"Pub","icon":{"prefix":"https:\/\/ss1.4sqi.net\/img\/categories_v2\/nightlife\/pub_","suffix":".png"},"primary":"true"}],"verified":"false","restricted":"true","stats":{"checkinsCount":"22","usersCount":"21","tipCount":"1"},"specials":{"count":"0"},"hereNow":{"count":"0"},"referralId":"v-1392477988"},{"id":"4c77ac80923ba143bfab67e6","name":"Isobar","contact":{"phone":"+442035359700","formattedPhone":"+44 20 3535 9700","twitter":"isobar"},"location":{"address":"10 Triton Street, Regent's Place","lat":"51.524365","lng":"-0.143034","distance":"18","postalCode":"NW1 3BF","cc":"GB","country":"United Kingdom"},"categories":[{"id":"4bf58dd8d48988d124941735","name":"Office","pluralName":"Offices","shortName":"Office","icon":{"prefix":"https:\/\/ss1.4sqi.net\/img\/categories_v2\/building\/default_","suffix":".png"},"primary":"true"}],"verified":"false","restricted":"true","stats":{"checkinsCount":"15","usersCount":"12","tipCount":"0"},"url":"http:\/\/www.isobar.com","specials":{"count":"0"},"hereNow":{"count":"0"},"referralId":"v-1392477988"}],"confident":"true"}}