{"meta":{"code":"200"},"response":{"venues":[{"id":"4b7ffcd1f964a520e94830e3","name":"Kensington Gardens","contact":{"phone":"+442072625484","formattedPhone":"+44 20 7262 5484"},"location":{"address":"Exhibition Rd.","lat":"51.50649873794456","lng":"-0.18075942993164062","distance":"283","postalCode":"W2 3XA","cc":"GB","city":"Kensington","state":"Greater London","country":"United Kingdom"},"categories":[{"id":"4bf58dd8d48988d15a941735","name":"Garden","pluralName":"Gardens","shortName":"Garden","icon":{"prefix":"https:\/\/ss1.4sqi.net\/img\/categories_v2\/parks_outdoors\/garden_","suffix":".png"},"primary":"true"}],"verified":"false","restricted":"true","stats":{"checkinsCount":"9270","usersCount":"5794","tipCount":"58"},"url":"http:\/\/www.royalparks.gov.uk\/Kensington-Gardens","specials":{"count":"0"},"hereNow":{"count":"2","groups":[{"type":"others","name":"Other people here","count":"2"}]},"referralId":"v-1392478036"},{"id":"4ac518cef964a52013a620e3","name":"Kensington Palace","contact":{"phone":"+448444827777","formattedPhone":"+44 844 482 7777"},"location":{"address":"Kensington Gardens","lat":"51.505144034215654","lng":"-0.18805501918882328","distance":"376","postalCode":"W8 4PX","cc":"GB","city":"Kensington","state":"Greater London","country":"United Kingdom"},"categories":[{"id":"4deefb944765f83613cdba6e","name":"Historic Site","pluralName":"Historic Sites","shortName":"Historic Site","icon":{"prefix":"https:\/\/ss1.4sqi.net\/img\/categories_v2\/arts_entertainment\/historicsite_","suffix":".png"},"primary":"true"}],"verified":"true","restricted":"true","stats":{"checkinsCount":"4443","usersCount":"3596","tipCount":"39"},"url":"http:\/\/www.hrp.org.uk","specials":{"count":"0"},"hereNow":{"count":"1","groups":[{"type":"others","name":"Other people here","count":"1"}]},"referralId":"v-1392478036"},{"id":"4b714792f964a5202d3f2de3","name":"The Round Pond","location":{"address":"Kensington Gardens","lat":"51.50619040631455","lng":"-0.18460168333199622","distance":"245","cc":"GB","country":"United Kingdom"},"categories":[{"id":"4bf58dd8d48988d161941735","name":"Lake","pluralName":"Lakes","shortName":"Lake","icon":{"prefix":"https:\/\/ss1.4sqi.net\/img\/categories_v2\/parks_outdoors\/lake_","suffix":".png"},"primary":"true"}],"verified":"false","restricted":"true","stats":{"checkinsCount":"1660","usersCount":"1002","tipCount":"7"},"specials":{"count":"0"},"hereNow":{"count":"0"},"referralId":"v-1392478036"},{"id":"4c53ca4972cf0f47e0cd75d3","name":"TfL Bus 9","contact":{"twitter":"tflbusalerts"},"location":{"address":"Moving Target!","lat":"51.502028702293096","lng":"-0.17081047754025866","distance":"868","cc":"GB","city":"London","state":"Greater London","country":"United Kingdom"},"categories":[{"id":"4bf58dd8d48988d12b951735","name":"Bus Line","pluralName":"Bus Lines","shortName":"Bus","icon":{"prefix":"https:\/\/ss1.4sqi.net\/img\/categories_v2\/travel\/busstation_","suffix":".png"},"primary":"true"}],"verified":"false","restricted":"true","stats":{"checkinsCount":"553","usersCount":"217","tipCount":"6"},"url":"http:\/\/tfl.gov.uk","specials":{"count":"0"},"hereNow":{"count":"0"},"referralId":"v-1392478036"},{"id":"4f19837de4b08b384e312d6a","name":"Kensington Palace Gardens","location":{"address":"51 Palace Gardens Tce.","lat":"51.508195244845965","lng":"-0.18748838505748677","distance":"542","postalCode":"W8 4","cc":"GB","city":"London","state":"Greater London","country":"United Kingdom"},"categories":[{"id":"4bf58dd8d48988d15a941735","name":"Garden","pluralName":"Gardens","shortName":"Garden","icon":{"prefix":"https:\/\/ss1.4sqi.net\/img\/categories_v2\/parks_outdoors\/garden_","suffix":".png"},"primary":"true"}],"verified":"false","restricted":"true","stats":{"checkinsCount":"2181","usersCount":"1623","tipCount":"9"},"specials":{"count":"0"},"hereNow":{"count":"0"},"referralId":"v-1392478036"},{"id":"4ac518cdf964a520e9a520e3","name":"Science Museum","contact":{"twitter":"sciencemuseum"},"location":{"address":"Exhibition Rd.","lat":"51.49721887311906","lng":"-0.1742699654628721","distance":"984","postalCode":"SW7 2DD","cc":"GB","city":"South Kensington","state":"Greater London","country":"United Kingdom"},"categories":[{"id":"4bf58dd8d48988d191941735","name":"Science Museum","pluralName":"Science Museums","shortName":"Science Museum","icon":{"prefix":"https:\/\/ss1.4sqi.net\/img\/categories_v2\/arts_entertainment\/museum_science_","suffix":".png"},"primary":"true"}],"verified":"true","restricted":"true","stats":{"checkinsCount":"22612","usersCount":"18826","tipCount":"189"},"url":"http:\/\/www.sciencemuseum.org.uk","specials":{"count":"0"},"hereNow":{"count":"24","groups":[{"type":"others","name":"Other people here","count":"24"}]},"venuePage":{"id":"44780007"},"referralId":"v-1392478036"},{"id":"4c30b6183896e21eb8e8e590","name":"Diana, Princess of Wales Memorial Fountain","location":{"address":"The Old Police Hse","crossStreet":"Hyde Park","lat":"51.50456210431835","lng":"-0.1714789867401123","distance":"785","postalCode":"W2 2UH","cc":"GB","city":"London","state":"Greater London","country":"United Kingdom"},"categories":[{"id":"4bf58dd8d48988d12d941735","name":"Monument \/ Landmark","pluralName":"Monuments \/ Landmarks","shortName":"Landmark","icon":{"prefix":"https:\/\/ss1.4sqi.net\/img\/categories_v2\/building\/government_monument_","suffix":".png"},"primary":"true"}],"verified":"false","restricted":"true","stats":{"checkinsCount":"2584","usersCount":"2041","tipCount":"9"},"specials":{"count":"0"},"hereNow":{"count":"0"},"referralId":"v-1392478036"},{"id":"4ac518cef964a5200fa620e3","name":"Albert Memorial","location":{"address":"Kensington Gardens","lat":"51.502358248689035","lng":"-0.17775535583496094","distance":"410","postalCode":"W2 2UH","cc":"GB","city":"London","state":"Greater London","country":"United Kingdom"},"categories":[{"id":"4bf58dd8d48988d12d941735","name":"Monument \/ Landmark","pluralName":"Monuments \/ Landmarks","shortName":"Landmark","icon":{"prefix":"https:\/\/ss1.4sqi.net\/img\/categories_v2\/building\/government_monument_","suffix":".png"},"primary":"true"}],"verified":"false","restricted":"true","stats":{"checkinsCount":"2846","usersCount":"2266","tipCount":"8"},"specials":{"count":"0"},"hereNow":{"count":"2","groups":[{"type":"others","name":"Other people here","count":"2"}]},"referralId":"v-1392478036"},{"id":"4ac518e8f964a52075ab20e3","name":"Royal Albert Hall","contact":{"phone":"+448454015019","formattedPhone":"+44 845 401 5019","twitter":"royalalberthall"},"location":{"address":"Kensington Gore","lat":"51.500982454474055","lng":"-0.1774120330810547","distance":"524","postalCode":"SW7 2AP","cc":"GB","city":"South Kensington","state":"Greater London","country":"United Kingdom"},"categories":[{"id":"5032792091d4c4b30a586d5c","name":"Concert Hall","pluralName":"Concert Halls","shortName":"Concert Hall","icon":{"prefix":"https:\/\/ss1.4sqi.net\/img\/categories_v2\/arts_entertainment\/musicvenue_","suffix":".png"},"primary":"true"}],"verified":"true","restricted":"true","stats":{"checkinsCount":"19688","usersCount":"13121","tipCount":"134"},"url":"http:\/\/www.royalalberthall.com","menu":{"type":"Menu","label":"Menu","anchor":"View Menu","url":"https:\/\/foursquare.com\/v\/royal-albert-hall\/4ac518e8f964a52075ab20e3\/menu","mobileUrl":"https:\/\/foursquare.com\/v\/4ac518e8f964a52075ab20e3\/device_menu"},"specials":{"count":"0"},"hereNow":{"count":"2","groups":[{"type":"others","name":"Other people here","count":"2"}]},"venuePage":{"id":"66554972"},"storeId":"","referralId":"v-1392478036"},{"id":"4ac518d3f964a52057a720e3","name":"Serpentine Gallery","contact":{"phone":"+442074026075","formattedPhone":"+44 20 7402 6075"},"location":{"address":"Kensington Gardens","crossStreet":"Koenig Books","lat":"51.50453643907013","lng":"-0.17480409146757364","distance":"554","postalCode":"W2 3XA","cc":"GB","city":"London","state":"Greater London","country":"United Kingdom"},"categories":[{"id":"4bf58dd8d48988d1e2931735","name":"Art Gallery","pluralName":"Art Galleries","shortName":"Art Gallery","icon":{"prefix":"https:\/\/ss1.4sqi.net\/img\/categories_v2\/arts_entertainment\/artgallery_","suffix":".png"},"primary":"true"}],"verified":"false","restricted":"true","stats":{"checkinsCount":"2571","usersCount":"2067","tipCount":"25"},"url":"http:\/\/www.serpentinegalleries.org","specials":{"count":"0"},"hereNow":{"count":"2","groups":[{"type":"others","name":"Other people here","count":"2"}]},"referralId":"v-1392478036"},{"id":"4ac518cdf964a520e8a520e3","name":"Natural History Museum","contact":{"phone":"+442079425000","formattedPhone":"+44 20 7942 5000","twitter":"nhm_london"},"location":{"address":"Cromwell Rd","crossStreet":"Exhibition Rd","lat":"51.49652419516191","lng":"-0.176505446434021","distance":"968","postalCode":"SW7 5BD","cc":"GB","city":"South Kensington","state":"Greater London","country":"United Kingdom"},"categories":[{"id":"4bf58dd8d48988d190941735","name":"History Museum","pluralName":"History Museums","shortName":"History Museum","icon":{"prefix":"https:\/\/ss1.4sqi.net\/img\/categories_v2\/arts_entertainment\/museum_history_","suffix":".png"},"primary":"true"}],"verified":"false","restricted":"true","stats":{"checkinsCount":"27441","usersCount":"23005","tipCount":"282"},"url":"http:\/\/www.nhm.ac.uk","specials":{"count":"0"},"hereNow":{"count":"26","groups":[{"type":"others","name":"Other people here","count":"26"}]},"referralId":"v-1392478036"},{"id":"4ad08db4f964a5206cd820e3","name":"Orangery at Kensington Palace","contact":{"phone":"+442031666112","formattedPhone":"+44 20 3166 6112"},"location":{"address":"Kensington Gardens","lat":"51.50703296721856","lng":"-0.18754005432128906","distance":"448","postalCode":"W8 6LU","cc":"GB","city":"London","state":"Greater London","country":"United Kingdom"},"categories":[{"id":"4bf58dd8d48988d1dc931735","name":"Tea Room","pluralName":"Tea Rooms","shortName":"Tea Room","icon":{"prefix":"https:\/\/ss1.4sqi.net\/img\/categories_v2\/food\/tearoom_","suffix":".png"},"primary":"true"}],"verified":"true","restricted":"true","stats":{"checkinsCount":"1259","usersCount":"1114","tipCount":"29"},"reservations":{"url":"http:\/\/www.toptable.co.uk\/single.aspx?rid=96018&ref=9601"},"menu":{"type":"Menu","label":"Menu","anchor":"View Menu","url":"https:\/\/foursquare.com\/v\/orangery-at-kensington-palace\/4ad08db4f964a5206cd820e3\/menu","mobileUrl":"https:\/\/foursquare.com\/v\/4ad08db4f964a5206cd820e3\/device_menu"},"specials":{"count":"0"},"hereNow":{"count":"0"},"referralId":"v-1392478036"},{"id":"4b3b67e9f964a520627325e3","name":"Virgin Active Health Club","contact":{"phone":"+442077610000","formattedPhone":"+44 20 7761 0000"},"location":{"address":"17A Old Ct. Pl.","lat":"51.50240005613578","lng":"-0.18977678750727053","distance":"526","postalCode":"W8 4PL","cc":"GB","city":"London","state":"Greater London","country":"United Kingdom"},"categories":[{"id":"4bf58dd8d48988d176941735","name":"Gym","pluralName":"Gyms","shortName":"Gym","icon":{"prefix":"https:\/\/ss1.4sqi.net\/img\/categories_v2\/building\/gym_","suffix":".png"},"primary":"true"}],"verified":"false","restricted":"true","stats":{"checkinsCount":"3375","usersCount":"327","tipCount":"16"},"specials":{"count":"0"},"hereNow":{"count":"4","groups":[{"type":"others","name":"Other people here","count":"4"}]},"referralId":"v-1392478036"},{"id":"4ace3795f964a5201fcf20e3","name":"Imperial College","contact":{"phone":"+442075895111","formattedPhone":"+44 20 7589 5111","twitter":"imperialcollege"},"location":{"address":"Exhibition Rd.","lat":"51.498805141862064","lng":"-0.17698287963867188","distance":"731","postalCode":"SW7 2AZ","cc":"GB","city":"London","state":"Greater London","country":"United Kingdom"},"categories":[{"id":"4bf58dd8d48988d1ae941735","name":"University","pluralName":"Universities","shortName":"University","icon":{"prefix":"https:\/\/ss1.4sqi.net\/img\/categories_v2\/education\/default_","suffix":".png"},"primary":"true"}],"verified":"false","restricted":"true","stats":{"checkinsCount":"7134","usersCount":"1869","tipCount":"13"},"url":"http:\/\/www.imperial.ac.uk","specials":{"count":"0"},"hereNow":{"count":"3","groups":[{"type":"others","name":"Other people here","count":"3"}]},"referralId":"v-1392478036"},{"id":"4ac518b8f964a52082a120e3","name":"Baglioni Hotel","contact":{"phone":"+442073685700","formattedPhone":"+44 20 7368 5700","twitter":"baglioni_hotels"},"location":{"address":"60 Hyde Park Gate","lat":"51.50177184717804","lng":"-0.1847094906914588","distance":"309","postalCode":"SW7 5BB","cc":"GB","city":"London","state":"Greater London","country":"United Kingdom"},"categories":[{"id":"4bf58dd8d48988d1d5941735","name":"Hotel Bar","pluralName":"Hotel Bars","shortName":"Hotel Bar","icon":{"prefix":"https:\/\/ss1.4sqi.net\/img\/categories_v2\/travel\/hotel_bar_","suffix":".png"},"primary":"true"}],"verified":"true","restricted":"true","stats":{"checkinsCount":"1288","usersCount":"424","tipCount":"21"},"url":"http:\/\/www.baglionihotels.com\/London","specials":{"count":"0"},"hereNow":{"count":"0"},"venuePage":{"id":"65212784"},"storeId":"","referralId":"v-1392478036"},{"id":"5116acd5e4b081062a8bdb21","name":"Cirque Du Soleil","location":{"address":"Royal Albert Hall","lat":"51.500992366049914","lng":"-0.17744598734832975","distance":"521","cc":"GB","country":"United Kingdom"},"categories":[{"id":"5032792091d4c4b30a586d5c","name":"Concert Hall","pluralName":"Concert Halls","shortName":"Concert Hall","icon":{"prefix":"https:\/\/ss1.4sqi.net\/img\/categories_v2\/arts_entertainment\/musicvenue_","suffix":".png"},"primary":"true"}],"verified":"false","restricted":"true","stats":{"checkinsCount":"318","usersCount":"194","tipCount":"5"},"specials":{"count":"0"},"hereNow":{"count":"2","groups":[{"type":"others","name":"Other people here","count":"2"}]},"referralId":"v-1392478036"},{"id":"4ac518f4f964a520e9ae20e3","name":"Whole Foods Market","contact":{"phone":"+442073684500","formattedPhone":"+44 20 7368 4500"},"location":{"address":"63-97 Kensington High St.","lat":"51.501690392607","lng":"-0.19103765487670898","distance":"639","postalCode":"W8 5SE","cc":"GB","city":"City of Westminster","state":"Greater London","country":"United Kingdom"},"categories":[{"id":"4bf58dd8d48988d118951735","name":"Grocery Store","pluralName":"Grocery Stores","shortName":"Grocery Store","icon":{"prefix":"https:\/\/ss1.4sqi.net\/img\/categories_v2\/shops\/food_grocery_","suffix":".png"},"primary":"true"}],"verified":"true","restricted":"true","stats":{"checkinsCount":"7546","usersCount":"3260","tipCount":"66"},"url":"http:\/\/www.wholefoodsmarket.com\/stores\/kensington","specials":{"count":"0"},"hereNow":{"count":"4","groups":[{"type":"others","name":"Other people here","count":"4"}]},"storeId":"HSK","referralId":"v-1392478036"},{"id":"4e1b1af988770d5776e3b8ad","name":"Hyde Park Pavillion and Grounds","location":{"lat":"51.50222750127289","lng":"-0.17443383082537034","distance":"623","cc":"GB","city":"London","state":"Greater London","country":"United Kingdom"},"categories":[{"id":"4bf58dd8d48988d15a941735","name":"Garden","pluralName":"Gardens","shortName":"Garden","icon":{"prefix":"https:\/\/ss1.4sqi.net\/img\/categories_v2\/parks_outdoors\/garden_","suffix":".png"},"primary":"true"}],"verified":"false","restricted":"true","stats":{"checkinsCount":"906","usersCount":"827","tipCount":"3"},"specials":{"count":"0"},"hereNow":{"count":"0"},"referralId":"v-1392478036"},{"id":"4ac518b5f964a520a0a020e3","name":"Royal Garden Hotel","location":{"address":"2-24 Kensington High St","lat":"51.502552988661776","lng":"-0.18793501641472635","distance":"404","postalCode":"W8 4PT","cc":"GB","city":"Kensington","state":"Greater London","country":"United Kingdom"},"categories":[{"id":"4bf58dd8d48988d1fa931735","name":"Hotel","pluralName":"Hotels","shortName":"Hotel","icon":{"prefix":"https:\/\/ss1.4sqi.net\/img\/categories_v2\/travel\/hotel_","suffix":".png"},"primary":"true"}],"verified":"false","restricted":"true","stats":{"checkinsCount":"3316","usersCount":"1579","tipCount":"30"},"menu":{"type":"Menu","label":"Menu","anchor":"View Menu","url":"https:\/\/foursquare.com\/v\/royal-garden-hotel\/4ac518b5f964a520a0a020e3\/menu","mobileUrl":"https:\/\/foursquare.com\/v\/4ac518b5f964a520a0a020e3\/device_menu"},"specials":{"count":"0"},"hereNow":{"count":"0"},"referralId":"v-1392478036"},{"id":"4ac518f7f964a520c5af20e3","name":"Royal College of Art","contact":{"phone":"+442075904444","formattedPhone":"+44 20 7590 4444"},"location":{"address":"Kensington Gore","crossStreet":"at Queen's Gate","lat":"51.501200772794554","lng":"-0.17887247386241975","distance":"438","postalCode":"SW7 2EU","cc":"GB","city":"London","state":"Greater London","country":"United Kingdom"},"categories":[{"id":"4bf58dd8d48988d1ae941735","name":"University","pluralName":"Universities","shortName":"University","icon":{"prefix":"https:\/\/ss1.4sqi.net\/img\/categories_v2\/education\/default_","suffix":".png"},"primary":"true"}],"verified":"false","restricted":"true","stats":{"checkinsCount":"2288","usersCount":"876","tipCount":"8"},"url":"http:\/\/www.rca.ac.uk","specials":{"count":"0"},"hereNow":{"count":"0"},"referralId":"v-1392478036"},{"id":"4beb261ff90e9c744480e3ed","name":"Science Museum (IMAX)","contact":{"phone":"+442079424000","formattedPhone":"+44 20 7942 4000"},"location":{"address":"Exhibition Rd","lat":"51.49760290014126","lng":"-0.17427921295166016","distance":"950","postalCode":"SW7 2DD","cc":"GB","city":"London","state":"Greater London","country":"United Kingdom"},"categories":[{"id":"4bf58dd8d48988d17f941735","name":"Movie Theater","pluralName":"Movie Theaters","shortName":"Movie Theater","icon":{"prefix":"https:\/\/ss1.4sqi.net\/img\/categories_v2\/arts_entertainment\/movietheater_","suffix":".png"},"primary":"true"}],"verified":"true","restricted":"true","stats":{"checkinsCount":"846","usersCount":"782","tipCount":"3"},"specials":{"count":"0"},"events":{"count":"2","summary":"2 movies"},"hereNow":{"count":"1","groups":[{"type":"others","name":"Other people here","count":"1"}]},"storeId":"9549","referralId":"v-1392478036"},{"id":"4bcd9b248920b71357eb9fdc","name":"Diana Memorial Playground","location":{"address":"Gate Broad Walk","crossStreet":"Kensington Gardens","lat":"51.509059321541336","lng":"-0.18808133894172424","distance":"644","postalCode":"W2 2UH","cc":"GB","city":"London","state":"Greater London","country":"United Kingdom"},"categories":[{"id":"4bf58dd8d48988d1e7941735","name":"Playground","pluralName":"Playgrounds","shortName":"Playground","icon":{"prefix":"https:\/\/ss1.4sqi.net\/img\/categories_v2\/parks_outdoors\/playground_","suffix":".png"},"primary":"true"}],"verified":"false","restricted":"true","stats":{"checkinsCount":"1492","usersCount":"1101","tipCount":"21"},"specials":{"count":"0"},"hereNow":{"count":"0"},"referralId":"v-1392478036"},{"id":"4b16ab4ff964a520c0bb23e3","name":"Starbucks","contact":{"twitter":"starbucksuk"},"location":{"address":"25a Kensington High St,","lat":"51.502144535807645","lng":"-0.1879262924194336","distance":"427","postalCode":"W8 5NP","cc":"GB","city":"London","state":"Greater London","country":"United Kingdom"},"categories":[{"id":"4bf58dd8d48988d1e0931735","name":"Coffee Shop","pluralName":"Coffee Shops","shortName":"Coffee Shop","icon":{"prefix":"https:\/\/ss1.4sqi.net\/img\/categories_v2\/food\/coffeeshop_","suffix":".png"},"primary":"true"}],"verified":"true","restricted":"true","stats":{"checkinsCount":"1068","usersCount":"703","tipCount":"11"},"url":"http:\/\/starbucks.co.uk","specials":{"count":"0"},"hereNow":{"count":"0"},"storeId":"12004","referralId":"v-1392478036"},{"id":"4b7c3a5af964a520d1852fe3","name":"The Gloucester Arms","location":{"address":"Gloucester Road","lat":"51.49881849992524","lng":"-0.18395662307739258","distance":"614","postalCode":"SW7","cc":"GB","country":"United Kingdom"},"categories":[{"id":"4bf58dd8d48988d11b941735","name":"Pub","pluralName":"Pubs","shortName":"Pub","icon":{"prefix":"https:\/\/ss1.4sqi.net\/img\/categories_v2\/nightlife\/pub_","suffix":".png"},"primary":"true"}],"verified":"false","restricted":"true","stats":{"checkinsCount":"1216","usersCount":"702","tipCount":"12"},"specials":{"count":"0"},"hereNow":{"count":"1","groups":[{"type":"others","name":"Other people here","count":"1"}]},"referralId":"v-1392478036"},{"id":"4c443138f97fbe9a81c5ba30","name":"Imperial College Central Library","contact":{"phone":"+442075948820","formattedPhone":"+44 20 7594 8820"},"location":{"address":"Imperial College London","crossStreet":"South Kensington Campus","lat":"51.497896784379265","lng":"-0.17771244049072266","distance":"794","postalCode":"SW7 2AZ","cc":"GB","city":"London","state":"Greater London","country":"United Kingdom"},"categories":[{"id":"4bf58dd8d48988d1a7941735","name":"College Library","pluralName":"College Libraries","shortName":"Library","icon":{"prefix":"https:\/\/ss1.4sqi.net\/img\/categories_v2\/building\/library_","suffix":".png"},"primary":"true"}],"verified":"true","restricted":"true","stats":{"checkinsCount":"2729","usersCount":"473","tipCount":"8"},"url":"http:\/\/www.imperial.ac.uk\/library\/usethelibrary\/central","specials":{"count":"0"},"hereNow":{"count":"1","groups":[{"type":"others","name":"Other people here","count":"1"}]},"venuePage":{"id":"53596615"},"referralId":"v-1392478036"},{"id":"4b76a02bf964a5202f552ee3","name":"Whole Foods Market Restaurant","contact":{"phone":"+442073684500","formattedPhone":"+44 20 7368 4500","twitter":"wfm_kensington"},"location":{"address":"63-97 Kensington High St","lat":"51.501937500498094","lng":"-0.1903080940246582","distance":"582","postalCode":"W8 5SE","cc":"GB","city":"Kensington","state":"Greater London","country":"United Kingdom"},"categories":[{"id":"4bf58dd8d48988d1c4941735","name":"Restaurant","pluralName":"Restaurants","shortName":"Restaurant","icon":{"prefix":"https:\/\/ss1.4sqi.net\/img\/categories_v2\/food\/default_","suffix":".png"},"primary":"true"}],"verified":"false","restricted":"true","stats":{"checkinsCount":"3707","usersCount":"2242","tipCount":"43"},"url":"http:\/\/wholefoodsmarket.com\/stores\/kensington\/","specials":{"count":"0"},"hereNow":{"count":"1","groups":[{"type":"others","name":"Other people here","count":"1"}]},"referralId":"v-1392478036"},{"id":"4cf8d45e6cee236a98fae803","name":"Russian Embassy","contact":{"phone":"+442072296412","formattedPhone":"+44 20 7229 6412","twitter":"russianembassy"},"location":{"address":"6-7 Kensington Palace Gardens","lat":"51.50994195528143","lng":"-0.19189834096054112","distance":"890","postalCode":"W8 4QP","cc":"GB","city":"Kensington","state":"Greater London","country":"United Kingdom"},"categories":[{"id":"4bf58dd8d48988d12c951735","name":"Embassy \/ Consulate","pluralName":"Embassies \/ Consulates","shortName":"Embassy","icon":{"prefix":"https:\/\/ss1.4sqi.net\/img\/categories_v2\/travel\/embassy_","suffix":".png"},"primary":"true"}],"verified":"false","restricted":"true","stats":{"checkinsCount":"764","usersCount":"500","tipCount":"6"},"url":"http:\/\/www.rusemb.org.uk","specials":{"count":"0"},"hereNow":{"count":"0"},"referralId":"v-1392478036"},{"id":"4ac518d1f964a52000a720e3","name":"Peter Pan Statue","location":{"address":"Kensington Gardens","lat":"51.50872449860815","lng":"-0.17584482432415235","distance":"690","postalCode":"W11 1PN","cc":"GB","city":"London","state":"Greater London","country":"United Kingdom"},"categories":[{"id":"4bf58dd8d48988d12d941735","name":"Monument \/ Landmark","pluralName":"Monuments \/ Landmarks","shortName":"Landmark","icon":{"prefix":"https:\/\/ss1.4sqi.net\/img\/categories_v2\/building\/government_monument_","suffix":".png"},"primary":"true"}],"verified":"false","restricted":"true","stats":{"checkinsCount":"673","usersCount":"577","tipCount":"7"},"specials":{"count":"0"},"hereNow":{"count":"0"},"referralId":"v-1392478036"},{"id":"4b68131cf964a52034662be3","name":"Starbucks","contact":{"twitter":"starbucksuk"},"location":{"address":"Unit 5, 17-35 Gloucester Rd","lat":"51.49802665740347","lng":"-0.18372366813368035","distance":"700","postalCode":"SW7 4PL","cc":"GB","city":"London","state":"Greater London","country":"United Kingdom"},"categories":[{"id":"4bf58dd8d48988d1e0931735","name":"Coffee Shop","pluralName":"Coffee Shops","shortName":"Coffee Shop","icon":{"prefix":"https:\/\/ss1.4sqi.net\/img\/categories_v2\/food\/coffeeshop_","suffix":".png"},"primary":"true"}],"verified":"true","restricted":"true","stats":{"checkinsCount":"1759","usersCount":"594","tipCount":"10"},"url":"http:\/\/starbucks.co.uk","specials":{"count":"0"},"hereNow":{"count":"0"},"storeId":"12073","referralId":"v-1392478036"},{"id":"4bd31b92caff952119ffd3f0","name":"Serpentine Bridge","location":{"address":"The Serpentine","lat":"51.50615816351301","lng":"-0.17261624336242676","distance":"735","postalCode":"2UH 2UH","cc":"GB","city":"London","state":"Greater London","country":"United Kingdom"},"categories":[{"id":"4bf58dd8d48988d1df941735","name":"Bridge","pluralName":"Bridges","shortName":"Bridge","icon":{"prefix":"https:\/\/ss1.4sqi.net\/img\/categories_v2\/parks_outdoors\/bridge_","suffix":".png"},"primary":"true"}],"verified":"false","restricted":"true","stats":{"checkinsCount":"1036","usersCount":"507","tipCount":"1"},"specials":{"count":"0"},"hereNow":{"count":"0"},"referralId":"v-1392478036"}],"confident":"true"}}