{"meta":{"code":"200"},"response":{"venues":[{"id":"4b49e9e3f964a520e27526e3","name":"Smiths of Smithfield","contact":{"phone":"+442072517950","formattedPhone":"+44 20 7251 7950","twitter":"thisissmiths"},"location":{"address":"67-77 Charterhouse St","lat":"51.5193986240325","lng":"-0.10263204574584961","distance":"17","postalCode":"EC1M 6HJ","cc":"GB","city":"Clerkenwell","state":"Greater London","country":"United Kingdom"},"categories":[{"id":"4bf58dd8d48988d1cc941735","name":"Steakhouse","pluralName":"Steakhouses","shortName":"Steakhouse","icon":{"prefix":"https:\/\/ss1.4sqi.net\/img\/categories_v2\/food\/steakhouse_","suffix":".png"},"primary":"true"}],"verified":"true","restricted":"true","stats":{"checkinsCount":"5697","usersCount":"3259","tipCount":"76"},"url":"http:\/\/www.smithsofsmithfield.co.uk","reservations":{"url":"http:\/\/www.toptable.co.uk\/single.aspx?rid=93513&ref=9601"},"menu":{"type":"Menu","label":"Menu","anchor":"View Menu","url":"https:\/\/foursquare.com\/v\/smiths-of-smithfield\/4b49e9e3f964a520e27526e3\/menu","mobileUrl":"https:\/\/foursquare.com\/v\/4b49e9e3f964a520e27526e3\/device_menu"},"specials":{"count":"0"},"hereNow":{"count":"0"},"storeId":"","referralId":"v-1392478005"},{"id":"4ac518c9f964a52094a520e3","name":"Fabric","contact":{"phone":"+442073368898","formattedPhone":"+44 20 7336 8898","twitter":"fabriclondon"},"location":{"address":"77A Charterhouse St","lat":"51.51955217210268","lng":"-0.10239601135253906","distance":"40","postalCode":"EC1M 3HN","cc":"GB","city":"London","state":"Greater London","country":"United Kingdom"},"categories":[{"id":"4bf58dd8d48988d11f941735","name":"Nightclub","pluralName":"Nightclubs","shortName":"Nightclub","icon":{"prefix":"https:\/\/ss1.4sqi.net\/img\/categories_v2\/nightlife\/nightclub_","suffix":".png"},"primary":"true"}],"verified":"true","restricted":"true","stats":{"checkinsCount":"4427","usersCount":"3260","tipCount":"86"},"url":"http:\/\/www.fabriclondon.com","specials":{"count":"0"},"events":{"count":"1","summary":"Seth Troxler, Adam Shelton, Craig Richards, Terry Francis and 6 more","items":[{"id":"52cf552b11d254e253e358e6","name":"Seth Troxler, Adam Shelton, Craig Richards, Terry Francis and 6 more","categories":[{"id":"4e0a4b91bd41eda0d6092f89","name":"Concert","pluralName":"Concerts","shortName":"Concert","icon":{"prefix":"https:\/\/ss1.4sqi.net\/img\/categories_v2\/arts_entertainment\/musicvenue_","suffix":".png"},"primary":"true"}],"startAt":"1392505200","endAt":"1392526800","allDay":"false","timeZone":"Europe\/London","text":"","url":"http:\/\/www.songkick.com\/concerts\/19146174-seth-troxler-at-fabric?utm_source=4436&utm_medium=partner","provider":{"name":"songkick","iconUrl":{"prefix":"https:\/\/playfoursquare.s3.amazonaws.com\/events\/images\/partners\/sk\/","sizes":["20","40"],"name":"\/logo.png"},"urlText":"more info"},"stats":{"checkinsCount":"0","usersCount":"0"}}]},"hereNow":{"count":"0"},"storeId":"","referralId":"v-1392478005"},{"id":"4dc9462d8877c89dc0834fb4","name":"Innovation Warehouse London","contact":{"phone":"+442072480199","formattedPhone":"+44 20 7248 0199","twitter":"iwuk","facebook":"130457720333445"},"location":{"address":"1 East Poultry Ave, 1st Floor","crossStreet":"btwn Charterhouse Street & W Smithfield","lat":"51.51899806141268","lng":"-0.10269641876220702","distance":"33","postalCode":"EC1A 9PT","cc":"GB","city":"London","state":"Greater London","country":"United Kingdom"},"categories":[{"id":"4bf58dd8d48988d174941735","name":"Coworking Space","pluralName":"Coworking Spaces","shortName":"Coworking Space","icon":{"prefix":"https:\/\/ss1.4sqi.net\/img\/categories_v2\/building\/office_coworkingspace_","suffix":".png"},"primary":"true"}],"verified":"true","restricted":"true","stats":{"checkinsCount":"1779","usersCount":"694","tipCount":"10"},"url":"http:\/\/www.innovationwarehouse.org","specials":{"count":"0"},"hereNow":{"count":"0"},"storeId":"","referralId":"v-1392478005"},{"id":"4cb72b8255af224bd0339f7e","name":"BIG Studios - Smithfields","location":{"address":"East Poultry Avenue","lat":"51.51938010992581","lng":"-0.10236514744353792","distance":"31","cc":"GB","city":"Islington","state":"Greater London","country":"United Kingdom"},"categories":[{"id":"4bf58dd8d48988d124941735","name":"Office","pluralName":"Offices","shortName":"Office","icon":{"prefix":"https:\/\/ss1.4sqi.net\/img\/categories_v2\/building\/default_","suffix":".png"},"primary":"true"}],"verified":"false","restricted":"true","stats":{"checkinsCount":"993","usersCount":"28","tipCount":"1"},"specials":{"count":"0"},"hereNow":{"count":"0"},"referralId":"v-1392478005"},{"id":"4b11bf4af964a520bc8323e3","name":"Beduin","location":{"address":"57 Charter House Street","lat":"51.519372","lng":"-0.103375","distance":"40","cc":"GB","city":"London","state":"Greater London","country":"United Kingdom"},"categories":[{"id":"4bf58dd8d48988d11e941735","name":"Cocktail Bar","pluralName":"Cocktail Bars","shortName":"Cocktail","icon":{"prefix":"https:\/\/ss1.4sqi.net\/img\/categories_v2\/nightlife\/cocktails_","suffix":".png"},"primary":"true"}],"verified":"false","restricted":"true","stats":{"checkinsCount":"428","usersCount":"360","tipCount":"2"},"menu":{"type":"Menu","label":"Menu","anchor":"View Menu","url":"https:\/\/foursquare.com\/v\/beduin\/4b11bf4af964a520bc8323e3\/menu","mobileUrl":"https:\/\/foursquare.com\/v\/4b11bf4af964a520bc8323e3\/device_menu"},"specials":{"count":"0"},"hereNow":{"count":"1","groups":[{"type":"others","name":"Other people here","count":"1"}]},"referralId":"v-1392478005"},{"id":"4af4831ff964a52059f321e3","name":"Comptoir Gascon","contact":{"phone":"+442076080851","formattedPhone":"+44 20 7608 0851"},"location":{"address":"63 Charterhouse St.","crossStreet":"Farringdon Rd.","lat":"51.51936","lng":"-0.103136","distance":"24","postalCode":"EC1M 6HJ","cc":"GB","city":"Farringdon","state":"Greater London","country":"United Kingdom"},"categories":[{"id":"4bf58dd8d48988d123941735","name":"Wine Bar","pluralName":"Wine Bars","shortName":"Wine Bar","icon":{"prefix":"https:\/\/ss1.4sqi.net\/img\/categories_v2\/nightlife\/wine_","suffix":".png"},"primary":"true"}],"verified":"true","restricted":"true","stats":{"checkinsCount":"338","usersCount":"219","tipCount":"14"},"url":"http:\/\/www.comptoirgascon.com","reservations":{"url":"http:\/\/www.toptable.co.uk\/single.aspx?rid=31917&ref=9601"},"menu":{"type":"Menu","label":"Menu","anchor":"View Menu","url":"https:\/\/foursquare.com\/v\/comptoir-gascon\/4af4831ff964a52059f321e3\/menu","mobileUrl":"https:\/\/foursquare.com\/v\/4af4831ff964a52059f321e3\/device_menu"},"specials":{"count":"0"},"hereNow":{"count":"0"},"venuePage":{"id":"32861089"},"referralId":"v-1392478005"},{"id":"4d5433125c9d236ad8d2face","name":"Grand Union","contact":{"phone":"+442072515259","formattedPhone":"+44 20 7251 5259","twitter":"grandunionbars"},"location":{"address":"55 Charterhouse St.","lat":"51.51931851179036","lng":"-0.10355472564697266","distance":"52","postalCode":"EC1M 6HA","cc":"GB","city":"Farringdon","state":"Greater London","country":"United Kingdom"},"categories":[{"id":"4bf58dd8d48988d116941735","name":"Bar","pluralName":"Bars","shortName":"Bar","icon":{"prefix":"https:\/\/ss1.4sqi.net\/img\/categories_v2\/nightlife\/bar_","suffix":".png"},"primary":"true"}],"verified":"true","restricted":"true","stats":{"checkinsCount":"647","usersCount":"455","tipCount":"6"},"url":"http:\/\/www.grandunionbars.com","menu":{"type":"Menu","label":"Menu","anchor":"View Menu","url":"https:\/\/foursquare.com\/v\/grand-union\/4d5433125c9d236ad8d2face\/menu","mobileUrl":"https:\/\/foursquare.com\/v\/4d5433125c9d236ad8d2face\/device_menu"},"specials":{"count":"0"},"hereNow":{"count":"0"},"storeId":"FARRINGDON","referralId":"v-1392478005"},{"id":"4e4fa93e483bb770491219f3","name":"Maritz research","location":{"address":"One East Poultry Street","crossStreet":"Charterhouse street","lat":"51.519170014121244","lng":"-0.10253049543216429","distance":"23","cc":"GB","city":"London","state":"Greater London","country":"United Kingdom"},"categories":[{"id":"4bf58dd8d48988d124941735","name":"Office","pluralName":"Offices","shortName":"Office","icon":{"prefix":"https:\/\/ss1.4sqi.net\/img\/categories_v2\/building\/default_","suffix":".png"},"primary":"true"}],"verified":"false","restricted":"true","stats":{"checkinsCount":"38","usersCount":"10","tipCount":"0"},"specials":{"count":"0"},"hereNow":{"count":"0"},"referralId":"v-1392478005"},{"id":"52da448511d244d37959418b","name":"HackHumanity - Hack The Workplace","location":{"lat":"51.519303526716904","lng":"-0.10229554450878904","distance":"35","cc":"GB","country":"United Kingdom"},"categories":[{"id":"5267e4d9e4b0ec79466e48c8","name":"Other Event","pluralName":"Other Events","shortName":"Other Event","icon":{"prefix":"https:\/\/ss1.4sqi.net\/img\/categories_v2\/event\/default_","suffix":".png"},"primary":"true"}],"verified":"false","restricted":"true","stats":{"checkinsCount":"9","usersCount":"5","tipCount":"0"},"specials":{"count":"0"},"hereNow":{"count":"0"},"referralId":"v-1392478005"},{"id":"4b993328f964a520396935e3","name":"Smithfield Market (London Central Markets)","contact":{"phone":"+442072483151","formattedPhone":"+44 20 7248 3151"},"location":{"address":"201-232 Charterhouse St","lat":"51.51924337958324","lng":"-0.10153603355431134","distance":"87","postalCode":"EC1M 6JN","cc":"GB","city":"London","state":"Greater London","country":"United Kingdom"},"categories":[{"id":"4bf58dd8d48988d11d951735","name":"Butcher","pluralName":"Butchers","shortName":"Butcher","icon":{"prefix":"https:\/\/ss1.4sqi.net\/img\/categories_v2\/shops\/food_butcher_","suffix":".png"},"primary":"true"}],"verified":"false","restricted":"true","stats":{"checkinsCount":"2076","usersCount":"1050","tipCount":"17"},"url":"http:\/\/www.smithfieldmarket.com","specials":{"count":"0"},"hereNow":{"count":"0"},"referralId":"v-1392478005"},{"id":"4adcce58f964a520013021e3","name":"Hix Oyster and Chop House","contact":{"phone":"+442070171930","formattedPhone":"+44 20 7017 1930","twitter":"hixrestaurants"},"location":{"address":"36-37 Greenhill Rents","crossStreet":"Cowcross Street","lat":"51.519863","lng":"-0.10253","distance":"66","postalCode":"EC1M 6BN","cc":"GB","city":"London","state":"Greater London","country":"United Kingdom"},"categories":[{"id":"4bf58dd8d48988d1cc941735","name":"Steakhouse","pluralName":"Steakhouses","shortName":"Steakhouse","icon":{"prefix":"https:\/\/ss1.4sqi.net\/img\/categories_v2\/food\/steakhouse_","suffix":".png"},"primary":"true"}],"verified":"false","restricted":"true","stats":{"checkinsCount":"623","usersCount":"466","tipCount":"12"},"url":"http:\/\/www.restaurantsetcltd.co.uk","reservations":{"url":"http:\/\/www.toptable.co.uk\/single.aspx?rid=79966&ref=9601"},"menu":{"type":"Menu","label":"Menu","anchor":"View Menu","url":"https:\/\/foursquare.com\/v\/hix-oyster-and-chop-house\/4adcce58f964a520013021e3\/menu","mobileUrl":"https:\/\/foursquare.com\/v\/4adcce58f964a520013021e3\/device_menu"},"specials":{"count":"0"},"hereNow":{"count":"0"},"referralId":"v-1392478005"},{"id":"5033c9a6e4b0a6a992eec8c4","name":"The Grill On The Market","contact":{"phone":"+442072460900","formattedPhone":"+44 20 7246 0900","twitter":"gotmsmithfield"},"location":{"address":"2-3 West Smithfield","lat":"51.518585","lng":"-0.102444","distance":"82","postalCode":"EC1A 9JX","cc":"GB","city":"London","state":"Greater London","country":"United Kingdom"},"categories":[{"id":"4bf58dd8d48988d1cc941735","name":"Steakhouse","pluralName":"Steakhouses","shortName":"Steakhouse","icon":{"prefix":"https:\/\/ss1.4sqi.net\/img\/categories_v2\/food\/steakhouse_","suffix":".png"},"primary":"true"}],"verified":"false","restricted":"true","stats":{"checkinsCount":"309","usersCount":"183","tipCount":"8"},"url":"http:\/\/blackhouse.uk.com\/london","menu":{"type":"Menu","label":"Menu","anchor":"View Menu","url":"https:\/\/foursquare.com\/v\/the-grill-on-the-market\/5033c9a6e4b0a6a992eec8c4\/menu","mobileUrl":"https:\/\/foursquare.com\/v\/5033c9a6e4b0a6a992eec8c4\/device_menu"},"specials":{"count":"0"},"hereNow":{"count":"1","groups":[{"type":"others","name":"Other people here","count":"1"}]},"referralId":"v-1392478005"},{"id":"52f69134498e8ef3521fef22","name":"Hack4Good 0.5 - Global","location":{"lat":"51.51930331678367","lng":"-0.10253665097975159","distance":"18","cc":"GB","country":"United Kingdom"},"categories":[{"id":"5267e4d9e4b0ec79466e48c8","name":"Other Event","pluralName":"Other Events","shortName":"Other Event","icon":{"prefix":"https:\/\/ss1.4sqi.net\/img\/categories_v2\/event\/default_","suffix":".png"},"primary":"true"}],"verified":"false","restricted":"true","stats":{"checkinsCount":"3","usersCount":"2","tipCount":"0"},"specials":{"count":"0"},"hereNow":{"count":"0"},"referralId":"v-1392478005"},{"id":"526ab49311d267f22cf22405","name":"Barburrito","contact":{"phone":"+442075660035","formattedPhone":"+44 20 7566 0035","twitter":"barburtweeto"},"location":{"address":"5A Cowcross St","lat":"51.52013965559167","lng":"-0.1022753119468689","distance":"101","postalCode":"EC1M 6DW","cc":"GB","city":"Farringdon","state":"Greater London","country":"United Kingdom"},"categories":[{"id":"4bf58dd8d48988d153941735","name":"Burrito Place","pluralName":"Burrito Places","shortName":"Burritos","icon":{"prefix":"https:\/\/ss1.4sqi.net\/img\/categories_v2\/food\/burrito_","suffix":".png"},"primary":"true"}],"verified":"false","restricted":"true","stats":{"checkinsCount":"139","usersCount":"72","tipCount":"10"},"url":"http:\/\/www.barburrito.co.uk","specials":{"count":"0"},"hereNow":{"count":"0"},"referralId":"v-1392478005"},{"id":"4d05e62030a58cfad1dda7e7","name":"Paul","contact":{"phone":"+442072538573","formattedPhone":"+44 20 7253 8573","twitter":"paul__uk"},"location":{"address":"87 Charterhouse St","lat":"51.51977247929912","lng":"-0.10188102722167969","distance":"83","postalCode":"EC1M 6HJ","cc":"GB","city":"London","state":"Greater London","country":"United Kingdom"},"categories":[{"id":"4bf58dd8d48988d16d941735","name":"Caf\u00e9","pluralName":"Caf\u00e9s","shortName":"Caf\u00e9","icon":{"prefix":"https:\/\/ss1.4sqi.net\/img\/categories_v2\/food\/cafe_","suffix":".png"},"primary":"true"}],"verified":"false","restricted":"true","stats":{"checkinsCount":"792","usersCount":"318","tipCount":"9"},"url":"http:\/\/www.paul-uk.com\/shop\/en-UK\/Shop\/PAUL-Charterhouse_285","specials":{"count":"0"},"hereNow":{"count":"0"},"referralId":"v-1392478005"},{"id":"50168605e4b07c3cf3d56c5a","name":"Polpo","contact":{"phone":"+442072500034","formattedPhone":"+44 20 7250 0034"},"location":{"address":"3 Cowcross St.","lat":"51.520027388801125","lng":"-0.10238720946987374","distance":"87","postalCode":"EC1M 6DR","cc":"GB","city":"Clerkenwell","state":"Greater London","country":"United Kingdom"},"categories":[{"id":"4bf58dd8d48988d110941735","name":"Italian Restaurant","pluralName":"Italian Restaurants","shortName":"Italian","icon":{"prefix":"https:\/\/ss1.4sqi.net\/img\/categories_v2\/food\/italian_","suffix":".png"},"primary":"true"}],"verified":"false","restricted":"true","stats":{"checkinsCount":"707","usersCount":"511","tipCount":"14"},"url":"http:\/\/www.polpo.co.uk","menu":{"type":"Menu","label":"Menu","anchor":"View Menu","url":"https:\/\/foursquare.com\/v\/polpo\/50168605e4b07c3cf3d56c5a\/menu","mobileUrl":"https:\/\/foursquare.com\/v\/50168605e4b07c3cf3d56c5a\/device_menu"},"specials":{"count":"0"},"hereNow":{"count":"0"},"referralId":"v-1392478005"},{"id":"4d97be0adaec224b34f1383e","name":"SOS","location":{"lat":"51.51941122683838","lng":"-0.10260499144789426","distance":"19","cc":"GB","country":"United Kingdom"},"categories":[{"id":"4bf58dd8d48988d11f941735","name":"Nightclub","pluralName":"Nightclubs","shortName":"Nightclub","icon":{"prefix":"https:\/\/ss1.4sqi.net\/img\/categories_v2\/nightlife\/nightclub_","suffix":".png"},"primary":"true"}],"verified":"false","restricted":"true","stats":{"checkinsCount":"16","usersCount":"15","tipCount":"2"},"specials":{"count":"0"},"hereNow":{"count":"0"},"referralId":"v-1392478005"},{"id":"517a2744e4b027b156f9e7d0","name":"Bird of Smithfield","contact":{"twitter":"birdosmithfield"},"location":{"address":"26 Smithfield St","lat":"51.51843061090161","lng":"-0.10263658449830028","distance":"96","postalCode":"EC1A 9LB","cc":"GB","city":"London","state":"Greater London","country":"United Kingdom"},"categories":[{"id":"4bf58dd8d48988d1c4941735","name":"Restaurant","pluralName":"Restaurants","shortName":"Restaurant","icon":{"prefix":"https:\/\/ss1.4sqi.net\/img\/categories_v2\/food\/default_","suffix":".png"},"primary":"true"}],"verified":"false","restricted":"true","stats":{"checkinsCount":"368","usersCount":"177","tipCount":"15"},"url":"http:\/\/birdofsmithfield.com","reservations":{"url":"http:\/\/www.toptable.co.uk\/single.aspx?rid=98523&ref=9601"},"menu":{"type":"Menu","label":"Menu","anchor":"View Menu","url":"https:\/\/foursquare.com\/v\/bird-of-smithfield\/517a2744e4b027b156f9e7d0\/menu","mobileUrl":"https:\/\/foursquare.com\/v\/517a2744e4b027b156f9e7d0\/device_menu"},"specials":{"count":"0"},"hereNow":{"count":"0"},"referralId":"v-1392478005"},{"id":"4dabf6b20cb6a89c628d66b0","name":"Pr\u00eat A Manger","contact":{"phone":"+442079325444","formattedPhone":"+44 20 7932 5444","twitter":"pret_uk}"},"location":{"address":"3-5 St John St","crossStreet":"Cowcross Street","lat":"51.51981745290301","lng":"-0.10178046441201452","distance":"92","cc":"GB","city":"London","state":"Greater London","country":"United Kingdom"},"categories":[{"id":"4bf58dd8d48988d1c5941735","name":"Sandwich Place","pluralName":"Sandwich Places","shortName":"Sandwiches","icon":{"prefix":"https:\/\/ss1.4sqi.net\/img\/categories_v2\/food\/sandwiches_","suffix":".png"},"primary":"true"}],"verified":"false","restricted":"true","stats":{"checkinsCount":"277","usersCount":"95","tipCount":"2"},"specials":{"count":"0"},"hereNow":{"count":"0"},"referralId":"v-1392478005"},{"id":"528e1b91498e6dab61bd88ca","name":"Benito's Hat","contact":{"twitter":"benitoschat"},"location":{"address":"12-14 St John St","lat":"51.52012964173205","lng":"-0.10169327259063721","distance":"121","postalCode":"EC1M 4AY","cc":"GB","city":"Farringdon","state":"Greater London","country":"United Kingdom"},"categories":[{"id":"4bf58dd8d48988d153941735","name":"Burrito Place","pluralName":"Burrito Places","shortName":"Burritos","icon":{"prefix":"https:\/\/ss1.4sqi.net\/img\/categories_v2\/food\/burrito_","suffix":".png"},"primary":"true"}],"verified":"false","restricted":"true","stats":{"checkinsCount":"111","usersCount":"66","tipCount":"3"},"specials":{"count":"0"},"hereNow":{"count":"0"},"referralId":"v-1392478005"},{"id":"4c58100812f0d13a336e08ad","name":"Kurz & Lang","contact":{"phone":"+442079932923","formattedPhone":"+44 20 7993 2923"},"location":{"address":"1 St. John St.","crossStreet":"Cowcross St.","lat":"51.519875","lng":"-0.102063","distance":"82","postalCode":"EC1M 4AA","cc":"GB","city":"Islington","state":"Greater London","country":"United Kingdom"},"categories":[{"id":"4bf58dd8d48988d10d941735","name":"German Restaurant","pluralName":"German Restaurants","shortName":"German","icon":{"prefix":"https:\/\/ss1.4sqi.net\/img\/categories_v2\/food\/german_","suffix":".png"},"primary":"true"}],"verified":"false","restricted":"true","stats":{"checkinsCount":"726","usersCount":"417","tipCount":"13"},"menu":{"type":"Menu","label":"Menu","anchor":"View Menu","url":"https:\/\/foursquare.com\/v\/kurz--lang\/4c58100812f0d13a336e08ad\/menu","mobileUrl":"https:\/\/foursquare.com\/v\/4c58100812f0d13a336e08ad\/device_menu"},"specials":{"count":"0"},"hereNow":{"count":"0"},"referralId":"v-1392478005"},{"id":"4ad48677f964a52015e820e3","name":"The Fence","contact":{"phone":"+442072503414","formattedPhone":"+44 20 7250 3414"},"location":{"address":"66 - 67 Cowcross St","lat":"51.51987695305909","lng":"-0.10375574405490773","distance":"92","postalCode":"EC1M 6BP","cc":"GB","city":"London","state":"Greater London","country":"United Kingdom"},"categories":[{"id":"4bf58dd8d48988d11b941735","name":"Pub","pluralName":"Pubs","shortName":"Pub","icon":{"prefix":"https:\/\/ss1.4sqi.net\/img\/categories_v2\/nightlife\/pub_","suffix":".png"},"primary":"true"}],"verified":"false","restricted":"true","stats":{"checkinsCount":"1270","usersCount":"754","tipCount":"10"},"url":"http:\/\/www.fullers.co.uk\/rte.asp?id=4&itemid=95&task=View","reservations":{"url":"http:\/\/www.toptable.co.uk\/single.aspx?rid=80869&ref=9601"},"menu":{"type":"Menu","label":"Menu","anchor":"View Menu","url":"https:\/\/foursquare.com\/v\/the-fence\/4ad48677f964a52015e820e3\/menu","mobileUrl":"https:\/\/foursquare.com\/v\/4ad48677f964a52015e820e3\/device_menu"},"specials":{"count":"0"},"hereNow":{"count":"0"},"referralId":"v-1392478005"},{"id":"4ada5f87f964a520fc2121e3","name":"The Bishop's Finger","contact":{"phone":"+442072482341","formattedPhone":"+44 20 7248 2341","facebook":"8029823489"},"location":{"address":"9 W Smithfield","lat":"51.51841723935623","lng":"-0.10192930698394775","distance":"114","postalCode":"EC1A 9JR","cc":"GB","city":"London","state":"Greater London","country":"United Kingdom"},"categories":[{"id":"4bf58dd8d48988d11b941735","name":"Pub","pluralName":"Pubs","shortName":"Pub","icon":{"prefix":"https:\/\/ss1.4sqi.net\/img\/categories_v2\/nightlife\/pub_","suffix":".png"},"primary":"true"}],"verified":"true","restricted":"true","stats":{"checkinsCount":"707","usersCount":"243","tipCount":"4"},"url":"http:\/\/www.thebishopsfinger.co.uk","menu":{"type":"Menu","label":"Menu","anchor":"View Menu","url":"https:\/\/foursquare.com\/v\/the-bishops-finger\/4ada5f87f964a520fc2121e3\/menu","mobileUrl":"https:\/\/foursquare.com\/v\/4ada5f87f964a520fc2121e3\/device_menu"},"specials":{"count":"0"},"hereNow":{"count":"0"},"storeId":"","referralId":"v-1392478005"},{"id":"4ac518c6f964a52001a520e3","name":"Vinoteca","location":{"address":"7 St. John St.","lat":"51.520099737463475","lng":"-0.10175265958676831","distance":"115","postalCode":"EC1M 4AA","cc":"GB","city":"London","state":"Greater London","country":"United Kingdom"},"categories":[{"id":"4bf58dd8d48988d123941735","name":"Wine Bar","pluralName":"Wine Bars","shortName":"Wine Bar","icon":{"prefix":"https:\/\/ss1.4sqi.net\/img\/categories_v2\/nightlife\/wine_","suffix":".png"},"primary":"true"}],"verified":"false","restricted":"true","stats":{"checkinsCount":"740","usersCount":"488","tipCount":"22"},"menu":{"type":"Menu","label":"Menu","anchor":"View Menu","url":"https:\/\/foursquare.com\/v\/vinoteca\/4ac518c6f964a52001a520e3\/menu","mobileUrl":"https:\/\/foursquare.com\/v\/4ac518c6f964a52001a520e3\/device_menu"},"specials":{"count":"0"},"hereNow":{"count":"0"},"referralId":"v-1392478005"},{"id":"4bf5113f94af2d7fe63d3b72","name":"Blackhouse Restaurant & Bar","location":{"lat":"51.51874372014779","lng":"-0.10233335713336421","distance":"68","cc":"GB","city":"Islington","state":"Greater London","country":"United Kingdom"},"categories":[{"id":"4bf58dd8d48988d1cc941735","name":"Steakhouse","pluralName":"Steakhouses","shortName":"Steakhouse","icon":{"prefix":"https:\/\/ss1.4sqi.net\/img\/categories_v2\/food\/steakhouse_","suffix":".png"},"primary":"true"}],"verified":"false","restricted":"true","stats":{"checkinsCount":"76","usersCount":"68","tipCount":"2"},"specials":{"count":"0"},"hereNow":{"count":"0"},"referralId":"v-1392478005"},{"id":"4ad7a4f6f964a5202d0d21e3","name":"Farm","contact":{"phone":"+442072532142","formattedPhone":"+44 20 7253 2142","twitter":"farmeronapig"},"location":{"address":"91 Cowcross St","lat":"51.5199248161562","lng":"-0.10206241382074346","distance":"87","postalCode":"EC1M 6BH","cc":"GB","city":"Farringdon","state":"Greater London","country":"United Kingdom"},"categories":[{"id":"4bf58dd8d48988d16d941735","name":"Caf\u00e9","pluralName":"Caf\u00e9s","shortName":"Caf\u00e9","icon":{"prefix":"https:\/\/ss1.4sqi.net\/img\/categories_v2\/food\/cafe_","suffix":".png"},"primary":"true"}],"verified":"false","restricted":"true","stats":{"checkinsCount":"1840","usersCount":"483","tipCount":"34"},"url":"http:\/\/www.farmcollective.com","menu":{"type":"Menu","label":"Menu","anchor":"View Menu","url":"https:\/\/foursquare.com\/v\/farm\/4ad7a4f6f964a5202d0d21e3\/menu","mobileUrl":"https:\/\/foursquare.com\/v\/4ad7a4f6f964a5202d0d21e3\/device_menu"},"specials":{"count":"0"},"hereNow":{"count":"0"},"referralId":"v-1392478005"},{"id":"4d415211c5eaa1cd7383a950","name":"Found.","contact":{"phone":"+442076536709","formattedPhone":"+44 20 7653 6709","twitter":"found_online"},"location":{"address":"BIG Studios","crossStreet":"1 East Poultry Avenue","lat":"51.5194102","lng":"-0.10248184204101562","distance":"26","postalCode":"EC1A 9PT","cc":"GB","city":"London","state":"Greater London","country":"United Kingdom"},"categories":[{"id":"4bf58dd8d48988d174941735","name":"Coworking Space","pluralName":"Coworking Spaces","shortName":"Coworking Space","icon":{"prefix":"https:\/\/ss1.4sqi.net\/img\/categories_v2\/building\/office_coworkingspace_","suffix":".png"},"primary":"true"}],"verified":"true","restricted":"true","stats":{"checkinsCount":"350","usersCount":"16","tipCount":"1"},"url":"http:\/\/www.found.co.uk","specials":{"count":"0"},"hereNow":{"count":"0"},"referralId":"v-1392478005"},{"id":"4be2f819660ec928d0bdca3b","name":"PIXXA - Pizza al taglio","contact":{"phone":"+447554990171","formattedPhone":"+44 7554 990171","twitter":"mypixxa","facebook":"210781699009"},"location":{"address":"8 St. John Street","lat":"51.520074128868714","lng":"-0.10175265958676831","distance":"113","postalCode":"EC1M 4AY","cc":"GB","city":"London","state":"Greater London","country":"United Kingdom"},"categories":[{"id":"4bf58dd8d48988d1ca941735","name":"Pizza Place","pluralName":"Pizza Places","shortName":"Pizza","icon":{"prefix":"https:\/\/ss1.4sqi.net\/img\/categories_v2\/food\/pizza_","suffix":".png"},"primary":"true"}],"verified":"true","restricted":"true","stats":{"checkinsCount":"527","usersCount":"213","tipCount":"10"},"url":"http:\/\/www.mypixxa.com","menu":{"type":"Menu","label":"Menu","anchor":"View Menu","url":"https:\/\/foursquare.com\/v\/pixxa--pizza-al-taglio\/4be2f819660ec928d0bdca3b\/menu","mobileUrl":"https:\/\/foursquare.com\/v\/4be2f819660ec928d0bdca3b\/device_menu"},"specials":{"count":"0"},"hereNow":{"count":"0"},"venuePage":{"id":"55821716"},"storeId":"","referralId":"v-1392478005"},{"id":"4e26db0c1520b50b9df6ade4","name":"Subway","location":{"address":"4 Cowcross St.","lat":"51.52007623444354","lng":"-0.10218143463134766","distance":"97","postalCode":"EC1M 6DR","cc":"GB","city":"London","state":"Greater London","country":"United Kingdom"},"categories":[{"id":"4bf58dd8d48988d1c5941735","name":"Sandwich Place","pluralName":"Sandwich Places","shortName":"Sandwiches","icon":{"prefix":"https:\/\/ss1.4sqi.net\/img\/categories_v2\/food\/sandwiches_","suffix":".png"},"primary":"true"}],"verified":"false","restricted":"true","stats":{"checkinsCount":"407","usersCount":"131","tipCount":"2"},"specials":{"count":"0"},"hereNow":{"count":"0"},"referralId":"v-1392478005"},{"id":"4e1d6417483bbda4181ac486","name":"Factory Media","location":{"address":"1 West Smithfield","lat":"51.51856231689453","lng":"-0.10224779695272446","distance":"89","cc":"GB","country":"United Kingdom"},"categories":[{"id":"4bf58dd8d48988d124941735","name":"Office","pluralName":"Offices","shortName":"Office","icon":{"prefix":"https:\/\/ss1.4sqi.net\/img\/categories_v2\/building\/default_","suffix":".png"},"primary":"true"}],"verified":"false","restricted":"true","stats":{"checkinsCount":"725","usersCount":"15","tipCount":"1"},"specials":{"count":"0"},"hereNow":{"count":"0"},"referralId":"v-1392478005"}],"confident":"true"}}