{"meta":{"code":"200"},"response":{"venues":[{"id":"4ac518e9f964a520d2ab20e3","name":"Rich Mix Cultural Foundation","contact":{"phone":"+442076137498","formattedPhone":"+44 20 7613 7498","twitter":"richmixlondon"},"location":{"address":"35 Bethnal Green Rd.","lat":"51.524243359336694","lng":"-0.07310351871265255","distance":"21","postalCode":"E1 6LA","cc":"GB","city":"London","state":"Greater London","country":"United Kingdom"},"categories":[{"id":"4bf58dd8d48988d1f1931735","name":"General Entertainment","pluralName":"General Entertainment","shortName":"Entertainment","icon":{"prefix":"https:\/\/ss1.4sqi.net\/img\/categories_v2\/arts_entertainment\/default_","suffix":".png"},"primary":"true"}],"verified":"true","restricted":"true","stats":{"checkinsCount":"4400","usersCount":"2544","tipCount":"34"},"url":"http:\/\/www.richmix.org.uk","specials":{"count":"0"},"events":{"count":"5","summary":"5 movies"},"hereNow":{"count":"0"},"referralId":"v-1392477995"},{"id":"507dde91e412203dde77efb6","name":"BrewDog Shoreditch","contact":{"phone":"+442077298476","formattedPhone":"+44 20 7729 8476","twitter":"brewdog"},"location":{"address":"55 Bethnal Green Rd","lat":"51.52461896800237","lng":"-0.07243037223815918","distance":"44","postalCode":"E1 6LA","cc":"GB","city":"Shoreditch","state":"Greater London","country":"United Kingdom"},"categories":[{"id":"4bf58dd8d48988d116941735","name":"Bar","pluralName":"Bars","shortName":"Bar","icon":{"prefix":"https:\/\/ss1.4sqi.net\/img\/categories_v2\/nightlife\/bar_","suffix":".png"},"primary":"true"}],"verified":"true","restricted":"true","stats":{"checkinsCount":"4152","usersCount":"2489","tipCount":"53"},"url":"http:\/\/www.brewdog.com\/bars\/shoreditch","menu":{"type":"Menu","label":"Menu","anchor":"View Menu","url":"https:\/\/foursquare.com\/v\/brewdog-shoreditch\/507dde91e412203dde77efb6\/menu","mobileUrl":"https:\/\/foursquare.com\/v\/507dde91e412203dde77efb6\/device_menu"},"specials":{"count":"0"},"events":{"count":"1","summary":"Old Hat Jazz Band","items":[{"id":"52ce038b498e3976929a40a2","name":"Old Hat Jazz Band","categories":[{"id":"4e0a4b91bd41eda0d6092f89","name":"Concert","pluralName":"Concerts","shortName":"Concert","icon":{"prefix":"https:\/\/ss1.4sqi.net\/img\/categories_v2\/arts_entertainment\/musicvenue_","suffix":".png"},"primary":"true"}],"startAt":"1392498000","endAt":"1392519600","allDay":"false","timeZone":"Europe\/London","text":"","url":"http:\/\/www.songkick.com\/concerts\/19134424-old-hat-jazz-band-at-brewdog?utm_source=4436&utm_medium=partner","provider":{"name":"songkick","iconUrl":{"prefix":"https:\/\/playfoursquare.s3.amazonaws.com\/events\/images\/partners\/sk\/","sizes":["20","40"],"name":"\/logo.png"},"urlText":"more info"},"stats":{"checkinsCount":"0","usersCount":"0"}}]},"hereNow":{"count":"2","groups":[{"type":"others","name":"Other people here","count":"2"}]},"referralId":"v-1392477995"},{"id":"4ac518bbf964a5200ca220e3","name":"Beigel Bake","contact":{"phone":"+442077290616","formattedPhone":"+44 20 7729 0616","twitter":"beigelbake"},"location":{"address":"159 Brick Lane","lat":"51.52442395713672","lng":"-0.07164684647051285","distance":"81","postalCode":"E1 6SB","cc":"GB","city":"London","state":"Greater London","country":"United Kingdom"},"categories":[{"id":"4bf58dd8d48988d179941735","name":"Bagel Shop","pluralName":"Bagel Shops","shortName":"Bagels","icon":{"prefix":"https:\/\/ss1.4sqi.net\/img\/categories_v2\/food\/bagels_","suffix":".png"},"primary":"true"}],"verified":"false","restricted":"true","stats":{"checkinsCount":"5567","usersCount":"3040","tipCount":"127"},"specials":{"count":"0"},"hereNow":{"count":"4","groups":[{"type":"others","name":"Other people here","count":"4"}]},"referralId":"v-1392477995"},{"id":"4ae46ab4f964a520779a21e3","name":"Franze & Evans","contact":{"phone":"+442070331910","formattedPhone":"+44 20 7033 1910","twitter":"franzeandevans"},"location":{"address":"101 Redchurch St.","lat":"51.52469557944096","lng":"-0.07249627548134714","distance":"49","postalCode":"E2 7DL","cc":"GB","city":"Shoreditch","state":"Greater London","country":"United Kingdom"},"categories":[{"id":"4bf58dd8d48988d16d941735","name":"Caf\u00e9","pluralName":"Caf\u00e9s","shortName":"Caf\u00e9","icon":{"prefix":"https:\/\/ss1.4sqi.net\/img\/categories_v2\/food\/cafe_","suffix":".png"},"primary":"true"}],"verified":"false","restricted":"true","stats":{"checkinsCount":"1425","usersCount":"771","tipCount":"43"},"url":"http:\/\/www.franzeevans.com","menu":{"type":"Menu","label":"Menu","anchor":"View Menu","url":"https:\/\/foursquare.com\/v\/franze--evans\/4ae46ab4f964a520779a21e3\/menu","mobileUrl":"https:\/\/foursquare.com\/v\/4ae46ab4f964a520779a21e3\/device_menu"},"specials":{"count":"0"},"hereNow":{"count":"2","groups":[{"type":"others","name":"Other people here","count":"2"}]},"referralId":"v-1392477995"},{"id":"4bc31473461576b0dc197e32","name":"Brick Lane Coffee","contact":{"phone":"+442077292667","formattedPhone":"+44 20 7729 2667"},"location":{"address":"157 Brick Ln","lat":"51.52444458046714","lng":"-0.07161191743917762","distance":"84","postalCode":"E1 6SB","cc":"GB","city":"London","state":"Greater London","country":"United Kingdom"},"categories":[{"id":"4bf58dd8d48988d1e0931735","name":"Coffee Shop","pluralName":"Coffee Shops","shortName":"Coffee Shop","icon":{"prefix":"https:\/\/ss1.4sqi.net\/img\/categories_v2\/food\/coffeeshop_","suffix":".png"},"primary":"true"}],"verified":"true","restricted":"true","stats":{"checkinsCount":"2382","usersCount":"1151","tipCount":"61"},"url":"http:\/\/www.streetcoffee.co.uk","specials":{"count":"0"},"hereNow":{"count":"2","groups":[{"type":"others","name":"Other people here","count":"2"}]},"referralId":"v-1392477995"},{"id":"5096c4dce4b00a7cded73546","name":"UnderDog","contact":{"twitter":"underdogshored"},"location":{"address":"51-55 Bethnal Green Rd.","lat":"51.52449537526218","lng":"-0.07274803377847948","distance":"23","postalCode":"E1 6LA","cc":"GB","city":"Shoreditch","state":"Greater London","country":"United Kingdom"},"categories":[{"id":"4bf58dd8d48988d11e941735","name":"Cocktail Bar","pluralName":"Cocktail Bars","shortName":"Cocktail","icon":{"prefix":"https:\/\/ss1.4sqi.net\/img\/categories_v2\/nightlife\/cocktails_","suffix":".png"},"primary":"true"}],"verified":"false","restricted":"true","stats":{"checkinsCount":"332","usersCount":"211","tipCount":"10"},"url":"http:\/\/www.brewdog.com","specials":{"count":"0"},"hereNow":{"count":"0"},"referralId":"v-1392477995"},{"id":"4ca4e7f29324236a6786f0b4","name":"Allpress Espresso","contact":{"phone":"+442077491780","formattedPhone":"+44 20 7749 1780","twitter":"allpresse2"},"location":{"address":"58 Redchurch St.","lat":"51.52446864597776","lng":"-0.07421127355732536","distance":"99","postalCode":"E2 7DJ","cc":"GB","city":"Shoreditch","state":"Greater London","country":"United Kingdom"},"categories":[{"id":"4bf58dd8d48988d1e0931735","name":"Coffee Shop","pluralName":"Coffee Shops","shortName":"Coffee Shop","icon":{"prefix":"https:\/\/ss1.4sqi.net\/img\/categories_v2\/food\/coffeeshop_","suffix":".png"},"primary":"true"}],"verified":"false","restricted":"true","stats":{"checkinsCount":"3869","usersCount":"1569","tipCount":"62"},"specials":{"count":"0"},"hereNow":{"count":"2","groups":[{"type":"others","name":"Other people here","count":"2"}]},"referralId":"v-1392477995"},{"id":"4c894c678992236a783ab782","name":"Radio London Hair Salon & Gallery","contact":{"phone":"+442086170024","formattedPhone":"+44 20 8617 0024"},"location":{"address":"93-97 Redchurch St","lat":"51.52468030116887","lng":"-0.07247910091780774","distance":"48","postalCode":"E2 7DJ","cc":"GB","city":"London","state":"Greater London","country":"United Kingdom"},"categories":[{"id":"4bf58dd8d48988d110951735","name":"Salon \/ Barbershop","pluralName":"Salons \/ Barbershops","shortName":"Salon \/ Barbershop","icon":{"prefix":"https:\/\/ss1.4sqi.net\/img\/categories_v2\/shops\/salon_barber_","suffix":".png"},"primary":"true"}],"verified":"false","restricted":"true","stats":{"checkinsCount":"289","usersCount":"119","tipCount":"10"},"specials":{"count":"0"},"hereNow":{"count":"1","groups":[{"type":"others","name":"Other people here","count":"1"}]},"referralId":"v-1392477995"},{"id":"5237231311d2d732b0745456","name":"Craft Coffee","contact":{"twitter":"craft_coffee"},"location":{"address":"68 Sclater St","lat":"51.523746","lng":"-0.073141","distance":"64","postalCode":"E1 6HR","cc":"GB","city":"Shoreditch","state":"Greater London","country":"United Kingdom"},"categories":[{"id":"4bf58dd8d48988d1e0931735","name":"Coffee Shop","pluralName":"Coffee Shops","shortName":"Coffee Shop","icon":{"prefix":"https:\/\/ss1.4sqi.net\/img\/categories_v2\/food\/coffeeshop_","suffix":".png"},"primary":"true"}],"verified":"false","restricted":"true","stats":{"checkinsCount":"98","usersCount":"78","tipCount":"6"},"url":"http:\/\/www.craft-coffee.co.uk","specials":{"count":"0"},"hereNow":{"count":"1","groups":[{"type":"others","name":"Other people here","count":"1"}]},"referralId":"v-1392477995"},{"id":"4afb154ff964a520011b22e3","name":"The Redchurch","location":{"address":"107 Redchurch St.","lat":"51.52467006141369","lng":"-0.07231248085170873","distance":"54","postalCode":"E2 7DL","cc":"GB","city":"London","state":"Greater London","country":"United Kingdom"},"categories":[{"id":"4bf58dd8d48988d116941735","name":"Bar","pluralName":"Bars","shortName":"Bar","icon":{"prefix":"https:\/\/ss1.4sqi.net\/img\/categories_v2\/nightlife\/bar_","suffix":".png"},"primary":"true"}],"verified":"false","restricted":"true","stats":{"checkinsCount":"1077","usersCount":"776","tipCount":"21"},"menu":{"type":"Menu","label":"Menu","anchor":"View Menu","url":"https:\/\/foursquare.com\/v\/the-redchurch\/4afb154ff964a520011b22e3\/menu","mobileUrl":"https:\/\/foursquare.com\/v\/4afb154ff964a520011b22e3\/device_menu"},"specials":{"count":"0"},"hereNow":{"count":"0"},"referralId":"v-1392477995"},{"id":"4be42f9b2457a5936ed8a915","name":"The Vintage Emporium","contact":{"phone":"+442077390799","formattedPhone":"+44 20 7739 0799"},"location":{"address":"14 Bacon St.","crossStreet":"Brick Ln","lat":"51.52396685983584","lng":"-0.0720696096291143","distance":"62","postalCode":"E1 6LF","cc":"GB","city":"London","state":"Greater London","country":"United Kingdom"},"categories":[{"id":"4bf58dd8d48988d101951735","name":"Thrift \/ Vintage Store","pluralName":"Thrift \/ Vintage Stores","shortName":"Thrift \/ Vintage","icon":{"prefix":"https:\/\/ss1.4sqi.net\/img\/categories_v2\/shops\/default_","suffix":".png"},"primary":"true"}],"verified":"false","restricted":"true","stats":{"checkinsCount":"594","usersCount":"391","tipCount":"20"},"specials":{"count":"0"},"hereNow":{"count":"0"},"referralId":"v-1392477995"},{"id":"4eabc01829c2152debe050a2","name":"Full Stop","contact":{"phone":"+442077397086","formattedPhone":"+44 20 7739 7086","twitter":"fullstopbar"},"location":{"address":"202 Brick Ln","lat":"51.52416230329007","lng":"-0.07142731537511897","distance":"96","postalCode":"E1 6SA","cc":"GB","city":"London","state":"Greater London","country":"United Kingdom"},"categories":[{"id":"4bf58dd8d48988d116941735","name":"Bar","pluralName":"Bars","shortName":"Bar","icon":{"prefix":"https:\/\/ss1.4sqi.net\/img\/categories_v2\/nightlife\/bar_","suffix":".png"},"primary":"true"}],"verified":"false","restricted":"true","stats":{"checkinsCount":"1028","usersCount":"639","tipCount":"30"},"specials":{"count":"0"},"hereNow":{"count":"2","groups":[{"type":"others","name":"Other people here","count":"2"}]},"referralId":"v-1392477995"},{"id":"4fdb7c38e4b0bdf181f52326","name":"Kahaila","contact":{"phone":"+442079981388","formattedPhone":"+44 20 7998 1388","twitter":"kahailacafe"},"location":{"address":"135 Brick Ln.","lat":"51.52380292069493","lng":"-0.0715299534213913","distance":"103","postalCode":"E1 6SB","cc":"GB","city":"Brick Lane","state":"Greater London","country":"United Kingdom"},"categories":[{"id":"4bf58dd8d48988d1e0931735","name":"Coffee Shop","pluralName":"Coffee Shops","shortName":"Coffee Shop","icon":{"prefix":"https:\/\/ss1.4sqi.net\/img\/categories_v2\/food\/coffeeshop_","suffix":".png"},"primary":"true"}],"verified":"false","restricted":"true","stats":{"checkinsCount":"1191","usersCount":"762","tipCount":"42"},"specials":{"count":"0"},"hereNow":{"count":"1","groups":[{"type":"others","name":"Other people here","count":"1"}]},"referralId":"v-1392477995"},{"id":"4ce010073644a093d2c5559f","name":"Labour and Wait","contact":{"phone":"+442077296253","formattedPhone":"+44 20 7729 6253"},"location":{"address":"85 Redchurch St.","crossStreet":"at Turville St.","lat":"51.524582","lng":"-0.073449","distance":"55","cc":"GB","city":"Poplar","state":"Greater London","country":"United Kingdom"},"categories":[{"id":"4bf58dd8d48988d112951735","name":"Hardware Store","pluralName":"Hardware Stores","shortName":"Hardware","icon":{"prefix":"https:\/\/ss1.4sqi.net\/img\/categories_v2\/shops\/hardware_","suffix":".png"},"primary":"true"}],"verified":"false","restricted":"true","stats":{"checkinsCount":"347","usersCount":"261","tipCount":"7"},"url":"http:\/\/www.labourandwait.co.uk","specials":{"count":"0"},"hereNow":{"count":"0"},"referralId":"v-1392477995"},{"id":"4e373f03b61c5cb3c37ebc53","name":"Chrome and Black","contact":{"phone":"+442070334029","formattedPhone":"+44 20 7033 4029"},"location":{"address":"49 Bethnal Green Rd.","lat":"51.52434129949217","lng":"-0.07261002422885814","distance":"14","postalCode":"E1 6LA","cc":"GB","city":"London","state":"Greater London","country":"United Kingdom"},"categories":[{"id":"4bf58dd8d48988d127951735","name":"Arts & Crafts Store","pluralName":"Arts & Crafts Stores","shortName":"Arts & Crafts","icon":{"prefix":"https:\/\/ss1.4sqi.net\/img\/categories_v2\/shops\/artstore_","suffix":".png"},"primary":"true"}],"verified":"false","restricted":"true","stats":{"checkinsCount":"132","usersCount":"46","tipCount":"2"},"specials":{"count":"0"},"hereNow":{"count":"0"},"referralId":"v-1392477995"},{"id":"4ace87abf964a5200fd120e3","name":"Beigel Shop","contact":{"phone":"+442077290826","formattedPhone":"+44 20 7729 0826"},"location":{"address":"155 Brick Lane","lat":"51.52431114618627","lng":"-0.07156567093301604","distance":"85","postalCode":"E1 6SB","cc":"GB","city":"Brick Lane","state":"Greater London","country":"United Kingdom"},"categories":[{"id":"4bf58dd8d48988d179941735","name":"Bagel Shop","pluralName":"Bagel Shops","shortName":"Bagels","icon":{"prefix":"https:\/\/ss1.4sqi.net\/img\/categories_v2\/food\/bagels_","suffix":".png"},"primary":"true"}],"verified":"false","restricted":"true","stats":{"checkinsCount":"1476","usersCount":"787","tipCount":"29"},"specials":{"count":"0"},"hereNow":{"count":"0"},"referralId":"v-1392477995"},{"id":"4ad06b9df964a52007d820e3","name":"Fika","location":{"address":"161a Brick Ln","lat":"51.52441871009052","lng":"-0.07169008255004883","distance":"78","postalCode":"E16SB","cc":"GB","city":"London","state":"Greater London","country":"United Kingdom"},"categories":[{"id":"4bf58dd8d48988d1c6941735","name":"Scandinavian Restaurant","pluralName":"Scandinavian Restaurants","shortName":"Scandinavian","icon":{"prefix":"https:\/\/ss1.4sqi.net\/img\/categories_v2\/food\/scandinavian_","suffix":".png"},"primary":"true"}],"verified":"true","restricted":"true","stats":{"checkinsCount":"999","usersCount":"775","tipCount":"27"},"menu":{"type":"Menu","label":"Menu","anchor":"View Menu","url":"https:\/\/foursquare.com\/v\/fika-london-greater-london\/4ad06b9df964a52007d820e3\/menu","mobileUrl":"https:\/\/foursquare.com\/v\/4ad06b9df964a52007d820e3\/device_menu"},"specials":{"count":"0"},"hereNow":{"count":"0"},"venuePage":{"id":"49815752"},"referralId":"v-1392477995"},{"id":"4b59f10ff964a52098a228e3","name":"Beach Blanket Babylon","contact":{"phone":"+442077493540","formattedPhone":"+44 20 7749 3540","twitter":"bbblondon"},"location":{"address":"19-23 Bethnal Green Rd","lat":"51.5239192296165","lng":"-0.07430652886933965","distance":"111","postalCode":"E1 6LA","cc":"GB","city":"Shoreditch","state":"Greater London","country":"United Kingdom"},"categories":[{"id":"4bf58dd8d48988d11e941735","name":"Cocktail Bar","pluralName":"Cocktail Bars","shortName":"Cocktail","icon":{"prefix":"https:\/\/ss1.4sqi.net\/img\/categories_v2\/nightlife\/cocktails_","suffix":".png"},"primary":"true"}],"verified":"false","restricted":"true","stats":{"checkinsCount":"1716","usersCount":"1375","tipCount":"40"},"url":"http:\/\/www.beachblanket.co.uk","reservations":{"url":"http:\/\/www.toptable.co.uk\/single.aspx?rid=7984&ref=9601"},"menu":{"type":"Menu","label":"Menu","anchor":"View Menu","url":"https:\/\/foursquare.com\/v\/beach-blanket-babylon\/4b59f10ff964a52098a228e3\/menu","mobileUrl":"https:\/\/foursquare.com\/v\/4b59f10ff964a52098a228e3\/device_menu"},"specials":{"count":"0"},"hereNow":{"count":"0"},"referralId":"v-1392477995"},{"id":"4ad26c85f964a5208ee120e3","name":"The Verge Bar","contact":{"phone":"+442077390552","formattedPhone":"+44 20 7739 0552"},"location":{"address":"114 Bethnal Green Rd.","crossStreet":"Brick Lane","lat":"51.52447211228645","lng":"-0.07179737091064453","distance":"72","postalCode":"E2 6DG","cc":"GB","city":"London","state":"Greater London","country":"United Kingdom"},"categories":[{"id":"4bf58dd8d48988d116941735","name":"Bar","pluralName":"Bars","shortName":"Bar","icon":{"prefix":"https:\/\/ss1.4sqi.net\/img\/categories_v2\/nightlife\/bar_","suffix":".png"},"primary":"true"}],"verified":"true","restricted":"true","stats":{"checkinsCount":"815","usersCount":"609","tipCount":"13"},"specials":{"count":"0"},"hereNow":{"count":"0"},"venuePage":{"id":"72595285"},"storeId":"","referralId":"v-1392477995"},{"id":"4ac518c1f964a520b9a320e3","name":"Lounge Lover","contact":{"phone":"+442070121234","formattedPhone":"+44 20 7012 1234"},"location":{"address":"1 Whitby St","lat":"51.524242584634436","lng":"-0.07441718324419141","distance":"111","postalCode":"E1 6JU","cc":"GB","city":"Shoreditch","state":"Greater London","country":"United Kingdom"},"categories":[{"id":"4bf58dd8d48988d11e941735","name":"Cocktail Bar","pluralName":"Cocktail Bars","shortName":"Cocktail","icon":{"prefix":"https:\/\/ss1.4sqi.net\/img\/categories_v2\/nightlife\/cocktails_","suffix":".png"},"primary":"true"}],"verified":"false","restricted":"true","stats":{"checkinsCount":"1725","usersCount":"1441","tipCount":"45"},"url":"http:\/\/www.loungelover.co.uk","reservations":{"url":"http:\/\/www.toptable.co.uk\/single.aspx?rid=54178&ref=9601"},"menu":{"type":"Menu","label":"Menu","anchor":"View Menu","url":"https:\/\/foursquare.com\/v\/lounge-lover\/4ac518c1f964a520b9a320e3\/menu","mobileUrl":"https:\/\/foursquare.com\/v\/4ac518c1f964a520b9a320e3\/device_menu"},"specials":{"count":"0"},"hereNow":{"count":"0"},"referralId":"v-1392477995"},{"id":"4c3a303fdfb0e21eaac5b1a8","name":"Aubin Cinema","location":{"address":"64-66 Redchurch St","lat":"51.52430447109121","lng":"-0.07409626164849337","distance":"89","postalCode":"E2","cc":"GB","city":"London","state":"Greater London","country":"United Kingdom"},"categories":[{"id":"4bf58dd8d48988d17e941735","name":"Indie Movie Theater","pluralName":"Indie Movie Theaters","shortName":"Indie Theater","icon":{"prefix":"https:\/\/ss1.4sqi.net\/img\/categories_v2\/arts_entertainment\/movietheater_indietheater_","suffix":".png"},"primary":"true"}],"verified":"true","restricted":"true","stats":{"checkinsCount":"1025","usersCount":"695","tipCount":"17"},"specials":{"count":"0"},"events":{"count":"1","summary":"Dallas Buyers Club","items":[{"id":"52f05c55498eef5262bdf511","name":"Dallas Buyers Club","categories":[{"id":"4dfb90c6bd413dd705e8f897","name":"Movie","pluralName":"Movies","shortName":"Movie","icon":{"prefix":"https:\/\/ss1.4sqi.net\/img\/categories_v2\/arts_entertainment\/movietheater_","suffix":".png"},"primary":"true"}],"allDay":"true","date":"1391731200","timeZone":"Europe\/London","summary":"3:45pm, 6:30pm, 9:20pm","text":"Ron Woodroof is an electrician and rodeo cowboy with a devil-may-care lifestyle who is blindsided with an H.I.V.-positive diagnosis and given 30 days to live.  He quickly finds a lack of approved medications in the U.S. and crosses the border into Mexico where he learns about alternative treatments and begins smuggling them into the U.S.Ron finds an unlikely ally in fellow AIDS patient Rayon, a transsexual who shares Ron's lust for life and entrepreneurial spirit. They establish a \"buyers club,\" where H.I.V.-positive people pay monthly dues for access to the newly acquired supplies. Deep in the heart of Texas, Ron's pioneering underground collective beats loud and strong as he fights for dignity, education, and acceptance.","images":["https:\/\/playfoursquare.s3.amazonaws.com\/events\/images\/cinemasource\/162378h1.jpg"],"stats":{"checkinsCount":"5","usersCount":"5"},"participants":[{"participant":{"id":"51b692f50b6bb5651d2fee3e","displayName":"Dallas Buyers Club","images":["https:\/\/playfoursquare.s3.amazonaws.com\/events\/images\/cinemasource\/162378h1.jpg","https:\/\/playfoursquare.s3.amazonaws.com\/events\/images\/cinemasource\/162378h2.jpg","https:\/\/playfoursquare.s3.amazonaws.com\/events\/images\/cinemasource\/162378h3.jpg","https:\/\/playfoursquare.s3.amazonaws.com\/events\/images\/cinemasource\/162378h4.jpg","https:\/\/playfoursquare.s3.amazonaws.com\/events\/images\/cinemasource\/162378h5.jpg"],"totalEvents":"0"},"role":"movie"}],"genres":"Drama","rating":"R","runningTime":"117"}]},"hereNow":{"count":"0"},"venuePage":{"id":"70512544"},"referralId":"v-1392477995"},{"id":"4ac518e7f964a5202dab20e3","name":"Story Deli","contact":{"phone":"+447918197352","formattedPhone":"+44 7918 197352"},"location":{"address":"123 Bethnal Green Road","crossStreet":"Brick Lane","lat":"51.52503283156269","lng":"-0.07160425186157227","distance":"117","postalCode":"E2 7DG","cc":"GB","city":"Shoreditch","state":"Greater London","country":"United Kingdom"},"categories":[{"id":"4bf58dd8d48988d1ca941735","name":"Pizza Place","pluralName":"Pizza Places","shortName":"Pizza","icon":{"prefix":"https:\/\/ss1.4sqi.net\/img\/categories_v2\/food\/pizza_","suffix":".png"},"primary":"true"}],"verified":"false","restricted":"true","stats":{"checkinsCount":"756","usersCount":"535","tipCount":"50"},"url":"http:\/\/www.storydeli.com","menu":{"type":"Menu","label":"Menu","anchor":"View Menu","url":"https:\/\/foursquare.com\/v\/story-deli-shoreditch-london\/4ac518e7f964a5202dab20e3\/menu","mobileUrl":"https:\/\/foursquare.com\/v\/4ac518e7f964a5202dab20e3\/device_menu"},"specials":{"count":"0"},"hereNow":{"count":"0"},"referralId":"v-1392477995"},{"id":"4fe1b946e4b00d46bcb48534","name":"Joy","location":{"lat":"51.52400321022231","lng":"-0.0715937419153121","distance":"89","cc":"GB","country":"United Kingdom"},"categories":[{"id":"4bf58dd8d48988d108951735","name":"Women's Store","pluralName":"Women's Stores","shortName":"Women's Store","icon":{"prefix":"https:\/\/ss1.4sqi.net\/img\/categories_v2\/shops\/apparel_women_","suffix":".png"},"primary":"true"}],"verified":"false","restricted":"true","stats":{"checkinsCount":"59","usersCount":"46","tipCount":"0"},"specials":{"count":"0"},"hereNow":{"count":"1","groups":[{"type":"others","name":"Other people here","count":"1"}]},"referralId":"v-1392477995"},{"id":"4ac518e0f964a5201baa20e3","name":"Les Trois Gar\u00e7ons","contact":{"phone":"+442076131924","formattedPhone":"+44 20 7613 1924"},"location":{"address":"1 Club Row","lat":"51.52399149026834","lng":"-0.07415771484375","distance":"99","postalCode":"E1 6JX","cc":"GB","city":"Shoreditch","state":"Greater London","country":"United Kingdom"},"categories":[{"id":"4bf58dd8d48988d10c941735","name":"French Restaurant","pluralName":"French Restaurants","shortName":"French","icon":{"prefix":"https:\/\/ss1.4sqi.net\/img\/categories_v2\/food\/french_","suffix":".png"},"primary":"true"}],"verified":"false","restricted":"true","stats":{"checkinsCount":"715","usersCount":"554","tipCount":"14"},"url":"http:\/\/www.lestroisgarcons.com","reservations":{"url":"http:\/\/www.toptable.co.uk\/single.aspx?rid=21268&ref=9601"},"menu":{"type":"Menu","label":"Menu","anchor":"View Menu","url":"https:\/\/foursquare.com\/v\/les-trois-gar%C3%A7ons\/4ac518e0f964a5201baa20e3\/menu","mobileUrl":"https:\/\/foursquare.com\/v\/4ac518e0f964a5201baa20e3\/device_menu"},"specials":{"count":"0"},"hereNow":{"count":"0"},"referralId":"v-1392477995"},{"id":"4eb6c0a0be7bfc284adba047","name":"Benets of Cambridge","contact":{"phone":"+442034870147","formattedPhone":"+44 20 3487 0147"},"location":{"address":"121 Bethnal Green Rd.","lat":"51.52481","lng":"-0.07181297","distance":"89","postalCode":"E2 7DG","cc":"GB","city":"London","state":"Greater London","country":"United Kingdom"},"categories":[{"id":"4bf58dd8d48988d16d941735","name":"Caf\u00e9","pluralName":"Caf\u00e9s","shortName":"Caf\u00e9","icon":{"prefix":"https:\/\/ss1.4sqi.net\/img\/categories_v2\/food\/cafe_","suffix":".png"},"primary":"true"}],"verified":"false","restricted":"true","stats":{"checkinsCount":"401","usersCount":"330","tipCount":"11"},"specials":{"count":"0"},"hereNow":{"count":"0"},"referralId":"v-1392477995"},{"id":"4ad780ddf964a520860b21e3","name":"Monty's Bar & Lounge","contact":{"phone":"+442087396828","formattedPhone":"+44 20 8739 6828"},"location":{"address":"149 Brick Lane","lat":"51.52425275","lng":"-0.071664","distance":"78","postalCode":"E1 6SB","cc":"GB","city":"London","state":"Greater London","country":"United Kingdom"},"categories":[{"id":"4bf58dd8d48988d116941735","name":"Bar","pluralName":"Bars","shortName":"Bar","icon":{"prefix":"https:\/\/ss1.4sqi.net\/img\/categories_v2\/nightlife\/bar_","suffix":".png"},"primary":"true"}],"verified":"false","restricted":"true","stats":{"checkinsCount":"347","usersCount":"283","tipCount":"8"},"specials":{"count":"0"},"hereNow":{"count":"0"},"referralId":"v-1392477995"},{"id":"4ad5c136f964a5205f0321e3","name":"Wilson Fletcher","location":{"address":"1 Nicholl st","lat":"51.52500844830918","lng":"-0.07300760822483011","distance":"81","postalCode":"E2","cc":"GB","city":"London","state":"Greater London","country":"United Kingdom"},"categories":[{"id":"4bf58dd8d48988d124941735","name":"Office","pluralName":"Offices","shortName":"Office","icon":{"prefix":"https:\/\/ss1.4sqi.net\/img\/categories_v2\/building\/default_","suffix":".png"},"primary":"true"}],"verified":"false","restricted":"true","stats":{"checkinsCount":"187","usersCount":"24","tipCount":"1"},"specials":{"count":"0"},"hereNow":{"count":"0"},"referralId":"v-1392477995"},{"id":"52b0d03011d2a4b329e5aa85","name":"pongathon","location":{"lat":"51.524191","lng":"-0.072827","distance":"11","cc":"GB","country":"United Kingdom"},"categories":[{"id":"4bf58dd8d48988d1f4931735","name":"Racetrack","pluralName":"Racetracks","shortName":"Racetrack","icon":{"prefix":"https:\/\/ss1.4sqi.net\/img\/categories_v2\/arts_entertainment\/racetrack_","suffix":".png"},"primary":"true"}],"verified":"false","restricted":"true","stats":{"checkinsCount":"1","usersCount":"1","tipCount":"0"},"specials":{"count":"0"},"hereNow":{"count":"0"},"referralId":"v-1392477995"},{"id":"505314fce4b0540a7f0ddbaf","name":"Sofarsounds HQ","location":{"address":"Level 3, Rich Mix Foundation, 35 - 47 Bethnal Green Road","lat":"51.5242","lng":"-0.0731","distance":"22","postalCode":"E1 6LA","cc":"GB","city":"Hackney","state":"Greater London","country":"United Kingdom"},"categories":[{"id":"4bf58dd8d48988d124941735","name":"Office","pluralName":"Offices","shortName":"Office","icon":{"prefix":"https:\/\/ss1.4sqi.net\/img\/categories_v2\/building\/default_","suffix":".png"},"primary":"true"}],"verified":"false","restricted":"true","stats":{"checkinsCount":"37","usersCount":"9","tipCount":"0"},"specials":{"count":"0"},"hereNow":{"count":"0"},"referralId":"v-1392477995"},{"id":"4b0ff0fef964a520866623e3","name":"Brick Lane Bikes","location":{"address":"118 Bethnal Green Road","lat":"51.52469585465428","lng":"-0.07209839235833988","distance":"66","postalCode":"E2 6DG","cc":"GB","city":"London","state":"Greater London","country":"United Kingdom"},"categories":[{"id":"4bf58dd8d48988d115951735","name":"Bike Shop","pluralName":"Bike Shops","shortName":"Bike shop","icon":{"prefix":"https:\/\/ss1.4sqi.net\/img\/categories_v2\/shops\/bikeshop_","suffix":".png"},"primary":"true"}],"verified":"false","restricted":"true","stats":{"checkinsCount":"301","usersCount":"209","tipCount":"3"},"specials":{"count":"0"},"hereNow":{"count":"0"},"referralId":"v-1392477995"}],"confident":"true"}}