{"meta":{"code":"200"},"response":{"venues":[{"id":"4acdbaf0f964a520d6cc20e3","name":"Kings Place","contact":{"phone":"+442078414860","formattedPhone":"+44 20 7841 4860","twitter":"kingsplace"},"location":{"address":"90 York Way","lat":"51.53475086862483","lng":"-0.12196540832519531","distance":"77","postalCode":"N1 9AG","cc":"GB","city":"King's Cross","state":"Greater London","country":"United Kingdom"},"categories":[{"id":"4bf58dd8d48988d1e2931735","name":"Art Gallery","pluralName":"Art Galleries","shortName":"Art Gallery","icon":{"prefix":"https:\/\/ss1.4sqi.net\/img\/categories_v2\/arts_entertainment\/artgallery_","suffix":".png"},"primary":"true"}],"verified":"true","restricted":"true","stats":{"checkinsCount":"3677","usersCount":"1910","tipCount":"21"},"specials":{"count":"0"},"events":{"count":"2","summary":"2 shows"},"hereNow":{"count":"0"},"referralId":"v-1392477964"},{"id":"4acf22e9f964a5207fd220e3","name":"The Guardian","contact":{"twitter":"guardiannews"},"location":{"address":"90 York Way","lat":"51.53469747848435","lng":"-0.12194395065307617","distance":"74","postalCode":"N1 9GU","cc":"GB","city":"Islington","state":"Greater London","country":"United Kingdom"},"categories":[{"id":"4bf58dd8d48988d124941735","name":"Office","pluralName":"Offices","shortName":"Office","icon":{"prefix":"https:\/\/ss1.4sqi.net\/img\/categories_v2\/building\/default_","suffix":".png"},"primary":"true"}],"verified":"false","restricted":"true","stats":{"checkinsCount":"4698","usersCount":"1717","tipCount":"20"},"specials":{"count":"0"},"hereNow":{"count":"0"},"referralId":"v-1392477964"},{"id":"4ae7271ff964a520e8a821e3","name":"Central St. Martins College","location":{"address":"1 Granary Square","lat":"51.5349777760233","lng":"-0.1247549057006836","distance":"155","postalCode":"N1C 4AA\ufeff","cc":"GB","city":"London","state":"Greater London","country":"United Kingdom"},"categories":[{"id":"4bf58dd8d48988d1ae941735","name":"University","pluralName":"Universities","shortName":"University","icon":{"prefix":"https:\/\/ss1.4sqi.net\/img\/categories_v2\/education\/default_","suffix":".png"},"primary":"true"}],"verified":"false","restricted":"true","stats":{"checkinsCount":"1187","usersCount":"438","tipCount":"10"},"specials":{"count":"0"},"hereNow":{"count":"0"},"referralId":"v-1392477964"},{"id":"4c14d97ca1010f4758004d18","name":"TfL Bus 390","contact":{"phone":"+443432221234","formattedPhone":"+44 343 222 1234","twitter":"tflbuslerts"},"location":{"address":"Moving Target!","lat":"51.512122849144006","lng":"-0.1720217404525349","distance":"4208","cc":"GB","city":"London","state":"Greater London","country":"United Kingdom"},"categories":[{"id":"4bf58dd8d48988d12b951735","name":"Bus Line","pluralName":"Bus Lines","shortName":"Bus","icon":{"prefix":"https:\/\/ss1.4sqi.net\/img\/categories_v2\/travel\/busstation_","suffix":".png"},"primary":"true"}],"verified":"false","restricted":"true","stats":{"checkinsCount":"837","usersCount":"219","tipCount":"5"},"url":"http:\/\/tfl.gov.uk","specials":{"count":"0"},"hereNow":{"count":"0"},"referralId":"v-1392477964"},{"id":"4c6c284765eda09341224bd0","name":"Platform 9","location":{"address":"King's Cross Station (KGX)","lat":"51.53306904911656","lng":"-0.12400388717651367","distance":"159","postalCode":"N1 9AP","cc":"GB","city":"London","state":"Greater London","country":"United Kingdom"},"categories":[{"id":"4f4531504b9074f6e4fb0102","name":"Platform","pluralName":"Platforms","shortName":"Platform","icon":{"prefix":"https:\/\/ss1.4sqi.net\/img\/categories_v2\/travel\/trainstation_","suffix":".png"},"primary":"true"}],"verified":"false","restricted":"true","stats":{"checkinsCount":"2858","usersCount":"832","tipCount":"5"},"specials":{"count":"0"},"hereNow":{"count":"0"},"referralId":"v-1392477964"},{"id":"4d2ad476888af04dacdbdaaf","name":"CGI Offices - Kings Place","location":{"address":"90 York Way","lat":"51.53490848384468","lng":"-0.12239731096406435","distance":"74","postalCode":"N1 9AG","cc":"GB","city":"London","state":"Greater London","country":"United Kingdom"},"categories":[{"id":"4bf58dd8d48988d124941735","name":"Office","pluralName":"Offices","shortName":"Office","icon":{"prefix":"https:\/\/ss1.4sqi.net\/img\/categories_v2\/building\/default_","suffix":".png"},"primary":"true"}],"verified":"false","restricted":"true","stats":{"checkinsCount":"336","usersCount":"45","tipCount":"1"},"specials":{"count":"0"},"hereNow":{"count":"0"},"referralId":"v-1392477964"},{"id":"4afa9c79f964a520271822e3","name":"Green & Fortune","contact":{"phone":"+442070142840","formattedPhone":"+44 20 7014 2840"},"location":{"address":"Kings Place","crossStreet":"York Way","lat":"51.53492842750377","lng":"-0.12193180272575288","distance":"93","postalCode":"N1","cc":"GB","city":"London","state":"Greater London","country":"United Kingdom"},"categories":[{"id":"4bf58dd8d48988d16d941735","name":"Caf\u00e9","pluralName":"Caf\u00e9s","shortName":"Caf\u00e9","icon":{"prefix":"https:\/\/ss1.4sqi.net\/img\/categories_v2\/food\/cafe_","suffix":".png"},"primary":"true"}],"verified":"false","restricted":"true","stats":{"checkinsCount":"266","usersCount":"84","tipCount":"3"},"specials":{"count":"0"},"hereNow":{"count":"0"},"referralId":"v-1392477964"},{"id":"4e8c37c37bebcada8da23b27","name":"KERB KX","contact":{"twitter":"kerb_"},"location":{"address":"King's Blvd","crossStreet":"at Goods Way","lat":"51.534483917296136","lng":"-0.12415409088134766","distance":"96","postalCode":"N1 9AP","cc":"GB","city":"King's Cross","state":"Greater London","country":"United Kingdom"},"categories":[{"id":"4bf58dd8d48988d1cb941735","name":"Food Truck","pluralName":"Food Trucks","shortName":"Food Truck","icon":{"prefix":"https:\/\/ss1.4sqi.net\/img\/categories_v2\/food\/streetfood_","suffix":".png"},"primary":"true"}],"verified":"false","restricted":"true","stats":{"checkinsCount":"1702","usersCount":"585","tipCount":"17"},"specials":{"count":"0"},"hereNow":{"count":"0"},"referralId":"v-1392477964"},{"id":"4acdaffaf964a520accc20e3","name":"Nature Publishing Group","location":{"address":"4-6 Crinan St","lat":"51.533887204944435","lng":"-0.1214464242689335","distance":"104","postalCode":"N1 9XW","cc":"GB","city":"London","state":"Greater London","country":"United Kingdom"},"categories":[{"id":"4bf58dd8d48988d124941735","name":"Office","pluralName":"Offices","shortName":"Office","icon":{"prefix":"https:\/\/ss1.4sqi.net\/img\/categories_v2\/building\/default_","suffix":".png"},"primary":"true"}],"verified":"false","restricted":"true","stats":{"checkinsCount":"2137","usersCount":"92","tipCount":"2"},"specials":{"count":"0"},"hereNow":{"count":"0"},"referralId":"v-1392477964"},{"id":"4e550500091a4fa585f13c9c","name":"Pret A Manger","contact":{"phone":"+442079325452","formattedPhone":"+44 20 7932 5452","twitter":"pret","facebook":"162638680417951"},"location":{"address":"54-60 York Way","lat":"51.5334518416","lng":"-0.122157178187","distance":"103","postalCode":"N1 9AB","cc":"GB","city":"King's Cross","state":"Greater London","country":"United Kingdom"},"categories":[{"id":"4bf58dd8d48988d1c5941735","name":"Sandwich Place","pluralName":"Sandwich Places","shortName":"Sandwiches","icon":{"prefix":"https:\/\/ss1.4sqi.net\/img\/categories_v2\/food\/sandwiches_","suffix":".png"},"primary":"true"}],"verified":"true","restricted":"true","stats":{"checkinsCount":"1025","usersCount":"320","tipCount":"3"},"url":"http:\/\/www.pret.com","specials":{"count":"0"},"hereNow":{"count":"0"},"storeId":"283","referralId":"v-1392477964"},{"id":"52b87016498ea5d381593419","name":"17.19 KGX - HELL","location":{"address":"Kings Crosa","lat":"51.5335","lng":"-0.12272","distance":"88","postalCode":"N1","cc":"GB","city":"London","state":"Greater London","country":"United Kingdom"},"categories":[{"id":"4f2a23984b9023bd5841ed2c","name":"Moving Target","pluralName":"Moving Targets","shortName":"Moving Target","icon":{"prefix":"https:\/\/ss1.4sqi.net\/img\/categories_v2\/travel\/movingtarget_","suffix":".png"},"primary":"true"}],"verified":"false","restricted":"true","stats":{"checkinsCount":"18","usersCount":"1","tipCount":"0"},"specials":{"count":"0"},"hereNow":{"count":"0"},"referralId":"v-1392477964"},{"id":"4ac518c8f964a5207fa520e3","name":"Central Station","location":{"address":"37 Wharfdale Rd","lat":"51.53341510997013","lng":"-0.12081702769195864","distance":"168","postalCode":"N1 9SD","cc":"GB","city":"London","state":"Greater London","country":"United Kingdom"},"categories":[{"id":"4bf58dd8d48988d1d8941735","name":"Gay Bar","pluralName":"Gay Bars","shortName":"Gay Bar","icon":{"prefix":"https:\/\/ss1.4sqi.net\/img\/categories_v2\/nightlife\/gaybar_","suffix":".png"},"primary":"true"}],"verified":"false","restricted":"true","stats":{"checkinsCount":"473","usersCount":"208","tipCount":"6"},"url":"http:\/\/www.centralstation.co.uk","reservations":{"url":"http:\/\/www.toptable.co.uk\/single.aspx?rid=73759&ref=9601"},"menu":{"type":"Menu","label":"Menu","anchor":"View Menu","url":"https:\/\/foursquare.com\/v\/central-station\/4ac518c8f964a5207fa520e3\/menu","mobileUrl":"https:\/\/foursquare.com\/v\/4ac518c8f964a5207fa520e3\/device_menu"},"specials":{"count":"0"},"hereNow":{"count":"1","groups":[{"type":"others","name":"Other people here","count":"1"}]},"referralId":"v-1392477964"},{"id":"52de50fd498ef4963d71b004","name":"Apple Learning Summit - London","location":{"lat":"51.53499","lng":"-0.122073","distance":"92","cc":"GB","city":"London","state":"Greater London","country":"United Kingdom"},"categories":[{"id":"5267e4d9e4b0ec79466e48c6","name":"Conference","pluralName":"Conferences","shortName":"Conference","icon":{"prefix":"https:\/\/ss1.4sqi.net\/img\/categories_v2\/event\/default_","suffix":".png"},"primary":"true"}],"verified":"false","restricted":"true","stats":{"checkinsCount":"20","usersCount":"16","tipCount":"0"},"specials":{"count":"0"},"hereNow":{"count":"0"},"referralId":"v-1392477964"},{"id":"4fb90471e4b0351657243733","name":"Shrimpy's","contact":{"phone":"+442088806111","formattedPhone":"+44 20 8880 6111","twitter":"shrimpyloves"},"location":{"address":"Goods Way","lat":"51.53517967340795","lng":"-0.12281836818159308","distance":"99","postalCode":"N1C 4UR","cc":"GB","city":"King's Cross","state":"Greater London","country":"United Kingdom"},"categories":[{"id":"4bf58dd8d48988d1be941735","name":"Latin American Restaurant","pluralName":"Latin American Restaurants","shortName":"Latin American","icon":{"prefix":"https:\/\/ss1.4sqi.net\/img\/categories_v2\/food\/latinamerican_","suffix":".png"},"primary":"true"}],"verified":"false","restricted":"true","stats":{"checkinsCount":"623","usersCount":"527","tipCount":"26"},"url":"http:\/\/shrimpys.co.uk","reservations":{"url":"http:\/\/www.toptable.co.uk\/single.aspx?rid=85576&ref=9601"},"menu":{"type":"Menu","label":"Menu","anchor":"View Menu","url":"https:\/\/foursquare.com\/v\/shrimpys\/4fb90471e4b0351657243733\/menu","mobileUrl":"https:\/\/foursquare.com\/v\/4fb90471e4b0351657243733\/device_menu"},"specials":{"count":"0"},"hereNow":{"count":"0"},"referralId":"v-1392477964"},{"id":"4d484d8b551db1f7b5a6a130","name":"Rotunda","contact":{"phone":"+442070142840","formattedPhone":"+44 20 7014 2840"},"location":{"address":"Kings Place, 90 York Way","lat":"51.535017818387956","lng":"-0.12123584747314453","distance":"135","postalCode":"N1 9AG","cc":"GB","city":"King's Cross","state":"Greater London","country":"United Kingdom"},"categories":[{"id":"4bf58dd8d48988d116941735","name":"Bar","pluralName":"Bars","shortName":"Bar","icon":{"prefix":"https:\/\/ss1.4sqi.net\/img\/categories_v2\/nightlife\/bar_","suffix":".png"},"primary":"true"}],"verified":"true","restricted":"true","stats":{"checkinsCount":"728","usersCount":"480","tipCount":"6"},"specials":{"count":"0"},"hereNow":{"count":"0"},"storeId":"","referralId":"v-1392477964"},{"id":"4c2f862aa0ced13a78b1106e","name":"King's Cross Filling Station","contact":{"twitter":"thekxfs"},"location":{"address":"Goods Way","lat":"51.535148511006426","lng":"-0.12271511489335588","distance":"95","postalCode":"N1C 4UR","cc":"GB","city":"King's Cross","state":"Greater London","country":"United Kingdom"},"categories":[{"id":"4bf58dd8d48988d116941735","name":"Bar","pluralName":"Bars","shortName":"Bar","icon":{"prefix":"https:\/\/ss1.4sqi.net\/img\/categories_v2\/nightlife\/bar_","suffix":".png"},"primary":"true"}],"verified":"false","restricted":"true","stats":{"checkinsCount":"390","usersCount":"324","tipCount":"2"},"url":"http:\/\/kxfs.co.uk","menu":{"type":"Menu","label":"Menu","anchor":"View Menu","url":"https:\/\/foursquare.com\/v\/kings-cross-filling-station-kings-cross-greater-london\/4c2f862aa0ced13a78b1106e\/menu","mobileUrl":"https:\/\/foursquare.com\/v\/4c2f862aa0ced13a78b1106e\/device_menu"},"specials":{"count":"0"},"hereNow":{"count":"0"},"referralId":"v-1392477964"},{"id":"4eb3e8c1991165b761badc79","name":"13.30 London to Newcastle","location":{"lat":"51.534594446849155","lng":"-0.12326647102131849","distance":"46","cc":"GB","city":"London","state":"Greater London","country":"United Kingdom"},"verified":"false","restricted":"true","stats":{"checkinsCount":"4","usersCount":"3","tipCount":"0"},"specials":{"count":"0"},"hereNow":{"count":"0"},"referralId":"v-1392477964"},{"id":"4beaff0c415e20a172bfe5bb","name":"Regents Canal","location":{"lat":"51.53522711363208","lng":"-0.12131254256228782","distance":"146","cc":"GB","country":"United Kingdom"},"categories":[{"id":"4bf58dd8d48988d162941735","name":"Other Great Outdoors","pluralName":"Other Great Outdoors","shortName":"Other Outdoors","icon":{"prefix":"https:\/\/ss1.4sqi.net\/img\/categories_v2\/parks_outdoors\/outdoors_","suffix":".png"},"primary":"true"}],"verified":"false","restricted":"true","stats":{"checkinsCount":"278","usersCount":"137","tipCount":"1"},"specials":{"count":"0"},"hereNow":{"count":"0"},"referralId":"v-1392477964"},{"id":"4ad05c9ff964a520e3d720e3","name":"Lincoln Lounge","location":{"address":"52 York Way","lat":"51.53319268077416","lng":"-0.12237994117627139","distance":"125","postalCode":"N1 9AB","cc":"GB","city":"King's Cross","state":"Greater London","country":"United Kingdom"},"categories":[{"id":"4bf58dd8d48988d11b941735","name":"Pub","pluralName":"Pubs","shortName":"Pub","icon":{"prefix":"https:\/\/ss1.4sqi.net\/img\/categories_v2\/nightlife\/pub_","suffix":".png"},"primary":"true"}],"verified":"false","restricted":"true","stats":{"checkinsCount":"1061","usersCount":"293","tipCount":"11"},"specials":{"count":"0"},"hereNow":{"count":"0"},"referralId":"v-1392477964"},{"id":"4e4cf2c622717c65aca237f9","name":"Kings Place - Welcome Desk","location":{"address":"90 York Way","lat":"51.534944510418","lng":"-0.12190329627367363","distance":"95","postalCode":"N1 9AG","cc":"GB","city":"Islington","state":"Greater London","country":"United Kingdom"},"categories":[{"id":"4bf58dd8d48988d171941735","name":"Event Space","pluralName":"Event Spaces","shortName":"Event Space","icon":{"prefix":"https:\/\/ss1.4sqi.net\/img\/categories_v2\/building\/eventspace_","suffix":".png"},"primary":"true"}],"verified":"true","restricted":"true","stats":{"checkinsCount":"149","usersCount":"77","tipCount":"0"},"specials":{"count":"0"},"hereNow":{"count":"0"},"referralId":"v-1392477964"},{"id":"4bb07a0ef964a52059473ce3","name":"American Carwash Company","contact":{"twitter":"acw_valet"},"location":{"address":"York Way","lat":"51.533952874893515","lng":"-0.12208957264187413","distance":"61","cc":"GB","city":"King's Cross","state":"Greater London","country":"United Kingdom"},"categories":[{"id":"4bf58dd8d48988d130941735","name":"Building","pluralName":"Buildings","shortName":"Building","icon":{"prefix":"https:\/\/ss1.4sqi.net\/img\/categories_v2\/building\/default_","suffix":".png"},"primary":"true"}],"verified":"true","restricted":"true","stats":{"checkinsCount":"36","usersCount":"17","tipCount":"1"},"url":"https:\/\/www.facebook.com\/pages\/American-Car-Wash-In-Kings-Cross\/232674003413348","specials":{"count":"0"},"hereNow":{"count":"0"},"venuePage":{"id":"71387946"},"referralId":"v-1392477964"},{"id":"50c8510be4b0c8e85b4e9cd3","name":"Most Contagious","location":{"lat":"51.5349748075171","lng":"-0.12200668237787474","distance":"94","cc":"GB","country":"United Kingdom"},"categories":[{"id":"4bf58dd8d48988d171941735","name":"Event Space","pluralName":"Event Spaces","shortName":"Event Space","icon":{"prefix":"https:\/\/ss1.4sqi.net\/img\/categories_v2\/building\/eventspace_","suffix":".png"},"primary":"true"}],"verified":"false","restricted":"true","stats":{"checkinsCount":"21","usersCount":"18","tipCount":"0"},"specials":{"count":"0"},"hereNow":{"count":"0"},"referralId":"v-1392477964"},{"id":"4fbe85dbe4b02646e948d161","name":"TFL Barclays Cycle Hire","location":{"address":"Crinan Street","lat":"51.534409781293085","lng":"-0.12264225486031646","distance":"17","cc":"GB","country":"United Kingdom"},"categories":[{"id":"4e4c9077bd41f78e849722f9","name":"Bike Rental \/ Bike Share","pluralName":"Bike Rentals \/ Bike Shares","shortName":"Bike","icon":{"prefix":"https:\/\/ss1.4sqi.net\/img\/categories_v2\/shops\/bikeshop_","suffix":".png"},"primary":"true"}],"verified":"false","restricted":"true","stats":{"checkinsCount":"6","usersCount":"4","tipCount":"0"},"specials":{"count":"0"},"hereNow":{"count":"0"},"referralId":"v-1392477964"},{"id":"521353c311d2bf5cc1484b27","name":"Kimchinary","location":{"lat":"51.53452","lng":"-0.12448","distance":"118","cc":"GB","country":"United Kingdom"},"categories":[{"id":"4bf58dd8d48988d153941735","name":"Burrito Place","pluralName":"Burrito Places","shortName":"Burritos","icon":{"prefix":"https:\/\/ss1.4sqi.net\/img\/categories_v2\/food\/burrito_","suffix":".png"},"primary":"true"}],"verified":"false","restricted":"true","stats":{"checkinsCount":"6","usersCount":"5","tipCount":"1"},"specials":{"count":"0"},"hereNow":{"count":"0"},"referralId":"v-1392477964"},{"id":"528a554c11d2c89b167af3bf","name":"King's Cross (KGX) to Welwyn Garden City (WGC) Train","location":{"lat":"51.5347900390625","lng":"-0.12267539650201797","distance":"56","cc":"GB","country":"United Kingdom"},"categories":[{"id":"4f2a23984b9023bd5841ed2c","name":"Moving Target","pluralName":"Moving Targets","shortName":"Moving Target","icon":{"prefix":"https:\/\/ss1.4sqi.net\/img\/categories_v2\/travel\/movingtarget_","suffix":".png"},"primary":"true"}],"verified":"false","restricted":"true","stats":{"checkinsCount":"1","usersCount":"1","tipCount":"0"},"specials":{"count":"0"},"hereNow":{"count":"0"},"referralId":"v-1392477964"},{"id":"51850714498e42f64c58aeae","name":"La Pain Quotidien, Covent Garden","location":{"lat":"51.53419590713067","lng":"-0.1222671005132689","distance":"38","cc":"GB","country":"United Kingdom"},"categories":[{"id":"4bf58dd8d48988d10c941735","name":"French Restaurant","pluralName":"French Restaurants","shortName":"French","icon":{"prefix":"https:\/\/ss1.4sqi.net\/img\/categories_v2\/food\/french_","suffix":".png"},"primary":"true"}],"verified":"false","restricted":"true","stats":{"checkinsCount":"3","usersCount":"3","tipCount":"0"},"specials":{"count":"0"},"hereNow":{"count":"0"},"referralId":"v-1392477964"},{"id":"51bb3a25498ebeb35b1fbb00","name":"Kings Cross Development","location":{"lat":"51.534569","lng":"-0.124833","distance":"143","cc":"GB","country":"United Kingdom"},"categories":[{"id":"4bf58dd8d48988d130941735","name":"Building","pluralName":"Buildings","shortName":"Building","icon":{"prefix":"https:\/\/ss1.4sqi.net\/img\/categories_v2\/building\/default_","suffix":".png"},"primary":"true"}],"verified":"false","restricted":"true","stats":{"checkinsCount":"56","usersCount":"29","tipCount":"0"},"specials":{"count":"0"},"hereNow":{"count":"0"},"referralId":"v-1392477964"},{"id":"50337c18e4b0a39927e5f6be","name":"11b","location":{"lat":"51.5344140654515","lng":"-0.1230386043547432","distance":"21","cc":"GB","country":"United Kingdom"},"categories":[{"id":"4f4531504b9074f6e4fb0102","name":"Platform","pluralName":"Platforms","shortName":"Platform","icon":{"prefix":"https:\/\/ss1.4sqi.net\/img\/categories_v2\/travel\/trainstation_","suffix":".png"},"primary":"true"}],"verified":"false","restricted":"true","stats":{"checkinsCount":"3","usersCount":"3","tipCount":"0"},"specials":{"count":"0"},"hereNow":{"count":"0"},"referralId":"v-1392477964"},{"id":"4c73c1537121a1cd65e265d1","name":"Orchestra of the Age of Enlightenment","location":{"lat":"51.535029","lng":"-0.121914","distance":"102","cc":"GB","country":"United Kingdom"},"categories":[{"id":"4bf58dd8d48988d124941735","name":"Office","pluralName":"Offices","shortName":"Office","icon":{"prefix":"https:\/\/ss1.4sqi.net\/img\/categories_v2\/building\/default_","suffix":".png"},"primary":"true"}],"verified":"false","restricted":"true","stats":{"checkinsCount":"59","usersCount":"8","tipCount":"0"},"specials":{"count":"0"},"hereNow":{"count":"0"},"referralId":"v-1392477964"},{"id":"4c3ef05a1ef0d13ad8ec9280","name":"Macmillan Publishers Ltd.","location":{"address":"Crinan Street","lat":"51.53390773781685","lng":"-0.12119163995674267","distance":"119","cc":"GB","city":"Islington","state":"Greater London","country":"United Kingdom"},"categories":[{"id":"4bf58dd8d48988d124941735","name":"Office","pluralName":"Offices","shortName":"Office","icon":{"prefix":"https:\/\/ss1.4sqi.net\/img\/categories_v2\/building\/default_","suffix":".png"},"primary":"true"}],"verified":"false","restricted":"true","stats":{"checkinsCount":"96","usersCount":"52","tipCount":"1"},"specials":{"count":"0"},"hereNow":{"count":"0"},"referralId":"v-1392477964"}],"confident":"false"}}