{"meta":{"code":"200"},"response":{"venues":[{"id":"4c46d0e331e41b8d44cb4a35","name":"Istituto Marangoni","contact":{"phone":"+442073779347","formattedPhone":"+44 20 7377 9347","twitter":"marangonischool"},"location":{"address":"30 Fashion St","lat":"51.5182707","lng":"-0.072643","distance":"113","postalCode":"E1 6PX","cc":"GB","city":"Shoreditch","state":"Greater London","country":"United Kingdom"},"categories":[{"id":"4bf58dd8d48988d1ae941735","name":"University","pluralName":"Universities","shortName":"University","icon":{"prefix":"https:\/\/ss1.4sqi.net\/img\/categories_v2\/education\/default_","suffix":".png"},"primary":"true"}],"verified":"false","restricted":"true","stats":{"checkinsCount":"2657","usersCount":"191","tipCount":"0"},"url":"http:\/\/www.istitutomarangoni.co.uk","specials":{"count":"0"},"hereNow":{"count":"0"},"referralId":"v-1392478008"},{"id":"4acdfc6ef964a520c5cd20e3","name":"Acknowledgement","contact":{"phone":"+442076556555","formattedPhone":"+44 20 7655 6555"},"location":{"address":"11-29 Fashion Street","lat":"51.51844727171587","lng":"-0.07347278588464454","distance":"104","postalCode":"E1 6PX","cc":"GB","city":"London","state":"Greater London","country":"United Kingdom"},"categories":[{"id":"4bf58dd8d48988d124941735","name":"Office","pluralName":"Offices","shortName":"Office","icon":{"prefix":"https:\/\/ss1.4sqi.net\/img\/categories_v2\/building\/default_","suffix":".png"},"primary":"true"}],"verified":"true","restricted":"true","stats":{"checkinsCount":"3425","usersCount":"59","tipCount":"0"},"url":"http:\/\/www.acknowledgement.co.uk","specials":{"count":"0"},"hereNow":{"count":"0"},"venuePage":{"id":"40820680"},"storeId":"","referralId":"v-1392478008"},{"id":"4d4ac6865129a35d573a47ac","name":"Pepe's Piri Piri","location":{"address":"82-84 Brick Ln","crossStreet":"at Fournier St","lat":"51.51919254180488","lng":"-0.07173049837728984","distance":"75","postalCode":"E1 6RL","cc":"GB","city":"London","state":"Greater London","country":"United Kingdom"},"categories":[{"id":"4d4ae6fc7a7b7dea34424761","name":"Fried Chicken Joint","pluralName":"Fried Chicken Joints","shortName":"Fried Chicken","icon":{"prefix":"https:\/\/ss1.4sqi.net\/img\/categories_v2\/food\/friedchicken_","suffix":".png"},"primary":"true"}],"verified":"false","restricted":"true","stats":{"checkinsCount":"136","usersCount":"64","tipCount":"4"},"specials":{"count":"0"},"hereNow":{"count":"0"},"referralId":"v-1392478008"},{"id":"4c45f36c342c1b8dd12bb589","name":"The Coffee Cup","location":{"address":"Christ Church, Commercial Street","crossStreet":"Fournier Street","lat":"51.519003","lng":"-0.074429","distance":"117","postalCode":"E1 6LY","cc":"GB","city":"London","state":"Greater London","country":"United Kingdom"},"categories":[{"id":"4bf58dd8d48988d1e0931735","name":"Coffee Shop","pluralName":"Coffee Shops","shortName":"Coffee Shop","icon":{"prefix":"https:\/\/ss1.4sqi.net\/img\/categories_v2\/food\/coffeeshop_","suffix":".png"},"primary":"true"}],"verified":"false","restricted":"true","stats":{"checkinsCount":"266","usersCount":"57","tipCount":"1"},"specials":{"count":"0"},"hereNow":{"count":"1","groups":[{"type":"others","name":"Other people here","count":"1"}]},"referralId":"v-1392478008"},{"id":"4ccdceebaa25a35dd5401d0f","name":"Brick Lane Brasserie","contact":{"phone":"+442073778072","formattedPhone":"+44 20 7377 8072"},"location":{"address":"67 Brick Ln.","lat":"51.51989932235304","lng":"-0.07196903228759766","distance":"89","postalCode":"E1 6QL","cc":"GB","city":"Shoreditch","state":"Greater London","country":"United Kingdom"},"categories":[{"id":"4bf58dd8d48988d10f941735","name":"Indian Restaurant","pluralName":"Indian Restaurants","shortName":"Indian","icon":{"prefix":"https:\/\/ss1.4sqi.net\/img\/categories_v2\/food\/indian_","suffix":".png"},"primary":"true"}],"verified":"false","restricted":"true","stats":{"checkinsCount":"283","usersCount":"245","tipCount":"8"},"url":"http:\/\/www.bricklanebrasserie.com","menu":{"type":"Menu","label":"Menu","anchor":"View Menu","url":"https:\/\/foursquare.com\/v\/brick-lane-brasserie\/4ccdceebaa25a35dd5401d0f\/menu","mobileUrl":"https:\/\/foursquare.com\/v\/4ccdceebaa25a35dd5401d0f\/device_menu"},"specials":{"count":"0"},"hereNow":{"count":"0"},"referralId":"v-1392478008"},{"id":"4f78544de4b015b23ddca1ff","name":"Christ Church Gardens","location":{"lat":"51.518939","lng":"-0.074216","distance":"105","cc":"GB","country":"United Kingdom"},"categories":[{"id":"4bf58dd8d48988d15a941735","name":"Garden","pluralName":"Gardens","shortName":"Garden","icon":{"prefix":"https:\/\/ss1.4sqi.net\/img\/categories_v2\/parks_outdoors\/garden_","suffix":".png"},"primary":"true"}],"verified":"false","restricted":"true","stats":{"checkinsCount":"123","usersCount":"19","tipCount":"1"},"specials":{"count":"0"},"hereNow":{"count":"0"},"referralId":"v-1392478008"},{"id":"4b2aa3e9f964a520caac24e3","name":"Monsoon","contact":{"phone":"+442073751567","formattedPhone":"+44 20 7375 1567"},"location":{"address":"78 Brick Ln.","lat":"51.519065","lng":"-0.071718","distance":"79","postalCode":"E1 6RL","cc":"GB","city":"London","state":"Greater London","country":"United Kingdom"},"categories":[{"id":"4bf58dd8d48988d10f941735","name":"Indian Restaurant","pluralName":"Indian Restaurants","shortName":"Indian","icon":{"prefix":"https:\/\/ss1.4sqi.net\/img\/categories_v2\/food\/indian_","suffix":".png"},"primary":"true"}],"verified":"false","restricted":"true","stats":{"checkinsCount":"315","usersCount":"275","tipCount":"10"},"specials":{"count":"0"},"hereNow":{"count":"0"},"referralId":"v-1392478008"},{"id":"4ac518d2f964a52014a720e3","name":"Christ Church","contact":{"phone":"+442073772440","formattedPhone":"+44 20 7377 2440"},"location":{"address":"Commercial St.","lat":"51.518917948465955","lng":"-0.07402896881103516","distance":"94","postalCode":"E1 6LY","cc":"GB","city":"Spitalfields","state":"Greater London","country":"United Kingdom"},"categories":[{"id":"4bf58dd8d48988d132941735","name":"Church","pluralName":"Churches","shortName":"Church","icon":{"prefix":"https:\/\/ss1.4sqi.net\/img\/categories_v2\/building\/religious_church_","suffix":".png"},"primary":"true"}],"verified":"false","restricted":"true","stats":{"checkinsCount":"344","usersCount":"243","tipCount":"5"},"specials":{"count":"0"},"hereNow":{"count":"0"},"referralId":"v-1392478008"},{"id":"4b65edd4f964a520fa082be3","name":"Strada","contact":{"phone":"+442072474117","formattedPhone":"+44 20 7247 4117","twitter":"stradatweet"},"location":{"address":"88-90 Commercial St.","lat":"51.51961225598922","lng":"-0.0742650032043457","distance":"107","postalCode":"E1 6LY","cc":"GB","city":"Spitalfields","state":"Greater London","country":"United Kingdom"},"categories":[{"id":"4bf58dd8d48988d110941735","name":"Italian Restaurant","pluralName":"Italian Restaurants","shortName":"Italian","icon":{"prefix":"https:\/\/ss1.4sqi.net\/img\/categories_v2\/food\/italian_","suffix":".png"},"primary":"true"}],"verified":"true","restricted":"true","stats":{"checkinsCount":"454","usersCount":"363","tipCount":"9"},"url":"http:\/\/www.strada.co.uk","specials":{"count":"0"},"hereNow":{"count":"0"},"referralId":"v-1392478008"},{"id":"4cba0995bac9370427e1e87c","name":"Muhib Indian Restaurant","contact":{"phone":"+442072477122","formattedPhone":"+44 20 7247 7122"},"location":{"address":"73 Brick Lane","crossStreet":"Greater London","lat":"51.520066","lng":"-0.071826","distance":"109","postalCode":"E16RL","cc":"GB","city":"London","state":"Greater London","country":"United Kingdom"},"categories":[{"id":"4bf58dd8d48988d10f941735","name":"Indian Restaurant","pluralName":"Indian Restaurants","shortName":"Indian","icon":{"prefix":"https:\/\/ss1.4sqi.net\/img\/categories_v2\/food\/indian_","suffix":".png"},"primary":"true"}],"verified":"false","restricted":"true","stats":{"checkinsCount":"255","usersCount":"209","tipCount":"6"},"reservations":{"url":"http:\/\/www.toptable.co.uk\/single.aspx?rid=87775&ref=9601"},"specials":{"count":"0"},"hereNow":{"count":"0"},"referralId":"v-1392478008"},{"id":"4b896da4f964a520563532e3","name":"Brick Lane Clipper","contact":{"phone":"+442073770022","formattedPhone":"+44 20 7377 0022"},"location":{"address":"104 Brick Ln.","lat":"51.51972652589837","lng":"-0.07178330628774666","distance":"85","postalCode":"E1 6RL","cc":"GB","city":"London","state":"Greater London","country":"United Kingdom"},"categories":[{"id":"4bf58dd8d48988d10f941735","name":"Indian Restaurant","pluralName":"Indian Restaurants","shortName":"Indian","icon":{"prefix":"https:\/\/ss1.4sqi.net\/img\/categories_v2\/food\/indian_","suffix":".png"},"primary":"true"}],"verified":"false","restricted":"true","stats":{"checkinsCount":"131","usersCount":"116","tipCount":"5"},"url":"http:\/\/www.bricklaneclipper.com","menu":{"type":"Menu","label":"Menu","anchor":"View Menu","url":"https:\/\/foursquare.com\/v\/brick-lane-clipper\/4b896da4f964a520563532e3\/menu","mobileUrl":"https:\/\/foursquare.com\/v\/4b896da4f964a520563532e3\/device_menu"},"specials":{"count":"0"},"hereNow":{"count":"0"},"referralId":"v-1392478008"},{"id":"4ade15e3f964a520017321e3","name":"Standard Balti House","contact":{"phone":"+442072475855","formattedPhone":"+44 20 7247 5855"},"location":{"address":"71 Brick Lane","lat":"51.519992","lng":"-0.071865","distance":"101","postalCode":"E1 6QL","cc":"GB","city":"London","state":"Greater London","country":"United Kingdom"},"categories":[{"id":"4bf58dd8d48988d10f941735","name":"Indian Restaurant","pluralName":"Indian Restaurants","shortName":"Indian","icon":{"prefix":"https:\/\/ss1.4sqi.net\/img\/categories_v2\/food\/indian_","suffix":".png"},"primary":"true"}],"verified":"false","restricted":"true","stats":{"checkinsCount":"222","usersCount":"180","tipCount":"4"},"url":"http:\/\/www.standardbaltihouse.co.uk","reservations":{"url":"http:\/\/www.toptable.co.uk\/single.aspx?rid=85177&ref=9601"},"menu":{"type":"Menu","label":"Menu","anchor":"View Menu","url":"https:\/\/foursquare.com\/v\/standard-balti-house\/4ade15e3f964a520017321e3\/menu","mobileUrl":"https:\/\/foursquare.com\/v\/4ade15e3f964a520017321e3\/device_menu"},"specials":{"count":"0"},"hereNow":{"count":"0"},"referralId":"v-1392478008"},{"id":"4b608cb3f964a5201bed29e3","name":"Papadoms","contact":{"phone":"+442073779123","formattedPhone":"+44 20 7377 9123"},"location":{"address":"94 Brick Ln.","lat":"51.51954703506589","lng":"-0.07149032192781901","distance":"95","postalCode":"E1 6RL","cc":"GB","city":"London","state":"Greater London","country":"United Kingdom"},"categories":[{"id":"4bf58dd8d48988d10f941735","name":"Indian Restaurant","pluralName":"Indian Restaurants","shortName":"Indian","icon":{"prefix":"https:\/\/ss1.4sqi.net\/img\/categories_v2\/food\/indian_","suffix":".png"},"primary":"true"}],"verified":"false","restricted":"true","stats":{"checkinsCount":"276","usersCount":"261","tipCount":"9"},"menu":{"type":"Menu","label":"Menu","anchor":"View Menu","url":"https:\/\/foursquare.com\/v\/papadoms\/4b608cb3f964a5201bed29e3\/menu","mobileUrl":"https:\/\/foursquare.com\/v\/4b608cb3f964a5201bed29e3\/device_menu"},"specials":{"count":"0"},"hereNow":{"count":"0"},"referralId":"v-1392478008"},{"id":"4d5920935e7788bf378b849e","name":"Brick Lane Mosque","location":{"address":"59 Brick Lane","lat":"51.519345","lng":"-0.07179282515416009","distance":"70","cc":"GB","city":"London","state":"Greater London","country":"United Kingdom"},"categories":[{"id":"4bf58dd8d48988d138941735","name":"Mosque","pluralName":"Mosques","shortName":"Mosque","icon":{"prefix":"https:\/\/ss1.4sqi.net\/img\/categories_v2\/building\/religious_mosque_","suffix":".png"},"primary":"true"}],"verified":"false","restricted":"true","stats":{"checkinsCount":"133","usersCount":"83","tipCount":"1"},"specials":{"count":"0"},"hereNow":{"count":"0"},"referralId":"v-1392478008"},{"id":"4be461f8d4f7c9b67f122420","name":"Chillies","location":{"address":"Brick Lane","lat":"51.519033552065004","lng":"-0.07165543011449872","distance":"84","postalCode":"E1 6RL","cc":"GB","city":"London","state":"Greater London","country":"United Kingdom"},"categories":[{"id":"4bf58dd8d48988d10f941735","name":"Indian Restaurant","pluralName":"Indian Restaurants","shortName":"Indian","icon":{"prefix":"https:\/\/ss1.4sqi.net\/img\/categories_v2\/food\/indian_","suffix":".png"},"primary":"true"}],"verified":"false","restricted":"true","stats":{"checkinsCount":"111","usersCount":"107","tipCount":"3"},"url":"http:\/\/www.chilliesbricklane.com","reservations":{"url":"http:\/\/www.toptable.co.uk\/single.aspx?rid=96609&ref=9601"},"menu":{"type":"Menu","label":"Menu","anchor":"View Menu","url":"https:\/\/foursquare.com\/v\/chillies\/4be461f8d4f7c9b67f122420\/menu","mobileUrl":"https:\/\/foursquare.com\/v\/4be461f8d4f7c9b67f122420\/device_menu"},"specials":{"count":"0"},"hereNow":{"count":"0"},"referralId":"v-1392478008"},{"id":"4b69d5abf964a52025b72be3","name":"Masala","contact":{"phone":"+442075399448","formattedPhone":"+44 20 7539 9448"},"location":{"address":"88 Brick Lane","lat":"51.519352087616056","lng":"-0.07163928668361112","distance":"80","postalCode":"E1 6RL","cc":"GB","city":"London","state":"Greater London","country":"United Kingdom"},"categories":[{"id":"4bf58dd8d48988d10f941735","name":"Indian Restaurant","pluralName":"Indian Restaurants","shortName":"Indian","icon":{"prefix":"https:\/\/ss1.4sqi.net\/img\/categories_v2\/food\/indian_","suffix":".png"},"primary":"true"}],"verified":"false","restricted":"true","stats":{"checkinsCount":"252","usersCount":"240","tipCount":"7"},"url":"http:\/\/www.masalabricklane.com","reservations":{"url":"http:\/\/www.toptable.co.uk\/single.aspx?rid=86044&ref=9601"},"menu":{"type":"Menu","label":"Menu","anchor":"View Menu","url":"https:\/\/foursquare.com\/v\/masala\/4b69d5abf964a52025b72be3\/menu","mobileUrl":"https:\/\/foursquare.com\/v\/4b69d5abf964a52025b72be3\/device_menu"},"specials":{"count":"0"},"hereNow":{"count":"0"},"referralId":"v-1392478008"},{"id":"4b43ada4f964a5201ae625e3","name":"Eastern Eye Balti House","contact":{"phone":"+442072478643","formattedPhone":"+44 20 7247 8643"},"location":{"address":"63a Brick Ln.","lat":"51.51974","lng":"-0.0718421","distance":"83","postalCode":"E1 6QL","cc":"GB","city":"London","state":"Greater London","country":"United Kingdom"},"categories":[{"id":"4bf58dd8d48988d10f941735","name":"Indian Restaurant","pluralName":"Indian Restaurants","shortName":"Indian","icon":{"prefix":"https:\/\/ss1.4sqi.net\/img\/categories_v2\/food\/indian_","suffix":".png"},"primary":"true"}],"verified":"false","restricted":"true","stats":{"checkinsCount":"147","usersCount":"120","tipCount":"5"},"specials":{"count":"0"},"hereNow":{"count":"0"},"referralId":"v-1392478008"},{"id":"4b4b3737f964a520aa9426e3","name":"Fashion Street","location":{"address":"Fashion Street","lat":"51.518454","lng":"-0.072773","distance":"92","postalCode":"E1","cc":"GB","city":"London","state":"Greater London","country":"United Kingdom"},"categories":[{"id":"4bf58dd8d48988d1e2931735","name":"Art Gallery","pluralName":"Art Galleries","shortName":"Art Gallery","icon":{"prefix":"https:\/\/ss1.4sqi.net\/img\/categories_v2\/arts_entertainment\/artgallery_","suffix":".png"},"primary":"true"}],"verified":"false","restricted":"true","stats":{"checkinsCount":"899","usersCount":"205","tipCount":"3"},"specials":{"count":"0"},"hereNow":{"count":"0"},"referralId":"v-1392478008"},{"id":"4ae814aef964a52011ae21e3","name":"Wieden+Kennedy","location":{"address":"16 Hanbury St.","lat":"51.520202577079296","lng":"-0.07355771814787464","distance":"114","postalCode":"E1 6QR","cc":"GB","city":"Spitalfields","state":"Greater London","country":"United Kingdom"},"categories":[{"id":"4bf58dd8d48988d130941735","name":"Building","pluralName":"Buildings","shortName":"Building","icon":{"prefix":"https:\/\/ss1.4sqi.net\/img\/categories_v2\/building\/default_","suffix":".png"},"primary":"true"}],"verified":"false","restricted":"true","stats":{"checkinsCount":"2602","usersCount":"317","tipCount":"9"},"specials":{"count":"0"},"hereNow":{"count":"0"},"referralId":"v-1392478008"},{"id":"52d15516498e94d944c56f07","name":"Diwana","location":{"lat":"51.51948535870355","lng":"-0.07159914080728763","distance":"86","cc":"GB","country":"United Kingdom"},"categories":[{"id":"4bf58dd8d48988d10f941735","name":"Indian Restaurant","pluralName":"Indian Restaurants","shortName":"Indian","icon":{"prefix":"https:\/\/ss1.4sqi.net\/img\/categories_v2\/food\/indian_","suffix":".png"},"primary":"true"}],"verified":"false","restricted":"true","stats":{"checkinsCount":"4","usersCount":"4","tipCount":"0"},"specials":{"count":"0"},"hereNow":{"count":"0"},"referralId":"v-1392478008"},{"id":"4dbc4a360437955ec02ec7ee","name":"Brasserie House of Spice","location":{"lat":"51.51994213424181","lng":"-0.07178963758384257","distance":"101","cc":"GB","city":"Poplar","state":"Greater London","country":"United Kingdom"},"categories":[{"id":"4bf58dd8d48988d10f941735","name":"Indian Restaurant","pluralName":"Indian Restaurants","shortName":"Indian","icon":{"prefix":"https:\/\/ss1.4sqi.net\/img\/categories_v2\/food\/indian_","suffix":".png"},"primary":"true"}],"verified":"false","restricted":"true","stats":{"checkinsCount":"87","usersCount":"78","tipCount":"3"},"specials":{"count":"0"},"hereNow":{"count":"0"},"referralId":"v-1392478008"},{"id":"4ae1a592f964a520908621e3","name":"Ambala","contact":{"phone":"+442072478569","formattedPhone":"+44 20 7247 8569"},"location":{"address":"55 Brick Lane","crossStreet":"Fournier Street","lat":"51.519125","lng":"-0.0717008113861084","distance":"78","postalCode":"E2","cc":"GB","city":"Banglatown","state":"Greater London","country":"United Kingdom"},"categories":[{"id":"4bf58dd8d48988d10f941735","name":"Indian Restaurant","pluralName":"Indian Restaurants","shortName":"Indian","icon":{"prefix":"https:\/\/ss1.4sqi.net\/img\/categories_v2\/food\/indian_","suffix":".png"},"primary":"true"}],"verified":"false","restricted":"true","stats":{"checkinsCount":"71","usersCount":"31","tipCount":"3"},"specials":{"count":"0"},"hereNow":{"count":"0"},"referralId":"v-1392478008"},{"id":"4e208a42ae6015b2129c6fd9","name":"Rajmahal Sweets","location":{"lat":"51.51914651479899","lng":"-0.07164416711269289","distance":"81","cc":"GB","city":"Poplar","state":"Greater London","country":"United Kingdom"},"categories":[{"id":"4bf58dd8d48988d10f941735","name":"Indian Restaurant","pluralName":"Indian Restaurants","shortName":"Indian","icon":{"prefix":"https:\/\/ss1.4sqi.net\/img\/categories_v2\/food\/indian_","suffix":".png"},"primary":"true"}],"verified":"false","restricted":"true","stats":{"checkinsCount":"22","usersCount":"21","tipCount":"1"},"specials":{"count":"0"},"hereNow":{"count":"0"},"referralId":"v-1392478008"},{"id":"4f36eaebd5fb890db4e28458","name":"Suzzle","contact":{"phone":"+447799292709","formattedPhone":"+44 7799 292709"},"location":{"address":"47 Brick Lane","lat":"51.51870431325244","lng":"-0.07181882858276367","distance":"94","postalCode":"E1 6PU","cc":"GB","city":"London","state":"Greater London","country":"United Kingdom"},"categories":[{"id":"4bf58dd8d48988d1e0931735","name":"Coffee Shop","pluralName":"Coffee Shops","shortName":"Coffee Shop","icon":{"prefix":"https:\/\/ss1.4sqi.net\/img\/categories_v2\/food\/coffeeshop_","suffix":".png"},"primary":"true"}],"verified":"true","restricted":"true","stats":{"checkinsCount":"90","usersCount":"75","tipCount":"3"},"url":"http:\/\/www.suzzle.com","specials":{"count":"0"},"hereNow":{"count":"0"},"venuePage":{"id":"54208717"},"storeId":"","referralId":"v-1392478008"},{"id":"4b995c7cf964a520cd7535e3","name":"Gallery SO","location":{"lat":"51.519961532038806","lng":"-0.07136359600078764","distance":"124","cc":"GB","country":"United Kingdom"},"categories":[{"id":"4bf58dd8d48988d1e2931735","name":"Art Gallery","pluralName":"Art Galleries","shortName":"Art Gallery","icon":{"prefix":"https:\/\/ss1.4sqi.net\/img\/categories_v2\/arts_entertainment\/artgallery_","suffix":".png"},"primary":"true"}],"verified":"false","restricted":"true","stats":{"checkinsCount":"15","usersCount":"11","tipCount":"0"},"specials":{"count":"0"},"hereNow":{"count":"0"},"referralId":"v-1392478008"},{"id":"5280af1811d271529b6c5429","name":"Islamic Shop","location":{"address":"Brick Lane","lat":"51.519829173602325","lng":"-0.07181745132929042","distance":"90","cc":"GB","country":"United Kingdom"},"categories":[{"id":"4d954b0ea243a5684a65b473","name":"Convenience Store","pluralName":"Convenience Stores","shortName":"Convenience Stores","icon":{"prefix":"https:\/\/ss1.4sqi.net\/img\/categories_v2\/shops\/conveniencestore_","suffix":".png"},"primary":"true"}],"verified":"false","restricted":"true","stats":{"checkinsCount":"5","usersCount":"2","tipCount":"1"},"specials":{"count":"0"},"hereNow":{"count":"0"},"referralId":"v-1392478008"},{"id":"4baa111ef964a52001483ae3","name":"Jala News","location":{"address":"105a Commercial St","lat":"51.519366","lng":"-0.07440447807312012","distance":"111","postalCode":"E1 6BG","cc":"GB","city":"London","state":"Greater London","country":"United Kingdom"},"categories":[{"id":"4bf58dd8d48988d117951735","name":"Candy Store","pluralName":"Candy Stores","shortName":"Candy Store","icon":{"prefix":"https:\/\/ss1.4sqi.net\/img\/categories_v2\/shops\/candystore_","suffix":".png"},"primary":"true"}],"verified":"false","restricted":"true","stats":{"checkinsCount":"18","usersCount":"14","tipCount":"0"},"specials":{"count":"0"},"hereNow":{"count":"0"},"referralId":"v-1392478008"},{"id":"4b4455cdf964a520f1f325e3","name":"FC Business Intelligence","location":{"address":"Fashion Street","lat":"51.51857537983373","lng":"-0.0736446536058863","distance":"98","cc":"GB","city":"London","state":"Greater London","country":"United Kingdom"},"categories":[{"id":"4bf58dd8d48988d124941735","name":"Office","pluralName":"Offices","shortName":"Office","icon":{"prefix":"https:\/\/ss1.4sqi.net\/img\/categories_v2\/building\/default_","suffix":".png"},"primary":"true"}],"verified":"false","restricted":"true","stats":{"checkinsCount":"209","usersCount":"17","tipCount":"3"},"specials":{"count":"0"},"hereNow":{"count":"0"},"referralId":"v-1392478008"},{"id":"4ac518d1f964a520eea620e3","name":"19 Princelet Street","location":{"address":"19 Princelet Street","lat":"51.519648844446166","lng":"-0.07248925148991775","distance":"45","postalCode":"E1 6QH","cc":"GB","city":"London","state":"Greater London","country":"United Kingdom"},"categories":[{"id":"4bf58dd8d48988d12d941735","name":"Monument \/ Landmark","pluralName":"Monuments \/ Landmarks","shortName":"Landmark","icon":{"prefix":"https:\/\/ss1.4sqi.net\/img\/categories_v2\/building\/government_monument_","suffix":".png"},"primary":"true"}],"verified":"false","restricted":"true","stats":{"checkinsCount":"21","usersCount":"20","tipCount":"0"},"specials":{"count":"0"},"hereNow":{"count":"0"},"referralId":"v-1392478008"},{"id":"4c0c21ca4d49ef3b18095c6a","name":"Annie Chapman - 6am on 8\/09\/1888","location":{"address":"29 Hanbury Street","lat":"51.51918","lng":"-0.072084","distance":"51","cc":"GB","city":"London","state":"Greater London","country":"United Kingdom"},"categories":[{"id":"4bf58dd8d48988d171941735","name":"Event Space","pluralName":"Event Spaces","shortName":"Event Space","icon":{"prefix":"https:\/\/ss1.4sqi.net\/img\/categories_v2\/building\/eventspace_","suffix":".png"},"primary":"true"}],"verified":"false","restricted":"true","stats":{"checkinsCount":"3","usersCount":"3","tipCount":"0"},"specials":{"count":"0"},"hereNow":{"count":"0"},"referralId":"v-1392478008"}],"confident":"false"}}