{"meta":{"code":"200"},"response":{"venues":[{"id":"4ac518cef964a52019a620e3","name":"British Library","contact":{"phone":"+441937546060","formattedPhone":"+44 1937 546060","twitter":"britishlibrary"},"location":{"address":"96 Euston Rd","lat":"51.52921130775267","lng":"-0.12743711471557617","distance":"26","postalCode":"NW1 2DB","cc":"GB","city":"St Pancras","state":"Greater London","country":"United Kingdom"},"categories":[{"id":"4bf58dd8d48988d12f941735","name":"Library","pluralName":"Libraries","shortName":"Library","icon":{"prefix":"https:\/\/ss1.4sqi.net\/img\/categories_v2\/building\/library_","suffix":".png"},"primary":"true"}],"verified":"true","restricted":"true","stats":{"checkinsCount":"12714","usersCount":"6844","tipCount":"101"},"url":"http:\/\/www.bl.uk","specials":{"count":"0"},"hereNow":{"count":"1","groups":[{"type":"others","name":"Other people here","count":"1"}]},"venuePage":{"id":"36761128"},"storeId":"","referralId":"v-1392477977"},{"id":"4dcba89ecc3f83065bd812d0","name":"British Library Piazza","contact":{"twitter":"britishlibrary"},"location":{"address":"Euston Rd.","crossStreet":"Ossulston St.","lat":"51.52919128402082","lng":"-0.1275014877319336","distance":"23","postalCode":"NW1 2DB","cc":"GB","city":"St Pancras","state":"Greater London","country":"United Kingdom"},"categories":[{"id":"4bf58dd8d48988d164941735","name":"Plaza","pluralName":"Plazas","shortName":"Plaza","icon":{"prefix":"https:\/\/ss1.4sqi.net\/img\/categories_v2\/parks_outdoors\/plaza_","suffix":".png"},"primary":"true"}],"verified":"false","restricted":"true","stats":{"checkinsCount":"328","usersCount":"215","tipCount":"1"},"specials":{"count":"0"},"hereNow":{"count":"0"},"referralId":"v-1392477977"},{"id":"4bbc71beafe1b713ff5b304b","name":"Starbucks","contact":{"phone":"+442073872505","formattedPhone":"+44 20 7387 2505","twitter":"starbucksuk"},"location":{"address":"93 Euston Road,","crossStreet":"btwn Judd St. and Cartwright Gdns.","lat":"51.52874608994238","lng":"-0.12754631426901128","distance":"62","postalCode":"NW1 2RA","cc":"GB","city":"London","state":"Greater London","country":"United Kingdom"},"categories":[{"id":"4bf58dd8d48988d1e0931735","name":"Coffee Shop","pluralName":"Coffee Shops","shortName":"Coffee Shop","icon":{"prefix":"https:\/\/ss1.4sqi.net\/img\/categories_v2\/food\/coffeeshop_","suffix":".png"},"primary":"true"}],"verified":"true","restricted":"true","stats":{"checkinsCount":"1662","usersCount":"963","tipCount":"2"},"url":"http:\/\/starbucks.co.uk","specials":{"count":"0"},"hereNow":{"count":"0"},"storeId":"12315","referralId":"v-1392477977"},{"id":"5010104be4b0c9392207fb78","name":"Pullman","contact":{"phone":"+442076669000","formattedPhone":"+44 20 7666 9000","twitter":"accorhotels"},"location":{"address":"100-110 Euston Rd","lat":"51.528498676811616","lng":"-0.12817215733319529","distance":"91","postalCode":"NW1 2AJ","cc":"GB","city":"London","state":"Greater London","country":"United Kingdom"},"categories":[{"id":"4bf58dd8d48988d1fa931735","name":"Hotel","pluralName":"Hotels","shortName":"Hotel","icon":{"prefix":"https:\/\/ss1.4sqi.net\/img\/categories_v2\/travel\/hotel_","suffix":".png"},"primary":"true"}],"verified":"false","restricted":"true","stats":{"checkinsCount":"1810","usersCount":"836","tipCount":"18"},"url":"http:\/\/www.accorhotels.com\/en\/hotel-5309-pullman-london-st-pancras\/index.shtml","specials":{"count":"0"},"hereNow":{"count":"2","groups":[{"type":"others","name":"Other people here","count":"2"}]},"referralId":"v-1392477977"},{"id":"4b127e26f964a5203e8a23e3","name":"Euston Flyer","contact":{"phone":"+448721077077","formattedPhone":"+44 872 107 7077"},"location":{"address":"83 Euston Rd","lat":"51.528948","lng":"-0.126769","distance":"81","postalCode":"NW1 2QU","cc":"GB","city":"Camden","state":"Greater London","country":"United Kingdom"},"categories":[{"id":"4bf58dd8d48988d11b941735","name":"Pub","pluralName":"Pubs","shortName":"Pub","icon":{"prefix":"https:\/\/ss1.4sqi.net\/img\/categories_v2\/nightlife\/pub_","suffix":".png"},"primary":"true"}],"verified":"false","restricted":"true","stats":{"checkinsCount":"1455","usersCount":"1100","tipCount":"26"},"specials":{"count":"0"},"hereNow":{"count":"3","groups":[{"type":"others","name":"Other people here","count":"3"}]},"referralId":"v-1392477977"},{"id":"4b06878af964a520bdec22e3","name":"PizzaExpress","contact":{"phone":"+442073837102","formattedPhone":"+44 20 7383 7102","twitter":"pizzaexpress"},"location":{"address":"Clifton House","lat":"51.52872033","lng":"-0.127632357","distance":"64","postalCode":"NW1 2RA","cc":"GB","city":"93-95 Euston Road","state":"Greater London","country":"United Kingdom"},"categories":[{"id":"4bf58dd8d48988d1ca941735","name":"Pizza Place","pluralName":"Pizza Places","shortName":"Pizza","icon":{"prefix":"https:\/\/ss1.4sqi.net\/img\/categories_v2\/food\/pizza_","suffix":".png"},"primary":"true"}],"verified":"true","restricted":"true","stats":{"checkinsCount":"1145","usersCount":"936","tipCount":"18"},"url":"http:\/\/www.pizzaexpress.com","specials":{"count":"0"},"hereNow":{"count":"0"},"storeId":"","referralId":"v-1392477977"},{"id":"4b8cda11f964a520f2de32e3","name":"British Library Cafe","contact":{"twitter":"peytonandbyrne"},"location":{"address":"96 Euston Rd.","crossStreet":"Upper Ground Floor, British Library","lat":"51.52909116522955","lng":"-0.12737274169921875","distance":"37","postalCode":"NW1 2DB","cc":"GB","city":"St Pancras","state":"Greater London","country":"United Kingdom"},"categories":[{"id":"4bf58dd8d48988d1e0931735","name":"Coffee Shop","pluralName":"Coffee Shops","shortName":"Coffee Shop","icon":{"prefix":"https:\/\/ss1.4sqi.net\/img\/categories_v2\/food\/coffeeshop_","suffix":".png"},"primary":"true"}],"verified":"false","restricted":"true","stats":{"checkinsCount":"585","usersCount":"294","tipCount":"10"},"specials":{"count":"0"},"hereNow":{"count":"0"},"referralId":"v-1392477977"},{"id":"4fbbcebce4b0bc54729473d3","name":"Social Science Reading Room","location":{"address":"British Library","lat":"51.52926447531897","lng":"-0.1274397517026655","distance":"25","cc":"GB","city":"Saint Pancras","state":"Greater London","country":"United Kingdom"},"categories":[{"id":"4bf58dd8d48988d1a7941735","name":"College Library","pluralName":"College Libraries","shortName":"Library","icon":{"prefix":"https:\/\/ss1.4sqi.net\/img\/categories_v2\/building\/library_","suffix":".png"},"primary":"true"}],"verified":"false","restricted":"true","stats":{"checkinsCount":"70","usersCount":"25","tipCount":"0"},"specials":{"count":"0"},"hereNow":{"count":"0"},"referralId":"v-1392477977"},{"id":"50813b13e4b068d89b700735","name":"Peyton and Byrne","contact":{"phone":"+442074125528","formattedPhone":"+44 20 7412 5528"},"location":{"address":"96 Euston Road","crossStreet":"The British Library","lat":"51.52996768358779","lng":"-0.1277890994384563","distance":"75","postalCode":"NW1 6DB","cc":"GB","city":"Camden","state":"Greater London","country":"United Kingdom"},"categories":[{"id":"4bf58dd8d48988d16d941735","name":"Caf\u00e9","pluralName":"Caf\u00e9s","shortName":"Caf\u00e9","icon":{"prefix":"https:\/\/ss1.4sqi.net\/img\/categories_v2\/food\/cafe_","suffix":".png"},"primary":"true"}],"verified":"false","restricted":"true","stats":{"checkinsCount":"111","usersCount":"41","tipCount":"3"},"specials":{"count":"0"},"hereNow":{"count":"1","groups":[{"type":"others","name":"Other people here","count":"1"}]},"referralId":"v-1392477977"},{"id":"4b914716f964a52061af33e3","name":"O'Neill's","contact":{"phone":"+442073800464","formattedPhone":"+44 20 7380 0464"},"location":{"address":"73-77 Euston Rd.","crossStreet":"at Judd Street","lat":"51.528850879232266","lng":"-0.12621402740478516","distance":"120","postalCode":"NW1 2QS","cc":"GB","city":"King's Cross","state":"Greater London","country":"United Kingdom"},"categories":[{"id":"4bf58dd8d48988d11b941735","name":"Pub","pluralName":"Pubs","shortName":"Pub","icon":{"prefix":"https:\/\/ss1.4sqi.net\/img\/categories_v2\/nightlife\/pub_","suffix":".png"},"primary":"true"}],"verified":"false","restricted":"true","stats":{"checkinsCount":"2307","usersCount":"1781","tipCount":"22"},"url":"http:\/\/www.oneills.co.uk","specials":{"count":"0"},"hereNow":{"count":"0"},"referralId":"v-1392477977"},{"id":"4d53a52508a7b1f752723492","name":"British Library Conference Centre","location":{"lat":"51.529288","lng":"-0.1271214","distance":"47","cc":"GB","city":"London","state":"Greater London","country":"United Kingdom"},"categories":[{"id":"4bf58dd8d48988d1ff931735","name":"Convention Center","pluralName":"Convention Centers","shortName":"Convention Center","icon":{"prefix":"https:\/\/ss1.4sqi.net\/img\/categories_v2\/building\/conventioncenter_","suffix":".png"},"primary":"true"}],"verified":"false","restricted":"true","stats":{"checkinsCount":"170","usersCount":"119","tipCount":"1"},"specials":{"count":"0"},"hereNow":{"count":"0"},"referralId":"v-1392477977"},{"id":"4b41b90cf964a52086c825e3","name":"IDG","location":{"address":"101 Euston Road","lat":"51.5287","lng":"-0.12729","distance":"74","postalCode":"NW1 2RA","cc":"GB","city":"London","state":"Greater London","country":"United Kingdom"},"categories":[{"id":"4bf58dd8d48988d124941735","name":"Office","pluralName":"Offices","shortName":"Office","icon":{"prefix":"https:\/\/ss1.4sqi.net\/img\/categories_v2\/building\/default_","suffix":".png"},"primary":"true"}],"verified":"false","restricted":"true","stats":{"checkinsCount":"478","usersCount":"38","tipCount":"4"},"specials":{"count":"0"},"hereNow":{"count":"0"},"referralId":"v-1392477977"},{"id":"4d00c69af1605481dce59fea","name":"St Pancras Renaissance Hotel","contact":{"phone":"+442078413540","formattedPhone":"+44 20 7841 3540","twitter":"renhotels"},"location":{"address":"Euston Rd","crossStreet":"at Midlands Rd","lat":"51.529731921689105","lng":"-0.1256561279296875","distance":"156","postalCode":"NW1 3AU","cc":"GB","city":"St Pancras","state":"Greater London","country":"United Kingdom"},"categories":[{"id":"4bf58dd8d48988d1fa931735","name":"Hotel","pluralName":"Hotels","shortName":"Hotel","icon":{"prefix":"https:\/\/ss1.4sqi.net\/img\/categories_v2\/travel\/hotel_","suffix":".png"},"primary":"true"}],"verified":"true","restricted":"true","stats":{"checkinsCount":"4858","usersCount":"2682","tipCount":"46"},"url":"http:\/\/www.marriott.com\/hotels\/travel\/lonpr-st-pancras-renaissance-london-hotel\/","menu":{"type":"Menu","label":"Menu","anchor":"View Menu","url":"https:\/\/foursquare.com\/v\/st-pancras-renaissance-hotel\/4d00c69af1605481dce59fea\/menu","mobileUrl":"https:\/\/foursquare.com\/v\/4d00c69af1605481dce59fea\/device_menu"},"specials":{"count":"0"},"hereNow":{"count":"0"},"referralId":"v-1392477977"},{"id":"4b8b94e0f964a5206aa332e3","name":"Pret A Manger","contact":{"phone":"+442079325256","formattedPhone":"+44 20 7932 5256","twitter":"pret","facebook":"162638680417951"},"location":{"address":"117 Euston Rd.","lat":"51.5283555187","lng":"-0.127639720809","distance":"104","postalCode":"NW1 2SX","cc":"GB","city":"Euston","state":"Greater London","country":"United Kingdom"},"categories":[{"id":"4bf58dd8d48988d1c5941735","name":"Sandwich Place","pluralName":"Sandwich Places","shortName":"Sandwiches","icon":{"prefix":"https:\/\/ss1.4sqi.net\/img\/categories_v2\/food\/sandwiches_","suffix":".png"},"primary":"true"}],"verified":"true","restricted":"true","stats":{"checkinsCount":"1012","usersCount":"484","tipCount":"5"},"url":"http:\/\/www.pret.com","specials":{"count":"0"},"hereNow":{"count":"0"},"storeId":"191","referralId":"v-1392477977"},{"id":"52e625c4498e1affc76d8a8e","name":"FutureLearn","contact":{"twitter":"futurelearn"},"location":{"address":"British Library","crossStreet":"96 Euston Rd","lat":"51.53042887919974","lng":"-0.12790651182096657","distance":"127","postalCode":"NW1 2DB","cc":"GB","city":"London","state":"Greater London","country":"United Kingdom"},"categories":[{"id":"4bf58dd8d48988d125941735","name":"Tech Startup","pluralName":"Tech Startups","shortName":"Tech Startup","icon":{"prefix":"https:\/\/ss1.4sqi.net\/img\/categories_v2\/shops\/technology_","suffix":".png"},"primary":"true"}],"verified":"false","restricted":"true","stats":{"checkinsCount":"58","usersCount":"13","tipCount":"0"},"url":"http:\/\/www.futurelearn.com","specials":{"count":"0"},"hereNow":{"count":"0"},"referralId":"v-1392477977"},{"id":"4ad08fd2f964a52071d820e3","name":"The Rocket","contact":{"phone":"+442073880021","formattedPhone":"+44 20 7388 0021","twitter":"scream_pubs"},"location":{"address":"120 Euston Rd.","crossStreet":"at Chalton St.","lat":"51.528105","lng":"-0.128642","distance":"144","postalCode":"NW1 2AL","cc":"GB","city":"Euston","state":"Greater London","country":"United Kingdom"},"categories":[{"id":"4bf58dd8d48988d11b941735","name":"Pub","pluralName":"Pubs","shortName":"Pub","icon":{"prefix":"https:\/\/ss1.4sqi.net\/img\/categories_v2\/nightlife\/pub_","suffix":".png"},"primary":"true"}],"verified":"false","restricted":"true","stats":{"checkinsCount":"2260","usersCount":"1486","tipCount":"18"},"url":"http:\/\/www.screampubs.co.uk","menu":{"type":"Menu","label":"Menu","anchor":"View Menu","url":"https:\/\/foursquare.com\/v\/the-rocket\/4ad08fd2f964a52071d820e3\/menu","mobileUrl":"https:\/\/foursquare.com\/v\/4ad08fd2f964a52071d820e3\/device_menu"},"specials":{"count":"0"},"hereNow":{"count":"0"},"referralId":"v-1392477977"},{"id":"4da87f0b0cb65e9aae697bd8","name":"The Gilbert Scott","contact":{"phone":"+442072783888","formattedPhone":"+44 20 7278 3888"},"location":{"address":"St. Pancras Renaissance Hotel","crossStreet":"Euston Rd.","lat":"51.52944584863442","lng":"-0.1258950790907633","distance":"133","postalCode":"NW1 2AR","cc":"GB","city":"London","state":"Greater London","country":"United Kingdom"},"categories":[{"id":"4bf58dd8d48988d1c4941735","name":"Restaurant","pluralName":"Restaurants","shortName":"Restaurant","icon":{"prefix":"https:\/\/ss1.4sqi.net\/img\/categories_v2\/food\/default_","suffix":".png"},"primary":"true"}],"verified":"true","restricted":"true","stats":{"checkinsCount":"1470","usersCount":"1022","tipCount":"33"},"url":"http:\/\/www.thegilbertscott.co.uk","reservations":{"url":"http:\/\/www.toptable.co.uk\/single.aspx?rid=70855&ref=9601"},"menu":{"type":"Menu","label":"Menu","anchor":"View Menu","url":"https:\/\/foursquare.com\/v\/the-gilbert-scott\/4da87f0b0cb65e9aae697bd8\/menu","mobileUrl":"https:\/\/foursquare.com\/v\/4da87f0b0cb65e9aae697bd8\/device_menu"},"specials":{"count":"0"},"hereNow":{"count":"0"},"venuePage":{"id":"41982646"},"storeId":"","referralId":"v-1392477977"},{"id":"4daeaa490437710b8137b098","name":"The Sir John Ritblat Gallery: Treasures of the British Library","location":{"address":"96 Euston Road","crossStreet":"The British Library","lat":"51.52942357138859","lng":"-0.12759671531973046","distance":"20","postalCode":"NW1 2DB","cc":"GB","city":"London","state":"Greater London","country":"United Kingdom"},"categories":[{"id":"4bf58dd8d48988d181941735","name":"Museum","pluralName":"Museums","shortName":"Museum","icon":{"prefix":"https:\/\/ss1.4sqi.net\/img\/categories_v2\/arts_entertainment\/museum_","suffix":".png"},"primary":"true"}],"verified":"false","restricted":"true","stats":{"checkinsCount":"46","usersCount":"33","tipCount":"1"},"specials":{"count":"0"},"hereNow":{"count":"0"},"referralId":"v-1392477977"},{"id":"5073d581e4b08f504ead6739","name":"Pullman Hotel Breakfast Area","location":{"address":"Euston Road 100-110","lat":"51.52849896461911","lng":"-0.12796496333565244","distance":"88","postalCode":"NW1 2AJ","cc":"GB","city":"London","state":"Greater London","country":"United Kingdom"},"categories":[{"id":"4bf58dd8d48988d1c4941735","name":"Restaurant","pluralName":"Restaurants","shortName":"Restaurant","icon":{"prefix":"https:\/\/ss1.4sqi.net\/img\/categories_v2\/food\/default_","suffix":".png"},"primary":"true"}],"verified":"false","restricted":"true","stats":{"checkinsCount":"74","usersCount":"35","tipCount":"0"},"specials":{"count":"0"},"hereNow":{"count":"0"},"referralId":"v-1392477977"},{"id":"529b3525498e793d283df1cd","name":"Christmas Market at the British Library","location":{"address":"96 Euston Road","lat":"51.529474908656596","lng":"-0.1275787269876808","distance":"25","cc":"GB","city":"London","state":"Greater London","country":"United Kingdom"},"categories":[{"id":"5267e4d9e4b0ec79466e48c7","name":"Festival","pluralName":"Festivals","shortName":"Festival","icon":{"prefix":"https:\/\/ss1.4sqi.net\/img\/categories_v2\/event\/default_","suffix":".png"},"primary":"true"}],"verified":"false","restricted":"true","stats":{"checkinsCount":"3","usersCount":"3","tipCount":"0"},"specials":{"count":"0"},"hereNow":{"count":"0"},"referralId":"v-1392477977"},{"id":"4bcf48530ffdce728958b2c0","name":"YHA St Pancras Hostel","location":{"address":"79 Euston Rd Camden Town Greater London NW1 2 UK","lat":"51.52895767316539","lng":"-0.1261281967163086","distance":"121","cc":"GB","city":"London","state":"Greater London","country":"United Kingdom"},"categories":[{"id":"4bf58dd8d48988d1ee931735","name":"Hostel","pluralName":"Hostels","shortName":"Hostel","icon":{"prefix":"https:\/\/ss1.4sqi.net\/img\/categories_v2\/travel\/hostel_","suffix":".png"},"primary":"true"}],"verified":"false","restricted":"true","stats":{"checkinsCount":"616","usersCount":"292","tipCount":"19"},"specials":{"count":"0"},"hereNow":{"count":"0"},"referralId":"v-1392477977"},{"id":"4beaa52761aca5939ef38300","name":"UNISON Centre","contact":{"phone":"+448453550845","formattedPhone":"+44 845 355 0845","twitter":"unisontweets"},"location":{"address":"130 Euston Rd","lat":"51.528623941292565","lng":"-0.12816667556762695","distance":"78","postalCode":"NW1 2AY","cc":"GB","city":"London","state":"Greater London","country":"United Kingdom"},"categories":[{"id":"4bf58dd8d48988d130941735","name":"Building","pluralName":"Buildings","shortName":"Building","icon":{"prefix":"https:\/\/ss1.4sqi.net\/img\/categories_v2\/building\/default_","suffix":".png"},"primary":"true"}],"verified":"false","restricted":"true","stats":{"checkinsCount":"350","usersCount":"71","tipCount":"0"},"url":"http:\/\/www.unison.org.uk","specials":{"count":"0"},"hereNow":{"count":"0"},"referralId":"v-1392477977"},{"id":"4fb28ccae4b08f0715900f90","name":"Foyle room, The British Library Centre For Conservation","location":{"address":"96 Euston Road","lat":"51.52939242841561","lng":"-0.1278828739044904","distance":"12","cc":"GB","city":"London","state":"Greater London","country":"United Kingdom"},"categories":[{"id":"4bf58dd8d48988d12f941735","name":"Library","pluralName":"Libraries","shortName":"Library","icon":{"prefix":"https:\/\/ss1.4sqi.net\/img\/categories_v2\/building\/library_","suffix":".png"},"primary":"true"}],"verified":"false","restricted":"true","stats":{"checkinsCount":"18","usersCount":"6","tipCount":"0"},"specials":{"count":"0"},"hereNow":{"count":"0"},"referralId":"v-1392477977"},{"id":"4b23f936f964a520275e24e3","name":"Mabels Tavern (Shepherd Neame)","contact":{"phone":"+442073877739","formattedPhone":"+44 20 7387 7739","facebook":"8029823489"},"location":{"address":"9 Mabledon Pl.","crossStreet":"at Euston Rd.","lat":"51.52784633653839","lng":"-0.12756049633026123","distance":"161","postalCode":"WC1H 8AZ","cc":"GB","city":"Euston","state":"Greater London","country":"United Kingdom"},"categories":[{"id":"4bf58dd8d48988d11b941735","name":"Pub","pluralName":"Pubs","shortName":"Pub","icon":{"prefix":"https:\/\/ss1.4sqi.net\/img\/categories_v2\/nightlife\/pub_","suffix":".png"},"primary":"true"}],"verified":"true","restricted":"true","stats":{"checkinsCount":"1000","usersCount":"607","tipCount":"7"},"url":"http:\/\/www.mabelstavern.co.uk","menu":{"type":"Menu","label":"Menu","anchor":"View Menu","url":"https:\/\/foursquare.com\/v\/mabels-tavern-shepherd-neame-euston-greater-london\/4b23f936f964a520275e24e3\/menu","mobileUrl":"https:\/\/foursquare.com\/v\/4b23f936f964a520275e24e3\/device_menu"},"specials":{"count":"0"},"hereNow":{"count":"0"},"storeId":"","referralId":"v-1392477977"},{"id":"52d50a72498e8e4061e62fa2","name":"Humanities Reading Room","location":{"address":"British Library","lat":"51.530067443847656","lng":"-0.12878090143203735","distance":"109","cc":"GB","country":"United Kingdom"},"categories":[{"id":"4bf58dd8d48988d12f941735","name":"Library","pluralName":"Libraries","shortName":"Library","icon":{"prefix":"https:\/\/ss1.4sqi.net\/img\/categories_v2\/building\/library_","suffix":".png"},"primary":"true"}],"verified":"false","restricted":"true","stats":{"checkinsCount":"18","usersCount":"4","tipCount":"0"},"specials":{"count":"0"},"hereNow":{"count":"0"},"referralId":"v-1392477977"},{"id":"4b166cdef964a520e5b823e3","name":"Mai Sushi","location":{"address":"36-38 Chalton St.","lat":"51.529261","lng":"-0.129595","distance":"124","cc":"GB","city":"London","state":"Greater London","country":"United Kingdom"},"categories":[{"id":"4bf58dd8d48988d111941735","name":"Japanese Restaurant","pluralName":"Japanese Restaurants","shortName":"Japanese","icon":{"prefix":"https:\/\/ss1.4sqi.net\/img\/categories_v2\/food\/japanese_","suffix":".png"},"primary":"true"}],"verified":"false","restricted":"true","stats":{"checkinsCount":"304","usersCount":"183","tipCount":"11"},"menu":{"type":"Menu","label":"Menu","anchor":"View Menu","url":"https:\/\/foursquare.com\/v\/mai-sushi\/4b166cdef964a520e5b823e3\/menu","mobileUrl":"https:\/\/foursquare.com\/v\/4b166cdef964a520e5b823e3\/device_menu"},"specials":{"count":"0"},"hereNow":{"count":"0"},"referralId":"v-1392477977"},{"id":"51fb7645498e269897df26b0","name":"British Library Manuscripts Reading Room","location":{"lat":"51.52945374669932","lng":"-0.12815320666362376","distance":"30","cc":"GB","country":"United Kingdom"},"categories":[{"id":"4bf58dd8d48988d12f941735","name":"Library","pluralName":"Libraries","shortName":"Library","icon":{"prefix":"https:\/\/ss1.4sqi.net\/img\/categories_v2\/building\/library_","suffix":".png"},"primary":"true"}],"verified":"false","restricted":"true","stats":{"checkinsCount":"12","usersCount":"9","tipCount":"0"},"specials":{"count":"0"},"hereNow":{"count":"0"},"referralId":"v-1392477977"},{"id":"4d31b107c75a6ea88ba706ae","name":"Red Hot","contact":{"phone":"+442073880808","formattedPhone":"+44 20 7388 0808"},"location":{"address":"37 Chalton St","lat":"51.52906256994964","lng":"-0.12943238703629187","distance":"115","postalCode":"NW1 1JD","cc":"GB","city":"London","state":"Greater London","country":"United Kingdom"},"categories":[{"id":"4bf58dd8d48988d145941735","name":"Chinese Restaurant","pluralName":"Chinese Restaurants","shortName":"Chinese","icon":{"prefix":"https:\/\/ss1.4sqi.net\/img\/categories_v2\/food\/chinese_","suffix":".png"},"primary":"true"}],"verified":"false","restricted":"true","stats":{"checkinsCount":"129","usersCount":"87","tipCount":"3"},"specials":{"count":"0"},"hereNow":{"count":"0"},"referralId":"v-1392477977"},{"id":"4ac518e9f964a520cfab20e3","name":"Shaw Theatre","location":{"address":"100-110 Euston Rd","lat":"51.528867","lng":"-0.127606","distance":"48","postalCode":"NW1 2AJ","cc":"GB","city":"King's Cross","state":"Greater London","country":"United Kingdom"},"categories":[{"id":"5032792091d4c4b30a586d5c","name":"Concert Hall","pluralName":"Concert Halls","shortName":"Concert Hall","icon":{"prefix":"https:\/\/ss1.4sqi.net\/img\/categories_v2\/arts_entertainment\/musicvenue_","suffix":".png"},"primary":"true"}],"verified":"false","restricted":"true","stats":{"checkinsCount":"313","usersCount":"284","tipCount":"1"},"specials":{"count":"0"},"hereNow":{"count":"0"},"referralId":"v-1392477977"},{"id":"51b08a8ab589d18b807ed1a8","name":"Golden Arrow Bar & Restaurant","location":{"address":"100 - 110 Euston Rd","lat":"51.528484","lng":"-0.127641","distance":"90","postalCode":"NW1 2AJ","cc":"GB","city":"London","state":"Greater London","country":"United Kingdom"},"categories":[{"id":"4bf58dd8d48988d1c4941735","name":"Restaurant","pluralName":"Restaurants","shortName":"Restaurant","icon":{"prefix":"https:\/\/ss1.4sqi.net\/img\/categories_v2\/food\/default_","suffix":".png"},"primary":"true"}],"verified":"false","restricted":"true","stats":{"checkinsCount":"34","usersCount":"27","tipCount":"2"},"url":"http:\/\/www.pullmanhotels.com\/gb\/hotel-5309-pullman-london-st-pancras-previously-novotel\/restaurant.shtml","reservations":{"url":"http:\/\/www.toptable.co.uk\/single.aspx?rid=23421&ref=9601"},"menu":{"type":"Menu","label":"Menu","anchor":"View Menu","url":"https:\/\/foursquare.com\/v\/golden-arrow-bar--restaurant\/51b08a8ab589d18b807ed1a8\/menu","mobileUrl":"https:\/\/foursquare.com\/v\/51b08a8ab589d18b807ed1a8\/device_menu"},"specials":{"count":"0"},"hereNow":{"count":"0"},"referralId":"v-1392477977"}],"confident":"true"}}