{"meta":{"code":"200"},"response":{"venues":[{"id":"4ac518f3f964a5209fae20e3","name":"Columbia Road Flower Market","contact":{"phone":"+442076130876","formattedPhone":"+44 20 7613 0876","twitter":"columbiaroad"},"location":{"address":"Columbia Rd.","crossStreet":"near Ravenscroft St.","lat":"51.529358148183654","lng":"-0.0695657730102539","distance":"122","postalCode":"E2 7RG","cc":"GB","city":"Shoreditch","state":"Greater London","country":"United Kingdom"},"categories":[{"id":"4bf58dd8d48988d11b951735","name":"Flower Shop","pluralName":"Flower Shops","shortName":"Flower Shop","icon":{"prefix":"https:\/\/ss1.4sqi.net\/img\/categories_v2\/shops\/flowershop_","suffix":".png"},"primary":"true"}],"verified":"false","restricted":"true","stats":{"checkinsCount":"6301","usersCount":"3674","tipCount":"76"},"url":"http:\/\/www.columbiaroad.info","specials":{"count":"0"},"hereNow":{"count":"0"},"referralId":"v-1392477982"},{"id":"4b09790ef964a520d11723e3","name":"The Royal Oak","contact":{"phone":"+442077292220","formattedPhone":"+44 20 7729 2220","twitter":"royaloaklondon"},"location":{"address":"73 Columbia Rd","lat":"51.5295340712913","lng":"-0.069335176073408","distance":"109","postalCode":"E2 7RG","cc":"GB","city":"London","state":"Greater London","country":"United Kingdom"},"categories":[{"id":"4bf58dd8d48988d11b941735","name":"Pub","pluralName":"Pubs","shortName":"Pub","icon":{"prefix":"https:\/\/ss1.4sqi.net\/img\/categories_v2\/nightlife\/pub_","suffix":".png"},"primary":"true"}],"verified":"false","restricted":"true","stats":{"checkinsCount":"1869","usersCount":"1084","tipCount":"27"},"url":"http:\/\/royaloaklondon.com","menu":{"type":"Menu","label":"Menu","anchor":"View Menu","url":"https:\/\/foursquare.com\/v\/the-royal-oak\/4b09790ef964a520d11723e3\/menu","mobileUrl":"https:\/\/foursquare.com\/v\/4b09790ef964a520d11723e3\/device_menu"},"specials":{"count":"0"},"hereNow":{"count":"0"},"referralId":"v-1392477982"},{"id":"4ad210abf964a5202bdf20e3","name":"Stringray Globe","contact":{"phone":"+442076131141","formattedPhone":"+44 20 7613 1141"},"location":{"address":"109 Columbia Road","lat":"51.53029484559454","lng":"-0.06811400375519833","distance":"114","postalCode":"E2 7RL","cc":"GB","city":"London","state":"Greater London","country":"United Kingdom"},"categories":[{"id":"4bf58dd8d48988d1ca941735","name":"Pizza Place","pluralName":"Pizza Places","shortName":"Pizza","icon":{"prefix":"https:\/\/ss1.4sqi.net\/img\/categories_v2\/food\/pizza_","suffix":".png"},"primary":"true"}],"verified":"false","restricted":"true","stats":{"checkinsCount":"921","usersCount":"575","tipCount":"29"},"specials":{"count":"0"},"hereNow":{"count":"0"},"referralId":"v-1392477982"},{"id":"4b127df2f964a5203a8a23e3","name":"Laxeiro","contact":{"phone":"+442077291147","formattedPhone":"+44 20 7729 1147","twitter":"laxeiro"},"location":{"address":"93 Columbia Rd.","lat":"51.529775712681584","lng":"-0.0687504791054665","distance":"85","postalCode":"E2 7RG","cc":"GB","city":"London","state":"Greater London","country":"United Kingdom"},"categories":[{"id":"4bf58dd8d48988d1db931735","name":"Tapas Restaurant","pluralName":"Tapas Restaurants","shortName":"Tapas","icon":{"prefix":"https:\/\/ss1.4sqi.net\/img\/categories_v2\/food\/tapas_","suffix":".png"},"primary":"true"}],"verified":"false","restricted":"true","stats":{"checkinsCount":"297","usersCount":"220","tipCount":"12"},"menu":{"type":"Menu","label":"Menu","anchor":"View Menu","url":"https:\/\/foursquare.com\/v\/laxeiro\/4b127df2f964a5203a8a23e3\/menu","mobileUrl":"https:\/\/foursquare.com\/v\/4b127df2f964a5203a8a23e3\/device_menu"},"specials":{"count":"0"},"hereNow":{"count":"0"},"referralId":"v-1392477982"},{"id":"4bcc1027511f95212075b2c7","name":"Jesus Green","location":{"lat":"51.52892351334734","lng":"-0.06862221841676794","distance":"69","cc":"GB","country":"United Kingdom"},"categories":[{"id":"4bf58dd8d48988d163941735","name":"Park","pluralName":"Parks","shortName":"Park","icon":{"prefix":"https:\/\/ss1.4sqi.net\/img\/categories_v2\/parks_outdoors\/park_","suffix":".png"},"primary":"true"}],"verified":"false","restricted":"true","stats":{"checkinsCount":"99","usersCount":"44","tipCount":"1"},"specials":{"count":"0"},"hereNow":{"count":"0"},"referralId":"v-1392477982"},{"id":"4aeb4d69f964a520a9c021e3","name":"Nelson's Head","contact":{"phone":"+442077295595","formattedPhone":"+44 20 7729 5595"},"location":{"address":"32 Horatio St","lat":"51.53007924556732","lng":"-0.069551","distance":"149","postalCode":"E2 7SB","cc":"GB","city":"London","state":"Greater London","country":"United Kingdom"},"categories":[{"id":"4bf58dd8d48988d11b941735","name":"Pub","pluralName":"Pubs","shortName":"Pub","icon":{"prefix":"https:\/\/ss1.4sqi.net\/img\/categories_v2\/nightlife\/pub_","suffix":".png"},"primary":"true"}],"verified":"false","restricted":"true","stats":{"checkinsCount":"883","usersCount":"405","tipCount":"6"},"url":"http:\/\/www.nelsonshead.com","specials":{"count":"0"},"hereNow":{"count":"0"},"referralId":"v-1392477982"},{"id":"4e22d193b61cdcf1eccbf8e5","name":"Lily Vanilli Bakery","contact":{"phone":"+442031864356","formattedPhone":"+44 20 3186 4356","twitter":"lilyvanillicake"},"location":{"address":"Ezra St","crossStreet":"Columbia Rd","lat":"51.529580098210495","lng":"-0.06970781518012731","distance":"135","postalCode":"E2 7RH","cc":"GB","city":"Hackney","state":"Greater London","country":"United Kingdom"},"categories":[{"id":"4bf58dd8d48988d16a941735","name":"Bakery","pluralName":"Bakeries","shortName":"Bakery","icon":{"prefix":"https:\/\/ss1.4sqi.net\/img\/categories_v2\/food\/bakery_","suffix":".png"},"primary":"true"}],"verified":"false","restricted":"true","stats":{"checkinsCount":"345","usersCount":"270","tipCount":"14"},"specials":{"count":"0"},"hereNow":{"count":"0"},"referralId":"v-1392477982"},{"id":"4e9adab56c2592b36cd27ccd","name":"Printers & Stationers","location":{"address":"21a Ezra St.","crossStreet":"Columbia Rd.","lat":"51.529579897970535","lng":"-0.0695541725686629","distance":"125","postalCode":"E2 7RH","cc":"GB","city":"London","state":"Greater London","country":"United Kingdom"},"categories":[{"id":"4bf58dd8d48988d123941735","name":"Wine Bar","pluralName":"Wine Bars","shortName":"Wine Bar","icon":{"prefix":"https:\/\/ss1.4sqi.net\/img\/categories_v2\/nightlife\/wine_","suffix":".png"},"primary":"true"}],"verified":"false","restricted":"true","stats":{"checkinsCount":"91","usersCount":"81","tipCount":"6"},"specials":{"count":"0"},"hereNow":{"count":"0"},"referralId":"v-1392477982"},{"id":"4ceed4e213aea143e6e16f9f","name":"Brawn","contact":{"phone":"+442077295692","formattedPhone":"+44 20 7729 5692"},"location":{"address":"49 Columbia Rd","lat":"51.528921","lng":"-0.070256","distance":"174","postalCode":"E2 7RG","cc":"GB","city":"Shoreditch","state":"Greater London","country":"United Kingdom"},"categories":[{"id":"4bf58dd8d48988d1c4941735","name":"Restaurant","pluralName":"Restaurants","shortName":"Restaurant","icon":{"prefix":"https:\/\/ss1.4sqi.net\/img\/categories_v2\/food\/default_","suffix":".png"},"primary":"true"}],"verified":"false","restricted":"true","stats":{"checkinsCount":"777","usersCount":"574","tipCount":"26"},"url":"http:\/\/www.brawn.co","reservations":{"url":"http:\/\/www.toptable.co.uk\/single.aspx?rid=95334&ref=9601"},"menu":{"type":"Menu","label":"Menu","anchor":"View Menu","url":"https:\/\/foursquare.com\/v\/brawn\/4ceed4e213aea143e6e16f9f\/menu","mobileUrl":"https:\/\/foursquare.com\/v\/4ceed4e213aea143e6e16f9f\/device_menu"},"specials":{"count":"0"},"hereNow":{"count":"0"},"referralId":"v-1392477982"},{"id":"4bb5fb2cf562ef3b93732f97","name":"Campania Gastronomia","location":{"address":"95 Columbia Road","crossStreet":"Barnet Grove","lat":"51.529832","lng":"-0.068635","distance":"83","postalCode":"E2  7RG","cc":"GB","city":"Bethnal Green","state":"Greater London","country":"United Kingdom"},"categories":[{"id":"4bf58dd8d48988d110941735","name":"Italian Restaurant","pluralName":"Italian Restaurants","shortName":"Italian","icon":{"prefix":"https:\/\/ss1.4sqi.net\/img\/categories_v2\/food\/italian_","suffix":".png"},"primary":"true"}],"verified":"false","restricted":"true","stats":{"checkinsCount":"445","usersCount":"311","tipCount":"11"},"specials":{"count":"0"},"hereNow":{"count":"0"},"referralId":"v-1392477982"},{"id":"4bc0a1072a89ef3bdec9f088","name":"Nelly Duff","location":{"address":"156 Columbia Rd.","lat":"51.5296675885983","lng":"-0.06896240885406649","distance":"90","cc":"GB","city":"London","state":"Greater London","country":"United Kingdom"},"categories":[{"id":"4bf58dd8d48988d1e2931735","name":"Art Gallery","pluralName":"Art Galleries","shortName":"Art Gallery","icon":{"prefix":"https:\/\/ss1.4sqi.net\/img\/categories_v2\/arts_entertainment\/artgallery_","suffix":".png"},"primary":"true"}],"verified":"false","restricted":"true","stats":{"checkinsCount":"122","usersCount":"96","tipCount":"1"},"specials":{"count":"0"},"hereNow":{"count":"0"},"referralId":"v-1392477982"},{"id":"52f7635411d2d0dc019dda2c","name":"Captured by","location":{"lat":"51.530044","lng":"-0.068583","distance":"99","cc":"GB","country":"United Kingdom"},"categories":[{"id":"4bf58dd8d48988d127951735","name":"Arts & Crafts Store","pluralName":"Arts & Crafts Stores","shortName":"Arts & Crafts","icon":{"prefix":"https:\/\/ss1.4sqi.net\/img\/categories_v2\/shops\/artstore_","suffix":".png"},"primary":"true"}],"verified":"false","restricted":"true","stats":{"checkinsCount":"1","usersCount":"1","tipCount":"0"},"specials":{"count":"0"},"hereNow":{"count":"0"},"referralId":"v-1392477982"},{"id":"4c39c3501e06d13a4e107a3e","name":"Cafe Columbia","location":{"address":"138 Columbia Rd.","lat":"51.52933880684907","lng":"-0.06930033524705101","distance":"103","postalCode":"E2 7RG","cc":"GB","city":"London","state":"Greater London","country":"United Kingdom"},"categories":[{"id":"4bf58dd8d48988d16d941735","name":"Caf\u00e9","pluralName":"Caf\u00e9s","shortName":"Caf\u00e9","icon":{"prefix":"https:\/\/ss1.4sqi.net\/img\/categories_v2\/food\/cafe_","suffix":".png"},"primary":"true"}],"verified":"false","restricted":"true","stats":{"checkinsCount":"44","usersCount":"44","tipCount":"4"},"specials":{"count":"0"},"hereNow":{"count":"0"},"referralId":"v-1392477982"},{"id":"4c4c39a0f7cc1b8da30c0141","name":"Suck & Chew","location":{"lat":"51.52926146547449","lng":"-0.06955225309146602","distance":"121","cc":"GB","country":"United Kingdom"},"categories":[{"id":"4bf58dd8d48988d1f9941735","name":"Food & Drink Shop","pluralName":"Food & Drink Shops","shortName":"Food & Drink","icon":{"prefix":"https:\/\/ss1.4sqi.net\/img\/categories_v2\/shops\/foodanddrink_","suffix":".png"},"primary":"true"}],"verified":"false","restricted":"true","stats":{"checkinsCount":"40","usersCount":"38","tipCount":"2"},"specials":{"count":"0"},"hereNow":{"count":"0"},"referralId":"v-1392477982"},{"id":"5288f077498e6f9045e1d230","name":"Columbia Road Gallery","contact":{"phone":"+447812196257","formattedPhone":"+44 7812 196257","twitter":"gallerycr"},"location":{"address":"7 The Courtyard, Ezra Street","lat":"51.529438242764584","lng":"-0.06934314966201782","distance":"107","postalCode":"E2 7RH","cc":"GB","city":"London","state":"Greater London","country":"United Kingdom"},"categories":[{"id":"4bf58dd8d48988d1e2931735","name":"Art Gallery","pluralName":"Art Galleries","shortName":"Art Gallery","icon":{"prefix":"https:\/\/ss1.4sqi.net\/img\/categories_v2\/arts_entertainment\/artgallery_","suffix":".png"},"primary":"true"}],"verified":"false","restricted":"true","stats":{"checkinsCount":"2","usersCount":"2","tipCount":"0"},"specials":{"count":"0"},"hereNow":{"count":"0"},"referralId":"v-1392477982"},{"id":"4dd9153c52b1a5c644745558","name":"Start Coffee","location":{"address":"150 Columbia Rd","lat":"51.52975502011614","lng":"-0.068937","distance":"94","cc":"GB","city":"Hackney","state":"Greater London","country":"United Kingdom"},"categories":[{"id":"4bf58dd8d48988d1e0931735","name":"Coffee Shop","pluralName":"Coffee Shops","shortName":"Coffee Shop","icon":{"prefix":"https:\/\/ss1.4sqi.net\/img\/categories_v2\/food\/coffeeshop_","suffix":".png"},"primary":"true"}],"verified":"false","restricted":"true","stats":{"checkinsCount":"44","usersCount":"40","tipCount":"2"},"specials":{"count":"0"},"hereNow":{"count":"0"},"referralId":"v-1392477982"},{"id":"52064c11498eaeea944044af","name":"A Portuguese Love Affair","location":{"lat":"51.52949905395508","lng":"-0.06939010322093964","distance":"112","cc":"GB","country":"United Kingdom"},"categories":[{"id":"4bf58dd8d48988d146941735","name":"Deli \/ Bodega","pluralName":"Delis \/ Bodegas","shortName":"Deli \/ Bodega","icon":{"prefix":"https:\/\/ss1.4sqi.net\/img\/categories_v2\/food\/deli_","suffix":".png"},"primary":"true"}],"verified":"false","restricted":"true","stats":{"checkinsCount":"9","usersCount":"9","tipCount":"0"},"specials":{"count":"0"},"hereNow":{"count":"0"},"referralId":"v-1392477982"},{"id":"4bae6c2cf964a52061b03be3","name":"E27by","location":{"address":"17 Baxendale Street","lat":"51.52899123103137","lng":"-0.0666595804631993","distance":"85","cc":"GB","city":"Hackney","state":"Greater London","country":"United Kingdom"},"verified":"false","restricted":"true","stats":{"checkinsCount":"7","usersCount":"2","tipCount":"0"},"specials":{"count":"0"},"hereNow":{"count":"0"},"referralId":"v-1392477982"},{"id":"50ae8a91e4b0708d890bda4a","name":"Saint Cecilia's","location":{"lat":"51.5287","lng":"-0.067191","distance":"78","cc":"GB","country":"United Kingdom"},"categories":[{"id":"4bf58dd8d48988d1d4941735","name":"Speakeasy","pluralName":"Speakeasies","shortName":"Speakeasy","icon":{"prefix":"https:\/\/ss1.4sqi.net\/img\/categories_v2\/nightlife\/secretbar_","suffix":".png"},"primary":"true"}],"verified":"false","restricted":"true","stats":{"checkinsCount":"34","usersCount":"6","tipCount":"0"},"specials":{"count":"0"},"hereNow":{"count":"0"},"referralId":"v-1392477982"},{"id":"4c4cbbf650710f4707988d32","name":"Baxendale Spa Retreat","location":{"address":"Baxendale Street","lat":"51.529722","lng":"-0.067924","distance":"48","cc":"GB","city":"Poplar","state":"Greater London","country":"United Kingdom"},"categories":[{"id":"4bf58dd8d48988d1f1931735","name":"General Entertainment","pluralName":"General Entertainment","shortName":"Entertainment","icon":{"prefix":"https:\/\/ss1.4sqi.net\/img\/categories_v2\/arts_entertainment\/default_","suffix":".png"},"primary":"true"}],"verified":"false","restricted":"true","stats":{"checkinsCount":"15","usersCount":"4","tipCount":"0"},"specials":{"count":"0"},"hereNow":{"count":"0"},"referralId":"v-1392477982"},{"id":"4c4cbb7d13d120a1eedccb00","name":"Baxendale Odeon","location":{"lat":"51.529769","lng":"-0.067892","distance":"53","cc":"GB","country":"United Kingdom"},"categories":[{"id":"4bf58dd8d48988d180941735","name":"Multiplex","pluralName":"Multiplexes","shortName":"Cineplex","icon":{"prefix":"https:\/\/ss1.4sqi.net\/img\/categories_v2\/arts_entertainment\/movietheater_cineplex_","suffix":".png"},"primary":"true"}],"verified":"false","restricted":"true","stats":{"checkinsCount":"23","usersCount":"5","tipCount":"2"},"specials":{"count":"0"},"hereNow":{"count":"0"},"referralId":"v-1392477982"},{"id":"50c339efe4b0794e99886873","name":"Choosing Keeping","location":{"address":"128 Columbia Road","lat":"51.52934381581716","lng":"-0.06956990452592177","distance":"122","cc":"GB","country":"United Kingdom"},"categories":[{"id":"4bf58dd8d48988d121951735","name":"Paper \/ Office Supplies Store","pluralName":"Paper \/ Office Supplies Stores","shortName":"Office Supplies","icon":{"prefix":"https:\/\/ss1.4sqi.net\/img\/categories_v2\/shops\/papergoods_","suffix":".png"},"primary":"true"}],"verified":"false","restricted":"true","stats":{"checkinsCount":"27","usersCount":"19","tipCount":"2"},"specials":{"count":"0"},"hereNow":{"count":"0"},"referralId":"v-1392477982"},{"id":"4f93eb4ce4b0cd2d53f31e6a","name":"Warren Evans","location":{"address":"Ezra Street","lat":"51.529779","lng":"-0.069872","distance":"153","cc":"GB","city":"London","state":"Greater London","country":"United Kingdom"},"categories":[{"id":"4bf58dd8d48988d1f8941735","name":"Furniture \/ Home Store","pluralName":"Furniture \/ Home Stores","shortName":"Furniture \/ Home","icon":{"prefix":"https:\/\/ss1.4sqi.net\/img\/categories_v2\/shops\/furniture_","suffix":".png"},"primary":"true"}],"verified":"false","restricted":"true","stats":{"checkinsCount":"19","usersCount":"15","tipCount":"0"},"specials":{"count":"0"},"hereNow":{"count":"0"},"referralId":"v-1392477982"},{"id":"508d35bee4b032d8bf156f35","name":"Future Mapping Company","location":{"address":"148A Columbia Rd","lat":"51.52955458179639","lng":"-0.06916871279722693","distance":"99","postalCode":"E2","cc":"GB","city":"Hackney","state":"Greater London","country":"United Kingdom"},"categories":[{"id":"4bf58dd8d48988d1f4941735","name":"Design Studio","pluralName":"Design Studios","shortName":"Design","icon":{"prefix":"https:\/\/ss1.4sqi.net\/img\/categories_v2\/shops\/design_","suffix":".png"},"primary":"true"}],"verified":"false","restricted":"true","stats":{"checkinsCount":"13","usersCount":"11","tipCount":"0"},"specials":{"count":"0"},"hereNow":{"count":"0"},"referralId":"v-1392477982"},{"id":"4d986123942ba093bc48838c","name":"Wawa","location":{"lat":"51.529547","lng":"-0.070051","distance":"158","cc":"GB","country":"United Kingdom"},"categories":[{"id":"4bf58dd8d48988d127951735","name":"Arts & Crafts Store","pluralName":"Arts & Crafts Stores","shortName":"Arts & Crafts","icon":{"prefix":"https:\/\/ss1.4sqi.net\/img\/categories_v2\/shops\/artstore_","suffix":".png"},"primary":"true"}],"verified":"false","restricted":"true","stats":{"checkinsCount":"9","usersCount":"9","tipCount":"0"},"specials":{"count":"0"},"hereNow":{"count":"0"},"referralId":"v-1392477982"},{"id":"4e4b97447d8b6016b189e0c0","name":"Canteen Hackney Road","location":{"lat":"51.529858","lng":"-0.068144","distance":"67","cc":"GB","city":"Poplar","state":"Greater London","country":"United Kingdom"},"categories":[{"id":"4bf58dd8d48988d16d941735","name":"Caf\u00e9","pluralName":"Caf\u00e9s","shortName":"Caf\u00e9","icon":{"prefix":"https:\/\/ss1.4sqi.net\/img\/categories_v2\/food\/cafe_","suffix":".png"},"primary":"true"}],"verified":"false","restricted":"true","stats":{"checkinsCount":"2","usersCount":"2","tipCount":"0"},"specials":{"count":"0"},"hereNow":{"count":"0"},"referralId":"v-1392477982"},{"id":"4b1120f6f964a5203d7823e3","name":"Campania","location":{"address":"Columbia road","lat":"51.529692","lng":"-0.068664","distance":"74","cc":"GB","city":"London","state":"Greater London","country":"United Kingdom"},"categories":[{"id":"4bf58dd8d48988d110941735","name":"Italian Restaurant","pluralName":"Italian Restaurants","shortName":"Italian","icon":{"prefix":"https:\/\/ss1.4sqi.net\/img\/categories_v2\/food\/italian_","suffix":".png"},"primary":"true"}],"verified":"false","restricted":"true","stats":{"checkinsCount":"45","usersCount":"38","tipCount":"0"},"specials":{"count":"0"},"hereNow":{"count":"0"},"referralId":"v-1392477982"},{"id":"4da993f48154abafc2966b6b","name":"Elphick's","location":{"address":"160 Columbia Rd","lat":"51.52969943","lng":"-0.06893419","distance":"90","postalCode":"E2 7","cc":"GB","city":"Poplar","state":"Greater London","country":"United Kingdom"},"categories":[{"id":"4bf58dd8d48988d127951735","name":"Arts & Crafts Store","pluralName":"Arts & Crafts Stores","shortName":"Arts & Crafts","icon":{"prefix":"https:\/\/ss1.4sqi.net\/img\/categories_v2\/shops\/artstore_","suffix":".png"},"primary":"true"}],"verified":"false","restricted":"true","stats":{"checkinsCount":"24","usersCount":"22","tipCount":"1"},"specials":{"count":"0"},"hereNow":{"count":"0"},"referralId":"v-1392477982"},{"id":"4c260014b012b713b0cb0893","name":"Ryantown","contact":{"phone":"+442076131510","formattedPhone":"+44 20 7613 1510"},"location":{"address":"126 Columbia Road","lat":"51.529216","lng":"-0.069901","distance":"145","postalCode":"E2 7RG","cc":"GB","city":"London","state":"Greater London","country":"United Kingdom"},"categories":[{"id":"4bf58dd8d48988d127951735","name":"Arts & Crafts Store","pluralName":"Arts & Crafts Stores","shortName":"Arts & Crafts","icon":{"prefix":"https:\/\/ss1.4sqi.net\/img\/categories_v2\/shops\/artstore_","suffix":".png"},"primary":"true"}],"verified":"false","restricted":"true","stats":{"checkinsCount":"50","usersCount":"41","tipCount":"1"},"specials":{"count":"0"},"hereNow":{"count":"0"},"referralId":"v-1392477983"},{"id":"4ac518baf964a520cca120e3","name":"Jones Dairy Cafe","location":{"address":"23 Ezra Street","lat":"51.529736368599245","lng":"-0.069542","distance":"130","postalCode":"E2 7RH","cc":"GB","city":"London","state":"Greater London","country":"United Kingdom"},"categories":[{"id":"4bf58dd8d48988d143941735","name":"Breakfast Spot","pluralName":"Breakfast Spots","shortName":"Breakfast","icon":{"prefix":"https:\/\/ss1.4sqi.net\/img\/categories_v2\/food\/breakfast_","suffix":".png"},"primary":"true"}],"verified":"false","restricted":"true","stats":{"checkinsCount":"154","usersCount":"118","tipCount":"8"},"specials":{"count":"0"},"hereNow":{"count":"0"},"referralId":"v-1392477983"}],"confident":"false"}}