{"meta":{"code":"200"},"response":{"venues":[{"id":"4b18d7c6f964a5201fd623e3","name":"RAK Studios","contact":{"twitter":"rak_studios"},"location":{"address":"42-48 Charlbert Street","crossStreet":"Allitsen Road","lat":"51.534213","lng":"-0.167538","distance":"20","postalCode":"NW8 7BU","cc":"GB","city":"London","state":"Greater London","country":"United Kingdom"},"categories":[{"id":"4bf58dd8d48988d1e5931735","name":"Music Venue","pluralName":"Music Venues","shortName":"Music Venue","icon":{"prefix":"https:\/\/ss1.4sqi.net\/img\/categories_v2\/arts_entertainment\/musicvenue_","suffix":".png"},"primary":"true"}],"verified":"false","restricted":"true","stats":{"checkinsCount":"700","usersCount":"61","tipCount":"1"},"url":"http:\/\/rakstudios.co.uk","specials":{"count":"0"},"hereNow":{"count":"0"},"referralId":"v-1392477959"},{"id":"4c5e85a07735c9b681229272","name":"St Johns Wood Dry Cleaners","location":{"address":"47 Charlebert Street","lat":"51.534541","lng":"-0.168483","distance":"54","postalCode":"Nw8 6jn","cc":"GB","city":"London","state":"Greater London","country":"United Kingdom"},"categories":[{"id":"4bf58dd8d48988d1fc941735","name":"Laundry Service","pluralName":"Laundry Services","shortName":"Laundry","icon":{"prefix":"https:\/\/ss1.4sqi.net\/img\/categories_v2\/shops\/laundry_","suffix":".png"},"primary":"true"}],"verified":"false","restricted":"true","stats":{"checkinsCount":"169","usersCount":"12","tipCount":"0"},"specials":{"count":"0"},"hereNow":{"count":"0"},"referralId":"v-1392477959"},{"id":"4ba4d6daf964a520e5b938e3","name":"Star Tavern","contact":{"phone":"+442077221051","formattedPhone":"+44 20 7722 1051"},"location":{"address":"38 Saint John's Wood Terrace","lat":"51.53494762482159","lng":"-0.16892412384664798","distance":"106","postalCode":"NW8 6LS","cc":"GB","city":"London","state":"Greater London","country":"United Kingdom"},"categories":[{"id":"4bf58dd8d48988d11b941735","name":"Pub","pluralName":"Pubs","shortName":"Pub","icon":{"prefix":"https:\/\/ss1.4sqi.net\/img\/categories_v2\/nightlife\/pub_","suffix":".png"},"primary":"true"}],"verified":"false","restricted":"true","stats":{"checkinsCount":"629","usersCount":"113","tipCount":"4"},"specials":{"count":"0"},"hereNow":{"count":"0"},"referralId":"v-1392477959"},{"id":"4baf5a4df964a520bdf93be3","name":"Harry Morgan","contact":{"phone":"+442077221869","formattedPhone":"+44 20 7722 1869"},"location":{"address":"29-31 High St.","lat":"51.53291281524111","lng":"-0.1698264082527526","distance":"207","postalCode":"NW8 7NH","cc":"GB","city":"St John's Wood","state":"Greater London","country":"United Kingdom"},"categories":[{"id":"4bf58dd8d48988d146941735","name":"Deli \/ Bodega","pluralName":"Delis \/ Bodegas","shortName":"Deli \/ Bodega","icon":{"prefix":"https:\/\/ss1.4sqi.net\/img\/categories_v2\/food\/deli_","suffix":".png"},"primary":"true"}],"verified":"false","restricted":"true","stats":{"checkinsCount":"697","usersCount":"337","tipCount":"19"},"url":"http:\/\/www.harryms.co.uk","reservations":{"url":"http:\/\/www.toptable.co.uk\/single.aspx?rid=80716&ref=9601"},"menu":{"type":"Menu","label":"Menu","anchor":"View Menu","url":"https:\/\/foursquare.com\/v\/harry-morgan\/4baf5a4df964a520bdf93be3\/menu","mobileUrl":"https:\/\/foursquare.com\/v\/4baf5a4df964a520bdf93be3\/device_menu"},"specials":{"count":"0"},"hereNow":{"count":"0"},"referralId":"v-1392477959"},{"id":"4bc0ca8dabf49521a9e2bf93","name":"Carluccio's","contact":{"phone":"+442074490404","formattedPhone":"+44 20 7449 0404","twitter":"carluccioscaffe"},"location":{"address":"60 St. John's Wood High St","crossStreet":"at Allisten Rd","lat":"51.532268160844","lng":"-0.16930103302001953","distance":"247","postalCode":"NW8 7SH","cc":"GB","city":"St. John's Wood","state":"Greater London","country":"United Kingdom"},"categories":[{"id":"4bf58dd8d48988d110941735","name":"Italian Restaurant","pluralName":"Italian Restaurants","shortName":"Italian","icon":{"prefix":"https:\/\/ss1.4sqi.net\/img\/categories_v2\/food\/italian_","suffix":".png"},"primary":"true"}],"verified":"false","restricted":"true","stats":{"checkinsCount":"597","usersCount":"339","tipCount":"9"},"url":"http:\/\/www.carluccios.com","specials":{"count":"0"},"hereNow":{"count":"0"},"referralId":"v-1392477959"},{"id":"4befe949c601a593e911c3d1","name":"Cafe Rouge","location":{"address":"St John's Wood High Street","lat":"51.533327753884535","lng":"-0.17041009629447268","distance":"209","cc":"GB","city":"Paddington","state":"Greater London","country":"United Kingdom"},"categories":[{"id":"4bf58dd8d48988d10c941735","name":"French Restaurant","pluralName":"French Restaurants","shortName":"French","icon":{"prefix":"https:\/\/ss1.4sqi.net\/img\/categories_v2\/food\/french_","suffix":".png"},"primary":"true"}],"verified":"false","restricted":"true","stats":{"checkinsCount":"529","usersCount":"318","tipCount":"8"},"specials":{"count":"0"},"hereNow":{"count":"1","groups":[{"type":"others","name":"Other people here","count":"1"}]},"referralId":"v-1392477959"},{"id":"4bae2fb2f964a520578f3be3","name":"The Bread Shop","contact":{"twitter":"thebreadshop"},"location":{"address":"65 St Johns Wood High St","lat":"51.53370211590137","lng":"-0.17104456905438914","distance":"233","postalCode":"NW8","cc":"GB","city":"London","state":"Greater London","country":"United Kingdom"},"categories":[{"id":"4bf58dd8d48988d16a941735","name":"Bakery","pluralName":"Bakeries","shortName":"Bakery","icon":{"prefix":"https:\/\/ss1.4sqi.net\/img\/categories_v2\/food\/bakery_","suffix":".png"},"primary":"true"}],"verified":"false","restricted":"true","stats":{"checkinsCount":"452","usersCount":"117","tipCount":"5"},"specials":{"count":"0"},"hereNow":{"count":"0"},"referralId":"v-1392477959"},{"id":"4bcf66e40ffdce72676fb2c0","name":"The New Inn","contact":{"phone":"+442077220726","formattedPhone":"+44 20 7722 0726","twitter":"the_newinn","facebook":"183342068345713"},"location":{"address":"2 Allitsen Rd.","lat":"51.535434080132646","lng":"-0.16603983382385296","distance":"176","postalCode":"NW8 6LA","cc":"GB","city":"St John's Wood","state":"Greater London","country":"United Kingdom"},"categories":[{"id":"4bf58dd8d48988d11b941735","name":"Pub","pluralName":"Pubs","shortName":"Pub","icon":{"prefix":"https:\/\/ss1.4sqi.net\/img\/categories_v2\/nightlife\/pub_","suffix":".png"},"primary":"true"}],"verified":"true","restricted":"true","stats":{"checkinsCount":"226","usersCount":"124","tipCount":"3"},"url":"http:\/\/www.newinnlondon.co.uk","reservations":{"url":"http:\/\/www.toptable.co.uk\/single.aspx?rid=78052&ref=9601"},"menu":{"type":"Menu","label":"Menu","anchor":"View Menu","url":"https:\/\/foursquare.com\/v\/the-new-inn\/4bcf66e40ffdce72676fb2c0\/menu","mobileUrl":"https:\/\/foursquare.com\/v\/4bcf66e40ffdce72676fb2c0\/device_menu"},"specials":{"count":"1","items":[{"id":"5031218febca1eac27da1a83","type":"frequency","message":"15% off lunch food, Monday - Friday.","description":"Unlocked every check-in","finePrint":"Ask for Nick. Enjoy. :-)","icon":"check-in","title":"Check-in Special","provider":"foursquare","redemption":"standard","page":{"id":"35205684","firstName":"The New Inn","gender":"none","photo":{"prefix":"https:\/\/irs1.4sqi.net\/img\/user\/","suffix":"\/35205684-1XI40JSJXEMYA5HB.png"},"type":"venuePage","venue":{"id":"4bcf66e40ffdce72676fb2c0"},"tips":{"count":"1"},"homeCity":"St John's Wood, Greater London","bio":"","contact":{"facebook":"183342068345713"}}}]},"hereNow":{"count":"1","groups":[{"type":"others","name":"Other people here","count":"1"}]},"venuePage":{"id":"35205684"},"storeId":"","referralId":"v-1392477959"},{"id":"4d6291901ee8721e5675c221","name":"TfL Barclays Cycle Hire - Charlbert Street","location":{"address":"Charlbert Street","crossStreet":"at Allitsen Road","lat":"51.534190269026304","lng":"-0.1679706573486328","distance":"15","cc":"GB","city":"London","state":"Greater London","country":"United Kingdom"},"categories":[{"id":"4e4c9077bd41f78e849722f9","name":"Bike Rental \/ Bike Share","pluralName":"Bike Rentals \/ Bike Shares","shortName":"Bike","icon":{"prefix":"https:\/\/ss1.4sqi.net\/img\/categories_v2\/shops\/bikeshop_","suffix":".png"},"primary":"true"}],"verified":"false","restricted":"true","stats":{"checkinsCount":"51","usersCount":"6","tipCount":"0"},"specials":{"count":"0"},"hereNow":{"count":"0"},"referralId":"v-1392477959"},{"id":"4b07f400f964a520820123e3","name":"Fego Caffe","contact":{"phone":"+442074831826","formattedPhone":"+44 20 7483 1826"},"location":{"address":"64 St John's Wood High Street","lat":"51.532446347521685","lng":"-0.16941562732768076","distance":"233","postalCode":"NW8 7SH","cc":"GB","city":"St John's Wood","state":"Greater London","country":"United Kingdom"},"categories":[{"id":"4bf58dd8d48988d16d941735","name":"Caf\u00e9","pluralName":"Caf\u00e9s","shortName":"Caf\u00e9","icon":{"prefix":"https:\/\/ss1.4sqi.net\/img\/categories_v2\/food\/cafe_","suffix":".png"},"primary":"true"}],"verified":"false","restricted":"true","stats":{"checkinsCount":"295","usersCount":"153","tipCount":"5"},"url":"http:\/\/www.fegocaffe.co.uk","reservations":{"url":"http:\/\/www.toptable.co.uk\/single.aspx?rid=93834&ref=9601"},"menu":{"type":"Menu","label":"Menu","anchor":"View Menu","url":"https:\/\/foursquare.com\/v\/fego-caffe\/4b07f400f964a520820123e3\/menu","mobileUrl":"https:\/\/foursquare.com\/v\/4b07f400f964a520820123e3\/device_menu"},"specials":{"count":"0"},"hereNow":{"count":"0"},"referralId":"v-1392477959"},{"id":"5216d193498ebff9d1963304","name":"St Johns Wood High Street","location":{"lat":"51.53244625640666","lng":"-0.1684215931090928","distance":"209","cc":"GB","country":"United Kingdom"},"categories":[{"id":"4d954b06a243a5684965b473","name":"Residential Building (Apartment \/ Condo)","pluralName":"Residential Buildings (Apartments \/ Condos)","shortName":"Residential","icon":{"prefix":"https:\/\/ss1.4sqi.net\/img\/categories_v2\/building\/apartment_","suffix":".png"},"primary":"true"}],"verified":"false","restricted":"true","stats":{"checkinsCount":"22","usersCount":"16","tipCount":"0"},"specials":{"count":"0"},"hereNow":{"count":"0"},"referralId":"v-1392477959"},{"id":"5151d553e4b0cbcf6d074c1d","name":"St John's Wood Barbers","location":{"lat":"51.534967253653925","lng":"-0.16892011270401938","distance":"108","cc":"GB","country":"United Kingdom"},"categories":[{"id":"4bf58dd8d48988d110951735","name":"Salon \/ Barbershop","pluralName":"Salons \/ Barbershops","shortName":"Salon \/ Barbershop","icon":{"prefix":"https:\/\/ss1.4sqi.net\/img\/categories_v2\/shops\/salon_barber_","suffix":".png"},"primary":"true"}],"verified":"false","restricted":"true","stats":{"checkinsCount":"13","usersCount":"8","tipCount":"0"},"specials":{"count":"0"},"hereNow":{"count":"0"},"referralId":"v-1392477959"},{"id":"523ce42e498ee053c478b39d","name":"Oslo Court","location":{"address":"Prince Albert Road, St. John's Wood","lat":"51.53334867502564","lng":"-0.16659700369484579","distance":"133","postalCode":"NW8 7EN","cc":"GB","city":"London","state":"Greater London","country":"United Kingdom"},"categories":[{"id":"4d954b06a243a5684965b473","name":"Residential Building (Apartment \/ Condo)","pluralName":"Residential Buildings (Apartments \/ Condos)","shortName":"Residential","icon":{"prefix":"https:\/\/ss1.4sqi.net\/img\/categories_v2\/building\/apartment_","suffix":".png"},"primary":"true"}],"verified":"false","restricted":"true","stats":{"checkinsCount":"19","usersCount":"12","tipCount":"0"},"specials":{"count":"0"},"hereNow":{"count":"0"},"referralId":"v-1392477959"},{"id":"4bbcb8b3a8cf76b01ed8b0fd","name":"Kailash Centre of Oriental Medicine","location":{"lat":"51.533125","lng":"-0.167823","distance":"129","cc":"GB","country":"United Kingdom"},"verified":"false","restricted":"true","stats":{"checkinsCount":"23","usersCount":"9","tipCount":"0"},"specials":{"count":"0"},"hereNow":{"count":"0"},"referralId":"v-1392477959"},{"id":"4b009c23f964a520f23f22e3","name":"The Rotisserie","contact":{"phone":"+442077227444","formattedPhone":"+44 20 7722 7444"},"location":{"address":"87 Allitsen Rd","lat":"51.533776","lng":"-0.169488","distance":"129","postalCode":"NW8 7AS","cc":"GB","city":"London","state":"Greater London","country":"United Kingdom"},"categories":[{"id":"4bf58dd8d48988d1c4941735","name":"Restaurant","pluralName":"Restaurants","shortName":"Restaurant","icon":{"prefix":"https:\/\/ss1.4sqi.net\/img\/categories_v2\/food\/default_","suffix":".png"},"primary":"true"}],"verified":"false","restricted":"true","stats":{"checkinsCount":"113","usersCount":"70","tipCount":"2"},"menu":{"type":"Menu","label":"Menu","anchor":"View Menu","url":"https:\/\/foursquare.com\/v\/the-rotisserie\/4b009c23f964a520f23f22e3\/menu","mobileUrl":"https:\/\/foursquare.com\/v\/4b009c23f964a520f23f22e3\/device_menu"},"specials":{"count":"0"},"hereNow":{"count":"0"},"referralId":"v-1392477959"},{"id":"51cb1fec50199949c1ada02e","name":"The VIP Beauty Club @ The Beauty Centre NW8","contact":{"phone":"+442075861513","formattedPhone":"+44 20 7586 1513","twitter":"vipclubnw8"},"location":{"address":"130 Allitsen Road","lat":"51.53420361671605","lng":"-0.16831398010253903","distance":"36","postalCode":"NW8 7AU","cc":"GB","city":"St Johns Wood","state":"Greater London","country":"United Kingdom"},"categories":[{"id":"4bf58dd8d48988d1ed941735","name":"Spa","pluralName":"Spas","shortName":"Spa","icon":{"prefix":"https:\/\/ss1.4sqi.net\/img\/categories_v2\/shops\/spa_","suffix":".png"},"primary":"true"}],"verified":"false","restricted":"true","stats":{"checkinsCount":"0","usersCount":"0","tipCount":"0"},"specials":{"count":"0"},"hereNow":{"count":"0"},"referralId":"v-1392477959"},{"id":"4c311e74452620a1f12b200f","name":"Swallow House","location":{"address":"Allitsen rd","lat":"51.534131","lng":"-0.168257","distance":"36","cc":"GB","city":"Westminster","state":"Greater London","country":"United Kingdom"},"verified":"false","restricted":"true","stats":{"checkinsCount":"35","usersCount":"5","tipCount":"0"},"specials":{"count":"0"},"hereNow":{"count":"0"},"referralId":"v-1392477959"},{"id":"523ce30a11d26f2355931d8f","name":"Oslo Court","location":{"address":"Prince Albert Road, St. John's Wood","lat":"51.5333334666873","lng":"-0.1666195790539552","distance":"134","postalCode":"NW8 7EN","cc":"GB","city":"London","state":"Greater London","country":"United Kingdom"},"categories":[{"id":"4bf58dd8d48988d164941735","name":"Plaza","pluralName":"Plazas","shortName":"Plaza","icon":{"prefix":"https:\/\/ss1.4sqi.net\/img\/categories_v2\/parks_outdoors\/plaza_","suffix":".png"},"primary":"true"}],"verified":"false","restricted":"true","stats":{"checkinsCount":"13","usersCount":"6","tipCount":"0"},"specials":{"count":"0"},"hereNow":{"count":"0"},"referralId":"v-1392477959"},{"id":"513c946ee4b0334dabf356e5","name":"Snog Pure Frozen Yogurt","contact":{"twitter":"ifancyasnog"},"location":{"address":"1A St. John's Wood High Street","crossStreet":"Wellington Place","lat":"51.532287","lng":"-0.169029","distance":"238","postalCode":"NW8 7NG","cc":"GB","city":"London","state":"Greater London","country":"United Kingdom"},"categories":[{"id":"4bf58dd8d48988d1d0941735","name":"Dessert Shop","pluralName":"Dessert Shops","shortName":"Desserts","icon":{"prefix":"https:\/\/ss1.4sqi.net\/img\/categories_v2\/food\/dessert_","suffix":".png"},"primary":"true"}],"verified":"false","restricted":"true","stats":{"checkinsCount":"95","usersCount":"62","tipCount":"2"},"specials":{"count":"0"},"hereNow":{"count":"0"},"referralId":"v-1392477959"},{"id":"4c1ceb408b3aa5931a9a995f","name":"Maison Blanc","location":{"address":"St Johns Wood High Street","lat":"51.53310745648972","lng":"-0.1702645837311259","distance":"215","cc":"GB","city":"London","state":"Greater London","country":"United Kingdom"},"categories":[{"id":"4bf58dd8d48988d16d941735","name":"Caf\u00e9","pluralName":"Caf\u00e9s","shortName":"Caf\u00e9","icon":{"prefix":"https:\/\/ss1.4sqi.net\/img\/categories_v2\/food\/cafe_","suffix":".png"},"primary":"true"}],"verified":"false","restricted":"true","stats":{"checkinsCount":"174","usersCount":"112","tipCount":"3"},"specials":{"count":"0"},"hereNow":{"count":"0"},"referralId":"v-1392477959"},{"id":"4e370504d22d303459e58312","name":"Passion Hair","location":{"address":"53B Allitsen Road","lat":"51.53485422259139","lng":"-0.1679506073651907","distance":"63","postalCode":"NW8 7DE","cc":"GB","city":"London","state":"Greater London","country":"United Kingdom"},"verified":"false","restricted":"true","stats":{"checkinsCount":"28","usersCount":"10","tipCount":"0"},"specials":{"count":"0"},"hereNow":{"count":"0"},"referralId":"v-1392477959"},{"id":"4cc2d850be40a35d0cf3734c","name":"Hair By Partners","location":{"address":"66 St Johns Wood High Street","lat":"51.534303225353774","lng":"-0.17070417823093084","distance":"200","cc":"GB","country":"United Kingdom"},"categories":[{"id":"4bf58dd8d48988d110951735","name":"Salon \/ Barbershop","pluralName":"Salons \/ Barbershops","shortName":"Salon \/ Barbershop","icon":{"prefix":"https:\/\/ss1.4sqi.net\/img\/categories_v2\/shops\/salon_barber_","suffix":".png"},"primary":"true"}],"verified":"false","restricted":"true","stats":{"checkinsCount":"22","usersCount":"13","tipCount":"0"},"specials":{"count":"0"},"hereNow":{"count":"0"},"referralId":"v-1392477959"},{"id":"4bfd6f20b68d0f4789c8e857","name":"Gelato Mio","location":{"address":"138 St Johns Wood High St.","lat":"51.533645383749764","lng":"-0.17113160069975275","distance":"241","cc":"GB","city":"London","country":"United Kingdom"},"categories":[{"id":"4bf58dd8d48988d1c9941735","name":"Ice Cream Shop","pluralName":"Ice Cream Shops","shortName":"Ice Cream","icon":{"prefix":"https:\/\/ss1.4sqi.net\/img\/categories_v2\/food\/icecream_","suffix":".png"},"primary":"true"}],"verified":"false","restricted":"true","stats":{"checkinsCount":"419","usersCount":"191","tipCount":"7"},"menu":{"type":"Menu","label":"Menu","anchor":"View Menu","url":"https:\/\/foursquare.com\/v\/gelato-mio\/4bfd6f20b68d0f4789c8e857\/menu","mobileUrl":"https:\/\/foursquare.com\/v\/4bfd6f20b68d0f4789c8e857\/device_menu"},"specials":{"count":"0"},"hereNow":{"count":"0"},"referralId":"v-1392477959"},{"id":"4b698546f964a520ada52be3","name":"Sahara Lebanese Restaurant","location":{"address":"7 St. John's Wood High St.","lat":"51.53243625223568","lng":"-0.1694294520650806","distance":"234","postalCode":"NW8 7NG","cc":"GB","city":"London","state":"Greater London","country":"United Kingdom"},"categories":[{"id":"4bf58dd8d48988d115941735","name":"Middle Eastern Restaurant","pluralName":"Middle Eastern Restaurants","shortName":"Middle Eastern","icon":{"prefix":"https:\/\/ss1.4sqi.net\/img\/categories_v2\/food\/default_","suffix":".png"},"primary":"true"}],"verified":"false","restricted":"true","stats":{"checkinsCount":"144","usersCount":"98","tipCount":"3"},"url":"http:\/\/www.sahararestaurant.co","menu":{"type":"Menu","label":"Menu","anchor":"View Menu","url":"https:\/\/foursquare.com\/v\/sahara-lebanese-restaurant\/4b698546f964a520ada52be3\/menu","mobileUrl":"https:\/\/foursquare.com\/v\/4b698546f964a520ada52be3\/device_menu"},"specials":{"count":"0"},"hereNow":{"count":"0"},"referralId":"v-1392477959"},{"id":"4c2372829085d13a92de87cc","name":"Browns","location":{"address":"Chalbert St.","lat":"51.533776488703516","lng":"-0.16730546951293945","distance":"66","cc":"GB","city":"St John's Wood","state":"Greater London","country":"United Kingdom"},"verified":"false","restricted":"true","stats":{"checkinsCount":"4","usersCount":"4","tipCount":"1"},"specials":{"count":"0"},"hereNow":{"count":"0"},"referralId":"v-1392477959"},{"id":"4c0bad04bbc676b0bad44bd5","name":"Neal's Yard Remedies","location":{"address":"St John's Wood High Street","crossStreet":"at Allisten Road","lat":"51.533368830995904","lng":"-0.17040390575125108","distance":"207","cc":"GB","city":"City of Westminster","state":"Greater London","country":"United Kingdom"},"categories":[{"id":"4bf58dd8d48988d10c951735","name":"Cosmetics Shop","pluralName":"Cosmetics Shops","shortName":"Cosmetics","icon":{"prefix":"https:\/\/ss1.4sqi.net\/img\/categories_v2\/shops\/beauty_cosmetic_","suffix":".png"},"primary":"true"}],"verified":"false","restricted":"true","stats":{"checkinsCount":"17","usersCount":"3","tipCount":"0"},"specials":{"count":"0"},"hereNow":{"count":"0"},"referralId":"v-1392477959"},{"id":"50c48256e4b0de89d0ef673c","name":"square one","location":{"lat":"51.53371723558832","lng":"-0.171125313662356","distance":"238","cc":"GB","country":"United Kingdom"},"categories":[{"id":"4bf58dd8d48988d106951735","name":"Men's Store","pluralName":"Men's Stores","shortName":"Men's Store","icon":{"prefix":"https:\/\/ss1.4sqi.net\/img\/categories_v2\/shops\/apparel_men_","suffix":".png"},"primary":"true"}],"verified":"false","restricted":"true","stats":{"checkinsCount":"7","usersCount":"3","tipCount":"0"},"specials":{"count":"0"},"hereNow":{"count":"0"},"referralId":"v-1392477959"},{"id":"5227988311d21181498a03e6","name":"Tuck London HQ","location":{"address":"84, St. John's Wood High St.","lat":"51.532872","lng":"-0.169997","distance":"219","cc":"GB","city":"London","state":"Greater London","country":"United Kingdom"},"categories":[{"id":"4bf58dd8d48988d1a3941735","name":"College Residence Hall","pluralName":"College Residence Halls","shortName":"Residence Hall","icon":{"prefix":"https:\/\/ss1.4sqi.net\/img\/categories_v2\/education\/residencehall_","suffix":".png"},"primary":"true"}],"verified":"false","restricted":"true","stats":{"checkinsCount":"12","usersCount":"3","tipCount":"1"},"specials":{"count":"0"},"hereNow":{"count":"0"},"referralId":"v-1392477959"},{"id":"4eda43740e61d46ad7d2492f","name":"Leonidas","location":{"address":"St John's Wood High Street","lat":"51.53359936414785","lng":"-0.17096929337162814","distance":"232","cc":"GB","country":"United Kingdom"},"categories":[{"id":"4bf58dd8d48988d117951735","name":"Candy Store","pluralName":"Candy Stores","shortName":"Candy Store","icon":{"prefix":"https:\/\/ss1.4sqi.net\/img\/categories_v2\/shops\/candystore_","suffix":".png"},"primary":"true"}],"verified":"false","restricted":"true","stats":{"checkinsCount":"5","usersCount":"5","tipCount":"1"},"specials":{"count":"0"},"hereNow":{"count":"0"},"referralId":"v-1392477959"},{"id":"5233206311d201b0dadab6ad","name":"shelf","location":{"lat":"51.5348014831543","lng":"-0.16711780428886414","distance":"74","cc":"GB","country":"United Kingdom"},"categories":[{"id":"4bf58dd8d48988d1a7941735","name":"College Library","pluralName":"College Libraries","shortName":"Library","icon":{"prefix":"https:\/\/ss1.4sqi.net\/img\/categories_v2\/building\/library_","suffix":".png"},"primary":"true"}],"verified":"false","restricted":"true","stats":{"checkinsCount":"1","usersCount":"1","tipCount":"0"},"specials":{"count":"0"},"hereNow":{"count":"0"},"referralId":"v-1392477959"}],"confident":"true"}}