{"meta":{"code":"200"},"response":{"venues":[{"id":"4e8b3ca1550385f0954c7a28","name":"Photobox","location":{"lat":"51.51923417467255","lng":"-0.177791850486866","distance":"6","postalCode":"W21la","cc":"GB","city":"Paddington","state":"Greater London","country":"United Kingdom"},"categories":[{"id":"4bf58dd8d48988d124941735","name":"Office","pluralName":"Offices","shortName":"Office","icon":{"prefix":"https:\/\/ss1.4sqi.net\/img\/categories_v2\/building\/default_","suffix":".png"},"primary":"true"}],"verified":"false","restricted":"true","stats":{"checkinsCount":"157","usersCount":"30","tipCount":"0"},"specials":{"count":"0"},"hereNow":{"count":"0"},"referralId":"v-1392477998"},{"id":"4b994d18f964a5205a7135e3","name":"Dudley Arms","location":{"lat":"51.519423","lng":"-0.177679","distance":"17","cc":"GB","country":"United Kingdom"},"categories":[{"id":"4bf58dd8d48988d11b941735","name":"Pub","pluralName":"Pubs","shortName":"Pub","icon":{"prefix":"https:\/\/ss1.4sqi.net\/img\/categories_v2\/nightlife\/pub_","suffix":".png"},"primary":"true"}],"verified":"false","restricted":"true","stats":{"checkinsCount":"300","usersCount":"138","tipCount":"5"},"specials":{"count":"0"},"hereNow":{"count":"0"},"referralId":"v-1392477998"},{"id":"4f1fcb48e4b00a97be08ca1f","name":"Zendesk EMEA HQ","contact":{"twitter":"zendesk"},"location":{"address":"63-65 North Wharf Road","crossStreet":"Bishop's Bridge","lat":"51.51879168165613","lng":"-0.17801986863611294","distance":"57","postalCode":"W2 1LA","cc":"GB","city":"London","state":"Greater London","country":"United Kingdom"},"categories":[{"id":"4bf58dd8d48988d125941735","name":"Tech Startup","pluralName":"Tech Startups","shortName":"Tech Startup","icon":{"prefix":"https:\/\/ss1.4sqi.net\/img\/categories_v2\/shops\/technology_","suffix":".png"},"primary":"true"}],"verified":"false","restricted":"true","stats":{"checkinsCount":"588","usersCount":"35","tipCount":"2"},"url":"https:\/\/www.zendesk.com","specials":{"count":"0"},"hereNow":{"count":"0"},"referralId":"v-1392477998"},{"id":"4c07e0ef7e3fc9287067ef82","name":"Paddington Station North Bridge","location":{"address":"Paddington Railway Station","lat":"51.517904661801","lng":"-0.1781164800533035","distance":"155","cc":"GB","city":"Paddington","state":"Greater London","country":"United Kingdom"},"categories":[{"id":"4bf58dd8d48988d1df941735","name":"Bridge","pluralName":"Bridges","shortName":"Bridge","icon":{"prefix":"https:\/\/ss1.4sqi.net\/img\/categories_v2\/parks_outdoors\/bridge_","suffix":".png"},"primary":"true"}],"verified":"false","restricted":"true","stats":{"checkinsCount":"5219","usersCount":"2945","tipCount":"4"},"specials":{"count":"0"},"hereNow":{"count":"1","groups":[{"type":"others","name":"Other people here","count":"1"}]},"referralId":"v-1392477998"},{"id":"4b48c99ef964a520ee5626e3","name":"Nuffield Health Fitness & Wellbeing Centre","contact":{"phone":"+442072894686","formattedPhone":"+44 20 7289 4686"},"location":{"address":"2 Sheldon Sq.","crossStreet":"Bishops Bridge Rd.","lat":"51.51893463867483","lng":"-0.18002450466156006","distance":"158","postalCode":"W2 6EZ","cc":"GB","city":"Paddington","state":"Greater London","country":"United Kingdom"},"categories":[{"id":"4bf58dd8d48988d176941735","name":"Gym","pluralName":"Gyms","shortName":"Gym","icon":{"prefix":"https:\/\/ss1.4sqi.net\/img\/categories_v2\/building\/gym_","suffix":".png"},"primary":"true"}],"verified":"false","restricted":"true","stats":{"checkinsCount":"3237","usersCount":"258","tipCount":"9"},"specials":{"count":"0"},"hereNow":{"count":"1","groups":[{"type":"others","name":"Other people here","count":"1"}]},"referralId":"v-1392477998"},{"id":"4b41c842f964a520e5c825e3","name":"Starbucks","contact":{"twitter":"starbucksuk"},"location":{"address":"Paddington Central Kiosk, 15 Sheldon Square","lat":"51.51945537011874","lng":"-0.17956048250198364","distance":"123","postalCode":"W2 6PY","cc":"GB","city":"London","state":"Greater London","country":"United Kingdom"},"categories":[{"id":"4bf58dd8d48988d1e0931735","name":"Coffee Shop","pluralName":"Coffee Shops","shortName":"Coffee Shop","icon":{"prefix":"https:\/\/ss1.4sqi.net\/img\/categories_v2\/food\/coffeeshop_","suffix":".png"},"primary":"true"}],"verified":"true","restricted":"true","stats":{"checkinsCount":"2643","usersCount":"1139","tipCount":"16"},"url":"http:\/\/starbucks.co.uk","specials":{"count":"0"},"hereNow":{"count":"1","groups":[{"type":"others","name":"Other people here","count":"1"}]},"storeId":"12421","referralId":"v-1392477998"},{"id":"4af41718f964a52006f021e3","name":"Smiths Bar & Grill","contact":{"phone":"+442072869458","formattedPhone":"+44 20 7286 9458"},"location":{"address":"25 Sheldon Sq","crossStreet":"Bishop's Bridge","lat":"51.51911470050243","lng":"-0.1788676875152976","distance":"76","postalCode":"W2 6EY","cc":"GB","city":"Paddington","state":"Greater London","country":"United Kingdom"},"categories":[{"id":"4bf58dd8d48988d1cc941735","name":"Steakhouse","pluralName":"Steakhouses","shortName":"Steakhouse","icon":{"prefix":"https:\/\/ss1.4sqi.net\/img\/categories_v2\/food\/steakhouse_","suffix":".png"},"primary":"true"}],"verified":"false","restricted":"true","stats":{"checkinsCount":"975","usersCount":"520","tipCount":"20"},"url":"http:\/\/www.smithsbarandgrill.co.uk","reservations":{"url":"http:\/\/www.toptable.co.uk\/single.aspx?rid=88117&ref=9601"},"menu":{"type":"Menu","label":"Menu","anchor":"View Menu","url":"https:\/\/foursquare.com\/v\/smiths-bar--grill\/4af41718f964a52006f021e3\/menu","mobileUrl":"https:\/\/foursquare.com\/v\/4af41718f964a52006f021e3\/device_menu"},"specials":{"count":"0"},"hereNow":{"count":"0"},"referralId":"v-1392477998"},{"id":"4c0542e50d0e0f476512059a","name":"Platform 16 (H&C and Circle lines)","location":{"address":"Paddington Underground Station","lat":"51.518144076851975","lng":"-0.17852586790146835","distance":"136","postalCode":"W2 1HQ","cc":"GB","city":"London","state":"Greater London","country":"United Kingdom"},"categories":[{"id":"4f4531504b9074f6e4fb0102","name":"Platform","pluralName":"Platforms","shortName":"Platform","icon":{"prefix":"https:\/\/ss1.4sqi.net\/img\/categories_v2\/travel\/trainstation_","suffix":".png"},"primary":"true"}],"verified":"false","restricted":"true","stats":{"checkinsCount":"2128","usersCount":"552","tipCount":"2"},"specials":{"count":"0"},"hereNow":{"count":"0"},"referralId":"v-1392477998"},{"id":"4b5dd991f964a520a06f29e3","name":"The Union Bar","contact":{"phone":"+442072893063","formattedPhone":"+44 20 7289 3063"},"location":{"address":"4 Sheldon Sq.","lat":"51.519418652070996","lng":"-0.1793968677520752","distance":"111","postalCode":"W2 6EZ","cc":"GB","city":"Paddington","state":"Greater London","country":"United Kingdom"},"categories":[{"id":"4bf58dd8d48988d116941735","name":"Bar","pluralName":"Bars","shortName":"Bar","icon":{"prefix":"https:\/\/ss1.4sqi.net\/img\/categories_v2\/nightlife\/bar_","suffix":".png"},"primary":"true"}],"verified":"false","restricted":"true","stats":{"checkinsCount":"2606","usersCount":"1026","tipCount":"30"},"menu":{"type":"Menu","label":"Menu","anchor":"View Menu","url":"https:\/\/foursquare.com\/v\/the-union-bar\/4b5dd991f964a520a06f29e3\/menu","mobileUrl":"https:\/\/foursquare.com\/v\/4b5dd991f964a520a06f29e3\/device_menu"},"specials":{"count":"0"},"hereNow":{"count":"0"},"referralId":"v-1392477998"},{"id":"4acf309bf964a520abd220e3","name":"Sheldon Square","location":{"address":"Sheldon Sq","crossStreet":"Bishops Bridge Rd","lat":"51.51929180767835","lng":"-0.18007278442382812","distance":"157","postalCode":"W2","cc":"GB","city":"Paddington","state":"Greater London","country":"United Kingdom"},"categories":[{"id":"4bf58dd8d48988d164941735","name":"Plaza","pluralName":"Plazas","shortName":"Plaza","icon":{"prefix":"https:\/\/ss1.4sqi.net\/img\/categories_v2\/parks_outdoors\/plaza_","suffix":".png"},"primary":"true"}],"verified":"false","restricted":"true","stats":{"checkinsCount":"3889","usersCount":"976","tipCount":"10"},"specials":{"count":"0"},"hereNow":{"count":"0"},"referralId":"v-1392477998"},{"id":"4acf8f3df964a5208cd420e3","name":"Pearl Liang","location":{"address":"8 Sheldon Square Paddington","lat":"51.519104878455764","lng":"-0.18024444580078125","distance":"170","postalCode":"W2 6EZ","cc":"GB","city":"London","state":"Greater London","country":"United Kingdom"},"categories":[{"id":"4bf58dd8d48988d145941735","name":"Chinese Restaurant","pluralName":"Chinese Restaurants","shortName":"Chinese","icon":{"prefix":"https:\/\/ss1.4sqi.net\/img\/categories_v2\/food\/chinese_","suffix":".png"},"primary":"true"}],"verified":"false","restricted":"true","stats":{"checkinsCount":"1578","usersCount":"772","tipCount":"31"},"url":"http:\/\/www.pearlliang.co.uk","reservations":{"url":"http:\/\/www.toptable.co.uk\/single.aspx?rid=70150&ref=9601"},"menu":{"type":"Menu","label":"Menu","anchor":"View Menu","url":"https:\/\/foursquare.com\/v\/pearl-liang\/4acf8f3df964a5208cd420e3\/menu","mobileUrl":"https:\/\/foursquare.com\/v\/4acf8f3df964a5208cd420e3\/device_menu"},"specials":{"count":"0"},"hereNow":{"count":"0"},"referralId":"v-1392477998"},{"id":"4b0afb0bf964a5200b2b23e3","name":"Zizzi","location":{"address":"17 Sheldon Square","lat":"51.519357","lng":"-0.179214","distance":"98","postalCode":"W2 6EP","cc":"GB","city":"Paddington","state":"Greater London","country":"United Kingdom"},"categories":[{"id":"4bf58dd8d48988d110941735","name":"Italian Restaurant","pluralName":"Italian Restaurants","shortName":"Italian","icon":{"prefix":"https:\/\/ss1.4sqi.net\/img\/categories_v2\/food\/italian_","suffix":".png"},"primary":"true"}],"verified":"true","restricted":"true","stats":{"checkinsCount":"738","usersCount":"513","tipCount":"10"},"url":"http:\/\/www.zizzi.co.uk","reservations":{"url":"http:\/\/www.toptable.co.uk\/single.aspx?rid=50106&ref=9601"},"menu":{"type":"Menu","label":"Menu","anchor":"View Menu","url":"https:\/\/foursquare.com\/v\/zizzi\/4b0afb0bf964a5200b2b23e3\/menu","mobileUrl":"https:\/\/foursquare.com\/v\/4b0afb0bf964a5200b2b23e3\/device_menu"},"specials":{"count":"0"},"hereNow":{"count":"0"},"referralId":"v-1392477998"},{"id":"4bf3c4393f86c9b6b86db21c","name":"Platform 5","location":{"address":"Paddington Station (PAD)","lat":"51.51766282723606","lng":"-0.17857074737548828","distance":"188","postalCode":"W2 1HQ","cc":"GB","city":"London","state":"Greater London","country":"United Kingdom"},"categories":[{"id":"4f4531504b9074f6e4fb0102","name":"Platform","pluralName":"Platforms","shortName":"Platform","icon":{"prefix":"https:\/\/ss1.4sqi.net\/img\/categories_v2\/travel\/trainstation_","suffix":".png"},"primary":"true"}],"verified":"false","restricted":"true","stats":{"checkinsCount":"2148","usersCount":"855","tipCount":"4"},"specials":{"count":"0"},"hereNow":{"count":"0"},"referralId":"v-1392477998"},{"id":"4bd96a810115c9b6482b7780","name":"Pret A Manger","contact":{"phone":"+442079325258","formattedPhone":"+44 20 7932 5258","twitter":"pret","facebook":"162638680417951"},"location":{"address":"Unit 10, Sheldon Square","lat":"51.5192336279623","lng":"-0.180333597946762","distance":"175","postalCode":"W2 6EZ","cc":"GB","city":"Paddington","state":"Greater London","country":"United Kingdom"},"categories":[{"id":"4bf58dd8d48988d1c5941735","name":"Sandwich Place","pluralName":"Sandwich Places","shortName":"Sandwiches","icon":{"prefix":"https:\/\/ss1.4sqi.net\/img\/categories_v2\/food\/sandwiches_","suffix":".png"},"primary":"true"}],"verified":"true","restricted":"true","stats":{"checkinsCount":"1327","usersCount":"345","tipCount":"8"},"url":"http:\/\/www.pret.com","specials":{"count":"0"},"hereNow":{"count":"0"},"storeId":"284","referralId":"v-1392477998"},{"id":"4bb306e34019a5930e7f37b8","name":"Visa Europe Headquarters","location":{"address":"Sheldon Sq.","lat":"51.51870431325244","lng":"-0.18028736114501953","distance":"183","cc":"GB","city":"London","state":"Greater London","country":"United Kingdom"},"categories":[{"id":"4bf58dd8d48988d124941735","name":"Office","pluralName":"Offices","shortName":"Office","icon":{"prefix":"https:\/\/ss1.4sqi.net\/img\/categories_v2\/building\/default_","suffix":".png"},"primary":"true"}],"verified":"true","restricted":"true","stats":{"checkinsCount":"1488","usersCount":"239","tipCount":"1"},"specials":{"count":"0"},"hereNow":{"count":"0"},"referralId":"v-1392477998"},{"id":"4c2b2ad077cfe21e1500b4f1","name":"EE","contact":{"twitter":"ee"},"location":{"address":"37 North Wharf Rd","lat":"51.51843","lng":"-0.175845","distance":"165","postalCode":"W2 1AG","cc":"GB","city":"Paddington","state":"Greater London","country":"United Kingdom"},"categories":[{"id":"4bf58dd8d48988d124941735","name":"Office","pluralName":"Offices","shortName":"Office","icon":{"prefix":"https:\/\/ss1.4sqi.net\/img\/categories_v2\/building\/default_","suffix":".png"},"primary":"true"}],"verified":"false","restricted":"true","stats":{"checkinsCount":"1937","usersCount":"313","tipCount":"2"},"specials":{"count":"0"},"hereNow":{"count":"0"},"referralId":"v-1392477998"},{"id":"4f157608e4b0d59e23eb075e","name":"Line Communications","contact":{"twitter":"linecomms"},"location":{"address":"63-65 North Wharf Road","lat":"51.5193314859661","lng":"-0.17810160684169205","distance":"21","postalCode":"W21LA","cc":"GB","city":"London","state":"Greater London","country":"United Kingdom"},"categories":[{"id":"4bf58dd8d48988d124941735","name":"Office","pluralName":"Offices","shortName":"Office","icon":{"prefix":"https:\/\/ss1.4sqi.net\/img\/categories_v2\/building\/default_","suffix":".png"},"primary":"true"}],"verified":"false","restricted":"true","stats":{"checkinsCount":"53","usersCount":"4","tipCount":"1"},"specials":{"count":"0"},"hereNow":{"count":"0"},"referralId":"v-1392477998"},{"id":"4da6f25f04377705c302dc02","name":"Etc Venue","contact":{"phone":"+442079890590","formattedPhone":"+44 20 7989 0590","twitter":"etcvenues"},"location":{"address":"57 North Wharf Rd.","lat":"51.51857197729758","lng":"-0.17723000654995125","distance":"89","postalCode":"W2 1LA","cc":"GB","city":"Paddington","state":"Greater London","country":"United Kingdom"},"categories":[{"id":"4bf58dd8d48988d127941735","name":"Conference Room","pluralName":"Conference Rooms","shortName":"Conference room","icon":{"prefix":"https:\/\/ss1.4sqi.net\/img\/categories_v2\/building\/office_conferenceroom_","suffix":".png"},"primary":"true"}],"verified":"true","restricted":"true","stats":{"checkinsCount":"328","usersCount":"198","tipCount":"2"},"url":"http:\/\/www.etcvenues.co.uk\/venues\/paddington","specials":{"count":"0"},"hereNow":{"count":"0"},"storeId":"","referralId":"v-1392477998"},{"id":"4e365306c65b2313e296cbb9","name":"Platform 15 (H&C and Circle lines)","location":{"address":"Paddington Underground Station","lat":"51.518051254480866","lng":"-0.17860050861148","distance":"148","postalCode":"W2 1HQ","cc":"GB","city":"London","state":"Greater London","country":"United Kingdom"},"categories":[{"id":"4f4531504b9074f6e4fb0102","name":"Platform","pluralName":"Platforms","shortName":"Platform","icon":{"prefix":"https:\/\/ss1.4sqi.net\/img\/categories_v2\/travel\/trainstation_","suffix":".png"},"primary":"true"}],"verified":"false","restricted":"true","stats":{"checkinsCount":"2227","usersCount":"515","tipCount":"9"},"specials":{"count":"0"},"hereNow":{"count":"0"},"referralId":"v-1392477998"},{"id":"506dda7ae4b0177f13dc1d09","name":"Paddington Crossrail","location":{"address":"Eastbourne Terrace","lat":"51.51784157082559","lng":"-0.17872627241970607","distance":"173","cc":"GB","city":"London","state":"Greater London","country":"United Kingdom"},"categories":[{"id":"4bf58dd8d48988d129951735","name":"Train Station","pluralName":"Train Stations","shortName":"Train Station","icon":{"prefix":"https:\/\/ss1.4sqi.net\/img\/categories_v2\/travel\/trainstation_","suffix":".png"},"primary":"true"}],"verified":"false","restricted":"true","stats":{"checkinsCount":"441","usersCount":"230","tipCount":"2"},"specials":{"count":"0"},"hereNow":{"count":"1","groups":[{"type":"others","name":"Other people here","count":"1"}]},"referralId":"v-1392477998"},{"id":"4fe878f7e4b0e91f0a68f68a","name":"21 Sheldon Square","location":{"address":"21 Sheldon Square","lat":"51.51951980479399","lng":"-0.17952712491460732","distance":"122","postalCode":"W2 6DS","cc":"GB","city":"London","state":"Greater London","country":"United Kingdom"},"categories":[{"id":"4d954b06a243a5684965b473","name":"Residential Building (Apartment \/ Condo)","pluralName":"Residential Buildings (Apartments \/ Condos)","shortName":"Residential","icon":{"prefix":"https:\/\/ss1.4sqi.net\/img\/categories_v2\/building\/apartment_","suffix":".png"},"primary":"true"}],"verified":"false","restricted":"true","stats":{"checkinsCount":"65","usersCount":"6","tipCount":"0"},"specials":{"count":"0"},"hereNow":{"count":"0"},"referralId":"v-1392477998"},{"id":"51d74b2a498eaf46b99bcbcd","name":"Grand Union Canal | Paddington Arm","location":{"lat":"51.518277039819075","lng":"-0.17728328704833982","distance":"118","cc":"GB","city":"London","state":"Greater London","country":"United Kingdom"},"categories":[{"id":"4eb1d4dd4b900d56c88a45fd","name":"River","pluralName":"Rivers","shortName":"River","icon":{"prefix":"https:\/\/ss1.4sqi.net\/img\/categories_v2\/parks_outdoors\/river_","suffix":".png"},"primary":"true"}],"verified":"false","restricted":"true","stats":{"checkinsCount":"118","usersCount":"48","tipCount":"1"},"specials":{"count":"0"},"hereNow":{"count":"0"},"referralId":"v-1392477998"},{"id":"4b9f8029f964a520f02637e3","name":"Tossed","contact":{"phone":"+442072892516","formattedPhone":"+44 20 7289 2516","twitter":"tosseduk"},"location":{"address":"10 Sheldon Square","lat":"51.51925149158047","lng":"-0.17993717751061153","distance":"147","postalCode":"W2 6EZ","cc":"GB","city":"London","state":"Greater London","country":"United Kingdom"},"categories":[{"id":"4bf58dd8d48988d1bd941735","name":"Salad Place","pluralName":"Salad Shop","shortName":"Salad","icon":{"prefix":"https:\/\/ss1.4sqi.net\/img\/categories_v2\/food\/salad_","suffix":".png"},"primary":"true"}],"verified":"true","restricted":"true","stats":{"checkinsCount":"752","usersCount":"196","tipCount":"4"},"url":"http:\/\/www.tosseduk.com","specials":{"count":"0"},"hereNow":{"count":"0"},"storeId":"","referralId":"v-1392477998"},{"id":"5087ff7ce4b06cc8e89501a0","name":"Orange Group UK","contact":{"twitter":"orange"},"location":{"address":"37 North Wharf Road","lat":"51.518443805234575","lng":"-0.17714716960927535","distance":"104","postalCode":"W2 1AG","cc":"GB","city":"London","state":"Greater London","country":"United Kingdom"},"categories":[{"id":"4bf58dd8d48988d124941735","name":"Office","pluralName":"Offices","shortName":"Office","icon":{"prefix":"https:\/\/ss1.4sqi.net\/img\/categories_v2\/building\/default_","suffix":".png"},"primary":"true"}],"verified":"true","restricted":"true","stats":{"checkinsCount":"334","usersCount":"45","tipCount":"0"},"specials":{"count":"0"},"hereNow":{"count":"0"},"referralId":"v-1392477998"},{"id":"4bbc8523e5b0d13a9c506f7c","name":"Sainsbury's","contact":{"phone":"+442072862705","formattedPhone":"+44 20 7286 2705"},"location":{"address":"Sheldon Sq.","lat":"51.51941197605914","lng":"-0.1800084114074707","distance":"153","postalCode":"W2 6PR","cc":"GB","city":"Paddington","state":"Greater London","country":"United Kingdom"},"categories":[{"id":"4bf58dd8d48988d118951735","name":"Grocery Store","pluralName":"Grocery Stores","shortName":"Grocery Store","icon":{"prefix":"https:\/\/ss1.4sqi.net\/img\/categories_v2\/shops\/food_grocery_","suffix":".png"},"primary":"true"}],"verified":"false","restricted":"true","stats":{"checkinsCount":"833","usersCount":"185","tipCount":"3"},"specials":{"count":"0"},"hereNow":{"count":"0"},"referralId":"v-1392477998"},{"id":"516d4dbaebca4e6757805884","name":"itsu","contact":{"phone":"+442072863823","formattedPhone":"+44 20 7286 3823","twitter":"itsuofficial","facebook":"115164458642981"},"location":{"address":"9 Sheldon Sq","lat":"51.51934187787555","lng":"-0.18024712800979614","distance":"169","postalCode":"W2 6EZ","cc":"GB","city":"Paddington","state":"Greater London","country":"United Kingdom"},"categories":[{"id":"4bf58dd8d48988d1d2941735","name":"Sushi Restaurant","pluralName":"Sushi Restaurants","shortName":"Sushi","icon":{"prefix":"https:\/\/ss1.4sqi.net\/img\/categories_v2\/food\/sushi_","suffix":".png"},"primary":"true"}],"verified":"true","restricted":"true","stats":{"checkinsCount":"456","usersCount":"116","tipCount":"2"},"url":"http:\/\/www.itsu.com","specials":{"count":"0"},"hereNow":{"count":"0"},"storeId":"","referralId":"v-1392477998"},{"id":"4be2f90721d5a5938cd01711","name":"Platform 2","location":{"address":"Paddington Station (PAD)","lat":"51.517522625376614","lng":"-0.17876386642456055","distance":"207","postalCode":"W2 1HQ","cc":"GB","city":"London","state":"Greater London","country":"United Kingdom"},"categories":[{"id":"4f4531504b9074f6e4fb0102","name":"Platform","pluralName":"Platforms","shortName":"Platform","icon":{"prefix":"https:\/\/ss1.4sqi.net\/img\/categories_v2\/travel\/trainstation_","suffix":".png"},"primary":"true"}],"verified":"false","restricted":"true","stats":{"checkinsCount":"2645","usersCount":"1013","tipCount":"6"},"specials":{"count":"0"},"hereNow":{"count":"0"},"referralId":"v-1392477998"},{"id":"520abc6e11d20f85bd1f39c2","name":"Munkenbeck Building","location":{"address":"Hermitage Street","lat":"51.51896519068966","lng":"-0.17573183948750085","distance":"147","postalCode":"W2 1PW","cc":"GB","city":"London","state":"Greater London","country":"United Kingdom"},"categories":[{"id":"4d954b06a243a5684965b473","name":"Residential Building (Apartment \/ Condo)","pluralName":"Residential Buildings (Apartments \/ Condos)","shortName":"Residential","icon":{"prefix":"https:\/\/ss1.4sqi.net\/img\/categories_v2\/building\/apartment_","suffix":".png"},"primary":"true"}],"verified":"false","restricted":"true","stats":{"checkinsCount":"145","usersCount":"12","tipCount":"0"},"specials":{"count":"0"},"hereNow":{"count":"0"},"referralId":"v-1392477998"},{"id":"4d46a84ce198721e370bd18b","name":"Cerner UK - Paddington","contact":{"phone":"+442074328100","formattedPhone":"+44 20 7432 8100"},"location":{"address":"37 North Wharf Road","lat":"51.518368","lng":"-0.175867","distance":"168","postalCode":"W2 1AF","cc":"GB","city":"London","state":"Greater London","country":"United Kingdom"},"categories":[{"id":"4bf58dd8d48988d124941735","name":"Office","pluralName":"Offices","shortName":"Office","icon":{"prefix":"https:\/\/ss1.4sqi.net\/img\/categories_v2\/building\/default_","suffix":".png"},"primary":"true"}],"verified":"false","restricted":"true","stats":{"checkinsCount":"391","usersCount":"31","tipCount":"0"},"specials":{"count":"0"},"hereNow":{"count":"0"},"referralId":"v-1392477998"},{"id":"4b48bd9af964a520f65426e3","name":"Caff\u00e8 Nero","location":{"address":"Platform 12","crossStreet":"Paddington Station","lat":"51.51790317227671","lng":"-0.1782059669494629","distance":"156","postalCode":"W2 1HQ","cc":"GB","city":"London","state":"Greater London","country":"United Kingdom"},"categories":[{"id":"4bf58dd8d48988d1e0931735","name":"Coffee Shop","pluralName":"Coffee Shops","shortName":"Coffee Shop","icon":{"prefix":"https:\/\/ss1.4sqi.net\/img\/categories_v2\/food\/coffeeshop_","suffix":".png"},"primary":"true"}],"verified":"false","restricted":"true","stats":{"checkinsCount":"1312","usersCount":"326","tipCount":"9"},"specials":{"count":"0"},"hereNow":{"count":"0"},"referralId":"v-1392477998"}],"confident":"true"}}