{"meta":{"code":"200"},"response":{"venues":[{"id":"4e73607dc65bf4cd62055cfd","name":"Violet Hill Gardens","location":{"address":"Violet Hill","crossStreet":"St Johns Wood","lat":"51.532986267621865","lng":"-0.18157193633264737","distance":"168","postalCode":"nw8","cc":"GB","city":"London","state":"Greater London","country":"United Kingdom"},"categories":[{"id":"4bf58dd8d48988d15a941735","name":"Garden","pluralName":"Gardens","shortName":"Garden","icon":{"prefix":"https:\/\/ss1.4sqi.net\/img\/categories_v2\/parks_outdoors\/garden_","suffix":".png"},"primary":"true"}],"verified":"false","restricted":"true","stats":{"checkinsCount":"189","usersCount":"48","tipCount":"1"},"specials":{"count":"0"},"hereNow":{"count":"1","groups":[{"type":"others","name":"Other people here","count":"1"}]},"referralId":"v-1392477958"},{"id":"4ce7dc24d99f721ee8b5ac73","name":"Gianni's Hair Salon","location":{"address":"11 Blenheim Terrace","lat":"51.53508614945389","lng":"-0.18200134304813276","distance":"104","cc":"GB","city":"Paddington","state":"Greater London","country":"United Kingdom"},"categories":[{"id":"4bf58dd8d48988d10c951735","name":"Cosmetics Shop","pluralName":"Cosmetics Shops","shortName":"Cosmetics","icon":{"prefix":"https:\/\/ss1.4sqi.net\/img\/categories_v2\/shops\/beauty_cosmetic_","suffix":".png"},"primary":"true"}],"verified":"false","restricted":"true","stats":{"checkinsCount":"59","usersCount":"14","tipCount":"1"},"specials":{"count":"0"},"hereNow":{"count":"0"},"referralId":"v-1392477958"},{"id":"4ad63a7ff964a520de0521e3","name":"The Clifton","contact":{"phone":"+442073723427","formattedPhone":"+44 20 7372 3427"},"location":{"address":"96 Clifton Hill","lat":"51.535876","lng":"-0.185124","distance":"238","postalCode":"NW8 0JT","cc":"GB","city":"London","state":"Greater London","country":"United Kingdom"},"categories":[{"id":"4bf58dd8d48988d11b941735","name":"Pub","pluralName":"Pubs","shortName":"Pub","icon":{"prefix":"https:\/\/ss1.4sqi.net\/img\/categories_v2\/nightlife\/pub_","suffix":".png"},"primary":"true"}],"verified":"false","restricted":"true","stats":{"checkinsCount":"638","usersCount":"327","tipCount":"9"},"url":"http:\/\/www.cliftonstjohnswood.com","reservations":{"url":"http:\/\/www.toptable.co.uk\/single.aspx?rid=93228&ref=9601"},"menu":{"type":"Menu","label":"Menu","anchor":"View Menu","url":"https:\/\/foursquare.com\/v\/the-clifton\/4ad63a7ff964a520de0521e3\/menu","mobileUrl":"https:\/\/foursquare.com\/v\/4ad63a7ff964a520de0521e3\/device_menu"},"specials":{"count":"0"},"hereNow":{"count":"0"},"referralId":"v-1392477958"},{"id":"4e7249e9aeb79ea09553f54c","name":"One Blenheim Terrace","location":{"address":"Blenheim Terrace","lat":"51.535224","lng":"-0.181657","distance":"130","postalCode":"NW8 0EH","cc":"GB","city":"London","state":"Greater London","country":"United Kingdom"},"categories":[{"id":"4bf58dd8d48988d1c4941735","name":"Restaurant","pluralName":"Restaurants","shortName":"Restaurant","icon":{"prefix":"https:\/\/ss1.4sqi.net\/img\/categories_v2\/food\/default_","suffix":".png"},"primary":"true"}],"verified":"false","restricted":"true","stats":{"checkinsCount":"179","usersCount":"125","tipCount":"4"},"url":"http:\/\/www.oneblenheimterrace.co.uk","menu":{"type":"Menu","label":"Menu","anchor":"View Menu","url":"https:\/\/foursquare.com\/v\/one-blenheim-terrace\/4e7249e9aeb79ea09553f54c\/menu","mobileUrl":"https:\/\/foursquare.com\/v\/4e7249e9aeb79ea09553f54c\/device_menu"},"specials":{"count":"0"},"hereNow":{"count":"0"},"referralId":"v-1392477958"},{"id":"4ba13509f964a5200fa237e3","name":"L'Aventure","contact":{"phone":"+442076246232","formattedPhone":"+44 20 7624 6232"},"location":{"address":"3 Blenheim Terrace","lat":"51.53514862060547","lng":"-0.18166601657867432","distance":"123","postalCode":"NW8 0EH","cc":"GB","city":"Paddington","state":"Greater London","country":"United Kingdom"},"verified":"false","restricted":"true","stats":{"checkinsCount":"27","usersCount":"21","tipCount":"1"},"specials":{"count":"0"},"hereNow":{"count":"0"},"referralId":"v-1392477958"},{"id":"4c12519d583c9c74a03b3fa4","name":"Bruno's Deli","contact":{"phone":"+442073288692","formattedPhone":"+44 20 7328 8692"},"location":{"address":"Abbey Road","crossStreet":"Clifton Hill","lat":"51.537056181809845","lng":"-0.18372322971915384","distance":"314","postalCode":"NW8","cc":"GB","city":"St Johns Wood","state":"Greater London","country":"United Kingdom"},"categories":[{"id":"4bf58dd8d48988d146941735","name":"Deli \/ Bodega","pluralName":"Delis \/ Bodegas","shortName":"Deli \/ Bodega","icon":{"prefix":"https:\/\/ss1.4sqi.net\/img\/categories_v2\/food\/deli_","suffix":".png"},"primary":"true"}],"verified":"false","restricted":"true","stats":{"checkinsCount":"97","usersCount":"44","tipCount":"5"},"specials":{"count":"0"},"hereNow":{"count":"1","groups":[{"type":"others","name":"Other people here","count":"1"}]},"referralId":"v-1392477958"},{"id":"4b4b60e8f964a520629926e3","name":"PizzaExpress","contact":{"phone":"+442076245577","formattedPhone":"+44 20 7624 5577","twitter":"pizzaexpress"},"location":{"address":"39 Abbey Road","lat":"51.53549832","lng":"-0.181488991","distance":"162","postalCode":"NW8 0AA","cc":"GB","city":"St John's Wood","state":"Greater London","country":"United Kingdom"},"categories":[{"id":"4bf58dd8d48988d1ca941735","name":"Pizza Place","pluralName":"Pizza Places","shortName":"Pizza","icon":{"prefix":"https:\/\/ss1.4sqi.net\/img\/categories_v2\/food\/pizza_","suffix":".png"},"primary":"true"}],"verified":"true","restricted":"true","stats":{"checkinsCount":"339","usersCount":"185","tipCount":"5"},"url":"http:\/\/www.pizzaexpress.com","specials":{"count":"0"},"hereNow":{"count":"0"},"storeId":"","referralId":"v-1392477958"},{"id":"4ff2a6aae4b09262c5e226eb","name":"Royal Mail","location":{"address":"16 Blenheim Terrace","lat":"51.5351027933436","lng":"-0.18229432789267916","distance":"97","postalCode":"NW8 0EB","cc":"GB","city":"London","state":"Greater London","country":"United Kingdom"},"categories":[{"id":"4bf58dd8d48988d172941735","name":"Post Office","pluralName":"Post Offices","shortName":"Post Office","icon":{"prefix":"https:\/\/ss1.4sqi.net\/img\/categories_v2\/building\/postoffice_","suffix":".png"},"primary":"true"}],"verified":"false","restricted":"true","stats":{"checkinsCount":"19","usersCount":"12","tipCount":"0"},"specials":{"count":"0"},"hereNow":{"count":"0"},"referralId":"v-1392477958"},{"id":"4c3e59ea8d99b7133dd21a06","name":"Old Manor Court","location":{"address":"40-42 Abbey Road","lat":"51.53509790301161","lng":"-0.1803731918334961","distance":"190","postalCode":"NW8 0AR","cc":"GB","city":"St John's Wood","state":"Greater London","country":"United Kingdom"},"categories":[{"id":"4bf58dd8d48988d130941735","name":"Building","pluralName":"Buildings","shortName":"Building","icon":{"prefix":"https:\/\/ss1.4sqi.net\/img\/categories_v2\/building\/default_","suffix":".png"},"primary":"true"}],"verified":"false","restricted":"true","stats":{"checkinsCount":"4","usersCount":"4","tipCount":"0"},"specials":{"count":"0"},"hereNow":{"count":"0"},"referralId":"v-1392477958"},{"id":"4dd6d427091ad1a80542f6e3","name":"Langford Court","location":{"address":"22 Abbey Road","lat":"51.5339630894298","lng":"-0.17882428477787232","distance":"277","postalCode":"NW8 9DN","cc":"GB","city":"London","state":"Greater London","country":"United Kingdom"},"categories":[{"id":"4d954b06a243a5684965b473","name":"Residential Building (Apartment \/ Condo)","pluralName":"Residential Buildings (Apartments \/ Condos)","shortName":"Residential","icon":{"prefix":"https:\/\/ss1.4sqi.net\/img\/categories_v2\/building\/apartment_","suffix":".png"},"primary":"true"}],"verified":"false","restricted":"true","stats":{"checkinsCount":"206","usersCount":"15","tipCount":"0"},"specials":{"count":"0"},"hereNow":{"count":"0"},"referralId":"v-1392477958"},{"id":"4bc0cbb774a9a593c9b1d0f6","name":"Tamada","contact":{"phone":"+442073722882","formattedPhone":"+44 20 7372 2882"},"location":{"address":"122 Boundary Road","lat":"51.53709991217191","lng":"-0.18547760062506316","distance":"363","postalCode":"NW8 0RH","cc":"GB","city":"City of Westminster","state":"Greater London","country":"United Kingdom"},"categories":[{"id":"4bf58dd8d48988d109941735","name":"Eastern European Restaurant","pluralName":"Eastern European Restaurants","shortName":"Eastern European","icon":{"prefix":"https:\/\/ss1.4sqi.net\/img\/categories_v2\/food\/default_","suffix":".png"},"primary":"true"}],"verified":"false","restricted":"true","stats":{"checkinsCount":"83","usersCount":"62","tipCount":"3"},"url":"http:\/\/www.tamada.co.uk","reservations":{"url":"http:\/\/www.toptable.co.uk\/single.aspx?rid=79687&ref=9601"},"menu":{"type":"Menu","label":"Menu","anchor":"View Menu","url":"https:\/\/foursquare.com\/v\/tamada\/4bc0cbb774a9a593c9b1d0f6\/menu","mobileUrl":"https:\/\/foursquare.com\/v\/4bc0cbb774a9a593c9b1d0f6\/device_menu"},"specials":{"count":"0"},"hereNow":{"count":"0"},"referralId":"v-1392477958"},{"id":"520cb59ed6a456b4bcdbf7c5","name":"Beirut Nights Restaurant & Shisha Lounge","location":{"address":"19 Abbey Rd.,park Row","lat":"51.5341760840005","lng":"-0.179751223999574","distance":"211","cc":"GB","city":"London","state":"Greater London","country":"United Kingdom"},"categories":[{"id":"4bf58dd8d48988d1c4941735","name":"Restaurant","pluralName":"Restaurants","shortName":"Restaurant","icon":{"prefix":"https:\/\/ss1.4sqi.net\/img\/categories_v2\/food\/default_","suffix":".png"},"primary":"true"}],"verified":"false","restricted":"true","stats":{"checkinsCount":"1","usersCount":"1","tipCount":"0"},"menu":{"type":"Menu","label":"Menu","anchor":"View Menu","url":"https:\/\/foursquare.com\/v\/beirut-nights-restaurant--shisha-lounge\/520cb59ed6a456b4bcdbf7c5\/menu","mobileUrl":"https:\/\/foursquare.com\/v\/520cb59ed6a456b4bcdbf7c5\/device_menu"},"specials":{"count":"0"},"hereNow":{"count":"0"},"referralId":"v-1392477958"},{"id":"4c3334bca0ced13a4635166e","name":"Blenheim Coffee","location":{"address":"Blenheim Terrace","lat":"51.534281892771574","lng":"-0.18151208692419962","distance":"89","cc":"GB","city":"London","state":"Greater London","country":"United Kingdom"},"verified":"false","restricted":"true","stats":{"checkinsCount":"34","usersCount":"10","tipCount":"1"},"specials":{"count":"0"},"hereNow":{"count":"0"},"referralId":"v-1392477958"},{"id":"51324ccfe4b08f949a616c48","name":"Abbey Road Dry Cleaners","location":{"address":"Blenheim Terrace","lat":"51.53430242272694","lng":"-0.18151797360986946","distance":"88","postalCode":"NW8","cc":"GB","city":"London","state":"Greater London","country":"United Kingdom"},"categories":[{"id":"4bf58dd8d48988d1fc941735","name":"Laundry Service","pluralName":"Laundry Services","shortName":"Laundry","icon":{"prefix":"https:\/\/ss1.4sqi.net\/img\/categories_v2\/shops\/laundry_","suffix":".png"},"primary":"true"}],"verified":"false","restricted":"true","stats":{"checkinsCount":"2","usersCount":"1","tipCount":"1"},"specials":{"count":"0"},"hereNow":{"count":"0"},"referralId":"v-1392477958"},{"id":"51223aede4b0e90c71807db4","name":"Panzers","location":{"address":"Circus Road","crossStreet":"Wellington Road","lat":"51.534495013730066","lng":"-0.18142003761636083","distance":"98","cc":"GB","city":"London","state":"Greater London","country":"United Kingdom"},"categories":[{"id":"4bf58dd8d48988d1f5941735","name":"Gourmet Shop","pluralName":"Gourmet Shops","shortName":"Gourmet","icon":{"prefix":"https:\/\/ss1.4sqi.net\/img\/categories_v2\/shops\/food_gourmet_","suffix":".png"},"primary":"true"}],"verified":"false","restricted":"true","stats":{"checkinsCount":"5","usersCount":"1","tipCount":"1"},"specials":{"count":"0"},"hereNow":{"count":"0"},"referralId":"v-1392477958"},{"id":"526283c5498e08a21aff461d","name":"Post Office","location":{"lat":"51.535087","lng":"-0.181833","distance":"111","cc":"GB","country":"United Kingdom"},"categories":[{"id":"4bf58dd8d48988d172941735","name":"Post Office","pluralName":"Post Offices","shortName":"Post Office","icon":{"prefix":"https:\/\/ss1.4sqi.net\/img\/categories_v2\/building\/postoffice_","suffix":".png"},"primary":"true"}],"verified":"false","restricted":"true","stats":{"checkinsCount":"1","usersCount":"1","tipCount":"0"},"specials":{"count":"0"},"hereNow":{"count":"0"},"referralId":"v-1392477958"},{"id":"520fb3c511d2fd00882781d9","name":"Moment","location":{"address":"Blenheim Terrace","lat":"51.535215","lng":"-0.181758","distance":"125","cc":"GB","country":"United Kingdom"},"categories":[{"id":"4bf58dd8d48988d16d941735","name":"Caf\u00e9","pluralName":"Caf\u00e9s","shortName":"Caf\u00e9","icon":{"prefix":"https:\/\/ss1.4sqi.net\/img\/categories_v2\/food\/cafe_","suffix":".png"},"primary":"true"}],"verified":"false","restricted":"true","stats":{"checkinsCount":"8","usersCount":"5","tipCount":"1"},"specials":{"count":"0"},"hereNow":{"count":"0"},"referralId":"v-1392477958"},{"id":"51054c26e4b0e721c61557f5","name":"The Corner Shop","location":{"lat":"51.53213619624499","lng":"-0.18053465482723963","distance":"286","cc":"GB","country":"United Kingdom"},"categories":[{"id":"4d954b0ea243a5684a65b473","name":"Convenience Store","pluralName":"Convenience Stores","shortName":"Convenience Stores","icon":{"prefix":"https:\/\/ss1.4sqi.net\/img\/categories_v2\/shops\/conveniencestore_","suffix":".png"},"primary":"true"}],"verified":"false","restricted":"true","stats":{"checkinsCount":"8","usersCount":"2","tipCount":"0"},"specials":{"count":"0"},"hereNow":{"count":"0"},"referralId":"v-1392477958"},{"id":"4d95995ba2c65481cd8faa53","name":"Injury Rehab Clinic","location":{"address":"4 The Arcade\nGrove End Gardens\n18 Abbey Road","lat":"51.53367513731839","lng":"-0.1788285238985435","distance":"283","postalCode":"NW8 9LL","cc":"GB","city":"st. johns wood","state":"Greater London","country":"United Kingdom"},"categories":[{"id":"4bf58dd8d48988d104941735","name":"Medical Center","pluralName":"Medical Centers","shortName":"Medical","icon":{"prefix":"https:\/\/ss1.4sqi.net\/img\/categories_v2\/building\/medical_","suffix":".png"},"primary":"true"}],"verified":"false","restricted":"true","stats":{"checkinsCount":"42","usersCount":"4","tipCount":"0"},"specials":{"count":"0"},"hereNow":{"count":"0"},"referralId":"v-1392477958"},{"id":"4c9787fa6b35a143e8d936dc","name":"Grove End Gardens","location":{"lat":"51.53363392017217","lng":"-0.17858040337767805","distance":"301","cc":"GB","city":"London","state":"Greater London","country":"United Kingdom"},"categories":[{"id":"5032885091d4c4b30a586d66","name":"Real Estate Office","pluralName":"Real Estate Offices","shortName":"Real Estate","icon":{"prefix":"https:\/\/ss1.4sqi.net\/img\/categories_v2\/shops\/default_","suffix":".png"},"primary":"true"}],"verified":"false","restricted":"true","stats":{"checkinsCount":"358","usersCount":"44","tipCount":"1"},"specials":{"count":"0"},"hereNow":{"count":"0"},"referralId":"v-1392477958"},{"id":"5088229ae4b0671967ce82f7","name":"St Mark's Church","location":{"address":"Hamilton Terrace","lat":"51.531803","lng":"-0.18247","distance":"277","postalCode":"NW8 9UT","cc":"GB","city":"London","state":"Greater London","country":"United Kingdom"},"categories":[{"id":"4bf58dd8d48988d132941735","name":"Church","pluralName":"Churches","shortName":"Church","icon":{"prefix":"https:\/\/ss1.4sqi.net\/img\/categories_v2\/building\/religious_church_","suffix":".png"},"primary":"true"}],"verified":"false","restricted":"true","stats":{"checkinsCount":"13","usersCount":"12","tipCount":"0"},"specials":{"count":"0"},"hereNow":{"count":"0"},"referralId":"v-1392477958"},{"id":"4da95f2a8154abafc291c79a","name":"Honest Jons Record Shop","location":{"address":"278 Portobello Road","lat":"51.53518270077567","lng":"-0.18190253601309028","distance":"117","cc":"GB","country":"United Kingdom"},"categories":[{"id":"4bf58dd8d48988d10d951735","name":"Record Shop","pluralName":"Record Shops","shortName":"Record Shop","icon":{"prefix":"https:\/\/ss1.4sqi.net\/img\/categories_v2\/shops\/record_shop_","suffix":".png"},"primary":"true"}],"verified":"false","restricted":"true","stats":{"checkinsCount":"20","usersCount":"18","tipCount":"0"},"specials":{"count":"0"},"hereNow":{"count":"0"},"referralId":"v-1392477958"},{"id":"4eb52bfd93ad2365700892e3","name":"Carlos Alves","location":{"lat":"51.535365040655655","lng":"-0.18184667249887276","distance":"136","cc":"GB","country":"United Kingdom"},"categories":[{"id":"4bf58dd8d48988d110951735","name":"Salon \/ Barbershop","pluralName":"Salons \/ Barbershops","shortName":"Salon \/ Barbershop","icon":{"prefix":"https:\/\/ss1.4sqi.net\/img\/categories_v2\/shops\/salon_barber_","suffix":".png"},"primary":"true"}],"verified":"false","restricted":"true","stats":{"checkinsCount":"3","usersCount":"3","tipCount":"0"},"specials":{"count":"0"},"hereNow":{"count":"0"},"referralId":"v-1392477958"},{"id":"4c126d2ca1010f475acf4818","name":"Beluga","location":{"address":"Blenheim Terrace","lat":"51.535166","lng":"-0.181849","distance":"117","postalCode":"NW8 0EB","cc":"GB","city":"City of Westminster","state":"Greater London","country":"United Kingdom"},"verified":"false","restricted":"true","stats":{"checkinsCount":"23","usersCount":"12","tipCount":"0"},"url":"http:\/\/belugarestaurant.net\/index.php","menu":{"type":"Menu","label":"Menu","anchor":"View Menu","url":"https:\/\/foursquare.com\/v\/beluga\/4c126d2ca1010f475acf4818\/menu","mobileUrl":"https:\/\/foursquare.com\/v\/4c126d2ca1010f475acf4818\/device_menu"},"specials":{"count":"0"},"hereNow":{"count":"0"},"referralId":"v-1392477958"},{"id":"4c15e35e77cea593ebdbd260","name":"Peking Inn","location":{"address":"1-35 Belgrave Gardens","crossStreet":"Abbey road","lat":"51.53697390617402","lng":"-0.18413176162461092","distance":"312","postalCode":"NW8 0","cc":"GB","city":"Paddington","state":"Greater London","country":"United Kingdom"},"categories":[{"id":"4bf58dd8d48988d145941735","name":"Chinese Restaurant","pluralName":"Chinese Restaurants","shortName":"Chinese","icon":{"prefix":"https:\/\/ss1.4sqi.net\/img\/categories_v2\/food\/chinese_","suffix":".png"},"primary":"true"}],"verified":"false","restricted":"true","stats":{"checkinsCount":"25","usersCount":"11","tipCount":"1"},"specials":{"count":"0"},"hereNow":{"count":"0"},"referralId":"v-1392477958"},{"id":"4c372e5c1e06d13a7068753e","name":"Abbey Road Baptist Church","location":{"lat":"51.5335517744382","lng":"-0.17876356690332218","distance":"291","cc":"GB","country":"United Kingdom"},"categories":[{"id":"4bf58dd8d48988d132941735","name":"Church","pluralName":"Churches","shortName":"Church","icon":{"prefix":"https:\/\/ss1.4sqi.net\/img\/categories_v2\/building\/religious_church_","suffix":".png"},"primary":"true"}],"verified":"false","restricted":"true","stats":{"checkinsCount":"51","usersCount":"20","tipCount":"0"},"specials":{"count":"0"},"hereNow":{"count":"0"},"referralId":"v-1392477958"},{"id":"4f999e64e4b0c6dc9ddcd5df","name":"Ecur\u00e9","location":{"lat":"51.535865","lng":"-0.185903","distance":"277","cc":"GB","country":"United Kingdom"},"verified":"false","restricted":"true","stats":{"checkinsCount":"3","usersCount":"3","tipCount":"0"},"specials":{"count":"0"},"hereNow":{"count":"0"},"referralId":"v-1392477958"},{"id":"4cceab0672106dcbd94faa99","name":"St. John's Wood Autos","contact":{"phone":"+442074328926","formattedPhone":"+44 20 7432 8926"},"location":{"address":"Langford Place","crossStreet":"22 Abbey Road","lat":"51.53374686525693","lng":"-0.17882201444178433","distance":"282","postalCode":"NW8 9DN","cc":"GB","city":"London","state":"Greater London","country":"United Kingdom"},"categories":[{"id":"4bf58dd8d48988d124951735","name":"Automotive Shop","pluralName":"Automotive Shops","shortName":"Automotive","icon":{"prefix":"https:\/\/ss1.4sqi.net\/img\/categories_v2\/shops\/automotive_","suffix":".png"},"primary":"true"}],"verified":"false","restricted":"true","stats":{"checkinsCount":"49","usersCount":"9","tipCount":"0"},"specials":{"count":"0"},"hereNow":{"count":"0"},"referralId":"v-1392477958"},{"id":"4f527a51e4b002a742518d07","name":"Adelaide Court","location":{"lat":"51.53362361587843","lng":"-0.17874124706964048","distance":"290","cc":"GB","country":"United Kingdom"},"categories":[{"id":"4d954b06a243a5684965b473","name":"Residential Building (Apartment \/ Condo)","pluralName":"Residential Buildings (Apartments \/ Condos)","shortName":"Residential","icon":{"prefix":"https:\/\/ss1.4sqi.net\/img\/categories_v2\/building\/apartment_","suffix":".png"},"primary":"true"}],"verified":"false","restricted":"true","stats":{"checkinsCount":"40","usersCount":"6","tipCount":"0"},"specials":{"count":"0"},"hereNow":{"count":"0"},"referralId":"v-1392477958"},{"id":"518fb01d498e62e04ba807b1","name":"The New London Synagogue","location":{"address":"33 Abbey Road","lat":"51.53494028138087","lng":"-0.18077420193956176","distance":"158","cc":"GB","city":"London NW 8 OAT","country":"United Kingdom"},"categories":[{"id":"4bf58dd8d48988d139941735","name":"Synagogue","pluralName":"Synagogues","shortName":"Synagogue","icon":{"prefix":"https:\/\/ss1.4sqi.net\/img\/categories_v2\/building\/religious_synagogue_","suffix":".png"},"primary":"true"}],"verified":"false","restricted":"true","stats":{"checkinsCount":"3","usersCount":"3","tipCount":"0"},"specials":{"count":"0"},"hereNow":{"count":"0"},"referralId":"v-1392477958"}],"confident":"false"}}