{"meta":{"code":"200"},"response":{"venues":[{"id":"4da035a25970b1f72e81541e","name":"Kipferl","contact":{"phone":"+442077041555","formattedPhone":"+44 20 7704 1555","twitter":"kipferlcafe"},"location":{"address":"20 Camden Passage","lat":"51.535091","lng":"-0.103505","distance":"101","postalCode":"N1 8ED","cc":"GB","city":"Islington","state":"Greater London","country":"United Kingdom"},"categories":[{"id":"4bf58dd8d48988d16d941735","name":"Caf\u00e9","pluralName":"Caf\u00e9s","shortName":"Caf\u00e9","icon":{"prefix":"https:\/\/ss1.4sqi.net\/img\/categories_v2\/food\/cafe_","suffix":".png"},"primary":"true"}],"verified":"false","restricted":"true","stats":{"checkinsCount":"1301","usersCount":"726","tipCount":"35"},"url":"http:\/\/www.kipferl.co.uk","reservations":{"url":"http:\/\/www.toptable.co.uk\/single.aspx?rid=90837&ref=9601"},"menu":{"type":"Menu","label":"Menu","anchor":"View Menu","url":"https:\/\/foursquare.com\/v\/kipferl\/4da035a25970b1f72e81541e\/menu","mobileUrl":"https:\/\/foursquare.com\/v\/4da035a25970b1f72e81541e\/device_menu"},"specials":{"count":"0"},"hereNow":{"count":"5","groups":[{"type":"others","name":"Other people here","count":"5"}]},"referralId":"v-1392477966"},{"id":"4ad9cc01f964a520ef1a21e3","name":"The Breakfast Club","contact":{"phone":"+442072265454","formattedPhone":"+44 20 7226 5454"},"location":{"address":"31 Camden Passage","lat":"51.53505452385795","lng":"-0.10371029376983643","distance":"105","postalCode":"N1 8EA","cc":"GB","city":"Islington","state":"Greater London","country":"United Kingdom"},"categories":[{"id":"4bf58dd8d48988d143941735","name":"Breakfast Spot","pluralName":"Breakfast Spots","shortName":"Breakfast","icon":{"prefix":"https:\/\/ss1.4sqi.net\/img\/categories_v2\/food\/breakfast_","suffix":".png"},"primary":"true"}],"verified":"true","restricted":"true","stats":{"checkinsCount":"3740","usersCount":"2197","tipCount":"79"},"specials":{"count":"0"},"hereNow":{"count":"1","groups":[{"type":"others","name":"Other people here","count":"1"}]},"referralId":"v-1392477966"},{"id":"4da1bfab9935a093c049a66f","name":"Colebrooke Row Gardens","location":{"lat":"51.53403821934835","lng":"-0.10262545467456476","distance":"30","cc":"GB","city":"Islington","state":"Greater London","country":"United Kingdom"},"categories":[{"id":"4bf58dd8d48988d15a941735","name":"Garden","pluralName":"Gardens","shortName":"Garden","icon":{"prefix":"https:\/\/ss1.4sqi.net\/img\/categories_v2\/parks_outdoors\/garden_","suffix":".png"},"primary":"true"}],"verified":"false","restricted":"true","stats":{"checkinsCount":"214","usersCount":"39","tipCount":"2"},"specials":{"count":"0"},"hereNow":{"count":"0"},"referralId":"v-1392477966"},{"id":"4bd0896c77b29c74b7f08a82","name":"Byron","contact":{"phone":"+442073597717","formattedPhone":"+44 20 7359 7717","twitter":"byronhamburgers"},"location":{"address":"341 Upper St","lat":"51.53480425870272","lng":"-0.10445594787597656","distance":"128","postalCode":"N1 0PB","cc":"GB","city":"Islington","state":"Greater London","country":"United Kingdom"},"categories":[{"id":"4bf58dd8d48988d16c941735","name":"Burger Joint","pluralName":"Burger Joints","shortName":"Burgers","icon":{"prefix":"https:\/\/ss1.4sqi.net\/img\/categories_v2\/food\/burger_","suffix":".png"},"primary":"true"}],"verified":"true","restricted":"true","stats":{"checkinsCount":"3448","usersCount":"2165","tipCount":"53"},"specials":{"count":"0"},"hereNow":{"count":"3","groups":[{"type":"others","name":"Other people here","count":"3"}]},"storeId":"","referralId":"v-1392477966"},{"id":"4b645c6bf964a52041ad2ae3","name":"Upper Street Islington","location":{"address":"Upper Street Islington","crossStreet":"btwn Liverpool Rd. & Holloway Rd.","lat":"51.5347775636716","lng":"-0.10462760925292969","distance":"137","postalCode":"N1","cc":"GB","city":"Islington","state":"Greater London","country":"United Kingdom"},"categories":[{"id":"4bf58dd8d48988d162941735","name":"Other Great Outdoors","pluralName":"Other Great Outdoors","shortName":"Other Outdoors","icon":{"prefix":"https:\/\/ss1.4sqi.net\/img\/categories_v2\/parks_outdoors\/outdoors_","suffix":".png"},"primary":"true"}],"verified":"false","restricted":"true","stats":{"checkinsCount":"3235","usersCount":"724","tipCount":"7"},"specials":{"count":"0"},"hereNow":{"count":"1","groups":[{"type":"others","name":"Other people here","count":"1"}]},"referralId":"v-1392477966"},{"id":"4fc9ff8ce4b087d229f75ce4","name":"The Coffeeworks Project","contact":{"phone":"+442074245020","formattedPhone":"+44 20 7424 5020","twitter":"coffeeworksproj"},"location":{"address":"96-98 Islington High St.","lat":"51.53423692101655","lng":"-0.10476292592086979","distance":"135","postalCode":"N1 8EG","cc":"GB","city":"Islington","state":"Greater London","country":"United Kingdom"},"categories":[{"id":"4bf58dd8d48988d1e0931735","name":"Coffee Shop","pluralName":"Coffee Shops","shortName":"Coffee Shop","icon":{"prefix":"https:\/\/ss1.4sqi.net\/img\/categories_v2\/food\/coffeeshop_","suffix":".png"},"primary":"true"}],"verified":"false","restricted":"true","stats":{"checkinsCount":"1684","usersCount":"810","tipCount":"30"},"specials":{"count":"0"},"hereNow":{"count":"1","groups":[{"type":"others","name":"Other people here","count":"1"}]},"referralId":"v-1392477966"},{"id":"4afee58af964a520553122e3","name":"Chilango","contact":{"phone":"+442077042123","formattedPhone":"+44 20 7704 2123","twitter":"chilango_uk"},"location":{"address":"27 Upper St","lat":"51.53460070869508","lng":"-0.105094313621521","distance":"162","postalCode":"N1 0PN","cc":"GB","city":"Islington","state":"Greater London","country":"United Kingdom"},"categories":[{"id":"4bf58dd8d48988d153941735","name":"Burrito Place","pluralName":"Burrito Places","shortName":"Burritos","icon":{"prefix":"https:\/\/ss1.4sqi.net\/img\/categories_v2\/food\/burrito_","suffix":".png"},"primary":"true"}],"verified":"true","restricted":"true","stats":{"checkinsCount":"4290","usersCount":"1643","tipCount":"71"},"url":"http:\/\/www.chilango.co.uk","specials":{"count":"0"},"hereNow":{"count":"1","groups":[{"type":"others","name":"Other people here","count":"1"}]},"referralId":"v-1392477966"},{"id":"51cb3325498ec6821f97dc3d","name":"Pho","contact":{"phone":"+442075595150","formattedPhone":"+44 20 7559 5150","twitter":"phorestaurant"},"location":{"address":"39 Upper St","lat":"51.534678320129736","lng":"-0.10468395482303734","distance":"137","postalCode":"N1 0PN","cc":"GB","city":"Islington","state":"Greater London","country":"United Kingdom"},"categories":[{"id":"4bf58dd8d48988d14a941735","name":"Vietnamese Restaurant","pluralName":"Vietnamese Restaurants","shortName":"Vietnamese","icon":{"prefix":"https:\/\/ss1.4sqi.net\/img\/categories_v2\/food\/default_","suffix":".png"},"primary":"true"}],"verified":"false","restricted":"true","stats":{"checkinsCount":"406","usersCount":"272","tipCount":"11"},"url":"http:\/\/www.phocafe.co.uk\/locations\/islington","specials":{"count":"0"},"hereNow":{"count":"1","groups":[{"type":"others","name":"Other people here","count":"1"}]},"referralId":"v-1392477966"},{"id":"51b875eb2fc6422edcd7b311","name":"Brew Box Bubble Tea","contact":{"phone":"+442073590222","formattedPhone":"+44 20 7359 0222","twitter":"brewboxldn"},"location":{"address":"120 Islington High St","lat":"51.534615724710356","lng":"-0.10403752326965332","distance":"92","postalCode":"N1 8EG","cc":"GB","city":"London","state":"Greater London","country":"United Kingdom"},"categories":[{"id":"4bf58dd8d48988d16d941735","name":"Caf\u00e9","pluralName":"Caf\u00e9s","shortName":"Caf\u00e9","icon":{"prefix":"https:\/\/ss1.4sqi.net\/img\/categories_v2\/food\/cafe_","suffix":".png"},"primary":"true"}],"verified":"true","restricted":"true","stats":{"checkinsCount":"389","usersCount":"131","tipCount":"12"},"url":"http:\/\/www.facebook.com\/BrewBoxBubbleTea","specials":{"count":"0"},"hereNow":{"count":"0"},"venuePage":{"id":"59937849"},"storeId":"","referralId":"v-1392477966"},{"id":"4c015e4d58dbc928d237ee6b","name":"St John the Evangelist","contact":{"phone":"+442072263277","formattedPhone":"+44 20 7226 3277"},"location":{"address":"Duncan Terrace","lat":"51.53399005321076","lng":"-0.1032865047454834","distance":"47","postalCode":"N1 8AL","cc":"GB","city":"Islington","state":"Greater London","country":"United Kingdom"},"categories":[{"id":"4bf58dd8d48988d132941735","name":"Church","pluralName":"Churches","shortName":"Church","icon":{"prefix":"https:\/\/ss1.4sqi.net\/img\/categories_v2\/building\/religious_church_","suffix":".png"},"primary":"true"}],"verified":"false","restricted":"true","stats":{"checkinsCount":"68","usersCount":"29","tipCount":"0"},"specials":{"count":"0"},"hereNow":{"count":"0"},"referralId":"v-1392477966"},{"id":"4ae2d3ddf964a5207d8f21e3","name":"Elk in the Woods","contact":{"phone":"+442072263535","formattedPhone":"+44 20 7226 3535","twitter":"elkinthewoodsn1"},"location":{"address":"39 Camden Passage","lat":"51.53527809289963","lng":"-0.1035761833190918","distance":"122","postalCode":"N1 8EA","cc":"GB","city":"Islington","state":"Greater London","country":"United Kingdom"},"categories":[{"id":"4bf58dd8d48988d155941735","name":"Gastropub","pluralName":"Gastropubs","shortName":"Gastropub","icon":{"prefix":"https:\/\/ss1.4sqi.net\/img\/categories_v2\/food\/gastropub_","suffix":".png"},"primary":"true"}],"verified":"false","restricted":"true","stats":{"checkinsCount":"1311","usersCount":"996","tipCount":"41"},"url":"http:\/\/www.the-elk-in-the-woods.co.uk","reservations":{"url":"http:\/\/www.toptable.co.uk\/single.aspx?rid=100161&ref=9601"},"menu":{"type":"Menu","label":"Menu","anchor":"View Menu","url":"https:\/\/foursquare.com\/v\/elk-in-the-woods\/4ae2d3ddf964a5207d8f21e3\/menu","mobileUrl":"https:\/\/foursquare.com\/v\/4ae2d3ddf964a5207d8f21e3\/device_menu"},"specials":{"count":"0"},"hereNow":{"count":"0"},"referralId":"v-1392477966"},{"id":"4ac518c5f964a520c4a420e3","name":"Camden Head","contact":{"phone":"+442072886003","formattedPhone":"+44 20 7288 6003"},"location":{"address":"2 Camden Walk","crossStreet":"Camden Passage","lat":"51.53570174144837","lng":"-0.10293610255911899","distance":"157","postalCode":"N1 8DY","cc":"GB","city":"Islington","state":"Greater London","country":"United Kingdom"},"categories":[{"id":"4bf58dd8d48988d11b941735","name":"Pub","pluralName":"Pubs","shortName":"Pub","icon":{"prefix":"https:\/\/ss1.4sqi.net\/img\/categories_v2\/nightlife\/pub_","suffix":".png"},"primary":"true"}],"verified":"false","restricted":"true","stats":{"checkinsCount":"2026","usersCount":"1449","tipCount":"19"},"url":"http:\/\/www.camden-head.co.uk","specials":{"count":"0"},"hereNow":{"count":"0"},"referralId":"v-1392477966"},{"id":"4dd64e8e8130756995a93643","name":"Cotswold Outdoor","contact":{"twitter":"cotswoldoutdoor"},"location":{"address":"116-118 Islington High St.","lat":"51.534573","lng":"-0.104122","distance":"96","postalCode":"N1 8EG","cc":"GB","city":"London","state":"Greater London","country":"United Kingdom"},"categories":[{"id":"4bf58dd8d48988d1f2941735","name":"Sporting Goods Shop","pluralName":"Sporting Goods Shops","shortName":"Sporting Goods","icon":{"prefix":"https:\/\/ss1.4sqi.net\/img\/categories_v2\/shops\/sports_outdoors_","suffix":".png"},"primary":"true"}],"verified":"true","restricted":"true","stats":{"checkinsCount":"124","usersCount":"42","tipCount":"3"},"url":"http:\/\/www.cotswoldoutdoor.com","specials":{"count":"0"},"hereNow":{"count":"1","groups":[{"type":"others","name":"Other people here","count":"1"}]},"storeId":"","referralId":"v-1392477966"},{"id":"4fd39058e4b02bbdc5a2b962","name":"Zucono","contact":{"phone":"+442034907554","formattedPhone":"+44 20 3490 7554"},"location":{"address":"16 Camden Passage","crossStreet":"Islington","lat":"51.535123","lng":"-0.103668","distance":"110","postalCode":"N1 8ED","cc":"GB","city":"London","state":"Greater London","country":"United Kingdom"},"categories":[{"id":"4bf58dd8d48988d1c9941735","name":"Ice Cream Shop","pluralName":"Ice Cream Shops","shortName":"Ice Cream","icon":{"prefix":"https:\/\/ss1.4sqi.net\/img\/categories_v2\/food\/icecream_","suffix":".png"},"primary":"true"}],"verified":"false","restricted":"true","stats":{"checkinsCount":"239","usersCount":"174","tipCount":"8"},"url":"http:\/\/zucono.com","specials":{"count":"0"},"hereNow":{"count":"1","groups":[{"type":"others","name":"Other people here","count":"1"}]},"referralId":"v-1392477966"},{"id":"50279696e4b0d9e3ebcb50cf","name":"Chipotle Mexican Grill","contact":{"phone":"+442073543686","formattedPhone":"+44 20 7354 3686","twitter":"chipotletweets"},"location":{"address":"334 Upper St","crossStreet":"Theberton St","lat":"51.535521103573345","lng":"-0.10381201222068655","distance":"153","postalCode":"N1 0PB","cc":"GB","city":"London","state":"Greater London","country":"United Kingdom"},"categories":[{"id":"4bf58dd8d48988d1c1941735","name":"Mexican Restaurant","pluralName":"Mexican Restaurants","shortName":"Mexican","icon":{"prefix":"https:\/\/ss1.4sqi.net\/img\/categories_v2\/food\/mexican_","suffix":".png"},"primary":"true"}],"verified":"true","restricted":"true","stats":{"checkinsCount":"883","usersCount":"439","tipCount":"11"},"url":"http:\/\/www.chipotle.com","specials":{"count":"0"},"hereNow":{"count":"0"},"storeId":"1944","referralId":"v-1392477966"},{"id":"4ad468fef964a520c9e720e3","name":"Paul A Young Fine Chocolates","contact":{"phone":"+442074245750","formattedPhone":"+44 20 7424 5750"},"location":{"address":"33 Camden Passage","lat":"51.53507454501093","lng":"-0.10373175144195557","distance":"108","postalCode":"N1 8EA","cc":"GB","city":"Islington","state":"Greater London","country":"United Kingdom"},"categories":[{"id":"4bf58dd8d48988d117951735","name":"Candy Store","pluralName":"Candy Stores","shortName":"Candy Store","icon":{"prefix":"https:\/\/ss1.4sqi.net\/img\/categories_v2\/shops\/candystore_","suffix":".png"},"primary":"true"}],"verified":"true","restricted":"true","stats":{"checkinsCount":"524","usersCount":"320","tipCount":"25"},"url":"http:\/\/www.paulayoung.co.uk","specials":{"count":"1","items":[{"id":"4c06d43786ba62b5875388b3","type":"count","message":"Show the you've checked in on Foursquare and get free award winning chocolate truffles. Best in the U.K.!","description":"Unlocked on your 1st check-in","icon":"newbie","title":"Newbie Special","provider":"foursquare","redemption":"standard"}]},"hereNow":{"count":"0"},"referralId":"v-1392477966"},{"id":"4b531253f964a520188e27e3","name":"Tenshi","contact":{"phone":"+442072264665","formattedPhone":"+44 20 7226 4665"},"location":{"address":"61 Upper St.","lat":"51.53583200549613","lng":"-0.10383367538452148","distance":"186","postalCode":"N1 0NY","cc":"GB","city":"Islington","state":"Greater London","country":"United Kingdom"},"categories":[{"id":"4bf58dd8d48988d1d2941735","name":"Sushi Restaurant","pluralName":"Sushi Restaurants","shortName":"Sushi","icon":{"prefix":"https:\/\/ss1.4sqi.net\/img\/categories_v2\/food\/sushi_","suffix":".png"},"primary":"true"}],"verified":"false","restricted":"true","stats":{"checkinsCount":"1016","usersCount":"577","tipCount":"29"},"specials":{"count":"0"},"hereNow":{"count":"1","groups":[{"type":"others","name":"Other people here","count":"1"}]},"referralId":"v-1392477966"},{"id":"4aded6b0f964a520cf7621e3","name":"Starbucks","contact":{"twitter":"starbucksuk"},"location":{"address":"30 Upper St, Islington","crossStreet":"near Duncan St.","lat":"51.534377136326285","lng":"-0.10535717010498047","distance":"177","postalCode":"N1 0PN","cc":"GB","city":"London","state":"Greater London","country":"United Kingdom"},"categories":[{"id":"4bf58dd8d48988d1e0931735","name":"Coffee Shop","pluralName":"Coffee Shops","shortName":"Coffee Shop","icon":{"prefix":"https:\/\/ss1.4sqi.net\/img\/categories_v2\/food\/coffeeshop_","suffix":".png"},"primary":"true"}],"verified":"true","restricted":"true","stats":{"checkinsCount":"1685","usersCount":"985","tipCount":"6"},"url":"http:\/\/starbucks.co.uk","specials":{"count":"0"},"hereNow":{"count":"0"},"storeId":"12317","referralId":"v-1392477966"},{"id":"5257cc2211d20a4eba956e66","name":"Vivo","contact":{"phone":"+442074245992","formattedPhone":"+44 20 7424 5992","twitter":"vivo_taste"},"location":{"address":"57-58 Upper St","lat":"51.535534","lng":"-0.103979","distance":"160","postalCode":"N1 0NY","cc":"GB","city":"Islington","state":"Greater London","country":"United Kingdom"},"categories":[{"id":"4bf58dd8d48988d110941735","name":"Italian Restaurant","pluralName":"Italian Restaurants","shortName":"Italian","icon":{"prefix":"https:\/\/ss1.4sqi.net\/img\/categories_v2\/food\/italian_","suffix":".png"},"primary":"true"}],"verified":"false","restricted":"true","stats":{"checkinsCount":"239","usersCount":"173","tipCount":"9"},"url":"http:\/\/www.vivotaste.com","specials":{"count":"0"},"hereNow":{"count":"0"},"referralId":"v-1392477966"},{"id":"4ac518dff964a520eca920e3","name":"Frederick's Bar & Restaurant","contact":{"phone":"+442073592888","formattedPhone":"+44 20 7359 2888"},"location":{"address":"Camden Passage","lat":"51.534291","lng":"-0.104263","distance":"101","postalCode":"N1 8EG","cc":"GB","city":"London","state":"Greater London","country":"United Kingdom"},"categories":[{"id":"4bf58dd8d48988d10c941735","name":"French Restaurant","pluralName":"French Restaurants","shortName":"French","icon":{"prefix":"https:\/\/ss1.4sqi.net\/img\/categories_v2\/food\/french_","suffix":".png"},"primary":"true"}],"verified":"false","restricted":"true","stats":{"checkinsCount":"546","usersCount":"413","tipCount":"11"},"url":"http:\/\/fredericks.co.uk","reservations":{"url":"http:\/\/www.toptable.co.uk\/single.aspx?rid=78799&ref=9601"},"menu":{"type":"Menu","label":"Menu","anchor":"View Menu","url":"https:\/\/foursquare.com\/v\/fredericks-bar--restaurant\/4ac518dff964a520eca920e3\/menu","mobileUrl":"https:\/\/foursquare.com\/v\/4ac518dff964a520eca920e3\/device_menu"},"specials":{"count":"0"},"hereNow":{"count":"0"},"referralId":"v-1392477966"},{"id":"4c35f95a3896e21e2903ee90","name":"Loop","contact":{"phone":"+442072881160","formattedPhone":"+44 20 7288 1160"},"location":{"address":"15 Camden Passage","lat":"51.534776","lng":"-0.10407507419586182","distance":"103","postalCode":"N1 8EA","cc":"GB","city":"Islington","state":"Greater London","country":"United Kingdom"},"categories":[{"id":"4bf58dd8d48988d127951735","name":"Arts & Crafts Store","pluralName":"Arts & Crafts Stores","shortName":"Arts & Crafts","icon":{"prefix":"https:\/\/ss1.4sqi.net\/img\/categories_v2\/shops\/artstore_","suffix":".png"},"primary":"true"}],"verified":"false","restricted":"true","stats":{"checkinsCount":"224","usersCount":"140","tipCount":"8"},"url":"http:\/\/www.loopknitting.com","specials":{"count":"0"},"hereNow":{"count":"0"},"referralId":"v-1392477966"},{"id":"4b23c320f964a520415924e3","name":"The Nag's Head","contact":{"phone":"+442072263756","formattedPhone":"+44 20 7226 3756"},"location":{"address":"12 Upper St","lat":"51.534350441044694","lng":"-0.10570049285888672","distance":"200","postalCode":"N1 0PQ","cc":"GB","city":"Islington","state":"Greater London","country":"United Kingdom"},"categories":[{"id":"4bf58dd8d48988d11b941735","name":"Pub","pluralName":"Pubs","shortName":"Pub","icon":{"prefix":"https:\/\/ss1.4sqi.net\/img\/categories_v2\/nightlife\/pub_","suffix":".png"},"primary":"true"}],"verified":"false","restricted":"true","stats":{"checkinsCount":"1012","usersCount":"780","tipCount":"5"},"specials":{"count":"0"},"hereNow":{"count":"1","groups":[{"type":"others","name":"Other people here","count":"1"}]},"referralId":"v-1392477966"},{"id":"4b47accbf964a520243a26e3","name":"PizzaExpress","contact":{"phone":"+442072269542","formattedPhone":"+44 20 7226 9542","twitter":"pizzaexpress"},"location":{"address":"335 Upper St","lat":"51.5353515","lng":"-0.103812218","distance":"137","postalCode":"N1 0PB","cc":"GB","city":"Islington","state":"Greater London","country":"United Kingdom"},"categories":[{"id":"4bf58dd8d48988d1ca941735","name":"Pizza Place","pluralName":"Pizza Places","shortName":"Pizza","icon":{"prefix":"https:\/\/ss1.4sqi.net\/img\/categories_v2\/food\/pizza_","suffix":".png"},"primary":"true"}],"verified":"true","restricted":"true","stats":{"checkinsCount":"804","usersCount":"650","tipCount":"10"},"url":"http:\/\/www.pizzaexpress.com","menu":{"type":"Menu","label":"Menu","anchor":"View Menu","url":"https:\/\/foursquare.com\/v\/pizzaexpress\/4b47accbf964a520243a26e3\/menu","mobileUrl":"https:\/\/foursquare.com\/v\/4b47accbf964a520243a26e3\/device_menu"},"specials":{"count":"0"},"hereNow":{"count":"0"},"storeId":"","referralId":"v-1392477966"},{"id":"4b157a43f964a5206fad23e3","name":"Thai Square","location":{"address":"349 Upper St","lat":"51.5349248402222","lng":"-0.10434926158627864","distance":"128","postalCode":"N1 0PD","cc":"GB","city":"London","state":"Greater London","country":"United Kingdom"},"categories":[{"id":"4bf58dd8d48988d149941735","name":"Thai Restaurant","pluralName":"Thai Restaurants","shortName":"Thai","icon":{"prefix":"https:\/\/ss1.4sqi.net\/img\/categories_v2\/food\/thai_","suffix":".png"},"primary":"true"}],"verified":"false","restricted":"true","stats":{"checkinsCount":"686","usersCount":"548","tipCount":"12"},"url":"http:\/\/thaisquare.net\/#angel","reservations":{"url":"http:\/\/www.toptable.co.uk\/single.aspx?rid=74707&ref=9601"},"menu":{"type":"Menu","label":"Menu","anchor":"View Menu","url":"https:\/\/foursquare.com\/v\/thai-square\/4b157a43f964a5206fad23e3\/menu","mobileUrl":"https:\/\/foursquare.com\/v\/4b157a43f964a5206fad23e3\/device_menu"},"specials":{"count":"0"},"hereNow":{"count":"0"},"referralId":"v-1392477966"},{"id":"4bc99b82cc8cd13acbdabbcf","name":"Cyber Candy","location":{"address":"29 Upper Street","lat":"51.53439540670196","lng":"-0.10521101703105189","distance":"167","cc":"GB","city":"Islington","state":"Greater London","country":"United Kingdom"},"categories":[{"id":"4bf58dd8d48988d117951735","name":"Candy Store","pluralName":"Candy Stores","shortName":"Candy Store","icon":{"prefix":"https:\/\/ss1.4sqi.net\/img\/categories_v2\/shops\/candystore_","suffix":".png"},"primary":"true"}],"verified":"true","restricted":"true","stats":{"checkinsCount":"551","usersCount":"340","tipCount":"5"},"specials":{"count":"0"},"hereNow":{"count":"0"},"referralId":"v-1392477966"},{"id":"52989833498e3d6cdea1dc1b","name":"Cabana Brasilian Barbecue","location":{"lat":"51.535509","lng":"-0.104328","distance":"172","postalCode":"N1 0NY","cc":"GB","city":"London","state":"Greater London","country":"United Kingdom"},"categories":[{"id":"4bf58dd8d48988d16b941735","name":"Brazilian Restaurant","pluralName":"Brazilian Restaurants","shortName":"Brazilian","icon":{"prefix":"https:\/\/ss1.4sqi.net\/img\/categories_v2\/food\/brazilian_","suffix":".png"},"primary":"true"}],"verified":"false","restricted":"true","stats":{"checkinsCount":"91","usersCount":"76","tipCount":"4"},"reservations":{"url":"http:\/\/www.toptable.co.uk\/single.aspx?rid=99615&ref=9601"},"specials":{"count":"0"},"hereNow":{"count":"0"},"referralId":"v-1392477966"},{"id":"4bc2232d461576b050e97c32","name":"The York","contact":{"phone":"+442077131835","formattedPhone":"+44 20 7713 1835"},"location":{"address":"82 Islington High St","crossStreet":"at Duncan St","lat":"51.53373644524688","lng":"-0.10524988174438477","distance":"180","postalCode":"N1 8EQ","cc":"GB","city":"Islington","state":"Greater London","country":"United Kingdom"},"categories":[{"id":"4bf58dd8d48988d11b941735","name":"Pub","pluralName":"Pubs","shortName":"Pub","icon":{"prefix":"https:\/\/ss1.4sqi.net\/img\/categories_v2\/nightlife\/pub_","suffix":".png"},"primary":"true"}],"verified":"false","restricted":"true","stats":{"checkinsCount":"1672","usersCount":"1335","tipCount":"16"},"specials":{"count":"0"},"hereNow":{"count":"0"},"referralId":"v-1392477966"},{"id":"4ac518b6f964a520e1a020e3","name":"Hilton London Islington","contact":{"phone":"+442073547700","formattedPhone":"+44 20 7354 7700","twitter":"hiltonhotels"},"location":{"address":"53 Upper St","lat":"51.53573857492835","lng":"-0.10471343994140625","distance":"208","postalCode":"N1 0UY","cc":"GB","city":"London","state":"Greater London","country":"United Kingdom"},"categories":[{"id":"4bf58dd8d48988d1fa931735","name":"Hotel","pluralName":"Hotels","shortName":"Hotel","icon":{"prefix":"https:\/\/ss1.4sqi.net\/img\/categories_v2\/travel\/hotel_","suffix":".png"},"primary":"true"}],"verified":"true","restricted":"true","stats":{"checkinsCount":"1579","usersCount":"632","tipCount":"14"},"reservations":{"url":"http:\/\/www.toptable.co.uk\/single.aspx?rid=81208&ref=9601"},"menu":{"type":"Menu","label":"Menu","anchor":"View Menu","url":"https:\/\/foursquare.com\/v\/hilton-london-islington\/4ac518b6f964a520e1a020e3\/menu","mobileUrl":"https:\/\/foursquare.com\/v\/4ac518b6f964a520e1a020e3\/device_menu"},"specials":{"count":"0"},"hereNow":{"count":"0"},"storeId":"LONISHN","referralId":"v-1392477966"},{"id":"4b9bc2e7f964a5202c2236e3","name":"The Steam Passage Tavern","location":{"address":"44 Upper Street","lat":"51.53461739315619","lng":"-0.10514259338378906","distance":"166","postalCode":"N1","cc":"GB","city":"Islington","state":"Greater London","country":"United Kingdom"},"categories":[{"id":"4bf58dd8d48988d11b941735","name":"Pub","pluralName":"Pubs","shortName":"Pub","icon":{"prefix":"https:\/\/ss1.4sqi.net\/img\/categories_v2\/nightlife\/pub_","suffix":".png"},"primary":"true"}],"verified":"false","restricted":"true","stats":{"checkinsCount":"881","usersCount":"693","tipCount":"9"},"specials":{"count":"0"},"hereNow":{"count":"0"},"referralId":"v-1392477966"},{"id":"4aeedd60f964a52074d421e3","name":"Desperados","contact":{"phone":"+442072263222","formattedPhone":"+44 20 7226 3222"},"location":{"address":"127 Upper St.","lat":"51.535952617959296","lng":"-0.1036892309154935","distance":"195","postalCode":"N1 1QP","cc":"GB","city":"London","state":"Greater London","country":"United Kingdom"},"categories":[{"id":"4bf58dd8d48988d1c1941735","name":"Mexican Restaurant","pluralName":"Mexican Restaurants","shortName":"Mexican","icon":{"prefix":"https:\/\/ss1.4sqi.net\/img\/categories_v2\/food\/mexican_","suffix":".png"},"primary":"true"}],"verified":"false","restricted":"true","stats":{"checkinsCount":"884","usersCount":"698","tipCount":"30"},"specials":{"count":"0"},"hereNow":{"count":"0"},"referralId":"v-1392477966"}],"confident":"false"}}