{"meta":{"code":"200"},"response":{"venues":[{"id":"52988940498e725c6a9df38f","name":"Andina","contact":{"phone":"+442079206499","formattedPhone":"+44 20 7920 6499","twitter":"andinalondon"},"location":{"address":"1 Redchurch Street","crossStreet":"Shoreditch High Street","lat":"51.524240853495726","lng":"-0.07713744454932273","distance":"46","postalCode":"E27DJ","cc":"GB","city":"London","state":"Greater London","country":"United Kingdom"},"categories":[{"id":"4eb1bfa43b7b52c0e1adc2e8","name":"Peruvian Restaurant","pluralName":"Peruvian Restaurants","shortName":"Peruvian","icon":{"prefix":"https:\/\/ss1.4sqi.net\/img\/categories_v2\/food\/default_","suffix":".png"},"primary":"true"}],"verified":"true","restricted":"true","stats":{"checkinsCount":"265","usersCount":"244","tipCount":"7"},"url":"http:\/\/andinalondon.com","reservations":{"url":"http:\/\/www.toptable.co.uk\/single.aspx?rid=99135&ref=9601"},"specials":{"count":"0"},"hereNow":{"count":"3","groups":[{"type":"others","name":"Other people here","count":"3"}]},"venuePage":{"id":"73632919"},"storeId":"","referralId":"v-1392477995"},{"id":"4d398bd997e0a1cdf1fb643e","name":"ustwo","contact":{"twitter":"ustwo"},"location":{"address":"62 Shoreditch High Street","crossStreet":"Tea Building","lat":"51.52409210801993","lng":"-0.07717142216067317","distance":"48","postalCode":"E1 6JJ","cc":"GB","city":"Hackney","state":"Greater London","country":"United Kingdom"},"categories":[{"id":"4bf58dd8d48988d124941735","name":"Office","pluralName":"Offices","shortName":"Office","icon":{"prefix":"https:\/\/ss1.4sqi.net\/img\/categories_v2\/building\/default_","suffix":".png"},"primary":"true"}],"verified":"true","restricted":"true","stats":{"checkinsCount":"2853","usersCount":"249","tipCount":"8"},"url":"http:\/\/www.ustwo.co.uk","specials":{"count":"1","items":[{"id":"521d2252bce62a0ad5bd4d9b","type":"count","message":"Your first check in at ustwo\u2122! Glad to have you here. Show this screen to another ustwobie\u2122 for a treat from the Cybercafe.","description":"Unlocked on your 1st check-in","icon":"newbie","title":"Newbie Special","provider":"foursquare","redemption":"standard","page":{"id":"33177002","firstName":"ustwo","gender":"none","photo":{"prefix":"https:\/\/irs3.4sqi.net\/img\/user\/","suffix":"\/33177002-PUK0ZO2CYJZGBO5P.png"},"type":"venuePage","venue":{"id":"4d398bd997e0a1cdf1fb643e"},"tips":{"count":"0"},"homeCity":"Hackney, Greater London","bio":""}}]},"hereNow":{"count":"0"},"venuePage":{"id":"33177002"},"storeId":"","referralId":"v-1392477995"},{"id":"5040721ae4b01446aa41d438","name":"Dishoom","contact":{"phone":"+442074209324","formattedPhone":"+44 20 7420 9324","twitter":"dishoom","facebook":"109165852443238"},"location":{"address":"7 Boundary St","lat":"51.5245132839623","lng":"-0.07661614658913422","distance":"85","postalCode":"E2 7JE","cc":"GB","city":"Shoreditch","state":"Greater London","country":"United Kingdom"},"categories":[{"id":"4bf58dd8d48988d10f941735","name":"Indian Restaurant","pluralName":"Indian Restaurants","shortName":"Indian","icon":{"prefix":"https:\/\/ss1.4sqi.net\/img\/categories_v2\/food\/indian_","suffix":".png"},"primary":"true"}],"verified":"true","restricted":"true","stats":{"checkinsCount":"3877","usersCount":"2315","tipCount":"74"},"url":"http:\/\/www.dishoom.com\/shoreditch\/","menu":{"type":"Menu","label":"Menu","anchor":"View Menu","url":"https:\/\/foursquare.com\/v\/dishoom\/5040721ae4b01446aa41d438\/menu","mobileUrl":"https:\/\/foursquare.com\/v\/5040721ae4b01446aa41d438\/device_menu"},"specials":{"count":"1","items":[{"id":"51912e0f8bbdbaaa80ec88f5","type":"count","message":"We'll treat you to a Mango & Fennel Lassi or a Bacon Naan Roll* - as featured in Time Out London's best 100 dishes 2012 - on your first check-in.","description":"Unlocked on your 1st check-in","finePrint":"* Bacon Naans are only available at breakfast - served 8am-11am Monday-Friday and 9am-12pm Saturday-Sunday. Can be substituted for an Egg Naan (v).","icon":"newbie","title":"Newbie Special","provider":"foursquare","redemption":"standard","page":{"id":"38447916","firstName":"Dishoom","gender":"none","photo":{"prefix":"https:\/\/irs0.4sqi.net\/img\/user\/","suffix":"\/4MLPRDR01WSQ4CHQ.jpg"},"type":"chain","followers":{"count":"197"},"tips":{"count":"0"},"homeCity":"London, UK","bio":"","contact":{"twitter":"dishoom","facebook":"109165852443238"}}}]},"hereNow":{"count":"1","groups":[{"type":"others","name":"Other people here","count":"1"}]},"storeId":"","referralId":"v-1392477995"},{"id":"4ad75c2df964a520cd0921e3","name":"Pizza East","contact":{"phone":"+442077291888","formattedPhone":"+44 20 7729 1888","twitter":"pizzaeast"},"location":{"address":"56 Shoreditch High St","crossStreet":"Tea Building","lat":"51.52372237106589","lng":"-0.07706126863679272","distance":"81","postalCode":"E1 6JJ","cc":"GB","city":"Shoreditch","state":"Greater London","country":"United Kingdom"},"categories":[{"id":"4bf58dd8d48988d1ca941735","name":"Pizza Place","pluralName":"Pizza Places","shortName":"Pizza","icon":{"prefix":"https:\/\/ss1.4sqi.net\/img\/categories_v2\/food\/pizza_","suffix":".png"},"primary":"true"}],"verified":"true","restricted":"true","stats":{"checkinsCount":"7549","usersCount":"5039","tipCount":"164"},"url":"http:\/\/www.pizzaeast.com","menu":{"type":"Menu","label":"Menu","anchor":"View Menu","url":"https:\/\/foursquare.com\/v\/pizza-east-shoreditch-london\/4ad75c2df964a520cd0921e3\/menu","mobileUrl":"https:\/\/foursquare.com\/v\/4ad75c2df964a520cd0921e3\/device_menu"},"specials":{"count":"0"},"hereNow":{"count":"0"},"venuePage":{"id":"69979874"},"referralId":"v-1392477995"},{"id":"51a625427dd21f797bb24977","name":"Pret A Manger","contact":{"phone":"+442070330209","formattedPhone":"+44 20 7033 0209","twitter":"pret","facebook":"162638680417951"},"location":{"address":"192 Shoreditch High St","lat":"51.52388468468652","lng":"-0.07741928100585936","distance":"52","postalCode":"E1 6HU","cc":"GB","city":"Shoreditch","state":"Greater London","country":"United Kingdom"},"categories":[{"id":"4bf58dd8d48988d1c5941735","name":"Sandwich Place","pluralName":"Sandwich Places","shortName":"Sandwiches","icon":{"prefix":"https:\/\/ss1.4sqi.net\/img\/categories_v2\/food\/sandwiches_","suffix":".png"},"primary":"true"}],"verified":"true","restricted":"true","stats":{"checkinsCount":"274","usersCount":"148","tipCount":"6"},"url":"http:\/\/www.pret.com","specials":{"count":"0"},"hereNow":{"count":"1","groups":[{"type":"others","name":"Other people here","count":"1"}]},"storeId":"333","referralId":"v-1392477995"},{"id":"52dbf97e498e55ce12441fd7","name":"The Aarhus P\u00f8lser Co.","location":{"lat":"51.524358","lng":"-0.077597","distance":"16","cc":"GB","country":"United Kingdom"},"categories":[{"id":"4bf58dd8d48988d1cb941735","name":"Food Truck","pluralName":"Food Trucks","shortName":"Food Truck","icon":{"prefix":"https:\/\/ss1.4sqi.net\/img\/categories_v2\/food\/streetfood_","suffix":".png"},"primary":"true"}],"verified":"false","restricted":"true","stats":{"checkinsCount":"8","usersCount":"7","tipCount":"0"},"specials":{"count":"0"},"hereNow":{"count":"0"},"referralId":"v-1392477995"},{"id":"4aeffc1ef964a5206eda21e3","name":"The Albion","contact":{"phone":"+442077291051","formattedPhone":"+44 20 7729 1051","twitter":"albionsoven"},"location":{"address":"2-4 Boundary St","lat":"51.524504004226074","lng":"-0.07659997577575628","distance":"86","postalCode":"E1 7JE","cc":"GB","city":"Shoreditch","state":"Greater London","country":"United Kingdom"},"categories":[{"id":"4bf58dd8d48988d16d941735","name":"Caf\u00e9","pluralName":"Caf\u00e9s","shortName":"Caf\u00e9","icon":{"prefix":"https:\/\/ss1.4sqi.net\/img\/categories_v2\/food\/cafe_","suffix":".png"},"primary":"true"}],"verified":"false","restricted":"true","stats":{"checkinsCount":"5650","usersCount":"3095","tipCount":"135"},"url":"http:\/\/www.albioncaff.co.uk","menu":{"type":"Menu","label":"Menu","anchor":"View Menu","url":"https:\/\/foursquare.com\/v\/the-albion-shoreditch-greater-london\/4aeffc1ef964a5206eda21e3\/menu","mobileUrl":"https:\/\/foursquare.com\/v\/4aeffc1ef964a5206eda21e3\/device_menu"},"specials":{"count":"0"},"hereNow":{"count":"0"},"referralId":"v-1392477995"},{"id":"4eb28c766da1df5f01d3db7d","name":"BOXPARK Shoreditch","contact":{"phone":"+442070332899","formattedPhone":"+44 20 7033 2899","twitter":"boxpark","facebook":"195268303825361"},"location":{"address":"2-10 Bethnal Green Road","lat":"51.523537564815435","lng":"-0.07677555084228516","distance":"109","postalCode":"E1 6GY","cc":"GB","city":"Shoreditch","state":"Greater London","country":"United Kingdom"},"categories":[{"id":"4bf58dd8d48988d1fd941735","name":"Mall","pluralName":"Malls","shortName":"Mall","icon":{"prefix":"https:\/\/ss1.4sqi.net\/img\/categories_v2\/shops\/mall_","suffix":".png"},"primary":"true"}],"verified":"true","restricted":"true","stats":{"checkinsCount":"7219","usersCount":"4273","tipCount":"55"},"url":"http:\/\/www.boxpark.co.uk","menu":{"type":"Menu","label":"Menu","anchor":"View Menu","url":"https:\/\/foursquare.com\/v\/boxpark-shoreditch\/4eb28c766da1df5f01d3db7d\/menu","mobileUrl":"https:\/\/foursquare.com\/v\/4eb28c766da1df5f01d3db7d\/device_menu"},"specials":{"count":"0"},"hereNow":{"count":"1","groups":[{"type":"others","name":"Other people here","count":"1"}]},"venuePage":{"id":"76781065"},"storeId":"","referralId":"v-1392477995"},{"id":"51d95d0b498e7018423b7767","name":"Constancia on the road","contact":{"twitter":"constancia_otr"},"location":{"address":"187 Shoreditch High Street","lat":"51.52420463645974","lng":"-0.07759059998428353","distance":"17","postalCode":"E1 6HU","cc":"GB","city":"London","state":"Greater London","country":"United Kingdom"},"categories":[{"id":"4bf58dd8d48988d1cb941735","name":"Food Truck","pluralName":"Food Trucks","shortName":"Food Truck","icon":{"prefix":"https:\/\/ss1.4sqi.net\/img\/categories_v2\/food\/streetfood_","suffix":".png"},"primary":"true"}],"verified":"true","restricted":"true","stats":{"checkinsCount":"62","usersCount":"53","tipCount":"4"},"url":"https:\/\/www.facebook.com\/constanciaontheroad","specials":{"count":"0"},"hereNow":{"count":"0"},"venuePage":{"id":"60300011"},"referralId":"v-1392477995"},{"id":"4ae19d62f964a5206b8621e3","name":"Frame","contact":{"phone":"+442070331855","formattedPhone":"+44 20 7033 1855","twitter":"frameshoreditch"},"location":{"address":"29 New Inn Yard","lat":"51.52465572849162","lng":"-0.07865355636137872","distance":"71","postalCode":"EC2A 3EY","cc":"GB","city":"London","state":"Greater London","country":"United Kingdom"},"categories":[{"id":"4bf58dd8d48988d175941735","name":"Gym \/ Fitness Center","pluralName":"Gyms or Fitness Centers","shortName":"Gym \/ Fitness","icon":{"prefix":"https:\/\/ss1.4sqi.net\/img\/categories_v2\/building\/gym_","suffix":".png"},"primary":"true"}],"verified":"false","restricted":"true","stats":{"checkinsCount":"1732","usersCount":"222","tipCount":"9"},"url":"http:\/\/www.moveyourframe.com","specials":{"count":"0"},"hereNow":{"count":"0"},"referralId":"v-1392477995"},{"id":"5210e74d11d226cf7a972e1d","name":"Tulum Tacos","location":{"lat":"51.524219","lng":"-0.077578","distance":"17","cc":"GB","country":"United Kingdom"},"categories":[{"id":"4bf58dd8d48988d1c1941735","name":"Mexican Restaurant","pluralName":"Mexican Restaurants","shortName":"Mexican","icon":{"prefix":"https:\/\/ss1.4sqi.net\/img\/categories_v2\/food\/mexican_","suffix":".png"},"primary":"true"}],"verified":"false","restricted":"true","stats":{"checkinsCount":"49","usersCount":"45","tipCount":"5"},"specials":{"count":"0"},"hereNow":{"count":"0"},"referralId":"v-1392477995"},{"id":"4acf78f8f964a520e7d320e3","name":"Tesco Express","contact":{"phone":"+448456757072","formattedPhone":"+44 845 675 7072","twitter":"uktescooffers"},"location":{"address":"179 Shoreditch High Street","lat":"51.52462899","lng":"-0.07738","distance":"47","postalCode":"E1 6HP","cc":"GB","city":"London","state":"Greater London","country":"United Kingdom"},"categories":[{"id":"4bf58dd8d48988d118951735","name":"Grocery Store","pluralName":"Grocery Stores","shortName":"Grocery Store","icon":{"prefix":"https:\/\/ss1.4sqi.net\/img\/categories_v2\/shops\/food_grocery_","suffix":".png"},"primary":"true"}],"verified":"true","restricted":"true","stats":{"checkinsCount":"1179","usersCount":"356","tipCount":"7"},"url":"http:\/\/www.tesco.com","specials":{"count":"0"},"hereNow":{"count":"0"},"storeId":"5508","referralId":"v-1392477995"},{"id":"4ac518ebf964a52041ac20e3","name":"Village Underground","contact":{"phone":"+442074227505","formattedPhone":"+44 20 7422 7505","twitter":"villunderlondon"},"location":{"address":"54 Holywell Ln.","lat":"51.52373115122374","lng":"-0.07857263088226318","distance":"81","postalCode":"EC2A 3PQ","cc":"GB","city":"Shoreditch","state":"Greater London","country":"United Kingdom"},"categories":[{"id":"4bf58dd8d48988d1e5931735","name":"Music Venue","pluralName":"Music Venues","shortName":"Music Venue","icon":{"prefix":"https:\/\/ss1.4sqi.net\/img\/categories_v2\/arts_entertainment\/musicvenue_","suffix":".png"},"primary":"true"}],"verified":"true","restricted":"true","stats":{"checkinsCount":"3149","usersCount":"2241","tipCount":"24"},"url":"http:\/\/www.villageunderground.co.uk","specials":{"count":"0"},"hereNow":{"count":"0"},"venuePage":{"id":"72090689"},"storeId":"","referralId":"v-1392477995"},{"id":"4fd234f4e4b0753b25446cea","name":"VisualDNA","contact":{"twitter":"visualdna"},"location":{"address":"67-71 Shoreditch High Street","lat":"51.52452841964938","lng":"-0.07720690488760168","distance":"49","postalCode":"E1 6JJ","cc":"GB","city":"London","state":"Greater London","country":"United Kingdom"},"categories":[{"id":"4bf58dd8d48988d125941735","name":"Tech Startup","pluralName":"Tech Startups","shortName":"Tech Startup","icon":{"prefix":"https:\/\/ss1.4sqi.net\/img\/categories_v2\/shops\/technology_","suffix":".png"},"primary":"true"}],"verified":"false","restricted":"true","stats":{"checkinsCount":"511","usersCount":"40","tipCount":"1"},"specials":{"count":"0"},"hereNow":{"count":"0"},"referralId":"v-1392477995"},{"id":"4ed8e80ab6344371f503025c","name":"Chop'd","contact":{"phone":"+442077398665","formattedPhone":"+44 20 7739 8665","twitter":"chopdgoodfood"},"location":{"address":"Unit 44\/45, Boxpark Retail Mall, 2-4 Bethnal Green Road","lat":"51.523610038053896","lng":"-0.07712385328841084","distance":"89","postalCode":"E1 6GY","cc":"GB","city":"London","state":"Greater London","country":"United Kingdom"},"categories":[{"id":"4bf58dd8d48988d1bd941735","name":"Salad Place","pluralName":"Salad Shop","shortName":"Salad","icon":{"prefix":"https:\/\/ss1.4sqi.net\/img\/categories_v2\/food\/salad_","suffix":".png"},"primary":"true"}],"verified":"false","restricted":"true","stats":{"checkinsCount":"533","usersCount":"185","tipCount":"10"},"menu":{"type":"Menu","label":"Menu","anchor":"View Menu","url":"https:\/\/foursquare.com\/v\/chopd\/4ed8e80ab6344371f503025c\/menu","mobileUrl":"https:\/\/foursquare.com\/v\/4ed8e80ab6344371f503025c\/device_menu"},"specials":{"count":"0"},"hereNow":{"count":"2","groups":[{"type":"others","name":"Other people here","count":"2"}]},"referralId":"v-1392477995"},{"id":"5114060fe4b08c1fe58cf4ab","name":"Yalla Yalla Pop-Up","contact":{"twitter":"yallayallauk"},"location":{"address":"186 Shoreditch High St.","lat":"51.524174055592916","lng":"-0.07745331340205484","distance":"27","postalCode":"E1 6HU","cc":"GB","city":"Shoreditch","state":"Greater London","country":"United Kingdom"},"categories":[{"id":"4bf58dd8d48988d115941735","name":"Middle Eastern Restaurant","pluralName":"Middle Eastern Restaurants","shortName":"Middle Eastern","icon":{"prefix":"https:\/\/ss1.4sqi.net\/img\/categories_v2\/food\/default_","suffix":".png"},"primary":"true"}],"verified":"false","restricted":"true","stats":{"checkinsCount":"729","usersCount":"587","tipCount":"14"},"specials":{"count":"0"},"hereNow":{"count":"0"},"referralId":"v-1392477995"},{"id":"4ad5adaef964a5203e0321e3","name":"The Tea Building","location":{"address":"56 Shoreditch High St.","lat":"51.52367803999999","lng":"-0.076638","distance":"105","postalCode":"E1 6JJ","cc":"GB","city":"Shoreditch","state":"Greater London","country":"United Kingdom"},"categories":[{"id":"4bf58dd8d48988d174941735","name":"Coworking Space","pluralName":"Coworking Spaces","shortName":"Coworking Space","icon":{"prefix":"https:\/\/ss1.4sqi.net\/img\/categories_v2\/building\/office_coworkingspace_","suffix":".png"},"primary":"true"}],"verified":"false","restricted":"true","stats":{"checkinsCount":"2635","usersCount":"610","tipCount":"7"},"specials":{"count":"0"},"hereNow":{"count":"0"},"referralId":"v-1392477995"},{"id":"4b59ea3ef964a52091a028e3","name":"Concrete Bar","location":{"address":"Tea Building, 56 Shoreditch High St","lat":"51.523645445042085","lng":"-0.0769578621089409","distance":"92","postalCode":"E1 6JJ","cc":"GB","city":"Shoreditch","state":"Greater London","country":"United Kingdom"},"categories":[{"id":"4bf58dd8d48988d116941735","name":"Bar","pluralName":"Bars","shortName":"Bar","icon":{"prefix":"https:\/\/ss1.4sqi.net\/img\/categories_v2\/nightlife\/bar_","suffix":".png"},"primary":"true"}],"verified":"false","restricted":"true","stats":{"checkinsCount":"971","usersCount":"839","tipCount":"14"},"specials":{"count":"0"},"hereNow":{"count":"0"},"referralId":"v-1392477995"},{"id":"4acf62a8f964a52056d320e3","name":"Boundary","contact":{"phone":"+442077291051","formattedPhone":"+44 20 7729 1051","twitter":"boundaryrooftop"},"location":{"address":"2-4 Boundary St.","lat":"51.524523574353815","lng":"-0.07643788304451123","distance":"98","postalCode":"E2 7JE","cc":"GB","city":"London","state":"Greater London","country":"United Kingdom"},"categories":[{"id":"4bf58dd8d48988d10c941735","name":"French Restaurant","pluralName":"French Restaurants","shortName":"French","icon":{"prefix":"https:\/\/ss1.4sqi.net\/img\/categories_v2\/food\/french_","suffix":".png"},"primary":"true"}],"verified":"false","restricted":"true","stats":{"checkinsCount":"1595","usersCount":"1095","tipCount":"21"},"url":"http:\/\/www.theboundary.co.uk","reservations":{"url":"http:\/\/www.toptable.co.uk\/single.aspx?rid=95856&ref=9601"},"menu":{"type":"Menu","label":"Menu","anchor":"View Menu","url":"https:\/\/foursquare.com\/v\/boundary\/4acf62a8f964a52056d320e3\/menu","mobileUrl":"https:\/\/foursquare.com\/v\/4acf62a8f964a52056d320e3\/device_menu"},"specials":{"count":"0"},"hereNow":{"count":"0"},"referralId":"v-1392477995"},{"id":"51fcea1b498e27c573122ea3","name":"Shoreditch Food Village","location":{"address":"Shoreditch High St","lat":"51.52426","lng":"-0.07716","distance":"44","cc":"GB","city":"Shoreditch","state":"Greater London","country":"United Kingdom"},"categories":[{"id":"4bf58dd8d48988d1cb941735","name":"Food Truck","pluralName":"Food Trucks","shortName":"Food Truck","icon":{"prefix":"https:\/\/ss1.4sqi.net\/img\/categories_v2\/food\/streetfood_","suffix":".png"},"primary":"true"}],"verified":"false","restricted":"true","stats":{"checkinsCount":"48","usersCount":"45","tipCount":"2"},"specials":{"count":"0"},"hereNow":{"count":"0"},"referralId":"v-1392477995"},{"id":"4cf915b9e8e25481941fdb62","name":"Musicmetric","contact":{"phone":"+442077392301","formattedPhone":"+44 20 7739 2301","twitter":"musicmetric"},"location":{"address":"69 Wilson Street","lat":"51.524602","lng":"-0.077617","distance":"37","postalCode":"EC2A 2BB","cc":"GB","city":"London","state":"Greater London","country":"United Kingdom"},"categories":[{"id":"4bf58dd8d48988d125941735","name":"Tech Startup","pluralName":"Tech Startups","shortName":"Tech Startup","icon":{"prefix":"https:\/\/ss1.4sqi.net\/img\/categories_v2\/shops\/technology_","suffix":".png"},"primary":"true"}],"verified":"false","restricted":"true","stats":{"checkinsCount":"98","usersCount":"14","tipCount":"3"},"specials":{"count":"0"},"hereNow":{"count":"0"},"referralId":"v-1392477995"},{"id":"51d43aeb498ea03f15587c4c","name":"Tray Towers","contact":{"twitter":"tray"},"location":{"address":"62 Shoreditch High Street","lat":"51.524128","lng":"-0.077205","distance":"45","postalCode":"E8 3FS","cc":"GB","city":"London","state":"Greater London","country":"United Kingdom"},"categories":[{"id":"4bf58dd8d48988d125941735","name":"Tech Startup","pluralName":"Tech Startups","shortName":"Tech Startup","icon":{"prefix":"https:\/\/ss1.4sqi.net\/img\/categories_v2\/shops\/technology_","suffix":".png"},"primary":"true"}],"verified":"true","restricted":"true","stats":{"checkinsCount":"35","usersCount":"3","tipCount":"0"},"url":"http:\/\/tray.io","specials":{"count":"0"},"hereNow":{"count":"0"},"venuePage":{"id":"67587803"},"referralId":"v-1392477995"},{"id":"4b60574ff964a52098e029e3","name":"Albion London","contact":{"phone":"+442070338900","formattedPhone":"+44 20 7033 8900","twitter":"albionlondon"},"location":{"address":"1.03 The Tea Building, 56 Shoreditch High Street","crossStreet":"Bethnal Green Road","lat":"51.523657721993324","lng":"-0.07666826248168945","distance":"105","postalCode":"E1 6JJ","cc":"GB","city":"London","state":"Greater London","country":"United Kingdom"},"categories":[{"id":"4bf58dd8d48988d124941735","name":"Office","pluralName":"Offices","shortName":"Office","icon":{"prefix":"https:\/\/ss1.4sqi.net\/img\/categories_v2\/building\/default_","suffix":".png"},"primary":"true"}],"verified":"true","restricted":"true","stats":{"checkinsCount":"2052","usersCount":"329","tipCount":"4"},"url":"http:\/\/www.albionlondon.com","specials":{"count":"0"},"hereNow":{"count":"0"},"venuePage":{"id":"42860637"},"storeId":"","referralId":"v-1392477995"},{"id":"4b4fb2f5f964a520691127e3","name":"Rainbow Sports Bar","contact":{"phone":"+442077392959","formattedPhone":"+44 20 7739 2959"},"location":{"address":"72 Shoreditch High St","lat":"51.524661760155425","lng":"-0.07721744476176498","distance":"58","postalCode":"E1 6JJ","cc":"GB","city":"London","state":"Greater London","country":"United Kingdom"},"categories":[{"id":"4bf58dd8d48988d11d941735","name":"Sports Bar","pluralName":"Sports Bars","shortName":"Sports Bar","icon":{"prefix":"https:\/\/ss1.4sqi.net\/img\/categories_v2\/nightlife\/sportsbar_","suffix":".png"},"primary":"true"}],"verified":"false","restricted":"true","stats":{"checkinsCount":"74","usersCount":"60","tipCount":"0"},"url":"http:\/\/www.rainbowgentlemansclub.co.uk","specials":{"count":"0"},"hereNow":{"count":"0"},"referralId":"v-1392477995"},{"id":"4ae9e9eaf964a52093b721e3","name":"Amnesty International Human Rights Action Centre","contact":{"phone":"+442070331500","formattedPhone":"+44 20 7033 1500","twitter":"amnestyuk","facebook":"7624294394"},"location":{"address":"17-25 New Inn Yard","lat":"51.52477249847171","lng":"-0.0792539119720459","distance":"113","postalCode":"EC2A 3EA","cc":"GB","city":"London","state":"Greater London","country":"United Kingdom"},"categories":[{"id":"4bf58dd8d48988d124941735","name":"Office","pluralName":"Offices","shortName":"Office","icon":{"prefix":"https:\/\/ss1.4sqi.net\/img\/categories_v2\/building\/default_","suffix":".png"},"primary":"true"}],"verified":"true","restricted":"true","stats":{"checkinsCount":"458","usersCount":"233","tipCount":"5"},"url":"http:\/\/www.protectthehuman.com","specials":{"count":"0"},"hereNow":{"count":"0"},"storeId":"","referralId":"v-1392477995"},{"id":"52f4f7b211d2e8fa8f7b77f9","name":"Transferwise","location":{"address":"Tea House","lat":"51.523784","lng":"-0.076814","distance":"88","cc":"GB","country":"United Kingdom"},"categories":[{"id":"4bf58dd8d48988d125941735","name":"Tech Startup","pluralName":"Tech Startups","shortName":"Tech Startup","icon":{"prefix":"https:\/\/ss1.4sqi.net\/img\/categories_v2\/shops\/technology_","suffix":".png"},"primary":"true"}],"verified":"false","restricted":"true","stats":{"checkinsCount":"4","usersCount":"3","tipCount":"0"},"specials":{"count":"0"},"hereNow":{"count":"0"},"referralId":"v-1392477995"},{"id":"4bbedb00f353d13abccd7d10","name":"Squint","location":{"address":"178 shoreditch high street","lat":"51.52444650112726","lng":"-0.07724152182031384","distance":"42","cc":"GB","city":"London","state":"Greater London","country":"United Kingdom"},"categories":[{"id":"4bf58dd8d48988d1f8941735","name":"Furniture \/ Home Store","pluralName":"Furniture \/ Home Stores","shortName":"Furniture \/ Home","icon":{"prefix":"https:\/\/ss1.4sqi.net\/img\/categories_v2\/shops\/furniture_","suffix":".png"},"primary":"true"}],"verified":"false","restricted":"true","stats":{"checkinsCount":"11","usersCount":"10","tipCount":"2"},"specials":{"count":"0"},"hereNow":{"count":"0"},"referralId":"v-1392477995"},{"id":"52027c28498e012705178a52","name":"Bold Creative","location":{"lat":"51.52464683853079","lng":"-0.07661056296201099","distance":"91","cc":"GB","country":"United Kingdom"},"categories":[{"id":"4bf58dd8d48988d124941735","name":"Office","pluralName":"Offices","shortName":"Office","icon":{"prefix":"https:\/\/ss1.4sqi.net\/img\/categories_v2\/building\/default_","suffix":".png"},"primary":"true"}],"verified":"false","restricted":"true","stats":{"checkinsCount":"43","usersCount":"3","tipCount":"0"},"specials":{"count":"0"},"hereNow":{"count":"0"},"referralId":"v-1392477995"},{"id":"51b1f71d498e41cefd627dbd","name":"NatWest","location":{"address":"180 Shoreditch High Street","lat":"51.524374125241344","lng":"-0.0774020922700219","distance":"29","postalCode":"E1 6HN","cc":"GB","city":"London","state":"Greater London","country":"United Kingdom"},"categories":[{"id":"4bf58dd8d48988d10a951735","name":"Bank","pluralName":"Banks","shortName":"Bank","icon":{"prefix":"https:\/\/ss1.4sqi.net\/img\/categories_v2\/shops\/financial_","suffix":".png"},"primary":"true"}],"verified":"false","restricted":"true","stats":{"checkinsCount":"17","usersCount":"11","tipCount":"1"},"specials":{"count":"0"},"hereNow":{"count":"0"},"referralId":"v-1392477995"},{"id":"51c99784498e74c87df65fbe","name":"Simply Fish Shoreditch","location":{"address":"Unit 42-43 Boxpark 2-4 Bethnal Green Rd.","lat":"51.52369167277664","lng":"-0.07693497887557092","distance":"89","postalCode":"E1 6GY","cc":"GB","city":"London","state":"Greater London","country":"United Kingdom"},"categories":[{"id":"4edd64a0c7ddd24ca188df1a","name":"Fish & Chips Shop","pluralName":"Fish & Chips Shops","shortName":"Fish & Chips","icon":{"prefix":"https:\/\/ss1.4sqi.net\/img\/categories_v2\/food\/fishandchips_","suffix":".png"},"primary":"true"}],"verified":"false","restricted":"true","stats":{"checkinsCount":"26","usersCount":"26","tipCount":"3"},"url":"http:\/\/www.simplyfish.com\/home\/?shoreditch","reservations":{"url":"http:\/\/www.toptable.co.uk\/single.aspx?rid=97353&ref=9601"},"menu":{"type":"Menu","label":"Menu","anchor":"View Menu","url":"https:\/\/foursquare.com\/v\/simply-fish-shoreditch-london\/51c99784498e74c87df65fbe\/menu","mobileUrl":"https:\/\/foursquare.com\/v\/51c99784498e74c87df65fbe\/device_menu"},"specials":{"count":"0"},"hereNow":{"count":"0"},"referralId":"v-1392477995"}],"confident":"true"}}