{"meta":{"code":"200"},"response":{"venues":[{"id":"4f3cf096e4b0b928ae4594f0","name":"Hyde Park Corner","location":{"address":"Park Ln","crossStreet":"Constitution Hill","lat":"51.504543029042935","lng":"-0.15586006253103843","distance":"137","postalCode":"W1J","cc":"GB","city":"London","state":"Greater London","country":"United Kingdom"},"categories":[{"id":"4bf58dd8d48988d163941735","name":"Park","pluralName":"Parks","shortName":"Park","icon":{"prefix":"https:\/\/ss1.4sqi.net\/img\/categories_v2\/parks_outdoors\/park_","suffix":".png"},"primary":"true"}],"verified":"false","restricted":"true","stats":{"checkinsCount":"11144","usersCount":"8288","tipCount":"25"},"specials":{"count":"0"},"hereNow":{"count":"3","groups":[{"type":"others","name":"Other people here","count":"3"}]},"referralId":"v-1392478039"},{"id":"4ac518ecf964a52071ac20e3","name":"Harvey Nichols","contact":{"phone":"+442072355000","formattedPhone":"+44 20 7235 5000","twitter":"harveynichols"},"location":{"address":"109-125 Knightsbridge","lat":"51.501635294043176","lng":"-0.16014397144317627","distance":"337","postalCode":"SW1X 7RJ","cc":"GB","city":"Kensington","state":"Greater London","country":"United Kingdom"},"categories":[{"id":"4bf58dd8d48988d1f6941735","name":"Department Store","pluralName":"Department Stores","shortName":"Department Store","icon":{"prefix":"https:\/\/ss1.4sqi.net\/img\/categories_v2\/shops\/departmentstore_","suffix":".png"},"primary":"true"}],"verified":"true","restricted":"true","stats":{"checkinsCount":"16072","usersCount":"10172","tipCount":"54"},"url":"http:\/\/www.harveynichols.com","specials":{"count":"0"},"hereNow":{"count":"5","groups":[{"type":"others","name":"Other people here","count":"5"}]},"storeId":"","referralId":"v-1392478039"},{"id":"4b4dbf69f964a520b9d626e3","name":"Serpentine Bar & Kitchen","contact":{"phone":"+442077068114","formattedPhone":"+44 20 7706 8114","twitter":"serpentinebk"},"location":{"address":"Serpentine Rd","crossStreet":"Hyde Park","lat":"51.50497615014911","lng":"-0.15990257263183594","distance":"164","postalCode":"W2 2UH","cc":"GB","city":"London","state":"Greater London","country":"United Kingdom"},"categories":[{"id":"4bf58dd8d48988d1c4941735","name":"Restaurant","pluralName":"Restaurants","shortName":"Restaurant","icon":{"prefix":"https:\/\/ss1.4sqi.net\/img\/categories_v2\/food\/default_","suffix":".png"},"primary":"true"}],"verified":"false","restricted":"true","stats":{"checkinsCount":"3616","usersCount":"2790","tipCount":"57"},"url":"http:\/\/www.serpentinebarandkitchen.com","reservations":{"url":"http:\/\/www.toptable.co.uk\/single.aspx?rid=53695&ref=9601"},"menu":{"type":"Menu","label":"Menu","anchor":"View Menu","url":"https:\/\/foursquare.com\/v\/serpentine-bar--kitchen\/4b4dbf69f964a520b9d626e3\/menu","mobileUrl":"https:\/\/foursquare.com\/v\/4b4dbf69f964a520b9d626e3\/device_menu"},"specials":{"count":"0"},"hereNow":{"count":"0"},"referralId":"v-1392478039"},{"id":"4bc3623bf8219c740e02b610","name":"One Hyde Park: The Residences at Mandarin Oriental","contact":{"phone":"+442072352000","formattedPhone":"+44 20 7235 2000","twitter":"mo_hotels"},"location":{"address":"100 Knightsbridge","lat":"51.50206439321877","lng":"-0.1603102684020996","distance":"302","postalCode":"SW1X 7LJ","cc":"GB","city":"London","country":"United Kingdom"},"categories":[{"id":"4bf58dd8d48988d130941735","name":"Building","pluralName":"Buildings","shortName":"Building","icon":{"prefix":"https:\/\/ss1.4sqi.net\/img\/categories_v2\/building\/default_","suffix":".png"},"primary":"true"}],"verified":"true","restricted":"true","stats":{"checkinsCount":"951","usersCount":"370","tipCount":"5"},"url":"http:\/\/www.mandarinoriental.com\/london\/","specials":{"count":"0"},"hereNow":{"count":"0"},"storeId":"","referralId":"v-1392478039"},{"id":"4ac518b4f964a52071a020e3","name":"The Park Tower Knightsbridge","contact":{"phone":"+442072358050","formattedPhone":"+44 20 7235 8050","twitter":"spg"},"location":{"address":"101 Knightsbridge","lat":"51.50163963287968","lng":"-0.1588008144508648","distance":"302","postalCode":"SW1X 7RN","cc":"GB","city":"London","state":"Greater London","country":"United Kingdom"},"categories":[{"id":"4bf58dd8d48988d1fa931735","name":"Hotel","pluralName":"Hotels","shortName":"Hotel","icon":{"prefix":"https:\/\/ss1.4sqi.net\/img\/categories_v2\/travel\/hotel_","suffix":".png"},"primary":"true"}],"verified":"true","restricted":"true","stats":{"checkinsCount":"4224","usersCount":"1529","tipCount":"17"},"url":"http:\/\/www.theparktowerknightsbridge.com","specials":{"count":"0"},"hereNow":{"count":"1","groups":[{"type":"others","name":"Other people here","count":"1"}]},"storeId":"412","referralId":"v-1392478039"},{"id":"4c6bfe9ee13db60cf8c3d4b1","name":"Rose Garden","location":{"lat":"51.50382994382846","lng":"-0.1557524906265007","distance":"150","cc":"GB","country":"United Kingdom"},"categories":[{"id":"4bf58dd8d48988d15a941735","name":"Garden","pluralName":"Gardens","shortName":"Garden","icon":{"prefix":"https:\/\/ss1.4sqi.net\/img\/categories_v2\/parks_outdoors\/garden_","suffix":".png"},"primary":"true"}],"verified":"false","restricted":"true","stats":{"checkinsCount":"625","usersCount":"501","tipCount":"1"},"menu":{"type":"Menu","label":"Menu","anchor":"View Menu","url":"https:\/\/foursquare.com\/v\/rose-garden\/4c6bfe9ee13db60cf8c3d4b1\/menu","mobileUrl":"https:\/\/foursquare.com\/v\/4c6bfe9ee13db60cf8c3d4b1\/device_menu"},"specials":{"count":"0"},"hereNow":{"count":"0"},"referralId":"v-1392478039"},{"id":"4ac518b4f964a5207fa020e3","name":"Mandarin Oriental Hyde Park, London","contact":{"phone":"+442072352000","formattedPhone":"+44 20 7235 2000","twitter":"mo_hotels"},"location":{"address":"66 Knightsbridge","lat":"51.50206441282652","lng":"-0.16002755148501852","distance":"291","postalCode":"SW1X 7LA","cc":"GB","city":"London","state":"Greater London","country":"United Kingdom"},"categories":[{"id":"4bf58dd8d48988d1fa931735","name":"Hotel","pluralName":"Hotels","shortName":"Hotel","icon":{"prefix":"https:\/\/ss1.4sqi.net\/img\/categories_v2\/travel\/hotel_","suffix":".png"},"primary":"true"}],"verified":"true","restricted":"true","stats":{"checkinsCount":"3723","usersCount":"2131","tipCount":"32"},"url":"http:\/\/www.mandarinoriental.com\/london\/","specials":{"count":"0"},"hereNow":{"count":"1","groups":[{"type":"others","name":"Other people here","count":"1"}]},"storeId":"","referralId":"v-1392478039"},{"id":"4bd199b1046076b04b0d7271","name":"Bar Boulud","contact":{"phone":"+442072013899","formattedPhone":"+44 20 7201 3899","twitter":"barbouludlondon"},"location":{"address":"66 Knightsbridge","lat":"51.502024570872194","lng":"-0.16017112002845027","distance":"300","postalCode":"SW1X 7LA","cc":"GB","city":"London","state":"Greater London","country":"United Kingdom"},"categories":[{"id":"4bf58dd8d48988d10c941735","name":"French Restaurant","pluralName":"French Restaurants","shortName":"French","icon":{"prefix":"https:\/\/ss1.4sqi.net\/img\/categories_v2\/food\/french_","suffix":".png"},"primary":"true"}],"verified":"true","restricted":"true","stats":{"checkinsCount":"2354","usersCount":"1547","tipCount":"60"},"url":"http:\/\/www.barboulud.com\/london\/","reservations":{"url":"http:\/\/www.toptable.co.uk\/single.aspx?rid=44440&ref=9601"},"menu":{"type":"Menu","label":"Menu","anchor":"View Menu","url":"https:\/\/foursquare.com\/v\/bar-boulud\/4bd199b1046076b04b0d7271\/menu","mobileUrl":"https:\/\/foursquare.com\/v\/4bd199b1046076b04b0d7271\/device_menu"},"specials":{"count":"0"},"hereNow":{"count":"1","groups":[{"type":"others","name":"Other people here","count":"1"}]},"venuePage":{"id":"68697327"},"storeId":"","referralId":"v-1392478039"},{"id":"51e1e009498ebf3b1423b84a","name":"Burger & Lobster","contact":{"phone":"+442072018676","formattedPhone":"+44 20 7201 8676","twitter":"londonlobster"},"location":{"address":"Harvey Nichols","crossStreet":"109-125 Knightsbridge","lat":"51.501610249219446","lng":"-0.1595592498779297","distance":"322","postalCode":"SW1X 7RJ","cc":"GB","city":"Knightsbridge","state":"Greater London","country":"United Kingdom"},"categories":[{"id":"4bf58dd8d48988d1ce941735","name":"Seafood Restaurant","pluralName":"Seafood Restaurants","shortName":"Seafood","icon":{"prefix":"https:\/\/ss1.4sqi.net\/img\/categories_v2\/food\/seafood_","suffix":".png"},"primary":"true"}],"verified":"false","restricted":"true","stats":{"checkinsCount":"673","usersCount":"556","tipCount":"16"},"url":"http:\/\/www.burgerandlobster.com\/knightsbridge.php","specials":{"count":"0"},"hereNow":{"count":"0"},"referralId":"v-1392478039"},{"id":"4c5ad55a67ac0f47049d074c","name":"The Boat House","location":{"address":"Hyde Park","lat":"51.50566292720708","lng":"-0.16288560529259394","distance":"383","cc":"GB","city":"London","state":"Greater London","country":"United Kingdom"},"categories":[{"id":"4bf58dd8d48988d12d951735","name":"Boat or Ferry","pluralName":"Boats or Ferries","shortName":"Boat \/ Ferry","icon":{"prefix":"https:\/\/ss1.4sqi.net\/img\/categories_v2\/travel\/boat_","suffix":".png"},"primary":"true"}],"verified":"false","restricted":"true","stats":{"checkinsCount":"689","usersCount":"591","tipCount":"3"},"specials":{"count":"0"},"hereNow":{"count":"0"},"referralId":"v-1392478039"},{"id":"4efcd5204690a04b145ac526","name":"Parkside","location":{"lat":"51.502606870453064","lng":"-0.15755427733880262","distance":"188","cc":"GB","country":"United Kingdom"},"categories":[{"id":"4bf58dd8d48988d162941735","name":"Other Great Outdoors","pluralName":"Other Great Outdoors","shortName":"Other Outdoors","icon":{"prefix":"https:\/\/ss1.4sqi.net\/img\/categories_v2\/parks_outdoors\/outdoors_","suffix":".png"},"primary":"true"}],"verified":"false","restricted":"true","stats":{"checkinsCount":"509","usersCount":"57","tipCount":"1"},"specials":{"count":"0"},"hereNow":{"count":"0"},"referralId":"v-1392478039"},{"id":"4d2f05dc79dd6ea8ca028ed3","name":"Dinner by Heston Blumenthal","contact":{"phone":"+442072013833","formattedPhone":"+44 20 7201 3833","twitter":"mo_hotels"},"location":{"address":"Mandarin Oriental Hyde Park","crossStreet":"66 Knightsbridge","lat":"51.502258070900666","lng":"-0.1602029800415039","distance":"280","postalCode":"SW1X 7LA","cc":"GB","city":"London","state":"Greater London","country":"United Kingdom"},"categories":[{"id":"4bf58dd8d48988d1c2941735","name":"Molecular Gastronomy Restaurant","pluralName":"Molecular Gastronomy Restaurants","shortName":"Molecular Gastronomy","icon":{"prefix":"https:\/\/ss1.4sqi.net\/img\/categories_v2\/food\/moleculargastronomy_","suffix":".png"},"primary":"true"}],"verified":"true","restricted":"true","stats":{"checkinsCount":"2523","usersCount":"2037","tipCount":"82"},"url":"http:\/\/www.dinnerbyheston.com","reservations":{"url":"http:\/\/www.toptable.co.uk\/single.aspx?rid=51886&ref=9601"},"menu":{"type":"Menu","label":"Menu","anchor":"View Menu","url":"https:\/\/foursquare.com\/v\/dinner-by-heston-blumenthal\/4d2f05dc79dd6ea8ca028ed3\/menu","mobileUrl":"https:\/\/foursquare.com\/v\/4d2f05dc79dd6ea8ca028ed3\/device_menu"},"specials":{"count":"0"},"hereNow":{"count":"0"},"storeId":"","referralId":"v-1392478039"},{"id":"4c055e628f8fa593fcc2f10d","name":"Hyde Park Corner Bus Stop","location":{"address":"Hyde Park Corner","lat":"51.50287952323873","lng":"-0.15322068052601945","distance":"354","cc":"GB","city":"London","state":"Greater London","country":"United Kingdom"},"categories":[{"id":"4bf58dd8d48988d1fe931735","name":"Bus Station","pluralName":"Bus Stations","shortName":"Bus Station","icon":{"prefix":"https:\/\/ss1.4sqi.net\/img\/categories_v2\/travel\/busstation_","suffix":".png"},"primary":"true"}],"verified":"false","restricted":"true","stats":{"checkinsCount":"1502","usersCount":"828","tipCount":"5"},"specials":{"count":"0"},"hereNow":{"count":"0"},"referralId":"v-1392478039"},{"id":"4bc82484af07a593b366802d","name":"The Berkeley","contact":{"phone":"+442072338298","formattedPhone":"+44 20 7233 8298"},"location":{"address":"77 Wilton Pl","lat":"51.50200752588745","lng":"-0.15634368798543968","distance":"273","postalCode":"SW1V 1","cc":"GB","city":"Knightsbridge","state":"Greater London","country":"United Kingdom"},"categories":[{"id":"4bf58dd8d48988d1fa931735","name":"Hotel","pluralName":"Hotels","shortName":"Hotel","icon":{"prefix":"https:\/\/ss1.4sqi.net\/img\/categories_v2\/travel\/hotel_","suffix":".png"},"primary":"true"}],"verified":"false","restricted":"true","stats":{"checkinsCount":"2539","usersCount":"1345","tipCount":"31"},"url":"http:\/\/www.the-berkeley.co.uk","specials":{"count":"0"},"hereNow":{"count":"0"},"referralId":"v-1392478039"},{"id":"4bf7e05eb182c9b6b65d765a","name":"Spaghetti House","contact":{"twitter":"spaghetti_house"},"location":{"address":"77 Knightsbridge","lat":"51.502308730904396","lng":"-0.15778544750795725","distance":"220","postalCode":"SW1X 7RB","cc":"GB","city":"London","state":"Greater London","country":"United Kingdom"},"categories":[{"id":"4bf58dd8d48988d110941735","name":"Italian Restaurant","pluralName":"Italian Restaurants","shortName":"Italian","icon":{"prefix":"https:\/\/ss1.4sqi.net\/img\/categories_v2\/food\/italian_","suffix":".png"},"primary":"true"}],"verified":"true","restricted":"true","stats":{"checkinsCount":"668","usersCount":"539","tipCount":"11"},"url":"http:\/\/www.spaghettihouse.co.uk\/spaghetti_house_knighstbridge.php","reservations":{"url":"http:\/\/www.toptable.co.uk\/single.aspx?rid=80230&ref=9601"},"menu":{"type":"Menu","label":"Menu","anchor":"View Menu","url":"https:\/\/foursquare.com\/v\/spaghetti-house\/4bf7e05eb182c9b6b65d765a\/menu","mobileUrl":"https:\/\/foursquare.com\/v\/4bf7e05eb182c9b6b65d765a\/device_menu"},"specials":{"count":"0"},"hereNow":{"count":"0"},"storeId":"","referralId":"v-1392478039"},{"id":"502feb81e4b0b5040faba65b","name":"Maskof Restaurant - \u0645\u0637\u0639\u0645 \u0627\u0644\u0645\u0633\u0643\u0648\u0641 \u0644\u0644\u0645\u0623\u0643\u0648\u0644\u0627\u062a \u0627\u0644\u0639\u0631\u0627\u0642\u064a\u0647","location":{"lat":"51.502339493497644","lng":"-0.15774355883907376","distance":"217","cc":"GB","country":"United Kingdom"},"categories":[{"id":"4bf58dd8d48988d1c0941735","name":"Mediterranean Restaurant","pluralName":"Mediterranean Restaurants","shortName":"Mediterranean","icon":{"prefix":"https:\/\/ss1.4sqi.net\/img\/categories_v2\/food\/mediterranean_","suffix":".png"},"primary":"true"}],"verified":"false","restricted":"true","stats":{"checkinsCount":"421","usersCount":"358","tipCount":"11"},"specials":{"count":"0"},"hereNow":{"count":"1","groups":[{"type":"others","name":"Other people here","count":"1"}]},"referralId":"v-1392478039"},{"id":"4b4c4ac5f964a52093b026e3","name":"Fifth Floor Restaurant","contact":{"phone":"+442072355250","formattedPhone":"+44 20 7235 5250","twitter":"harveynichols"},"location":{"address":"Harvey Nichols, 109-125 Knightsbridge","lat":"51.50165032093083","lng":"-0.1599884033203125","distance":"330","postalCode":"SW1X 7RJ","cc":"GB","city":"London","state":"Greater London","country":"United Kingdom"},"categories":[{"id":"4bf58dd8d48988d1c0941735","name":"Mediterranean Restaurant","pluralName":"Mediterranean Restaurants","shortName":"Mediterranean","icon":{"prefix":"https:\/\/ss1.4sqi.net\/img\/categories_v2\/food\/mediterranean_","suffix":".png"},"primary":"true"}],"verified":"true","restricted":"true","stats":{"checkinsCount":"2512","usersCount":"1844","tipCount":"32"},"url":"http:\/\/www.harveynichols.com\/fifth-floor-london","reservations":{"url":"http:\/\/www.toptable.co.uk\/single.aspx?rid=78061&ref=9601"},"specials":{"count":"0"},"hereNow":{"count":"1","groups":[{"type":"others","name":"Other people here","count":"1"}]},"referralId":"v-1392478039"},{"id":"4b3e13faf964a5202e9825e3","name":"Wagamama","contact":{"phone":"+442072018000","formattedPhone":"+44 20 7201 8000"},"location":{"address":"Lower Ground Floor, Harvey Nichols","crossStreet":"109-125 Brompton Rd.","lat":"51.501953","lng":"-0.1595653","distance":"287","postalCode":"SW1X 7RJ","cc":"GB","city":"London","state":"Greater London","country":"United Kingdom"},"categories":[{"id":"4bf58dd8d48988d1d1941735","name":"Ramen \/ Noodle House","pluralName":"Ramen \/ Noodle House","shortName":"Ramen \/ Noodles","icon":{"prefix":"https:\/\/ss1.4sqi.net\/img\/categories_v2\/food\/ramen_","suffix":".png"},"primary":"true"}],"verified":"false","restricted":"true","stats":{"checkinsCount":"1221","usersCount":"952","tipCount":"19"},"url":"http:\/\/wagamama.com","specials":{"count":"0"},"hereNow":{"count":"0"},"referralId":"v-1392478039"},{"id":"4cf805671cfea09339f6e739","name":"Champagne Bar","contact":{"twitter":"harveynichols"},"location":{"address":"at Harvey Nichols","lat":"51.5017602960294","lng":"-0.159950410329577","distance":"318","postalCode":"SW1X 7RJ","cc":"GB","city":"Kensington","state":"Greater London","country":"United Kingdom"},"categories":[{"id":"4bf58dd8d48988d14b941735","name":"Winery","pluralName":"Wineries","shortName":"Winery","icon":{"prefix":"https:\/\/ss1.4sqi.net\/img\/categories_v2\/food\/winery_","suffix":".png"},"primary":"true"}],"verified":"true","restricted":"true","stats":{"checkinsCount":"679","usersCount":"534","tipCount":"7"},"specials":{"count":"0"},"hereNow":{"count":"0"},"referralId":"v-1392478039"},{"id":"50e04d06e4b0b76a2eb13a1e","name":"MASGOUF \u0645\u0633\u0643\u0648\u0641","contact":{"phone":"+442072353888","formattedPhone":"+44 20 7235 3888","twitter":"masgouf"},"location":{"address":"75 Knightsbridge","lat":"51.50228830208625","lng":"-0.157645625930109","distance":"222","postalCode":"SW1X 7RB","cc":"GB","city":"London","state":"Greater London","country":"United Kingdom"},"categories":[{"id":"4bf58dd8d48988d1d1941735","name":"Ramen \/ Noodle House","pluralName":"Ramen \/ Noodle House","shortName":"Ramen \/ Noodles","icon":{"prefix":"https:\/\/ss1.4sqi.net\/img\/categories_v2\/food\/ramen_","suffix":".png"},"primary":"true"}],"verified":"false","restricted":"true","stats":{"checkinsCount":"274","usersCount":"241","tipCount":"5"},"url":"http:\/\/masgoufcuisine.com","specials":{"count":"0"},"hereNow":{"count":"1","groups":[{"type":"others","name":"Other people here","count":"1"}]},"referralId":"v-1392478039"},{"id":"4ee2440ff5b9c102eb047075","name":"The Star Tavern","location":{"address":"Winter Wonderland","crossStreet":"Hyde Park","lat":"51.504774013247","lng":"-0.1570906075777724","distance":"73","cc":"GB","city":"London","state":"Greater London","country":"United Kingdom"},"categories":[{"id":"4bf58dd8d48988d117941735","name":"Beer Garden","pluralName":"Beer Gardens","shortName":"Beer Garden","icon":{"prefix":"https:\/\/ss1.4sqi.net\/img\/categories_v2\/nightlife\/beergarden_","suffix":".png"},"primary":"true"}],"verified":"false","restricted":"true","stats":{"checkinsCount":"46","usersCount":"45","tipCount":"0"},"specials":{"count":"0"},"hereNow":{"count":"0"},"referralId":"v-1392478039"},{"id":"4e03696a18389833c596a0a8","name":"McLaren","contact":{"phone":"+442031510020","formattedPhone":"+44 20 3151 0020"},"location":{"address":"100 Knightsbridge","lat":"51.50186335620933","lng":"-0.161461428221739","distance":"370","postalCode":"SW1X 7LJ","cc":"GB","city":"London","state":"Greater London","country":"United Kingdom"},"categories":[{"id":"4bf58dd8d48988d124951735","name":"Automotive Shop","pluralName":"Automotive Shops","shortName":"Automotive","icon":{"prefix":"https:\/\/ss1.4sqi.net\/img\/categories_v2\/shops\/automotive_","suffix":".png"},"primary":"true"}],"verified":"false","restricted":"true","stats":{"checkinsCount":"1086","usersCount":"773","tipCount":"4"},"specials":{"count":"0"},"hereNow":{"count":"0"},"referralId":"v-1392478039"},{"id":"4f8ffad5e4b094de9b4ffbae","name":"Harvey Nichols Food Market","contact":{"phone":"+442072355250","formattedPhone":"+44 20 7235 5250"},"location":{"address":"105-125 Knightsbridge","lat":"51.50170043267586","lng":"-0.1596243347467361","distance":"314","postalCode":"SW1X 7RJ","cc":"GB","city":"London","state":"Greater London","country":"United Kingdom"},"categories":[{"id":"4bf58dd8d48988d1f5941735","name":"Gourmet Shop","pluralName":"Gourmet Shops","shortName":"Gourmet","icon":{"prefix":"https:\/\/ss1.4sqi.net\/img\/categories_v2\/shops\/food_gourmet_","suffix":".png"},"primary":"true"}],"verified":"false","restricted":"true","stats":{"checkinsCount":"535","usersCount":"456","tipCount":"3"},"url":"http:\/\/www.harveynichols.com\/fifth-floor-london","menu":{"type":"Menu","label":"Menu","anchor":"View Menu","url":"https:\/\/foursquare.com\/v\/harvey-nichols-food-market\/4f8ffad5e4b094de9b4ffbae\/menu","mobileUrl":"https:\/\/foursquare.com\/v\/4f8ffad5e4b094de9b4ffbae\/device_menu"},"specials":{"count":"0"},"hereNow":{"count":"2","groups":[{"type":"others","name":"Other people here","count":"2"}]},"referralId":"v-1392478039"},{"id":"4de90557d22d09215a2b033d","name":"Hyde Park Coffee & Icecream Point","location":{"lat":"51.50498970635679","lng":"-0.16001536623371182","distance":"171","cc":"GB","city":"London","state":"Greater London","country":"United Kingdom"},"categories":[{"id":"4bf58dd8d48988d1e0931735","name":"Coffee Shop","pluralName":"Coffee Shops","shortName":"Coffee Shop","icon":{"prefix":"https:\/\/ss1.4sqi.net\/img\/categories_v2\/food\/coffeeshop_","suffix":".png"},"primary":"true"}],"verified":"false","restricted":"true","stats":{"checkinsCount":"567","usersCount":"478","tipCount":"8"},"specials":{"count":"0"},"hereNow":{"count":"0"},"referralId":"v-1392478039"},{"id":"4f2c0acae4b048e466df240b","name":"Mari Vanna","contact":{"phone":"+442072253122","formattedPhone":"+44 20 7225 3122","twitter":"marivannalondon","facebook":"1448714838677516"},"location":{"address":"116 Knightsbridge","lat":"51.5017628262819","lng":"-0.162364185497365","distance":"423","postalCode":"SW1X 7PJ","cc":"GB","city":"London","state":"Greater London","country":"United Kingdom"},"categories":[{"id":"5293a7563cf9994f4e043a44","name":"Russian Restaurant","pluralName":"Russian Restaurants","shortName":"Russian","icon":{"prefix":"https:\/\/ss1.4sqi.net\/img\/categories_v2\/food\/default_","suffix":".png"},"primary":"true"}],"verified":"true","restricted":"true","stats":{"checkinsCount":"3445","usersCount":"1702","tipCount":"69"},"url":"http:\/\/www.marivanna.co.uk","reservations":{"url":"http:\/\/www.toptable.co.uk\/single.aspx?rid=91236&ref=9601"},"menu":{"type":"Menu","label":"Menu","anchor":"View Menu","url":"https:\/\/foursquare.com\/v\/mari-vanna\/4f2c0acae4b048e466df240b\/menu","mobileUrl":"https:\/\/foursquare.com\/v\/4f2c0acae4b048e466df240b\/device_menu"},"specials":{"count":"0"},"hereNow":{"count":"0"},"venuePage":{"id":"78633336"},"storeId":"","referralId":"v-1392478039"},{"id":"5266570b498eee418043889e","name":"Knightsbridge","location":{"lat":"51.50160210064281","lng":"-0.1611329097070741","distance":"377","cc":"GB","country":"United Kingdom"},"categories":[{"id":"4bf58dd8d48988d1ff941735","name":"Miscellaneous Shop","pluralName":"Miscellaneous Shops","shortName":"Shop","icon":{"prefix":"https:\/\/ss1.4sqi.net\/img\/categories_v2\/shops\/default_","suffix":".png"},"primary":"true"}],"verified":"false","restricted":"true","stats":{"checkinsCount":"219","usersCount":"177","tipCount":"0"},"specials":{"count":"0"},"hereNow":{"count":"1","groups":[{"type":"others","name":"Other people here","count":"1"}]},"referralId":"v-1392478039"},{"id":"4ac518ddf964a52064a920e3","name":"Ishbilia","location":{"address":"9 William St","lat":"51.50173801307996","lng":"-0.15858961209741934","distance":"289","postalCode":"SW1X 9HL","cc":"GB","city":"London","state":"Greater London","country":"United Kingdom"},"categories":[{"id":"4bf58dd8d48988d1c4941735","name":"Restaurant","pluralName":"Restaurants","shortName":"Restaurant","icon":{"prefix":"https:\/\/ss1.4sqi.net\/img\/categories_v2\/food\/default_","suffix":".png"},"primary":"true"}],"verified":"false","restricted":"true","stats":{"checkinsCount":"823","usersCount":"601","tipCount":"29"},"specials":{"count":"0"},"hereNow":{"count":"0"},"referralId":"v-1392478039"},{"id":"4ba77485f964a520449539e3","name":"Kuwaiti Embassy","contact":{"phone":"+442075903400","formattedPhone":"+44 20 7590 3400"},"location":{"address":"2 Albert Gate","lat":"51.5021475107768","lng":"-0.15905739583876005","distance":"253","postalCode":"SW1X 7JU","cc":"GB","city":"London","state":"Greater London","country":"United Kingdom"},"categories":[{"id":"4bf58dd8d48988d12c951735","name":"Embassy \/ Consulate","pluralName":"Embassies \/ Consulates","shortName":"Embassy","icon":{"prefix":"https:\/\/ss1.4sqi.net\/img\/categories_v2\/travel\/embassy_","suffix":".png"},"primary":"true"}],"verified":"false","restricted":"true","stats":{"checkinsCount":"570","usersCount":"250","tipCount":"2"},"specials":{"count":"0"},"hereNow":{"count":"0"},"referralId":"v-1392478039"},{"id":"4b82b195f964a520dade30e3","name":"The Knightsbridge Cafe","contact":{"phone":"+442072354040","formattedPhone":"+44 20 7235 4040"},"location":{"address":"5-6 William St","lat":"51.501902111690036","lng":"-0.15865314254759588","distance":"272","postalCode":"SW1X 9HL","cc":"GB","city":"Knightsbridge","state":"Greater London","country":"United Kingdom"},"categories":[{"id":"4bf58dd8d48988d16d941735","name":"Caf\u00e9","pluralName":"Caf\u00e9s","shortName":"Caf\u00e9","icon":{"prefix":"https:\/\/ss1.4sqi.net\/img\/categories_v2\/food\/cafe_","suffix":".png"},"primary":"true"}],"verified":"false","restricted":"true","stats":{"checkinsCount":"736","usersCount":"473","tipCount":"14"},"specials":{"count":"0"},"hereNow":{"count":"0"},"referralId":"v-1392478039"},{"id":"4ac518bef964a520fea220e3","name":"The Paxton's Head","location":{"address":"153 Knightsbridge","lat":"51.501867867579975","lng":"-0.1622150765480736","distance":"407","postalCode":"SW1X 7PA","cc":"GB","city":"London","state":"Greater London","country":"United Kingdom"},"categories":[{"id":"4bf58dd8d48988d11b941735","name":"Pub","pluralName":"Pubs","shortName":"Pub","icon":{"prefix":"https:\/\/ss1.4sqi.net\/img\/categories_v2\/nightlife\/pub_","suffix":".png"},"primary":"true"}],"verified":"false","restricted":"true","stats":{"checkinsCount":"543","usersCount":"471","tipCount":"12"},"specials":{"count":"0"},"hereNow":{"count":"0"},"referralId":"v-1392478039"}],"confident":"true"}}