{"meta":{"code":"200"},"response":{"venues":[{"id":"4ac518d2f964a52026a720e3","name":"Hyde Park","location":{"address":"Serpentine Rd","lat":"51.50849","lng":"-0.167862","distance":"584","postalCode":"W2 2TP","cc":"GB","city":"London","state":"Greater London","country":"United Kingdom"},"categories":[{"id":"4bf58dd8d48988d163941735","name":"Park","pluralName":"Parks","shortName":"Park","icon":{"prefix":"https:\/\/ss1.4sqi.net\/img\/categories_v2\/parks_outdoors\/park_","suffix":".png"},"primary":"true"}],"verified":"false","restricted":"true","stats":{"checkinsCount":"51896","usersCount":"31326","tipCount":"281"},"specials":{"count":"0"},"hereNow":{"count":"9","groups":[{"type":"others","name":"Other people here","count":"9"}]},"storeId":"","referralId":"v-1392478038"},{"id":"4bf925ddabdaef3ba4d0a184","name":"The Serpentine","contact":{"phone":"+443000612000","formattedPhone":"+44 300 061 2000","twitter":"rpfoundation"},"location":{"address":"Serpentine Rd","crossStreet":"at Hyde Park","lat":"51.505223240223344","lng":"-0.16741275787353516","distance":"335","postalCode":"W2 2UH","cc":"GB","city":"London","state":"Greater London","country":"United Kingdom"},"categories":[{"id":"4bf58dd8d48988d161941735","name":"Lake","pluralName":"Lakes","shortName":"Lake","icon":{"prefix":"https:\/\/ss1.4sqi.net\/img\/categories_v2\/parks_outdoors\/lake_","suffix":".png"},"primary":"true"}],"verified":"false","restricted":"true","stats":{"checkinsCount":"3772","usersCount":"2991","tipCount":"36"},"url":"http:\/\/www.royalparks.org.uk\/parks\/hyde-park","specials":{"count":"0"},"hereNow":{"count":"0"},"referralId":"v-1392478038"},{"id":"4abf8c03f964a520079120e3","name":"Harrods","contact":{"phone":"+442077301234","formattedPhone":"+44 20 7730 1234","twitter":"harrods"},"location":{"address":"87-135 Brompton Rd","lat":"51.49916580819443","lng":"-0.16288518905639648","distance":"570","postalCode":"SW1X 7XL","cc":"GB","city":"Knightsbridge","state":"Greater London","country":"United Kingdom"},"categories":[{"id":"4bf58dd8d48988d1f6941735","name":"Department Store","pluralName":"Department Stores","shortName":"Department Store","icon":{"prefix":"https:\/\/ss1.4sqi.net\/img\/categories_v2\/shops\/departmentstore_","suffix":".png"},"primary":"true"}],"verified":"true","restricted":"true","stats":{"checkinsCount":"84401","usersCount":"49154","tipCount":"430"},"url":"http:\/\/www.harrods.com","menu":{"type":"Menu","label":"Menu","anchor":"View Menu","url":"https:\/\/foursquare.com\/v\/harrods\/4abf8c03f964a520079120e3\/menu","mobileUrl":"https:\/\/foursquare.com\/v\/4abf8c03f964a520079120e3\/device_menu"},"specials":{"count":"0"},"hereNow":{"count":"30","groups":[{"type":"others","name":"Other people here","count":"30"}]},"referralId":"v-1392478038"},{"id":"4f3cf096e4b0b928ae4594f0","name":"Hyde Park Corner","location":{"address":"Park Ln","crossStreet":"Constitution Hill","lat":"51.504543029042935","lng":"-0.15586006253103843","distance":"481","postalCode":"W1J","cc":"GB","city":"London","state":"Greater London","country":"United Kingdom"},"categories":[{"id":"4bf58dd8d48988d163941735","name":"Park","pluralName":"Parks","shortName":"Park","icon":{"prefix":"https:\/\/ss1.4sqi.net\/img\/categories_v2\/parks_outdoors\/park_","suffix":".png"},"primary":"true"}],"verified":"false","restricted":"true","stats":{"checkinsCount":"11144","usersCount":"8288","tipCount":"25"},"specials":{"count":"0"},"hereNow":{"count":"3","groups":[{"type":"others","name":"Other people here","count":"3"}]},"referralId":"v-1392478038"},{"id":"4c653305f07e2d7fec309150","name":"Knightsbridge","location":{"address":"Everywhere!","lat":"51.500064498846314","lng":"-0.16270147636541796","distance":"470","cc":"GB","city":"Knightsbridge","state":"Greater London","country":"United Kingdom"},"categories":[{"id":"4f2a25ac4b909258e854f55f","name":"Neighborhood","pluralName":"Neighborhoods","shortName":"Neighborhood","icon":{"prefix":"https:\/\/ss1.4sqi.net\/img\/categories_v2\/parks_outdoors\/neighborhood_","suffix":".png"},"primary":"true"}],"verified":"false","restricted":"true","stats":{"checkinsCount":"11540","usersCount":"4523","tipCount":"50"},"specials":{"count":"0"},"hereNow":{"count":"2","groups":[{"type":"others","name":"Other people here","count":"2"}]},"referralId":"v-1392478038"},{"id":"4c5ad55a67ac0f47049d074c","name":"The Boat House","location":{"address":"Hyde Park","lat":"51.50566292720708","lng":"-0.16288560529259394","distance":"153","cc":"GB","city":"London","state":"Greater London","country":"United Kingdom"},"categories":[{"id":"4bf58dd8d48988d12d951735","name":"Boat or Ferry","pluralName":"Boats or Ferries","shortName":"Boat \/ Ferry","icon":{"prefix":"https:\/\/ss1.4sqi.net\/img\/categories_v2\/travel\/boat_","suffix":".png"},"primary":"true"}],"verified":"false","restricted":"true","stats":{"checkinsCount":"689","usersCount":"591","tipCount":"3"},"specials":{"count":"0"},"hereNow":{"count":"0"},"referralId":"v-1392478038"},{"id":"4bc3623bf8219c740e02b610","name":"One Hyde Park: The Residences at Mandarin Oriental","contact":{"phone":"+442072352000","formattedPhone":"+44 20 7235 2000","twitter":"mo_hotels"},"location":{"address":"100 Knightsbridge","lat":"51.50206439321877","lng":"-0.1603102684020996","distance":"301","postalCode":"SW1X 7LJ","cc":"GB","city":"London","country":"United Kingdom"},"categories":[{"id":"4bf58dd8d48988d130941735","name":"Building","pluralName":"Buildings","shortName":"Building","icon":{"prefix":"https:\/\/ss1.4sqi.net\/img\/categories_v2\/building\/default_","suffix":".png"},"primary":"true"}],"verified":"true","restricted":"true","stats":{"checkinsCount":"951","usersCount":"370","tipCount":"5"},"url":"http:\/\/www.mandarinoriental.com\/london\/","specials":{"count":"0"},"hereNow":{"count":"0"},"storeId":"","referralId":"v-1392478038"},{"id":"4c30b6183896e21eb8e8e590","name":"Diana, Princess of Wales Memorial Fountain","location":{"address":"The Old Police Hse","crossStreet":"Hyde Park","lat":"51.50456210431835","lng":"-0.1714789867401123","distance":"601","postalCode":"W2 2UH","cc":"GB","city":"London","state":"Greater London","country":"United Kingdom"},"categories":[{"id":"4bf58dd8d48988d12d941735","name":"Monument \/ Landmark","pluralName":"Monuments \/ Landmarks","shortName":"Landmark","icon":{"prefix":"https:\/\/ss1.4sqi.net\/img\/categories_v2\/building\/government_monument_","suffix":".png"},"primary":"true"}],"verified":"false","restricted":"true","stats":{"checkinsCount":"2584","usersCount":"2041","tipCount":"9"},"specials":{"count":"0"},"hereNow":{"count":"0"},"referralId":"v-1392478038"},{"id":"4ac518ecf964a52071ac20e3","name":"Harvey Nichols","contact":{"phone":"+442072355000","formattedPhone":"+44 20 7235 5000","twitter":"harveynichols"},"location":{"address":"109-125 Knightsbridge","lat":"51.501635294043176","lng":"-0.16014397144317627","distance":"348","postalCode":"SW1X 7RJ","cc":"GB","city":"Kensington","state":"Greater London","country":"United Kingdom"},"categories":[{"id":"4bf58dd8d48988d1f6941735","name":"Department Store","pluralName":"Department Stores","shortName":"Department Store","icon":{"prefix":"https:\/\/ss1.4sqi.net\/img\/categories_v2\/shops\/departmentstore_","suffix":".png"},"primary":"true"}],"verified":"true","restricted":"true","stats":{"checkinsCount":"16072","usersCount":"10172","tipCount":"54"},"url":"http:\/\/www.harveynichols.com","specials":{"count":"0"},"hereNow":{"count":"5","groups":[{"type":"others","name":"Other people here","count":"5"}]},"storeId":"","referralId":"v-1392478038"},{"id":"4ac518bff964a5202da320e3","name":"Zuma Restaurant","contact":{"phone":"+442075841010","formattedPhone":"+44 20 7584 1010"},"location":{"address":"5 Raphael St.","lat":"51.50108511018355","lng":"-0.16306140855333962","distance":"357","postalCode":"SW7 1DL","cc":"GB","city":"Knightsbridge","state":"Greater London","country":"United Kingdom"},"categories":[{"id":"4bf58dd8d48988d111941735","name":"Japanese Restaurant","pluralName":"Japanese Restaurants","shortName":"Japanese","icon":{"prefix":"https:\/\/ss1.4sqi.net\/img\/categories_v2\/food\/japanese_","suffix":".png"},"primary":"true"}],"verified":"false","restricted":"true","stats":{"checkinsCount":"3447","usersCount":"2394","tipCount":"80"},"url":"http:\/\/www.zumarestaurant.com","specials":{"count":"0"},"hereNow":{"count":"1","groups":[{"type":"others","name":"Other people here","count":"1"}]},"referralId":"v-1392478038"},{"id":"4b4dbf69f964a520b9d626e3","name":"Serpentine Bar & Kitchen","contact":{"phone":"+442077068114","formattedPhone":"+44 20 7706 8114","twitter":"serpentinebk"},"location":{"address":"Serpentine Rd","crossStreet":"Hyde Park","lat":"51.50497615014911","lng":"-0.15990257263183594","distance":"215","postalCode":"W2 2UH","cc":"GB","city":"London","state":"Greater London","country":"United Kingdom"},"categories":[{"id":"4bf58dd8d48988d1c4941735","name":"Restaurant","pluralName":"Restaurants","shortName":"Restaurant","icon":{"prefix":"https:\/\/ss1.4sqi.net\/img\/categories_v2\/food\/default_","suffix":".png"},"primary":"true"}],"verified":"false","restricted":"true","stats":{"checkinsCount":"3616","usersCount":"2790","tipCount":"57"},"url":"http:\/\/www.serpentinebarandkitchen.com","reservations":{"url":"http:\/\/www.toptable.co.uk\/single.aspx?rid=53695&ref=9601"},"menu":{"type":"Menu","label":"Menu","anchor":"View Menu","url":"https:\/\/foursquare.com\/v\/serpentine-bar--kitchen\/4b4dbf69f964a520b9d626e3\/menu","mobileUrl":"https:\/\/foursquare.com\/v\/4b4dbf69f964a520b9d626e3\/device_menu"},"specials":{"count":"0"},"hereNow":{"count":"0"},"referralId":"v-1392478038"},{"id":"4ac518b4f964a52071a020e3","name":"The Park Tower Knightsbridge","contact":{"phone":"+442072358050","formattedPhone":"+44 20 7235 8050","twitter":"spg"},"location":{"address":"101 Knightsbridge","lat":"51.50163963287968","lng":"-0.1588008144508648","distance":"404","postalCode":"SW1X 7RN","cc":"GB","city":"London","state":"Greater London","country":"United Kingdom"},"categories":[{"id":"4bf58dd8d48988d1fa931735","name":"Hotel","pluralName":"Hotels","shortName":"Hotel","icon":{"prefix":"https:\/\/ss1.4sqi.net\/img\/categories_v2\/travel\/hotel_","suffix":".png"},"primary":"true"}],"verified":"true","restricted":"true","stats":{"checkinsCount":"4224","usersCount":"1529","tipCount":"17"},"url":"http:\/\/www.theparktowerknightsbridge.com","specials":{"count":"0"},"hereNow":{"count":"1","groups":[{"type":"others","name":"Other people here","count":"1"}]},"storeId":"412","referralId":"v-1392478038"},{"id":"4cf3f87f6195721e64c24fc1","name":"TfL Bus 10","contact":{"twitter":"tflbusalerts"},"location":{"address":"Moving Target!","lat":"51.501330427231466","lng":"-0.17793066333065904","distance":"1098","cc":"GB","city":"London","state":"Greater London","country":"United Kingdom"},"categories":[{"id":"4bf58dd8d48988d12b951735","name":"Bus Line","pluralName":"Bus Lines","shortName":"Bus","icon":{"prefix":"https:\/\/ss1.4sqi.net\/img\/categories_v2\/travel\/busstation_","suffix":".png"},"primary":"true"}],"verified":"false","restricted":"true","stats":{"checkinsCount":"729","usersCount":"251","tipCount":"2"},"url":"http:\/\/tfl.gov.uk","specials":{"count":"0"},"hereNow":{"count":"0"},"referralId":"v-1392478038"},{"id":"4ac518b4f964a5207fa020e3","name":"Mandarin Oriental Hyde Park, London","contact":{"phone":"+442072352000","formattedPhone":"+44 20 7235 2000","twitter":"mo_hotels"},"location":{"address":"66 Knightsbridge","lat":"51.50206441282652","lng":"-0.16002755148501852","distance":"313","postalCode":"SW1X 7LA","cc":"GB","city":"London","state":"Greater London","country":"United Kingdom"},"categories":[{"id":"4bf58dd8d48988d1fa931735","name":"Hotel","pluralName":"Hotels","shortName":"Hotel","icon":{"prefix":"https:\/\/ss1.4sqi.net\/img\/categories_v2\/travel\/hotel_","suffix":".png"},"primary":"true"}],"verified":"true","restricted":"true","stats":{"checkinsCount":"3723","usersCount":"2131","tipCount":"32"},"url":"http:\/\/www.mandarinoriental.com\/london\/","specials":{"count":"0"},"hereNow":{"count":"1","groups":[{"type":"others","name":"Other people here","count":"1"}]},"storeId":"","referralId":"v-1392478038"},{"id":"4bd199b1046076b04b0d7271","name":"Bar Boulud","contact":{"phone":"+442072013899","formattedPhone":"+44 20 7201 3899","twitter":"barbouludlondon"},"location":{"address":"66 Knightsbridge","lat":"51.502024570872194","lng":"-0.16017112002845027","distance":"311","postalCode":"SW1X 7LA","cc":"GB","city":"London","state":"Greater London","country":"United Kingdom"},"categories":[{"id":"4bf58dd8d48988d10c941735","name":"French Restaurant","pluralName":"French Restaurants","shortName":"French","icon":{"prefix":"https:\/\/ss1.4sqi.net\/img\/categories_v2\/food\/french_","suffix":".png"},"primary":"true"}],"verified":"true","restricted":"true","stats":{"checkinsCount":"2354","usersCount":"1547","tipCount":"60"},"url":"http:\/\/www.barboulud.com\/london\/","reservations":{"url":"http:\/\/www.toptable.co.uk\/single.aspx?rid=44440&ref=9601"},"menu":{"type":"Menu","label":"Menu","anchor":"View Menu","url":"https:\/\/foursquare.com\/v\/bar-boulud\/4bd199b1046076b04b0d7271\/menu","mobileUrl":"https:\/\/foursquare.com\/v\/4bd199b1046076b04b0d7271\/device_menu"},"specials":{"count":"0"},"hereNow":{"count":"1","groups":[{"type":"others","name":"Other people here","count":"1"}]},"venuePage":{"id":"68697327"},"storeId":"","referralId":"v-1392478038"},{"id":"5073eaf9d63e722af9c7df92","name":"Buddha-Bar London","contact":{"phone":"+442036675222","formattedPhone":"+44 20 3667 5222","twitter":"buddhabarlondon"},"location":{"address":"145 Knightsbridge","lat":"51.50153678432368","lng":"-0.16205906867980957","distance":"310","postalCode":"SW1X 7PA","cc":"GB","city":"London","state":"Greater London","country":"United Kingdom"},"categories":[{"id":"4bf58dd8d48988d142941735","name":"Asian Restaurant","pluralName":"Asian Restaurants","shortName":"Asian","icon":{"prefix":"https:\/\/ss1.4sqi.net\/img\/categories_v2\/food\/asian_","suffix":".png"},"primary":"true"}],"verified":"true","restricted":"true","stats":{"checkinsCount":"1765","usersCount":"1346","tipCount":"30"},"url":"http:\/\/www.facebook.com\/buddhabarlondon","menu":{"type":"Menu","label":"Menu","anchor":"View Menu","url":"https:\/\/foursquare.com\/v\/buddhabar-london\/5073eaf9d63e722af9c7df92\/menu","mobileUrl":"https:\/\/foursquare.com\/v\/5073eaf9d63e722af9c7df92\/device_menu"},"specials":{"count":"0"},"hereNow":{"count":"0"},"venuePage":{"id":"42749858"},"storeId":"","referralId":"v-1392478038"},{"id":"4b10f3f0f964a520f37623e3","name":"Starbucks","contact":{"phone":"+442072250921","formattedPhone":"+44 20 7225 0921","twitter":"starbucksuk"},"location":{"address":"44-48 Brompton Rd","lat":"51.50078376231414","lng":"-0.16243726015090942","distance":"391","postalCode":"SW3 1BW","cc":"GB","city":"Knightsbridge","state":"Greater London","country":"United Kingdom"},"categories":[{"id":"4bf58dd8d48988d1e0931735","name":"Coffee Shop","pluralName":"Coffee Shops","shortName":"Coffee Shop","icon":{"prefix":"https:\/\/ss1.4sqi.net\/img\/categories_v2\/food\/coffeeshop_","suffix":".png"},"primary":"true"}],"verified":"true","restricted":"true","stats":{"checkinsCount":"5267","usersCount":"3601","tipCount":"35"},"url":"http:\/\/starbucks.co.uk","specials":{"count":"0"},"hereNow":{"count":"0"},"storeId":"12712","referralId":"v-1392478038"},{"id":"4e269555483b329ccb3c292e","name":"Bulgari Hotel & Residences","contact":{"phone":"+442071511010","formattedPhone":"+44 20 7151 1010"},"location":{"address":"171 Knightsbridge","lat":"51.501552096414024","lng":"-0.16268932953539364","distance":"304","postalCode":"SW7 1DW","cc":"GB","city":"London","state":"Greater London","country":"United Kingdom"},"categories":[{"id":"4bf58dd8d48988d1fa931735","name":"Hotel","pluralName":"Hotels","shortName":"Hotel","icon":{"prefix":"https:\/\/ss1.4sqi.net\/img\/categories_v2\/travel\/hotel_","suffix":".png"},"primary":"true"}],"verified":"false","restricted":"true","stats":{"checkinsCount":"2081","usersCount":"1096","tipCount":"23"},"url":"http:\/\/www.bulgarihotels.com\/london","reservations":{"url":"http:\/\/www.toptable.co.uk\/single.aspx?rid=91167&ref=9601"},"menu":{"type":"Menu","label":"Menu","anchor":"View Menu","url":"https:\/\/foursquare.com\/v\/bulgari-hotel--residences\/4e269555483b329ccb3c292e\/menu","mobileUrl":"https:\/\/foursquare.com\/v\/4e269555483b329ccb3c292e\/device_menu"},"specials":{"count":"0"},"hereNow":{"count":"0"},"referralId":"v-1392478038"},{"id":"4f2c0acae4b048e466df240b","name":"Mari Vanna","contact":{"phone":"+442072253122","formattedPhone":"+44 20 7225 3122","twitter":"marivannalondon","facebook":"1448714838677516"},"location":{"address":"116 Knightsbridge","lat":"51.5017628262819","lng":"-0.162364185497365","distance":"282","postalCode":"SW1X 7PJ","cc":"GB","city":"London","state":"Greater London","country":"United Kingdom"},"categories":[{"id":"5293a7563cf9994f4e043a44","name":"Russian Restaurant","pluralName":"Russian Restaurants","shortName":"Russian","icon":{"prefix":"https:\/\/ss1.4sqi.net\/img\/categories_v2\/food\/default_","suffix":".png"},"primary":"true"}],"verified":"true","restricted":"true","stats":{"checkinsCount":"3445","usersCount":"1702","tipCount":"69"},"url":"http:\/\/www.marivanna.co.uk","reservations":{"url":"http:\/\/www.toptable.co.uk\/single.aspx?rid=91236&ref=9601"},"menu":{"type":"Menu","label":"Menu","anchor":"View Menu","url":"https:\/\/foursquare.com\/v\/mari-vanna\/4f2c0acae4b048e466df240b\/menu","mobileUrl":"https:\/\/foursquare.com\/v\/4f2c0acae4b048e466df240b\/device_menu"},"specials":{"count":"0"},"hereNow":{"count":"0"},"venuePage":{"id":"78633336"},"storeId":"","referralId":"v-1392478038"},{"id":"4cf805671cfea09339f6e739","name":"Champagne Bar","contact":{"twitter":"harveynichols"},"location":{"address":"at Harvey Nichols","lat":"51.5017602960294","lng":"-0.159950410329577","distance":"343","postalCode":"SW1X 7RJ","cc":"GB","city":"Kensington","state":"Greater London","country":"United Kingdom"},"categories":[{"id":"4bf58dd8d48988d14b941735","name":"Winery","pluralName":"Wineries","shortName":"Winery","icon":{"prefix":"https:\/\/ss1.4sqi.net\/img\/categories_v2\/food\/winery_","suffix":".png"},"primary":"true"}],"verified":"true","restricted":"true","stats":{"checkinsCount":"679","usersCount":"534","tipCount":"7"},"specials":{"count":"0"},"hereNow":{"count":"0"},"referralId":"v-1392478038"},{"id":"4bab5c48f964a5204ca33ae3","name":"Signor Sassi","contact":{"phone":"+442075842277","formattedPhone":"+44 20 7584 2277"},"location":{"address":"14 Knightsbridge Green","lat":"51.501209132130064","lng":"-0.16237819355489672","distance":"344","postalCode":"SW1X 7QL","cc":"GB","city":"Kensington","state":"Greater London","country":"United Kingdom"},"categories":[{"id":"4bf58dd8d48988d110941735","name":"Italian Restaurant","pluralName":"Italian Restaurants","shortName":"Italian","icon":{"prefix":"https:\/\/ss1.4sqi.net\/img\/categories_v2\/food\/italian_","suffix":".png"},"primary":"true"}],"verified":"false","restricted":"true","stats":{"checkinsCount":"2070","usersCount":"1536","tipCount":"40"},"url":"http:\/\/www.signorsassi.co.uk","reservations":{"url":"http:\/\/www.toptable.co.uk\/single.aspx?rid=77935&ref=9601"},"menu":{"type":"Menu","label":"Menu","anchor":"View Menu","url":"https:\/\/foursquare.com\/v\/signor-sassi\/4bab5c48f964a5204ca33ae3\/menu","mobileUrl":"https:\/\/foursquare.com\/v\/4bab5c48f964a5204ca33ae3\/device_menu"},"specials":{"count":"0"},"hereNow":{"count":"3","groups":[{"type":"others","name":"Other people here","count":"3"}]},"referralId":"v-1392478038"},{"id":"51e1e009498ebf3b1423b84a","name":"Burger & Lobster","contact":{"phone":"+442072018676","formattedPhone":"+44 20 7201 8676","twitter":"londonlobster"},"location":{"address":"Harvey Nichols","crossStreet":"109-125 Knightsbridge","lat":"51.501610249219446","lng":"-0.1595592498779297","distance":"373","postalCode":"SW1X 7RJ","cc":"GB","city":"Knightsbridge","state":"Greater London","country":"United Kingdom"},"categories":[{"id":"4bf58dd8d48988d1ce941735","name":"Seafood Restaurant","pluralName":"Seafood Restaurants","shortName":"Seafood","icon":{"prefix":"https:\/\/ss1.4sqi.net\/img\/categories_v2\/food\/seafood_","suffix":".png"},"primary":"true"}],"verified":"false","restricted":"true","stats":{"checkinsCount":"673","usersCount":"556","tipCount":"16"},"url":"http:\/\/www.burgerandlobster.com\/knightsbridge.php","specials":{"count":"0"},"hereNow":{"count":"0"},"referralId":"v-1392478038"},{"id":"4ac518d8f964a52079a820e3","name":"Mr Chow","contact":{"phone":"+442075897347","formattedPhone":"+44 20 7589 7347","twitter":"mrchow"},"location":{"address":"151 Knightsbridge","lat":"51.50189722382577","lng":"-0.16229474852186287","distance":"268","postalCode":"SW1X 7PA","cc":"GB","city":"London","state":"Greater London","country":"United Kingdom"},"categories":[{"id":"4bf58dd8d48988d145941735","name":"Chinese Restaurant","pluralName":"Chinese Restaurants","shortName":"Chinese","icon":{"prefix":"https:\/\/ss1.4sqi.net\/img\/categories_v2\/food\/chinese_","suffix":".png"},"primary":"true"}],"verified":"false","restricted":"true","stats":{"checkinsCount":"1135","usersCount":"842","tipCount":"45"},"url":"http:\/\/www.mrchow.com","reservations":{"url":"http:\/\/www.toptable.co.uk\/single.aspx?rid=42436&ref=9601"},"specials":{"count":"0"},"hereNow":{"count":"0"},"referralId":"v-1392478038"},{"id":"4d2f05dc79dd6ea8ca028ed3","name":"Dinner by Heston Blumenthal","contact":{"phone":"+442072013833","formattedPhone":"+44 20 7201 3833","twitter":"mo_hotels"},"location":{"address":"Mandarin Oriental Hyde Park","crossStreet":"66 Knightsbridge","lat":"51.502258070900666","lng":"-0.1602029800415039","distance":"289","postalCode":"SW1X 7LA","cc":"GB","city":"London","state":"Greater London","country":"United Kingdom"},"categories":[{"id":"4bf58dd8d48988d1c2941735","name":"Molecular Gastronomy Restaurant","pluralName":"Molecular Gastronomy Restaurants","shortName":"Molecular Gastronomy","icon":{"prefix":"https:\/\/ss1.4sqi.net\/img\/categories_v2\/food\/moleculargastronomy_","suffix":".png"},"primary":"true"}],"verified":"true","restricted":"true","stats":{"checkinsCount":"2523","usersCount":"2037","tipCount":"82"},"url":"http:\/\/www.dinnerbyheston.com","reservations":{"url":"http:\/\/www.toptable.co.uk\/single.aspx?rid=51886&ref=9601"},"menu":{"type":"Menu","label":"Menu","anchor":"View Menu","url":"https:\/\/foursquare.com\/v\/dinner-by-heston-blumenthal\/4d2f05dc79dd6ea8ca028ed3\/menu","mobileUrl":"https:\/\/foursquare.com\/v\/4d2f05dc79dd6ea8ca028ed3\/device_menu"},"specials":{"count":"0"},"hereNow":{"count":"0"},"storeId":"","referralId":"v-1392478038"},{"id":"4e03696a18389833c596a0a8","name":"McLaren","contact":{"phone":"+442031510020","formattedPhone":"+44 20 3151 0020"},"location":{"address":"100 Knightsbridge","lat":"51.50186335620933","lng":"-0.161461428221739","distance":"285","postalCode":"SW1X 7LJ","cc":"GB","city":"London","state":"Greater London","country":"United Kingdom"},"categories":[{"id":"4bf58dd8d48988d124951735","name":"Automotive Shop","pluralName":"Automotive Shops","shortName":"Automotive","icon":{"prefix":"https:\/\/ss1.4sqi.net\/img\/categories_v2\/shops\/automotive_","suffix":".png"},"primary":"true"}],"verified":"false","restricted":"true","stats":{"checkinsCount":"1086","usersCount":"773","tipCount":"4"},"specials":{"count":"0"},"hereNow":{"count":"0"},"referralId":"v-1392478038"},{"id":"4b4c4ac5f964a52093b026e3","name":"Fifth Floor Restaurant","contact":{"phone":"+442072355250","formattedPhone":"+44 20 7235 5250","twitter":"harveynichols"},"location":{"address":"Harvey Nichols, 109-125 Knightsbridge","lat":"51.50165032093083","lng":"-0.1599884033203125","distance":"352","postalCode":"SW1X 7RJ","cc":"GB","city":"London","state":"Greater London","country":"United Kingdom"},"categories":[{"id":"4bf58dd8d48988d1c0941735","name":"Mediterranean Restaurant","pluralName":"Mediterranean Restaurants","shortName":"Mediterranean","icon":{"prefix":"https:\/\/ss1.4sqi.net\/img\/categories_v2\/food\/mediterranean_","suffix":".png"},"primary":"true"}],"verified":"true","restricted":"true","stats":{"checkinsCount":"2512","usersCount":"1844","tipCount":"32"},"url":"http:\/\/www.harveynichols.com\/fifth-floor-london","reservations":{"url":"http:\/\/www.toptable.co.uk\/single.aspx?rid=78061&ref=9601"},"specials":{"count":"0"},"hereNow":{"count":"1","groups":[{"type":"others","name":"Other people here","count":"1"}]},"referralId":"v-1392478038"},{"id":"4ac518bcf964a5208aa220e3","name":"Joe's Caf\u00e9","contact":{"phone":"+442072351991","formattedPhone":"+44 20 7235 1991"},"location":{"address":"16 Sloane St","lat":"51.50023248014398","lng":"-0.15981746445925443","distance":"496","postalCode":"SW1X 9NB","cc":"GB","city":"Knightsbridge","state":"Greater London","country":"United Kingdom"},"categories":[{"id":"4bf58dd8d48988d1c4941735","name":"Restaurant","pluralName":"Restaurants","shortName":"Restaurant","icon":{"prefix":"https:\/\/ss1.4sqi.net\/img\/categories_v2\/food\/default_","suffix":".png"},"primary":"true"}],"verified":"false","restricted":"true","stats":{"checkinsCount":"818","usersCount":"540","tipCount":"15"},"specials":{"count":"0"},"hereNow":{"count":"1","groups":[{"type":"others","name":"Other people here","count":"1"}]},"referralId":"v-1392478038"},{"id":"5266570b498eee418043889e","name":"Knightsbridge","location":{"lat":"51.50160210064281","lng":"-0.1611329097070741","distance":"320","cc":"GB","country":"United Kingdom"},"categories":[{"id":"4bf58dd8d48988d1ff941735","name":"Miscellaneous Shop","pluralName":"Miscellaneous Shops","shortName":"Shop","icon":{"prefix":"https:\/\/ss1.4sqi.net\/img\/categories_v2\/shops\/default_","suffix":".png"},"primary":"true"}],"verified":"false","restricted":"true","stats":{"checkinsCount":"219","usersCount":"177","tipCount":"0"},"specials":{"count":"0"},"hereNow":{"count":"1","groups":[{"type":"others","name":"Other people here","count":"1"}]},"referralId":"v-1392478038"},{"id":"4bb750901344b713298f9e04","name":"Burberry","contact":{"phone":"+442072355000","formattedPhone":"+44 20 7235 5000","twitter":"burberry"},"location":{"address":"109-125 Knightsbridge","lat":"51.50140989013393","lng":"-0.16155481338500977","distance":"331","postalCode":"SW1X 7RJ","cc":"GB","city":"Knightsbridge","state":"Greater London","country":"United Kingdom"},"categories":[{"id":"4bf58dd8d48988d104951735","name":"Boutique","pluralName":"Boutiques","shortName":"Boutique","icon":{"prefix":"https:\/\/ss1.4sqi.net\/img\/categories_v2\/shops\/apparel_boutique_","suffix":".png"},"primary":"true"}],"verified":"true","restricted":"true","stats":{"checkinsCount":"1236","usersCount":"908","tipCount":"4"},"url":"http:\/\/burberry.com","specials":{"count":"0"},"hereNow":{"count":"0"},"storeId":"0477","referralId":"v-1392478038"},{"id":"4ac518bef964a520fea220e3","name":"The Paxton's Head","location":{"address":"153 Knightsbridge","lat":"51.501867867579975","lng":"-0.1622150765480736","distance":"272","postalCode":"SW1X 7PA","cc":"GB","city":"London","state":"Greater London","country":"United Kingdom"},"categories":[{"id":"4bf58dd8d48988d11b941735","name":"Pub","pluralName":"Pubs","shortName":"Pub","icon":{"prefix":"https:\/\/ss1.4sqi.net\/img\/categories_v2\/nightlife\/pub_","suffix":".png"},"primary":"true"}],"verified":"false","restricted":"true","stats":{"checkinsCount":"543","usersCount":"471","tipCount":"12"},"specials":{"count":"0"},"hereNow":{"count":"0"},"referralId":"v-1392478038"}],"confident":"true"}}