{"meta":{"code":"200"},"response":{"venues":[{"id":"4da5fefbf7b192b48663d1df","name":"Fitness4less","location":{"address":"14-19 Great Suffolk St","lat":"51.50399258572825","lng":"-0.10140751604999794","distance":"102","postalCode":"SE1 0UG","cc":"GB","city":"London","state":"Greater London","country":"United Kingdom"},"categories":[{"id":"4bf58dd8d48988d175941735","name":"Gym \/ Fitness Center","pluralName":"Gyms or Fitness Centers","shortName":"Gym \/ Fitness","icon":{"prefix":"https:\/\/ss1.4sqi.net\/img\/categories_v2\/building\/gym_","suffix":".png"},"primary":"true"}],"verified":"false","restricted":"true","stats":{"checkinsCount":"1969","usersCount":"176","tipCount":"8"},"specials":{"count":"0"},"hereNow":{"count":"1","groups":[{"type":"others","name":"Other people here","count":"1"}]},"referralId":"v-1392478044"},{"id":"4c039a3f58dad13a90204897","name":"Travelodge","contact":{"phone":"+448719846352","formattedPhone":"+44 871 984 6352","twitter":"travelodgeuk"},"location":{"address":"202 Union St.","crossStreet":"Gambia St","lat":"51.50388092395907","lng":"-0.10308265686035156","distance":"49","postalCode":"SE1 0LH","cc":"GB","city":"Southwark","state":"Greater London","country":"United Kingdom"},"categories":[{"id":"4bf58dd8d48988d1fa931735","name":"Hotel","pluralName":"Hotels","shortName":"Hotel","icon":{"prefix":"https:\/\/ss1.4sqi.net\/img\/categories_v2\/travel\/hotel_","suffix":".png"},"primary":"true"}],"verified":"false","restricted":"true","stats":{"checkinsCount":"725","usersCount":"331","tipCount":"18"},"specials":{"count":"0"},"hereNow":{"count":"0"},"referralId":"v-1392478044"},{"id":"4afd85f8f964a5204e2822e3","name":"Blackfriars Wine Bar","location":{"address":"80 Scoresby Street","crossStreet":"Blackfriars Road","lat":"51.50428829775077","lng":"-0.10316848754882812","distance":"25","postalCode":"SE1 0XN","cc":"GB","city":"London","state":"Greater London","country":"United Kingdom"},"categories":[{"id":"4bf58dd8d48988d123941735","name":"Wine Bar","pluralName":"Wine Bars","shortName":"Wine Bar","icon":{"prefix":"https:\/\/ss1.4sqi.net\/img\/categories_v2\/nightlife\/wine_","suffix":".png"},"primary":"true"}],"verified":"false","restricted":"true","stats":{"checkinsCount":"283","usersCount":"147","tipCount":"5"},"url":"http:\/\/www.blackfriarswinebar.co.uk","menu":{"type":"Menu","label":"Menu","anchor":"View Menu","url":"https:\/\/foursquare.com\/v\/blackfriars-wine-bar\/4afd85f8f964a5204e2822e3\/menu","mobileUrl":"https:\/\/foursquare.com\/v\/4afd85f8f964a5204e2822e3\/device_menu"},"specials":{"count":"0"},"hereNow":{"count":"0"},"referralId":"v-1392478044"},{"id":"4c2b8978f7acef3bd051ed0c","name":"The Lord Nelson","contact":{"phone":"+442072072701","formattedPhone":"+44 20 7207 2701","twitter":"lordnelsonsthwk"},"location":{"address":"243 Union St","lat":"51.503553","lng":"-0.102732","distance":"82","postalCode":"SE1 0LR","cc":"GB","city":"Borough","state":"Greater London","country":"United Kingdom"},"categories":[{"id":"4bf58dd8d48988d11b941735","name":"Pub","pluralName":"Pubs","shortName":"Pub","icon":{"prefix":"https:\/\/ss1.4sqi.net\/img\/categories_v2\/nightlife\/pub_","suffix":".png"},"primary":"true"}],"verified":"false","restricted":"true","stats":{"checkinsCount":"1329","usersCount":"614","tipCount":"19"},"url":"http:\/\/www.lordnelsonsouthwark.com","menu":{"type":"Menu","label":"Menu","anchor":"View Menu","url":"https:\/\/foursquare.com\/v\/the-lord-nelson\/4c2b8978f7acef3bd051ed0c\/menu","mobileUrl":"https:\/\/foursquare.com\/v\/4c2b8978f7acef3bd051ed0c\/device_menu"},"specials":{"count":"0"},"hereNow":{"count":"0"},"referralId":"v-1392478044"},{"id":"4ad9b52af964a5207a1a21e3","name":"The Ring","contact":{"phone":"+442076200811","formattedPhone":"+44 20 7620 0811","twitter":"theringbar"},"location":{"address":"72 Blackfriars Rd.","crossStreet":"at The Cut","lat":"51.50368725317429","lng":"-0.10457396507263184","distance":"139","postalCode":"SE1 8HA","cc":"GB","city":"Southwark","state":"Greater London","country":"United Kingdom"},"categories":[{"id":"4bf58dd8d48988d11b941735","name":"Pub","pluralName":"Pubs","shortName":"Pub","icon":{"prefix":"https:\/\/ss1.4sqi.net\/img\/categories_v2\/nightlife\/pub_","suffix":".png"},"primary":"true"}],"verified":"false","restricted":"true","stats":{"checkinsCount":"1314","usersCount":"902","tipCount":"15"},"url":"http:\/\/www.windmilltaverns.com\/the-ring","menu":{"type":"Menu","label":"Menu","anchor":"View Menu","url":"https:\/\/foursquare.com\/v\/the-ring\/4ad9b52af964a5207a1a21e3\/menu","mobileUrl":"https:\/\/foursquare.com\/v\/4ad9b52af964a5207a1a21e3\/device_menu"},"specials":{"count":"0"},"hereNow":{"count":"1","groups":[{"type":"others","name":"Other people here","count":"1"}]},"referralId":"v-1392478044"},{"id":"523892b311d2f0cb749056b9","name":"Union Street Cafe","contact":{"phone":"+442075927977","formattedPhone":"+44 20 7592 7977","twitter":"unionstreetcafe"},"location":{"address":"47-51 Great Suffolk St","crossStreet":"Union St","lat":"51.503720555333885","lng":"-0.10135442612324501","distance":"118","postalCode":"SE1 0BS","cc":"GB","city":"London","state":"Greater London","country":"United Kingdom"},"categories":[{"id":"4bf58dd8d48988d110941735","name":"Italian Restaurant","pluralName":"Italian Restaurants","shortName":"Italian","icon":{"prefix":"https:\/\/ss1.4sqi.net\/img\/categories_v2\/food\/italian_","suffix":".png"},"primary":"true"}],"verified":"false","restricted":"true","stats":{"checkinsCount":"268","usersCount":"196","tipCount":"8"},"url":"http:\/\/www.gordonramsay.com\/union-street-cafe\/","menu":{"type":"Menu","label":"Menu","anchor":"View Menu","url":"https:\/\/foursquare.com\/v\/union-street-cafe\/523892b311d2f0cb749056b9\/menu","mobileUrl":"https:\/\/foursquare.com\/v\/523892b311d2f0cb749056b9\/device_menu"},"specials":{"count":"0"},"hereNow":{"count":"0"},"referralId":"v-1392478044"},{"id":"4e65c77a1495676d5725b3d7","name":"Carlos Kitchen","location":{"lat":"51.503668","lng":"-0.102422","distance":"73","cc":"GB","city":"Camberwell","state":"Greater London","country":"United Kingdom"},"categories":[{"id":"4d4b7105d754a06374d81259","name":"Food","pluralName":"Food","shortName":"Food","icon":{"prefix":"https:\/\/ss1.4sqi.net\/img\/categories_v2\/food\/default_","suffix":".png"},"primary":"true"}],"verified":"false","restricted":"true","stats":{"checkinsCount":"175","usersCount":"113","tipCount":"3"},"specials":{"count":"0"},"hereNow":{"count":"0"},"referralId":"v-1392478044"},{"id":"4b5586c6f964a52083e627e3","name":"Palestra","contact":{"twitter":"tflofficial","facebook":"212038972186253"},"location":{"address":"197 Blackfriars Rd.","lat":"51.503891","lng":"-0.104313","distance":"113","postalCode":"SE1 8NJ","cc":"GB","city":"Southwark","state":"Greater London","country":"United Kingdom"},"categories":[{"id":"4bf58dd8d48988d124941735","name":"Office","pluralName":"Offices","shortName":"Office","icon":{"prefix":"https:\/\/ss1.4sqi.net\/img\/categories_v2\/building\/default_","suffix":".png"},"primary":"true"}],"verified":"true","restricted":"true","stats":{"checkinsCount":"431","usersCount":"89","tipCount":"3"},"url":"http:\/\/www.tfl.gov.uk","specials":{"count":"0"},"hereNow":{"count":"0"},"storeId":"","referralId":"v-1392478044"},{"id":"5087d2d0e4b0a80e6234a95d","name":"Nando's","contact":{"phone":"+442072611927","formattedPhone":"+44 20 7261 1927"},"location":{"address":"Blackfriars Rd","crossStreet":"Southwark Arches","lat":"51.504267","lng":"-0.104277","distance":"102","postalCode":"SE1 0XH","cc":"GB","city":"Southwark","state":"Greater London","country":"United Kingdom"},"categories":[{"id":"4def73e84765ae376e57713a","name":"Portuguese Restaurant","pluralName":"Portuguese Restaurants","shortName":"Portuguese","icon":{"prefix":"https:\/\/ss1.4sqi.net\/img\/categories_v2\/food\/default_","suffix":".png"},"primary":"true"}],"verified":"false","restricted":"true","stats":{"checkinsCount":"470","usersCount":"323","tipCount":"7"},"url":"http:\/\/www.nandos.co.uk","specials":{"count":"0"},"hereNow":{"count":"0"},"referralId":"v-1392478044"},{"id":"4b5f4eebf964a52032b329e3","name":"Mar y Terra","location":{"address":"14 Gambia St","crossStreet":"at Scoresby St","lat":"51.50396106335338","lng":"-0.10248184204101562","distance":"42","postalCode":"SE1 0XH","cc":"GB","city":"Southwark","state":"Greater London","country":"United Kingdom"},"categories":[{"id":"4bf58dd8d48988d1db931735","name":"Tapas Restaurant","pluralName":"Tapas Restaurants","shortName":"Tapas","icon":{"prefix":"https:\/\/ss1.4sqi.net\/img\/categories_v2\/food\/tapas_","suffix":".png"},"primary":"true"}],"verified":"false","restricted":"true","stats":{"checkinsCount":"162","usersCount":"114","tipCount":"10"},"url":"http:\/\/www.mariterra.co.uk","reservations":{"url":"http:\/\/www.toptable.co.uk\/single.aspx?rid=79492&ref=9601"},"menu":{"type":"Menu","label":"Menu","anchor":"View Menu","url":"https:\/\/foursquare.com\/v\/mar-y-terra\/4b5f4eebf964a52032b329e3\/menu","mobileUrl":"https:\/\/foursquare.com\/v\/4b5f4eebf964a52032b329e3\/device_menu"},"specials":{"count":"0"},"hereNow":{"count":"0"},"referralId":"v-1392478044"},{"id":"51cbeb25498ee3a868376549","name":"Southwark Jubilee Line Westbound Platform","location":{"address":"Southwark Station","lat":"51.50374984741211","lng":"-0.10449930280447006","distance":"131","cc":"GB","country":"United Kingdom"},"categories":[{"id":"4f4531504b9074f6e4fb0102","name":"Platform","pluralName":"Platforms","shortName":"Platform","icon":{"prefix":"https:\/\/ss1.4sqi.net\/img\/categories_v2\/travel\/trainstation_","suffix":".png"},"primary":"true"}],"verified":"false","restricted":"true","stats":{"checkinsCount":"338","usersCount":"206","tipCount":"0"},"specials":{"count":"0"},"hereNow":{"count":"0"},"referralId":"v-1392478044"},{"id":"4d9053431d06b1f717b2713b","name":"Tesco Express","contact":{"twitter":"uktesco"},"location":{"address":"47-52 Great Suffork St.","lat":"51.504879","lng":"-0.101415","distance":"116","postalCode":"SE1 0BS","cc":"GB","city":"Borough","state":"Greater London","country":"United Kingdom"},"categories":[{"id":"4bf58dd8d48988d118951735","name":"Grocery Store","pluralName":"Grocery Stores","shortName":"Grocery Store","icon":{"prefix":"https:\/\/ss1.4sqi.net\/img\/categories_v2\/shops\/food_grocery_","suffix":".png"},"primary":"true"}],"verified":"false","restricted":"true","stats":{"checkinsCount":"919","usersCount":"208","tipCount":"8"},"url":"http:\/\/www.tesco.com","specials":{"count":"0"},"hereNow":{"count":"0"},"referralId":"v-1392478044"},{"id":"4b744df5f964a520e3d32de3","name":"Union Jack","location":{"address":"225 Union St","lat":"51.503987776453485","lng":"-0.1011514663696289","distance":"119","postalCode":"SE1 0LR","cc":"GB","city":"London","state":"Greater London","country":"United Kingdom"},"categories":[{"id":"4bf58dd8d48988d11b941735","name":"Pub","pluralName":"Pubs","shortName":"Pub","icon":{"prefix":"https:\/\/ss1.4sqi.net\/img\/categories_v2\/nightlife\/pub_","suffix":".png"},"primary":"true"}],"verified":"false","restricted":"true","stats":{"checkinsCount":"745","usersCount":"312","tipCount":"6"},"specials":{"count":"0"},"hereNow":{"count":"0"},"referralId":"v-1392478044"},{"id":"514064d1e4b0363e1a480ae7","name":"Woolfson & Tay","location":{"address":"39 Bear Lane","lat":"51.50485970095667","lng":"-0.10172617732408618","distance":"97","postalCode":"SE1 0UH","cc":"GB","city":"London","state":"Greater London","country":"United Kingdom"},"categories":[{"id":"4bf58dd8d48988d114951735","name":"Bookstore","pluralName":"Bookstores","shortName":"Bookstore","icon":{"prefix":"https:\/\/ss1.4sqi.net\/img\/categories_v2\/shops\/bookstore_","suffix":".png"},"primary":"true"}],"verified":"false","restricted":"true","stats":{"checkinsCount":"321","usersCount":"47","tipCount":"5"},"specials":{"count":"0"},"hereNow":{"count":"0"},"referralId":"v-1392478044"},{"id":"50712eabe4b0d7b67f626c00","name":"Novotel","contact":{"phone":"+442076600834","formattedPhone":"+44 20 7660 0834"},"location":{"address":"46 Blackfriars Road","lat":"51.50500286265417","lng":"-0.10488510131835938","distance":"164","postalCode":"SE1 8NZ","cc":"GB","city":"London","state":"Greater London","country":"United Kingdom"},"categories":[{"id":"4bf58dd8d48988d1fa931735","name":"Hotel","pluralName":"Hotels","shortName":"Hotel","icon":{"prefix":"https:\/\/ss1.4sqi.net\/img\/categories_v2\/travel\/hotel_","suffix":".png"},"primary":"true"}],"verified":"true","restricted":"true","stats":{"checkinsCount":"811","usersCount":"364","tipCount":"13"},"url":"http:\/\/www.novotel.com\/gb\/hotel-7942-novotel-london-blackfriars\/index.shtml","specials":{"count":"0"},"hereNow":{"count":"0"},"storeId":"","referralId":"v-1392478044"},{"id":"4bbf230298f49521601fd263","name":"Bangkok Kitchen","location":{"address":"233 Union Street","lat":"51.50355869538851","lng":"-0.10220825672149658","distance":"91","postalCode":"SE1 0LR","cc":"GB","city":"Southwark","state":"Greater London","country":"United Kingdom"},"categories":[{"id":"4bf58dd8d48988d149941735","name":"Thai Restaurant","pluralName":"Thai Restaurants","shortName":"Thai","icon":{"prefix":"https:\/\/ss1.4sqi.net\/img\/categories_v2\/food\/thai_","suffix":".png"},"primary":"true"}],"verified":"false","restricted":"true","stats":{"checkinsCount":"393","usersCount":"91","tipCount":"9"},"specials":{"count":"0"},"hereNow":{"count":"0"},"referralId":"v-1392478044"},{"id":"52deebc311d2a983bd9a5843","name":"Mariterra","location":{"address":"14 Gambia Street","lat":"51.504319","lng":"-0.103112","distance":"21","postalCode":"SE10XH","cc":"GB","city":"London","state":"Greater London","country":"United Kingdom"},"categories":[{"id":"4bf58dd8d48988d150941735","name":"Spanish Restaurant","pluralName":"Spanish Restaurants","shortName":"Spanish","icon":{"prefix":"https:\/\/ss1.4sqi.net\/img\/categories_v2\/food\/default_","suffix":".png"},"primary":"true"}],"verified":"false","restricted":"true","stats":{"checkinsCount":"1","usersCount":"1","tipCount":"0"},"specials":{"count":"0"},"hereNow":{"count":"0"},"referralId":"v-1392478044"},{"id":"4d662d7059afa0905fd6913a","name":"Flying Fish Sushi","contact":{"phone":"+442030582200","formattedPhone":"+44 20 3058 2200","twitter":"ffsushi"},"location":{"address":"85 Scoresby Street","lat":"51.50432427087369","lng":"-0.10374399778272064","distance":"65","postalCode":"SE1 0XN","cc":"GB","city":"London","state":"Greater London","country":"United Kingdom"},"categories":[{"id":"4bf58dd8d48988d1d2941735","name":"Sushi Restaurant","pluralName":"Sushi Restaurants","shortName":"Sushi","icon":{"prefix":"https:\/\/ss1.4sqi.net\/img\/categories_v2\/food\/sushi_","suffix":".png"},"primary":"true"}],"verified":"true","restricted":"true","stats":{"checkinsCount":"115","usersCount":"43","tipCount":"5"},"menu":{"type":"Menu","label":"Menu","anchor":"View Menu","url":"https:\/\/foursquare.com\/v\/flying-fish-sushi\/4d662d7059afa0905fd6913a\/menu","mobileUrl":"https:\/\/foursquare.com\/v\/4d662d7059afa0905fd6913a\/device_menu"},"specials":{"count":"0"},"hereNow":{"count":"0"},"venuePage":{"id":"67352452"},"storeId":"","referralId":"v-1392478044"},{"id":"4cf53ffb99c6236a0f164a67","name":"UNITE Student Living","location":{"address":"17 Great Suffolk Street","crossStreet":"Lavington Street","lat":"51.50474743977602","lng":"-0.1008020462873026","distance":"147","postalCode":"SE1 0NS","cc":"GB","city":"London","state":"Greater London","country":"United Kingdom"},"categories":[{"id":"4bf58dd8d48988d130941735","name":"Building","pluralName":"Buildings","shortName":"Building","icon":{"prefix":"https:\/\/ss1.4sqi.net\/img\/categories_v2\/building\/default_","suffix":".png"},"primary":"true"}],"verified":"false","restricted":"true","stats":{"checkinsCount":"781","usersCount":"61","tipCount":"2"},"specials":{"count":"0"},"hereNow":{"count":"0"},"referralId":"v-1392478044"},{"id":"4ce0266c70bba1cda0a76ac4","name":"Studio 68","location":{"address":"164-182 Union St","lat":"51.50389545067421","lng":"-0.1015931109758283","distance":"94","postalCode":"SE1 0nr","cc":"GB","city":"Southwark","state":"Greater London","country":"United Kingdom"},"categories":[{"id":"4bf58dd8d48988d134941735","name":"Dance Studio","pluralName":"Dance Studios","shortName":"Dance Studio","icon":{"prefix":"https:\/\/ss1.4sqi.net\/img\/categories_v2\/arts_entertainment\/performingarts_dancestudio_","suffix":".png"},"primary":"true"}],"verified":"false","restricted":"true","stats":{"checkinsCount":"136","usersCount":"38","tipCount":"2"},"specials":{"count":"0"},"hereNow":{"count":"0"},"referralId":"v-1392478044"},{"id":"523034eb11d2d72ff6176149","name":"KBH HQ","location":{"lat":"51.50392105341473","lng":"-0.10103432842262522","distance":"129","cc":"GB","country":"United Kingdom"},"categories":[{"id":"4bf58dd8d48988d124941735","name":"Office","pluralName":"Offices","shortName":"Office","icon":{"prefix":"https:\/\/ss1.4sqi.net\/img\/categories_v2\/building\/default_","suffix":".png"},"primary":"true"}],"verified":"false","restricted":"true","stats":{"checkinsCount":"84","usersCount":"2","tipCount":"0"},"specials":{"count":"0"},"hereNow":{"count":"0"},"referralId":"v-1392478044"},{"id":"4b589addf964a520d36028e3","name":"The White Hart","contact":{"phone":"+442079288265","formattedPhone":"+44 20 7928 8265"},"location":{"address":"22 Great Suffolk St","lat":"51.5049494376284","lng":"-0.10161280632019043","distance":"110","postalCode":"SE1 0UG","cc":"GB","city":"Southwark","state":"Greater London","country":"United Kingdom"},"categories":[{"id":"4bf58dd8d48988d11b941735","name":"Pub","pluralName":"Pubs","shortName":"Pub","icon":{"prefix":"https:\/\/ss1.4sqi.net\/img\/categories_v2\/nightlife\/pub_","suffix":".png"},"primary":"true"}],"verified":"false","restricted":"true","stats":{"checkinsCount":"1177","usersCount":"345","tipCount":"6"},"url":"http:\/\/www.thewhitehart-southwark.co.uk","menu":{"type":"Menu","label":"Menu","anchor":"View Menu","url":"https:\/\/foursquare.com\/v\/the-white-hart\/4b589addf964a520d36028e3\/menu","mobileUrl":"https:\/\/foursquare.com\/v\/4b589addf964a520d36028e3\/device_menu"},"specials":{"count":"0"},"hereNow":{"count":"0"},"referralId":"v-1392478044"},{"id":"4bb165b3f964a520db903ce3","name":"TFL Palestra","contact":{"twitter":"tflofficial"},"location":{"address":"197 Blackfriars Rd","lat":"51.503815911672554","lng":"-0.104103331510243","distance":"104","postalCode":"SE1 8NJ","cc":"GB","city":"London","state":"Greater London","country":"United Kingdom"},"categories":[{"id":"4bf58dd8d48988d126941735","name":"Government Building","pluralName":"Government Buildings","shortName":"Government","icon":{"prefix":"https:\/\/ss1.4sqi.net\/img\/categories_v2\/building\/government_","suffix":".png"},"primary":"true"}],"verified":"false","restricted":"true","stats":{"checkinsCount":"483","usersCount":"124","tipCount":"2"},"url":"http:\/\/www.tfl.gov.uk","specials":{"count":"0"},"hereNow":{"count":"0"},"referralId":"v-1392478044"},{"id":"52d97836498eb1db73ac757a","name":"Emerald House Cash Machine","location":{"lat":"51.50491109984507","lng":"-0.10162888146959265","distance":"106","cc":"GB","country":"United Kingdom"},"categories":[{"id":"4bf58dd8d48988d124941735","name":"Office","pluralName":"Offices","shortName":"Office","icon":{"prefix":"https:\/\/ss1.4sqi.net\/img\/categories_v2\/building\/default_","suffix":".png"},"primary":"true"}],"verified":"false","restricted":"true","stats":{"checkinsCount":"6","usersCount":"2","tipCount":"0"},"specials":{"count":"0"},"hereNow":{"count":"0"},"referralId":"v-1392478044"},{"id":"4ad71ce0f964a520b80821e3","name":"Post Office","location":{"address":"52 Blackfriars Road","lat":"51.504909368817984","lng":"-0.10474562644958496","distance":"151","postalCode":"SE1 8NN","cc":"GB","city":"Southwark","state":"Greater London","country":"United Kingdom"},"categories":[{"id":"4bf58dd8d48988d172941735","name":"Post Office","pluralName":"Post Offices","shortName":"Post Office","icon":{"prefix":"https:\/\/ss1.4sqi.net\/img\/categories_v2\/building\/postoffice_","suffix":".png"},"primary":"true"}],"verified":"true","restricted":"true","stats":{"checkinsCount":"348","usersCount":"162","tipCount":"2"},"url":"http:\/\/www.postoffice.co.uk","specials":{"count":"0"},"hereNow":{"count":"0"},"referralId":"v-1392478044"},{"id":"50e9ee20e4b04fa5712ee280","name":"Ibis London Blackfriars Bar","location":{"address":"49 Blackfriars Route","lat":"51.50490795148121","lng":"-0.1044976430573449","distance":"136","cc":"GB","country":"United Kingdom"},"categories":[{"id":"4bf58dd8d48988d116941735","name":"Bar","pluralName":"Bars","shortName":"Bar","icon":{"prefix":"https:\/\/ss1.4sqi.net\/img\/categories_v2\/nightlife\/bar_","suffix":".png"},"primary":"true"}],"verified":"false","restricted":"true","stats":{"checkinsCount":"106","usersCount":"63","tipCount":"2"},"specials":{"count":"0"},"hereNow":{"count":"0"},"referralId":"v-1392478044"},{"id":"4ad858aaf964a520131121e3","name":"The Union Theatre","contact":{"phone":"+442072619876","formattedPhone":"+44 20 7261 9876"},"location":{"address":"204 Union St.","lat":"51.503647","lng":"-0.1016985","distance":"104","postalCode":"SE1 0LX","cc":"GB","city":"London","state":"Greater London","country":"United Kingdom"},"categories":[{"id":"4bf58dd8d48988d1f2931735","name":"Performing Arts Venue","pluralName":"Performing Arts Venues","shortName":"Performing Arts","icon":{"prefix":"https:\/\/ss1.4sqi.net\/img\/categories_v2\/arts_entertainment\/default_","suffix":".png"},"primary":"true"}],"verified":"false","restricted":"true","stats":{"checkinsCount":"501","usersCount":"187","tipCount":"4"},"specials":{"count":"0"},"hereNow":{"count":"0"},"referralId":"v-1392478044"},{"id":"4ad89b5ff964a520c81221e3","name":"Prince William Henry","location":{"address":"216-219 Blackfriars Rd","lat":"51.50531005533675","lng":"-0.10441303253173828","distance":"159","postalCode":"SE1 8NL","cc":"GB","city":"London","state":"Greater London","country":"United Kingdom"},"categories":[{"id":"4bf58dd8d48988d11b941735","name":"Pub","pluralName":"Pubs","shortName":"Pub","icon":{"prefix":"https:\/\/ss1.4sqi.net\/img\/categories_v2\/nightlife\/pub_","suffix":".png"},"primary":"true"}],"verified":"false","restricted":"true","stats":{"checkinsCount":"231","usersCount":"168","tipCount":"3"},"specials":{"count":"0"},"hereNow":{"count":"0"},"referralId":"v-1392478044"},{"id":"52f1587711d26ba0cb3f84be","name":"Sainsburys Great Sufolk Street","location":{"lat":"51.505194","lng":"-0.101326","distance":"143","cc":"GB","country":"United Kingdom"},"categories":[{"id":"4bf58dd8d48988d118951735","name":"Grocery Store","pluralName":"Grocery Stores","shortName":"Grocery Store","icon":{"prefix":"https:\/\/ss1.4sqi.net\/img\/categories_v2\/shops\/food_grocery_","suffix":".png"},"primary":"true"}],"verified":"false","restricted":"true","stats":{"checkinsCount":"4","usersCount":"3","tipCount":"0"},"specials":{"count":"0"},"hereNow":{"count":"0"},"referralId":"v-1392478044"},{"id":"4be26908b02ec9b6a2f74cc0","name":"EH","location":{"lat":"51.504553","lng":"-0.102723","distance":"29","cc":"GB","city":"Southwark","state":"Greater London","country":"United Kingdom"},"categories":[{"id":"4bf58dd8d48988d124941735","name":"Office","pluralName":"Offices","shortName":"Office","icon":{"prefix":"https:\/\/ss1.4sqi.net\/img\/categories_v2\/building\/default_","suffix":".png"},"primary":"true"}],"verified":"false","restricted":"true","stats":{"checkinsCount":"1","usersCount":"1","tipCount":"0"},"specials":{"count":"0"},"hereNow":{"count":"0"},"referralId":"v-1392478044"}],"confident":"true"}}