{"meta":{"code":"200"},"response":{"venues":[{"id":"4c16743b955976b02c92a4f6","name":"Platform 5","contact":{"twitter":"chilternrailway"},"location":{"address":"Marylebone Station (MYB)","lat":"51.52399149026834","lng":"-0.163421630859375","distance":"54","postalCode":"NW1 6JJ","cc":"GB","city":"London","state":"Greater London","country":"United Kingdom"},"categories":[{"id":"4f4531504b9074f6e4fb0102","name":"Platform","pluralName":"Platforms","shortName":"Platform","icon":{"prefix":"https:\/\/ss1.4sqi.net\/img\/categories_v2\/travel\/trainstation_","suffix":".png"},"primary":"true"}],"verified":"true","restricted":"true","stats":{"checkinsCount":"1664","usersCount":"443","tipCount":"2"},"specials":{"count":"0"},"hereNow":{"count":"0"},"referralId":"v-1392477986"},{"id":"4bbca933a0a0c9b6b9941a0f","name":"Platform 4","contact":{"twitter":"chilternrailway"},"location":{"address":"Marylebone Station (MYB)","lat":"51.52447055032777","lng":"-0.16362532169940958","distance":"60","postalCode":"NW1 6JJ","cc":"GB","city":"London","state":"Greater London","country":"United Kingdom"},"categories":[{"id":"4f4531504b9074f6e4fb0102","name":"Platform","pluralName":"Platforms","shortName":"Platform","icon":{"prefix":"https:\/\/ss1.4sqi.net\/img\/categories_v2\/travel\/trainstation_","suffix":".png"},"primary":"true"}],"verified":"true","restricted":"true","stats":{"checkinsCount":"1677","usersCount":"540","tipCount":"10"},"specials":{"count":"0"},"hereNow":{"count":"0"},"referralId":"v-1392477986"},{"id":"4bf6aa935efe2d7f858b6734","name":"Platform 3","contact":{"twitter":"chilternrailway"},"location":{"address":"Marylebone Station (MYB)","lat":"51.523629","lng":"-0.163168","distance":"77","postalCode":"NW1 6JJ","cc":"GB","city":"London","state":"Greater London","country":"United Kingdom"},"categories":[{"id":"4f4531504b9074f6e4fb0102","name":"Platform","pluralName":"Platforms","shortName":"Platform","icon":{"prefix":"https:\/\/ss1.4sqi.net\/img\/categories_v2\/travel\/trainstation_","suffix":".png"},"primary":"true"}],"verified":"true","restricted":"true","stats":{"checkinsCount":"1593","usersCount":"506","tipCount":"8"},"specials":{"count":"0"},"hereNow":{"count":"0"},"referralId":"v-1392477986"},{"id":"4c1a439a8b3aa5931b4b955f","name":"Platform 6","contact":{"twitter":"chilternrailway"},"location":{"address":"Marylebone Station (MYB)","lat":"51.523831281801655","lng":"-0.16350746154785156","distance":"70","postalCode":"NW1 6JJ","cc":"GB","city":"London","state":"Greater London","country":"United Kingdom"},"categories":[{"id":"4f4531504b9074f6e4fb0102","name":"Platform","pluralName":"Platforms","shortName":"Platform","icon":{"prefix":"https:\/\/ss1.4sqi.net\/img\/categories_v2\/travel\/trainstation_","suffix":".png"},"primary":"true"}],"verified":"true","restricted":"true","stats":{"checkinsCount":"1528","usersCount":"409","tipCount":"12"},"specials":{"count":"0"},"hereNow":{"count":"0"},"referralId":"v-1392477986"},{"id":"4be432dbcf200f476897113c","name":"Platform 2","contact":{"twitter":"chilternrailway"},"location":{"address":"Marylebone Station (MYB)","lat":"51.52340405646815","lng":"-0.16329288482666016","distance":"104","postalCode":"NW1 6JJ","cc":"GB","city":"London","state":"Greater London","country":"United Kingdom"},"categories":[{"id":"4f4531504b9074f6e4fb0102","name":"Platform","pluralName":"Platforms","shortName":"Platform","icon":{"prefix":"https:\/\/ss1.4sqi.net\/img\/categories_v2\/travel\/trainstation_","suffix":".png"},"primary":"true"}],"verified":"true","restricted":"true","stats":{"checkinsCount":"1495","usersCount":"385","tipCount":"6"},"specials":{"count":"0"},"hereNow":{"count":"0"},"referralId":"v-1392477986"},{"id":"4f1e8b786d8661a1ecd63d8e","name":"The Library @ LBS","contact":{"phone":"+442070007620","formattedPhone":"+44 20 7000 7620","twitter":"lbs"},"location":{"address":"London Business School","crossStreet":"25 Taunton Place","lat":"51.52517968547024","lng":"-0.16249895095825195","distance":"101","postalCode":"NW1 6HB","cc":"GB","city":"London","state":"Greater London","country":"United Kingdom"},"categories":[{"id":"4bf58dd8d48988d1a7941735","name":"College Library","pluralName":"College Libraries","shortName":"Library","icon":{"prefix":"https:\/\/ss1.4sqi.net\/img\/categories_v2\/building\/library_","suffix":".png"},"primary":"true"}],"verified":"true","restricted":"true","stats":{"checkinsCount":"539","usersCount":"91","tipCount":"2"},"url":"http:\/\/www.london.edu\/library","specials":{"count":"0"},"hereNow":{"count":"0"},"storeId":"","referralId":"v-1392477986"},{"id":"4d4937baf53c8cfa660b1547","name":"Fitness Centre @ LBS","contact":{"phone":"+442070007900","formattedPhone":"+44 20 7000 7900","twitter":"lbs"},"location":{"address":"London Business School","crossStreet":"25 Taunton Place","lat":"51.52549021935589","lng":"-0.16191634041248637","distance":"147","postalCode":"NW1 6HB","cc":"GB","city":"London","state":"Greater London","country":"United Kingdom"},"categories":[{"id":"4bf58dd8d48988d1b2941735","name":"College Gym","pluralName":"College Gyms","shortName":"Gym","icon":{"prefix":"https:\/\/ss1.4sqi.net\/img\/categories_v2\/building\/gym_","suffix":".png"},"primary":"true"}],"verified":"true","restricted":"true","stats":{"checkinsCount":"938","usersCount":"94","tipCount":"1"},"url":"http:\/\/www.london.edu\/theschool\/ourfacilities\/fitnesscentre.html","specials":{"count":"0"},"hereNow":{"count":"2","groups":[{"type":"others","name":"Other people here","count":"2"}]},"storeId":"","referralId":"v-1392477986"},{"id":"4bc0ba2db492d13a42bea460","name":"AMT Coffee","location":{"address":"Marylebone Station","lat":"51.52287036305508","lng":"-0.16293031151892906","distance":"158","cc":"GB","city":"Marylebone","state":"Greater London","country":"United Kingdom"},"categories":[{"id":"4bf58dd8d48988d1e0931735","name":"Coffee Shop","pluralName":"Coffee Shops","shortName":"Coffee Shop","icon":{"prefix":"https:\/\/ss1.4sqi.net\/img\/categories_v2\/food\/coffeeshop_","suffix":".png"},"primary":"true"}],"verified":"false","restricted":"true","stats":{"checkinsCount":"711","usersCount":"319","tipCount":"13"},"specials":{"count":"0"},"hereNow":{"count":"1","groups":[{"type":"others","name":"Other people here","count":"1"}]},"referralId":"v-1392477986"},{"id":"4eca3e2f6da1d10931c32089","name":"Nuffield Fitness Centre","location":{"lat":"51.523214147668575","lng":"-0.16346357800764935","distance":"128","postalCode":"NW16AA","cc":"GB","country":"United Kingdom"},"categories":[{"id":"4bf58dd8d48988d176941735","name":"Gym","pluralName":"Gyms","shortName":"Gym","icon":{"prefix":"https:\/\/ss1.4sqi.net\/img\/categories_v2\/building\/gym_","suffix":".png"},"primary":"true"}],"verified":"false","restricted":"true","stats":{"checkinsCount":"306","usersCount":"15","tipCount":"0"},"specials":{"count":"0"},"hereNow":{"count":"0"},"referralId":"v-1392477986"},{"id":"5271252c498e1dd4558fc7ca","name":"Park Road , London Business School Bus Stop LM","location":{"lat":"51.525463052908115","lng":"-0.16227760191232657","distance":"135","cc":"GB","country":"United Kingdom"},"categories":[{"id":"4bf58dd8d48988d1fe931735","name":"Bus Station","pluralName":"Bus Stations","shortName":"Bus Station","icon":{"prefix":"https:\/\/ss1.4sqi.net\/img\/categories_v2\/travel\/busstation_","suffix":".png"},"primary":"true"}],"verified":"false","restricted":"true","stats":{"checkinsCount":"59","usersCount":"4","tipCount":"0"},"specials":{"count":"0"},"hereNow":{"count":"0"},"referralId":"v-1392477986"},{"id":"4f1e87726d8661a1ecd5db23","name":"Taunton Centre @ LBS","contact":{"phone":"+442070007620","formattedPhone":"+44 20 7000 7620","twitter":"lbs"},"location":{"address":"London Business School","crossStreet":"25 Taunton Place","lat":"51.525193035801976","lng":"-0.16248822212219238","distance":"102","postalCode":"NW1 6HB","cc":"GB","city":"London","state":"Greater London","country":"United Kingdom"},"categories":[{"id":"4bf58dd8d48988d1ab941735","name":"Student Center","pluralName":"Student Centers","shortName":"Student Center","icon":{"prefix":"https:\/\/ss1.4sqi.net\/img\/categories_v2\/education\/studentcenter_","suffix":".png"},"primary":"true"}],"verified":"true","restricted":"true","stats":{"checkinsCount":"629","usersCount":"108","tipCount":"2"},"specials":{"count":"0"},"hereNow":{"count":"0"},"storeId":"","referralId":"v-1392477986"},{"id":"4e24677418a88345f06a443d","name":"BNP Paribas Bicycle Shed","location":{"lat":"51.523505686131166","lng":"-0.16383700390984376","distance":"112","cc":"GB","city":"Paddington","state":"Greater London","country":"United Kingdom"},"categories":[{"id":"4bf58dd8d48988d1f6931735","name":"General Travel","pluralName":"General Travel","shortName":"Travel","icon":{"prefix":"https:\/\/ss1.4sqi.net\/img\/categories_v2\/travel\/default_","suffix":".png"},"primary":"true"}],"verified":"false","restricted":"true","stats":{"checkinsCount":"347","usersCount":"14","tipCount":"0"},"specials":{"count":"0"},"hereNow":{"count":"0"},"referralId":"v-1392477986"},{"id":"4ded0bdefa766152f0580a8d","name":"Dorset Place Bus Stop T","location":{"address":"2-8 Dorset Square","lat":"51.52299158853648","lng":"-0.16056328892890853","distance":"211","postalCode":"NW1 6","cc":"GB","city":"Paddington","state":"Greater London","country":"United Kingdom"},"categories":[{"id":"4bf58dd8d48988d12b951735","name":"Bus Line","pluralName":"Bus Lines","shortName":"Bus","icon":{"prefix":"https:\/\/ss1.4sqi.net\/img\/categories_v2\/travel\/busstation_","suffix":".png"},"primary":"true"}],"verified":"false","restricted":"true","stats":{"checkinsCount":"799","usersCount":"62","tipCount":"2"},"specials":{"count":"0"},"hereNow":{"count":"0"},"referralId":"v-1392477986"},{"id":"4af739d8f964a520600722e3","name":"Ivor Court","location":{"address":"Gloucester Place","crossStreet":"Regent's Park","lat":"51.525285126484505","lng":"-0.1616087022405213","distance":"138","postalCode":"NW1 6BS","cc":"GB","city":"London","state":"Greater London","country":"United Kingdom"},"categories":[{"id":"4d954b06a243a5684965b473","name":"Residential Building (Apartment \/ Condo)","pluralName":"Residential Buildings (Apartments \/ Condos)","shortName":"Residential","icon":{"prefix":"https:\/\/ss1.4sqi.net\/img\/categories_v2\/building\/apartment_","suffix":".png"},"primary":"true"}],"verified":"false","restricted":"true","stats":{"checkinsCount":"517","usersCount":"66","tipCount":"1"},"specials":{"count":"0"},"hereNow":{"count":"0"},"referralId":"v-1392477986"},{"id":"4b9f932af964a5205b2c37e3","name":"BNP Paribas","contact":{"phone":"+442075952000","formattedPhone":"+44 20 7595 2000"},"location":{"address":"10 Harewood Ave","lat":"51.522842594850125","lng":"-0.164114983483406","distance":"184","postalCode":"NW1 6AA","cc":"GB","city":"London","state":"Greater London","country":"United Kingdom"},"categories":[{"id":"4bf58dd8d48988d124941735","name":"Office","pluralName":"Offices","shortName":"Office","icon":{"prefix":"https:\/\/ss1.4sqi.net\/img\/categories_v2\/building\/default_","suffix":".png"},"primary":"true"}],"verified":"false","restricted":"true","stats":{"checkinsCount":"2347","usersCount":"190","tipCount":"5"},"url":"http:\/\/www.bnpparibas.co.uk\/en\/","specials":{"count":"0"},"hereNow":{"count":"0"},"referralId":"v-1392477986"},{"id":"4b54c0ccf964a52095ca27e3","name":"Wood Marylebone","contact":{"phone":"+442077249899","formattedPhone":"+44 20 7724 9899"},"location":{"address":"21 Balcombe St.","lat":"51.523374035588674","lng":"-0.16189206565126427","distance":"119","postalCode":"NW1 6HE","cc":"GB","city":"London","state":"Greater London","country":"United Kingdom"},"categories":[{"id":"4bf58dd8d48988d11b941735","name":"Pub","pluralName":"Pubs","shortName":"Pub","icon":{"prefix":"https:\/\/ss1.4sqi.net\/img\/categories_v2\/nightlife\/pub_","suffix":".png"},"primary":"true"}],"verified":"false","restricted":"true","stats":{"checkinsCount":"965","usersCount":"330","tipCount":"12"},"url":"http:\/\/www.woodnw1.com","menu":{"type":"Menu","label":"Menu","anchor":"View Menu","url":"https:\/\/foursquare.com\/v\/wood-marylebone\/4b54c0ccf964a52095ca27e3\/menu","mobileUrl":"https:\/\/foursquare.com\/v\/4b54c0ccf964a52095ca27e3\/device_menu"},"specials":{"count":"0"},"hereNow":{"count":"0"},"referralId":"v-1392477986"},{"id":"517d50c0498e0a5501769273","name":"Park Avenue Baker Street","contact":{"phone":"+442077243461","formattedPhone":"+44 20 7724 3461"},"location":{"address":"156 Gloucester Place","lat":"51.524033","lng":"-0.160709","distance":"147","postalCode":"NW1 6DX","cc":"GB","city":"London","state":"Greater London","country":"United Kingdom"},"categories":[{"id":"4bf58dd8d48988d1fa931735","name":"Hotel","pluralName":"Hotels","shortName":"Hotel","icon":{"prefix":"https:\/\/ss1.4sqi.net\/img\/categories_v2\/travel\/hotel_","suffix":".png"},"primary":"true"}],"verified":"false","restricted":"true","stats":{"checkinsCount":"110","usersCount":"75","tipCount":"1"},"specials":{"count":"0"},"hereNow":{"count":"0"},"referralId":"v-1392477986"},{"id":"52f2b4ff11d2e3a81a387eee","name":"Thaly Mahel","location":{"lat":"51.52532","lng":"-0.163276","distance":"119","cc":"GB","country":"United Kingdom"},"categories":[{"id":"4d954b06a243a5684965b473","name":"Residential Building (Apartment \/ Condo)","pluralName":"Residential Buildings (Apartments \/ Condos)","shortName":"Residential","icon":{"prefix":"https:\/\/ss1.4sqi.net\/img\/categories_v2\/building\/apartment_","suffix":".png"},"primary":"true"}],"verified":"false","restricted":"true","stats":{"checkinsCount":"7","usersCount":"3","tipCount":"1"},"specials":{"count":"0"},"hereNow":{"count":"0"},"referralId":"v-1392477986"},{"id":"4cbe9f5b1c6c6dcb005a695e","name":"The Americana Hotel","location":{"address":"172 Gloucester Place","lat":"51.524554","lng":"-0.160807","distance":"141","cc":"GB","city":"Paddington","state":"Greater London","country":"United Kingdom"},"categories":[{"id":"4bf58dd8d48988d1fa931735","name":"Hotel","pluralName":"Hotels","shortName":"Hotel","icon":{"prefix":"https:\/\/ss1.4sqi.net\/img\/categories_v2\/travel\/hotel_","suffix":".png"},"primary":"true"}],"verified":"false","restricted":"true","stats":{"checkinsCount":"285","usersCount":"111","tipCount":"7"},"specials":{"count":"0"},"hereNow":{"count":"0"},"referralId":"v-1392477986"},{"id":"4f1e7f76e5e82f0d0f3a0ecc","name":"Cafe T @ LBS","contact":{"twitter":"lbs"},"location":{"address":"London Business School","crossStreet":"25 Taunton Place","lat":"51.525193035801976","lng":"-0.1625204086303711","distance":"102","postalCode":"NW1 6HB","cc":"GB","city":"London","state":"Greater London","country":"United Kingdom"},"categories":[{"id":"4bf58dd8d48988d1a1941735","name":"College Cafeteria","pluralName":"College Cafeterias","shortName":"Cafeteria","icon":{"prefix":"https:\/\/ss1.4sqi.net\/img\/categories_v2\/education\/cafeteria_","suffix":".png"},"primary":"true"}],"verified":"true","restricted":"true","stats":{"checkinsCount":"181","usersCount":"29","tipCount":"2"},"url":"http:\/\/www.london.edu\/theschool\/ourfacilities\/catering.html","specials":{"count":"0"},"hereNow":{"count":"0"},"storeId":"","referralId":"v-1392477986"},{"id":"528fef4e11d25bf58c67c112","name":"Dorset Square Bus Stop U","location":{"lat":"51.52405871385288","lng":"-0.16132227025815268","distance":"105","cc":"GB","country":"United Kingdom"},"categories":[{"id":"4bf58dd8d48988d1fe931735","name":"Bus Station","pluralName":"Bus Stations","shortName":"Bus Station","icon":{"prefix":"https:\/\/ss1.4sqi.net\/img\/categories_v2\/travel\/busstation_","suffix":".png"},"primary":"true"}],"verified":"false","restricted":"true","stats":{"checkinsCount":"22","usersCount":"4","tipCount":"0"},"specials":{"count":"0"},"hereNow":{"count":"0"},"referralId":"v-1392477986"},{"id":"52cc3264498e472fda91a89a","name":"\u043b\u043e\u043d\u0434\u043e\u043d\u0441\u043a\u043e\u0435 \u0443\u0431\u0435\u0436\u0438\u0449\u0435","location":{"lat":"51.524967","lng":"-0.161593","distance":"112","cc":"GB","country":"United Kingdom"},"categories":[{"id":"4d954b06a243a5684965b473","name":"Residential Building (Apartment \/ Condo)","pluralName":"Residential Buildings (Apartments \/ Condos)","shortName":"Residential","icon":{"prefix":"https:\/\/ss1.4sqi.net\/img\/categories_v2\/building\/apartment_","suffix":".png"},"primary":"true"}],"verified":"false","restricted":"true","stats":{"checkinsCount":"8","usersCount":"3","tipCount":"0"},"specials":{"count":"0"},"hereNow":{"count":"0"},"referralId":"v-1392477986"},{"id":"4ca36080a73cb60cfc2e1878","name":"Ali Baba Restaurant","location":{"lat":"51.524299","lng":"-0.16107","distance":"120","cc":"GB","country":"United Kingdom"},"categories":[{"id":"4bf58dd8d48988d115941735","name":"Middle Eastern Restaurant","pluralName":"Middle Eastern Restaurants","shortName":"Middle Eastern","icon":{"prefix":"https:\/\/ss1.4sqi.net\/img\/categories_v2\/food\/default_","suffix":".png"},"primary":"true"}],"verified":"false","restricted":"true","stats":{"checkinsCount":"76","usersCount":"55","tipCount":"5"},"specials":{"count":"0"},"hereNow":{"count":"0"},"referralId":"v-1392477986"},{"id":"5212952311d2180467bc7ffa","name":"The Gatehouse Health & Leisure Club","location":{"address":"Palgrave Gardens","lat":"51.52553834901805","lng":"-0.16376733562286655","distance":"154","cc":"GB","country":"United Kingdom"},"categories":[{"id":"4bf58dd8d48988d175941735","name":"Gym \/ Fitness Center","pluralName":"Gyms or Fitness Centers","shortName":"Gym \/ Fitness","icon":{"prefix":"https:\/\/ss1.4sqi.net\/img\/categories_v2\/building\/gym_","suffix":".png"},"primary":"true"}],"verified":"false","restricted":"true","stats":{"checkinsCount":"58","usersCount":"8","tipCount":"0"},"specials":{"count":"0"},"hereNow":{"count":"0"},"referralId":"v-1392477986"},{"id":"5141c1f7e4b0ffc7b7e9d9a9","name":"M&S Simply Food","location":{"lat":"51.52283910681505","lng":"-0.16294575875448186","distance":"161","cc":"GB","country":"United Kingdom"},"categories":[{"id":"4bf58dd8d48988d146941735","name":"Deli \/ Bodega","pluralName":"Delis \/ Bodegas","shortName":"Deli \/ Bodega","icon":{"prefix":"https:\/\/ss1.4sqi.net\/img\/categories_v2\/food\/deli_","suffix":".png"},"primary":"true"}],"verified":"false","restricted":"true","stats":{"checkinsCount":"29","usersCount":"21","tipCount":"1"},"specials":{"count":"0"},"hereNow":{"count":"0"},"referralId":"v-1392477986"},{"id":"4c31f24a213c2d7f3a9c345d","name":"Mozambique Embassy","location":{"address":"21 Fitzroy Square","lat":"51.523385536151146","lng":"-0.16292687070767675","distance":"100","postalCode":"W1T 6EL","cc":"GB","city":"London","state":"Greater London","country":"United Kingdom"},"categories":[{"id":"4bf58dd8d48988d12c951735","name":"Embassy \/ Consulate","pluralName":"Embassies \/ Consulates","shortName":"Embassy","icon":{"prefix":"https:\/\/ss1.4sqi.net\/img\/categories_v2\/travel\/embassy_","suffix":".png"},"primary":"true"}],"verified":"false","restricted":"true","stats":{"checkinsCount":"9","usersCount":"6","tipCount":"0"},"specials":{"count":"0"},"hereNow":{"count":"0"},"referralId":"v-1392477986"},{"id":"4dcee69e183899ddfadf1df7","name":"146 Suites","contact":{"phone":"+442074863679","formattedPhone":"+44 20 7486 3679"},"location":{"address":"146 Gloucester Place","lat":"51.5238440304528","lng":"-0.16046884393649094","distance":"169","postalCode":"NW1 6DT","cc":"GB","city":"London","state":"Greater London","country":"United Kingdom"},"categories":[{"id":"4bf58dd8d48988d1fa931735","name":"Hotel","pluralName":"Hotels","shortName":"Hotel","icon":{"prefix":"https:\/\/ss1.4sqi.net\/img\/categories_v2\/travel\/hotel_","suffix":".png"},"primary":"true"}],"verified":"false","restricted":"true","stats":{"checkinsCount":"102","usersCount":"49","tipCount":"2"},"specials":{"count":"0"},"hereNow":{"count":"0"},"referralId":"v-1392477986"},{"id":"525c17eb11d2cf38140caf4f","name":"London Business School Bus Stop LB","location":{"lat":"51.526034","lng":"-0.161793","distance":"206","cc":"GB","country":"United Kingdom"},"categories":[{"id":"4bf58dd8d48988d1fe931735","name":"Bus Station","pluralName":"Bus Stations","shortName":"Bus Station","icon":{"prefix":"https:\/\/ss1.4sqi.net\/img\/categories_v2\/travel\/busstation_","suffix":".png"},"primary":"true"}],"verified":"false","restricted":"true","stats":{"checkinsCount":"70","usersCount":"2","tipCount":"0"},"specials":{"count":"0"},"hereNow":{"count":"0"},"referralId":"v-1392477986"},{"id":"52d1356c498ebde5a73780dc","name":"Elegance Laundrette & Dry Cleaners","location":{"address":"6 Ivor Place","lat":"51.524376","lng":"-0.161175","distance":"113","cc":"GB","city":"London","state":"Greater London","country":"United Kingdom"},"categories":[{"id":"4bf58dd8d48988d1fc941735","name":"Laundry Service","pluralName":"Laundry Services","shortName":"Laundry","icon":{"prefix":"https:\/\/ss1.4sqi.net\/img\/categories_v2\/shops\/laundry_","suffix":".png"},"primary":"true"}],"verified":"false","restricted":"true","stats":{"checkinsCount":"3","usersCount":"2","tipCount":"0"},"specials":{"count":"0"},"hereNow":{"count":"0"},"referralId":"v-1392477986"},{"id":"52740f7f11d240e4db39cc7e","name":"Park Road , London Business School LL","location":{"lat":"51.525550863059216","lng":"-0.16210590794255966","distance":"148","cc":"GB","country":"United Kingdom"},"categories":[{"id":"4bf58dd8d48988d1fe931735","name":"Bus Station","pluralName":"Bus Stations","shortName":"Bus Station","icon":{"prefix":"https:\/\/ss1.4sqi.net\/img\/categories_v2\/travel\/busstation_","suffix":".png"},"primary":"true"}],"verified":"false","restricted":"true","stats":{"checkinsCount":"16","usersCount":"1","tipCount":"0"},"specials":{"count":"0"},"hereNow":{"count":"0"},"referralId":"v-1392477986"}],"confident":"false"}}