{"meta":{"code":"200"},"response":{"venues":[{"id":"4ac518c2f964a52001a420e3","name":"The Salt House","contact":{"twitter":"thesalthousenw8"},"location":{"address":"63 Abbey Rd.","lat":"51.537365","lng":"-0.183804","distance":"225","postalCode":"NW8 0AE","cc":"GB","city":"London","state":"Greater London","country":"United Kingdom"},"categories":[{"id":"4bf58dd8d48988d155941735","name":"Gastropub","pluralName":"Gastropubs","shortName":"Gastropub","icon":{"prefix":"https:\/\/ss1.4sqi.net\/img\/categories_v2\/food\/gastropub_","suffix":".png"},"primary":"true"}],"verified":"false","restricted":"true","stats":{"checkinsCount":"720","usersCount":"394","tipCount":"17"},"url":"http:\/\/www.thesalthouse.co.uk","reservations":{"url":"http:\/\/www.toptable.co.uk\/single.aspx?rid=99189&ref=9601"},"menu":{"type":"Menu","label":"Menu","anchor":"View Menu","url":"https:\/\/foursquare.com\/v\/the-salt-house\/4ac518c2f964a52001a420e3\/menu","mobileUrl":"https:\/\/foursquare.com\/v\/4ac518c2f964a52001a420e3\/device_menu"},"specials":{"count":"0"},"hereNow":{"count":"1","groups":[{"type":"others","name":"Other people here","count":"1"}]},"referralId":"v-1392477945"},{"id":"4bcf3fa3a8b3a5930bd8615f","name":"Atariya Sushi Bar","location":{"address":"79-81 Fairfax Rd.","lat":"51.542307","lng":"-0.17967","distance":"399","postalCode":"NW6 4DY","cc":"GB","city":"London","state":"Greater London","country":"United Kingdom"},"categories":[{"id":"4bf58dd8d48988d1d2941735","name":"Sushi Restaurant","pluralName":"Sushi Restaurants","shortName":"Sushi","icon":{"prefix":"https:\/\/ss1.4sqi.net\/img\/categories_v2\/food\/sushi_","suffix":".png"},"primary":"true"}],"verified":"false","restricted":"true","stats":{"checkinsCount":"510","usersCount":"275","tipCount":"15"},"menu":{"type":"Menu","label":"Menu","anchor":"View Menu","url":"https:\/\/foursquare.com\/v\/atariya-sushi-bar\/4bcf3fa3a8b3a5930bd8615f\/menu","mobileUrl":"https:\/\/foursquare.com\/v\/4bcf3fa3a8b3a5930bd8615f\/device_menu"},"specials":{"count":"0"},"hereNow":{"count":"0"},"referralId":"v-1392477945"},{"id":"4c12519d583c9c74a03b3fa4","name":"Bruno's Deli","contact":{"phone":"+442073288692","formattedPhone":"+44 20 7328 8692"},"location":{"address":"Abbey Road","crossStreet":"Clifton Hill","lat":"51.537056181809845","lng":"-0.18372322971915384","distance":"256","postalCode":"NW8","cc":"GB","city":"St Johns Wood","state":"Greater London","country":"United Kingdom"},"categories":[{"id":"4bf58dd8d48988d146941735","name":"Deli \/ Bodega","pluralName":"Delis \/ Bodegas","shortName":"Deli \/ Bodega","icon":{"prefix":"https:\/\/ss1.4sqi.net\/img\/categories_v2\/food\/deli_","suffix":".png"},"primary":"true"}],"verified":"false","restricted":"true","stats":{"checkinsCount":"97","usersCount":"44","tipCount":"5"},"specials":{"count":"0"},"hereNow":{"count":"1","groups":[{"type":"others","name":"Other people here","count":"1"}]},"referralId":"v-1392477945"},{"id":"4b2d35e0f964a52022d124e3","name":"Singapore Garden","contact":{"phone":"+442073285314","formattedPhone":"+44 20 7328 5314"},"location":{"address":"Fairfax Rd","lat":"51.542198","lng":"-0.179463","distance":"397","postalCode":"NW6 4DY","cc":"GB","city":"London","state":"Greater London","country":"United Kingdom"},"categories":[{"id":"4bf58dd8d48988d156941735","name":"Malaysian Restaurant","pluralName":"Malaysian Restaurants","shortName":"Malaysian","icon":{"prefix":"https:\/\/ss1.4sqi.net\/img\/categories_v2\/food\/default_","suffix":".png"},"primary":"true"}],"verified":"false","restricted":"true","stats":{"checkinsCount":"562","usersCount":"259","tipCount":"16"},"url":"http:\/\/www.singaporegarden.co.uk","menu":{"type":"Menu","label":"Menu","anchor":"View Menu","url":"https:\/\/foursquare.com\/v\/singapore-garden\/4b2d35e0f964a52022d124e3\/menu","mobileUrl":"https:\/\/foursquare.com\/v\/4b2d35e0f964a52022d124e3\/device_menu"},"specials":{"count":"0"},"hereNow":{"count":"0"},"referralId":"v-1392477945"},{"id":"4e0c2ecd1838fa426ac5d7bc","name":"Big Bobbys Anti Vegan Bar & Grill","location":{"lat":"51.53946392832817","lng":"-0.18216234795701172","distance":"48","cc":"GB","city":"Paddington","state":"Greater London","country":"United Kingdom"},"categories":[{"id":"4bf58dd8d48988d1df931735","name":"BBQ Joint","pluralName":"BBQ Joints","shortName":"BBQ","icon":{"prefix":"https:\/\/ss1.4sqi.net\/img\/categories_v2\/food\/bbq_","suffix":".png"},"primary":"true"}],"verified":"false","restricted":"true","stats":{"checkinsCount":"9","usersCount":"6","tipCount":"1"},"specials":{"count":"0"},"hereNow":{"count":"0"},"referralId":"v-1392477945"},{"id":"506202a4e4b06cf1a2552ef9","name":"Boundary Estate","location":{"address":"Boundary Road","lat":"51.53902187696782","lng":"-0.18191814422607422","distance":"68","cc":"GB","city":"London","state":"Greater London","country":"United Kingdom"},"categories":[{"id":"4d954b06a243a5684965b473","name":"Residential Building (Apartment \/ Condo)","pluralName":"Residential Buildings (Apartments \/ Condos)","shortName":"Residential","icon":{"prefix":"https:\/\/ss1.4sqi.net\/img\/categories_v2\/building\/apartment_","suffix":".png"},"primary":"true"}],"verified":"false","restricted":"true","stats":{"checkinsCount":"20","usersCount":"5","tipCount":"0"},"specials":{"count":"0"},"hereNow":{"count":"0"},"referralId":"v-1392477945"},{"id":"4bd1ec80462cb7137131db07","name":"Tesco Express","contact":{"phone":"+448456746379","formattedPhone":"+44 845 674 6379","twitter":"uktescooffers"},"location":{"address":"47-49 Belsize Road","lat":"51.542095","lng":"-0.179548","distance":"385","postalCode":"NW6 4RY","cc":"GB","city":"Hampstead","state":"Greater London","country":"United Kingdom"},"categories":[{"id":"4bf58dd8d48988d118951735","name":"Grocery Store","pluralName":"Grocery Stores","shortName":"Grocery Store","icon":{"prefix":"https:\/\/ss1.4sqi.net\/img\/categories_v2\/shops\/food_grocery_","suffix":".png"},"primary":"true"}],"verified":"true","restricted":"true","stats":{"checkinsCount":"702","usersCount":"126","tipCount":"2"},"url":"http:\/\/www.tesco.com","specials":{"count":"0"},"hereNow":{"count":"0"},"storeId":"5532","referralId":"v-1392477945"},{"id":"4fc14e00e4b0a06f8e8014de","name":"TfL Bus Stop (Y)","location":{"address":"Belsize Road","lat":"51.54069860967109","lng":"-0.18170174941245446","distance":"174","postalCode":"NW6","cc":"GB","city":"London","state":"Greater London","country":"United Kingdom"},"categories":[{"id":"4bf58dd8d48988d12b951735","name":"Bus Line","pluralName":"Bus Lines","shortName":"Bus","icon":{"prefix":"https:\/\/ss1.4sqi.net\/img\/categories_v2\/travel\/busstation_","suffix":".png"},"primary":"true"}],"verified":"false","restricted":"true","stats":{"checkinsCount":"52","usersCount":"8","tipCount":"0"},"specials":{"count":"0"},"hereNow":{"count":"0"},"referralId":"v-1392477945"},{"id":"4e9a9662f5b9d590049b75b0","name":"Apple Studio","location":{"address":"Abbey Rd","lat":"51.537902232513574","lng":"-0.18218693771313027","distance":"160","postalCode":"NW6","cc":"GB","city":"London","state":"Greater London","country":"United Kingdom"},"categories":[{"id":"4bf58dd8d48988d1e9931735","name":"Rock Club","pluralName":"Rock Clubs","shortName":"Rock Club","icon":{"prefix":"https:\/\/ss1.4sqi.net\/img\/categories_v2\/arts_entertainment\/musicvenue_rockclub_","suffix":".png"},"primary":"true"}],"verified":"false","restricted":"true","stats":{"checkinsCount":"9","usersCount":"9","tipCount":"0"},"specials":{"count":"0"},"hereNow":{"count":"0"},"referralId":"v-1392477945"},{"id":"4e2beca5d164223a69870042","name":"Alexandra & Ainsworth Estate","location":{"address":"Abbey Road","crossStreet":"Boundary Road","lat":"51.538765168748434","lng":"-0.18465294206407296","distance":"140","cc":"GB","city":"Camden Town","state":"Greater London","country":"United Kingdom"},"categories":[{"id":"4bf58dd8d48988d130941735","name":"Building","pluralName":"Buildings","shortName":"Building","icon":{"prefix":"https:\/\/ss1.4sqi.net\/img\/categories_v2\/building\/default_","suffix":".png"},"primary":"true"}],"verified":"false","restricted":"true","stats":{"checkinsCount":"76","usersCount":"20","tipCount":"0"},"specials":{"count":"0"},"hereNow":{"count":"0"},"referralId":"v-1392477945"},{"id":"514de74fe4b0ec8b7ac94604","name":"bake with maria","location":{"lat":"51.540729521796244","lng":"-0.17943067676908264","distance":"283","cc":"GB","country":"United Kingdom"},"categories":[{"id":"4bf58dd8d48988d16a941735","name":"Bakery","pluralName":"Bakeries","shortName":"Bakery","icon":{"prefix":"https:\/\/ss1.4sqi.net\/img\/categories_v2\/food\/bakery_","suffix":".png"},"primary":"true"}],"verified":"false","restricted":"true","stats":{"checkinsCount":"10","usersCount":"5","tipCount":"0"},"specials":{"count":"0"},"hereNow":{"count":"0"},"referralId":"v-1392477945"},{"id":"4e2184a018501a60d2feb166","name":"Nona","location":{"address":"9 Fairhazel Gardens","lat":"51.54198465354242","lng":"-0.1810598373413086","distance":"323","postalCode":"NW6 3QE","cc":"GB","city":"London","state":"Greater London","country":"United Kingdom"},"categories":[{"id":"4bf58dd8d48988d16d941735","name":"Caf\u00e9","pluralName":"Caf\u00e9s","shortName":"Caf\u00e9","icon":{"prefix":"https:\/\/ss1.4sqi.net\/img\/categories_v2\/food\/cafe_","suffix":".png"},"primary":"true"}],"verified":"false","restricted":"true","stats":{"checkinsCount":"166","usersCount":"55","tipCount":"5"},"specials":{"count":"0"},"hereNow":{"count":"0"},"referralId":"v-1392477945"},{"id":"4c2109819a67a5937753da87","name":"Ben Uri Gallery","location":{"address":"108 Boundary Rd","lat":"51.538921680951645","lng":"-0.18526095533559736","distance":"175","cc":"GB","city":"NW8 0RH","country":"United Kingdom"},"categories":[{"id":"4bf58dd8d48988d1e2931735","name":"Art Gallery","pluralName":"Art Galleries","shortName":"Art Gallery","icon":{"prefix":"https:\/\/ss1.4sqi.net\/img\/categories_v2\/arts_entertainment\/artgallery_","suffix":".png"},"primary":"true"}],"verified":"false","restricted":"true","stats":{"checkinsCount":"23","usersCount":"13","tipCount":"2"},"specials":{"count":"0"},"hereNow":{"count":"0"},"referralId":"v-1392477945"},{"id":"5141b097e4b0876e28e7eeca","name":"Virginia train","location":{"lat":"51.53905487060547","lng":"-0.18181799352169","distance":"73","cc":"GB","country":"United Kingdom"},"categories":[{"id":"4f2a23984b9023bd5841ed2c","name":"Moving Target","pluralName":"Moving Targets","shortName":"Moving Target","icon":{"prefix":"https:\/\/ss1.4sqi.net\/img\/categories_v2\/travel\/movingtarget_","suffix":".png"},"primary":"true"}],"verified":"false","restricted":"true","stats":{"checkinsCount":"2","usersCount":"2","tipCount":"0"},"specials":{"count":"0"},"hereNow":{"count":"0"},"referralId":"v-1392477945"},{"id":"501e8565e4b0125d2798744b","name":"Abbey Barbers","location":{"lat":"51.537697","lng":"-0.184791","distance":"224","cc":"GB","country":"United Kingdom"},"categories":[{"id":"4bf58dd8d48988d110951735","name":"Salon \/ Barbershop","pluralName":"Salons \/ Barbershops","shortName":"Salon \/ Barbershop","icon":{"prefix":"https:\/\/ss1.4sqi.net\/img\/categories_v2\/shops\/salon_barber_","suffix":".png"},"primary":"true"}],"verified":"false","restricted":"true","stats":{"checkinsCount":"7","usersCount":"6","tipCount":"0"},"specials":{"count":"0"},"hereNow":{"count":"0"},"referralId":"v-1392477945"},{"id":"52f95164498e1beba6864a1c","name":"Loudoun road","location":{"address":"Southhempton","crossStreet":"Loudoun Road","lat":"51.54111918372999","lng":"-0.18131187597455597","distance":"228","cc":"GB","city":"London","state":"Greater London","country":"United Kingdom"},"categories":[{"id":"4bf58dd8d48988d130941735","name":"Building","pluralName":"Buildings","shortName":"Building","icon":{"prefix":"https:\/\/ss1.4sqi.net\/img\/categories_v2\/building\/default_","suffix":".png"},"primary":"true"}],"verified":"false","restricted":"true","stats":{"checkinsCount":"2","usersCount":"1","tipCount":"0"},"specials":{"count":"0"},"hereNow":{"count":"0"},"referralId":"v-1392477945"},{"id":"4c613391832fa5937a6bf1d3","name":"Bhan Thai","contact":{"phone":"+442076241485","formattedPhone":"+44 20 7624 1485"},"location":{"lat":"51.537214","lng":"-0.185154","distance":"282","cc":"GB","country":"United Kingdom"},"categories":[{"id":"4bf58dd8d48988d149941735","name":"Thai Restaurant","pluralName":"Thai Restaurants","shortName":"Thai","icon":{"prefix":"https:\/\/ss1.4sqi.net\/img\/categories_v2\/food\/thai_","suffix":".png"},"primary":"true"}],"verified":"false","restricted":"true","stats":{"checkinsCount":"93","usersCount":"50","tipCount":"0"},"menu":{"type":"Menu","label":"Menu","anchor":"View Menu","url":"https:\/\/foursquare.com\/v\/bhan-thai\/4c613391832fa5937a6bf1d3\/menu","mobileUrl":"https:\/\/foursquare.com\/v\/4c613391832fa5937a6bf1d3\/device_menu"},"specials":{"count":"0"},"hereNow":{"count":"0"},"referralId":"v-1392477945"},{"id":"52b16bb3498e139a21fbbeb4","name":"Beyoutiful Hair & Skincare Clinic","contact":{"phone":"+442036593236","formattedPhone":"+44 20 3659 3236"},"location":{"address":"73 Abbey Road","lat":"51.537606","lng":"-0.184281","distance":"213","postalCode":"NW8 0AE","cc":"GB","city":"London","state":"Greater London","country":"United Kingdom"},"categories":[{"id":"4bf58dd8d48988d1ed941735","name":"Spa","pluralName":"Spas","shortName":"Spa","icon":{"prefix":"https:\/\/ss1.4sqi.net\/img\/categories_v2\/shops\/spa_","suffix":".png"},"primary":"true"}],"verified":"false","restricted":"true","stats":{"checkinsCount":"3","usersCount":"1","tipCount":"1"},"url":"http:\/\/www.beyoutifulhairandskin.com","specials":{"count":"0"},"hereNow":{"count":"0"},"referralId":"v-1392477945"},{"id":"4c816d2f2f1c236a80cf2f43","name":"Kamil's","location":{"address":"1 Abbey Rd","lat":"51.537744998931885","lng":"-0.1849651336669922","distance":"227","postalCode":"NW8 0","cc":"GB","city":"Camden Town","state":"Greater London","country":"United Kingdom"},"categories":[{"id":"4bf58dd8d48988d115941735","name":"Middle Eastern Restaurant","pluralName":"Middle Eastern Restaurants","shortName":"Middle Eastern","icon":{"prefix":"https:\/\/ss1.4sqi.net\/img\/categories_v2\/food\/default_","suffix":".png"},"primary":"true"}],"verified":"false","restricted":"true","stats":{"checkinsCount":"9","usersCount":"7","tipCount":"0"},"specials":{"count":"0"},"hereNow":{"count":"0"},"referralId":"v-1392477945"},{"id":"4dc7d08a814d1bfbca3e1e19","name":"Jennie Makeup Studios","contact":{"phone":"+447786437332","formattedPhone":"+44 7786 437332","twitter":"jenniemakeup"},"location":{"address":"BOUNDARY ROAD","lat":"51.538949","lng":"-0.181516","distance":"96","postalCode":"NW8 0JD","cc":"GB","city":"London","state":"Greater London","country":"United Kingdom"},"categories":[{"id":"4bf58dd8d48988d110951735","name":"Salon \/ Barbershop","pluralName":"Salons \/ Barbershops","shortName":"Salon \/ Barbershop","icon":{"prefix":"https:\/\/ss1.4sqi.net\/img\/categories_v2\/shops\/salon_barber_","suffix":".png"},"primary":"true"}],"verified":"false","restricted":"true","stats":{"checkinsCount":"2","usersCount":"2","tipCount":"1"},"specials":{"count":"0"},"hereNow":{"count":"0"},"referralId":"v-1392477945"},{"id":"4df4f0f5d1649c8a28e807f2","name":"Joo's Home","location":{"lat":"51.538608","lng":"-0.183933","distance":"108","cc":"GB","city":"Camden Town","state":"Greater London","country":"United Kingdom"},"categories":[{"id":"4d954b06a243a5684965b473","name":"Residential Building (Apartment \/ Condo)","pluralName":"Residential Buildings (Apartments \/ Condos)","shortName":"Residential","icon":{"prefix":"https:\/\/ss1.4sqi.net\/img\/categories_v2\/building\/apartment_","suffix":".png"},"primary":"true"}],"verified":"false","restricted":"true","stats":{"checkinsCount":"1","usersCount":"1","tipCount":"0"},"specials":{"count":"0"},"hereNow":{"count":"0"},"referralId":"v-1392477945"},{"id":"4c20692fd38ec9b664194e83","name":"Abbey Medical Centre","location":{"address":"89 Abbey Road","lat":"51.53841436605753","lng":"-0.18505721092296457","distance":"183","postalCode":"NW8","cc":"GB","city":"Paddington","state":"Greater London","country":"United Kingdom"},"categories":[{"id":"4bf58dd8d48988d104941735","name":"Medical Center","pluralName":"Medical Centers","shortName":"Medical","icon":{"prefix":"https:\/\/ss1.4sqi.net\/img\/categories_v2\/building\/medical_","suffix":".png"},"primary":"true"}],"verified":"false","restricted":"true","stats":{"checkinsCount":"47","usersCount":"15","tipCount":"2"},"specials":{"count":"0"},"hereNow":{"count":"0"},"referralId":"v-1392477945"},{"id":"4b59ee8df964a520dfa128e3","name":"Cafe Med","location":{"address":"Loudoun Road","lat":"51.537434","lng":"-0.178924","distance":"338","postalCode":"NW8 0NB","cc":"GB","city":"London","state":"Greater London","country":"United Kingdom"},"categories":[{"id":"4bf58dd8d48988d16d941735","name":"Caf\u00e9","pluralName":"Caf\u00e9s","shortName":"Caf\u00e9","icon":{"prefix":"https:\/\/ss1.4sqi.net\/img\/categories_v2\/food\/cafe_","suffix":".png"},"primary":"true"}],"verified":"false","restricted":"true","stats":{"checkinsCount":"96","usersCount":"87","tipCount":"1"},"specials":{"count":"0"},"hereNow":{"count":"0"},"referralId":"v-1392477945"},{"id":"4c15e35e77cea593ebdbd260","name":"Peking Inn","location":{"address":"1-35 Belgrave Gardens","crossStreet":"Abbey road","lat":"51.53697390617402","lng":"-0.18413176162461092","distance":"273","postalCode":"NW8 0","cc":"GB","city":"Paddington","state":"Greater London","country":"United Kingdom"},"categories":[{"id":"4bf58dd8d48988d145941735","name":"Chinese Restaurant","pluralName":"Chinese Restaurants","shortName":"Chinese","icon":{"prefix":"https:\/\/ss1.4sqi.net\/img\/categories_v2\/food\/chinese_","suffix":".png"},"primary":"true"}],"verified":"false","restricted":"true","stats":{"checkinsCount":"25","usersCount":"11","tipCount":"1"},"specials":{"count":"0"},"hereNow":{"count":"0"},"referralId":"v-1392477945"},{"id":"4c967992f244b1f735cb341d","name":"Casterbridge","location":{"lat":"51.53998325105132","lng":"-0.18694682496099366","distance":"297","cc":"GB","city":"Camden Town","state":"Greater London","country":"United Kingdom"},"verified":"false","restricted":"true","stats":{"checkinsCount":"39","usersCount":"15","tipCount":"0"},"specials":{"count":"0"},"hereNow":{"count":"0"},"referralId":"v-1392477945"},{"id":"4b4ba562f964a520c4a226e3","name":"The Arches","location":{"address":"7 fairhazel gardens","lat":"51.542017","lng":"-0.180693","distance":"336","postalCode":"NW6 3qe","cc":"GB","city":"Camden Town","state":"Greater London","country":"United Kingdom"},"categories":[{"id":"4bf58dd8d48988d16d941735","name":"Caf\u00e9","pluralName":"Caf\u00e9s","shortName":"Caf\u00e9","icon":{"prefix":"https:\/\/ss1.4sqi.net\/img\/categories_v2\/food\/cafe_","suffix":".png"},"primary":"true"}],"verified":"false","restricted":"true","stats":{"checkinsCount":"381","usersCount":"143","tipCount":"12"},"specials":{"count":"0"},"hereNow":{"count":"0"},"referralId":"v-1392477945"},{"id":"52318300498eb06663fd7a4f","name":"Chocolar","location":{"lat":"51.537733","lng":"-0.184883","distance":"225","cc":"GB","country":"United Kingdom"},"categories":[{"id":"4bf58dd8d48988d16d941735","name":"Caf\u00e9","pluralName":"Caf\u00e9s","shortName":"Caf\u00e9","icon":{"prefix":"https:\/\/ss1.4sqi.net\/img\/categories_v2\/food\/cafe_","suffix":".png"},"primary":"true"}],"verified":"false","restricted":"true","stats":{"checkinsCount":"5","usersCount":"3","tipCount":"1"},"specials":{"count":"0"},"hereNow":{"count":"0"},"referralId":"v-1392477945"},{"id":"4c0242f2187ec92826fbb37b","name":"Poem Bar & Grill","contact":{"phone":"+442073723897","formattedPhone":"+44 20 7372 3897"},"location":{"address":"94 Boundary Road","crossStreet":"Abbey Road","lat":"51.53792746927142","lng":"-0.1842784881591797","distance":"182","postalCode":"NW8 0RH","cc":"GB","city":"London","state":"Greater London","country":"United Kingdom"},"categories":[{"id":"4bf58dd8d48988d16d941735","name":"Caf\u00e9","pluralName":"Caf\u00e9s","shortName":"Caf\u00e9","icon":{"prefix":"https:\/\/ss1.4sqi.net\/img\/categories_v2\/food\/cafe_","suffix":".png"},"primary":"true"}],"verified":"false","restricted":"true","stats":{"checkinsCount":"102","usersCount":"66","tipCount":"7"},"menu":{"type":"Menu","label":"Menu","anchor":"View Menu","url":"https:\/\/foursquare.com\/v\/poem-bar--grill\/4c0242f2187ec92826fbb37b\/menu","mobileUrl":"https:\/\/foursquare.com\/v\/4c0242f2187ec92826fbb37b\/device_menu"},"specials":{"count":"0"},"hereNow":{"count":"0"},"referralId":"v-1392477945"},{"id":"4ffa87f3e4b08a4c73fc7f0f","name":"Ainsworth way","location":{"lat":"51.53866958618164","lng":"-0.18495948612689972","distance":"164","cc":"GB","country":"United Kingdom"},"categories":[{"id":"4f2a210c4b9023bd5841ed28","name":"Housing Development","pluralName":"Housing Developments","shortName":"Housing Development","icon":{"prefix":"https:\/\/ss1.4sqi.net\/img\/categories_v2\/building\/housingdevelopment_","suffix":".png"},"primary":"true"}],"verified":"false","restricted":"true","stats":{"checkinsCount":"0","usersCount":"0","tipCount":"0"},"specials":{"count":"0"},"hereNow":{"count":"0"},"referralId":"v-1392477945"},{"id":"4ca4c2ba5e3076b0da14010d","name":"LockAway Self Storage","contact":{"phone":"+442073720100","formattedPhone":"+44 20 7372 0100"},"location":{"address":"Rowley Way, 48a Boundary Road","lat":"51.53993475301247","lng":"-0.18030881881713867","distance":"187","postalCode":"NW8 0HJ","cc":"GB","city":"London","state":"Greater London","country":"United Kingdom"},"categories":[{"id":"4bf58dd8d48988d130941735","name":"Building","pluralName":"Buildings","shortName":"Building","icon":{"prefix":"https:\/\/ss1.4sqi.net\/img\/categories_v2\/building\/default_","suffix":".png"},"primary":"true"}],"verified":"false","restricted":"true","stats":{"checkinsCount":"21","usersCount":"5","tipCount":"0"},"specials":{"count":"0"},"hereNow":{"count":"0"},"referralId":"v-1392477945"}],"confident":"false"}}