{"meta":{"code":"200"},"response":{"venues":[{"id":"4c336afaed37a593f74f6d03","name":"Broadgate Circle","location":{"address":"Broadgate Circle","lat":"51.51882448318336","lng":"-0.0835561752319336","distance":"73","postalCode":"EC2M 2QS","cc":"GB","city":"London","state":"Greater London","country":"United Kingdom"},"categories":[{"id":"4bf58dd8d48988d164941735","name":"Plaza","pluralName":"Plazas","shortName":"Plaza","icon":{"prefix":"https:\/\/ss1.4sqi.net\/img\/categories_v2\/parks_outdoors\/plaza_","suffix":".png"},"primary":"true"}],"verified":"false","restricted":"true","stats":{"checkinsCount":"1976","usersCount":"682","tipCount":"8"},"url":"http:\/\/www.corney-barrow.co.uk\/bars\/locations\/broadgate-circle\/","menu":{"type":"Menu","label":"Menu","anchor":"View Menu","url":"https:\/\/foursquare.com\/v\/broadgate-circle\/4c336afaed37a593f74f6d03\/menu","mobileUrl":"https:\/\/foursquare.com\/v\/4c336afaed37a593f74f6d03\/device_menu"},"specials":{"count":"0"},"hereNow":{"count":"0"},"referralId":"v-1392478007"},{"id":"4ac518f6f964a5203eaf20e3","name":"Virgin Active Health Club","contact":{"phone":"+442074226400","formattedPhone":"+44 20 7422 6400"},"location":{"address":"1 Exchange Place","lat":"51.520038137979995","lng":"-0.0816067150660795","distance":"117","postalCode":"EC2M 2QT","cc":"GB","city":"London","state":"Greater London","country":"United Kingdom"},"categories":[{"id":"4bf58dd8d48988d176941735","name":"Gym","pluralName":"Gyms","shortName":"Gym","icon":{"prefix":"https:\/\/ss1.4sqi.net\/img\/categories_v2\/building\/gym_","suffix":".png"},"primary":"true"}],"verified":"false","restricted":"true","stats":{"checkinsCount":"1860","usersCount":"200","tipCount":"8"},"url":"http:\/\/www.virginactive.co.uk","specials":{"count":"0"},"hereNow":{"count":"0"},"referralId":"v-1392478007"},{"id":"50befd9ae4b0c7d964468c45","name":"UBS Wealth Management","location":{"address":"3 Finsbury Avenue","lat":"51.51962560817555","lng":"-0.08401205598378197","distance":"91","postalCode":"EC2M 2AN","cc":"GB","city":"London","state":"Greater London","country":"United Kingdom"},"categories":[{"id":"4bf58dd8d48988d124941735","name":"Office","pluralName":"Offices","shortName":"Office","icon":{"prefix":"https:\/\/ss1.4sqi.net\/img\/categories_v2\/building\/default_","suffix":".png"},"primary":"true"}],"verified":"false","restricted":"true","stats":{"checkinsCount":"604","usersCount":"24","tipCount":"0"},"specials":{"count":"0"},"hereNow":{"count":"0"},"referralId":"v-1392478007"},{"id":"4d46a20b0349224b8f860f4f","name":"Deutsche Asset Management","location":{"address":"Appold street","lat":"51.51981217060083","lng":"-0.08217396147720239","distance":"72","cc":"GB","city":"Hackney","state":"Greater London","country":"United Kingdom"},"categories":[{"id":"4bf58dd8d48988d124941735","name":"Office","pluralName":"Offices","shortName":"Office","icon":{"prefix":"https:\/\/ss1.4sqi.net\/img\/categories_v2\/building\/default_","suffix":".png"},"primary":"true"}],"verified":"false","restricted":"true","stats":{"checkinsCount":"406","usersCount":"52","tipCount":"1"},"specials":{"count":"0"},"hereNow":{"count":"0"},"referralId":"v-1392478007"},{"id":"4ca09e5bd3c2b60cb979debc","name":"All Bar One","location":{"address":"18-20 Appold St","lat":"51.51974952438443","lng":"-0.08292029525719681","distance":"51","postalCode":"EC2A 2AS","cc":"GB","city":"London","state":"Greater London","country":"United Kingdom"},"categories":[{"id":"4bf58dd8d48988d116941735","name":"Bar","pluralName":"Bars","shortName":"Bar","icon":{"prefix":"https:\/\/ss1.4sqi.net\/img\/categories_v2\/nightlife\/bar_","suffix":".png"},"primary":"true"}],"verified":"false","restricted":"true","stats":{"checkinsCount":"291","usersCount":"159","tipCount":"3"},"specials":{"count":"0"},"hereNow":{"count":"0"},"referralId":"v-1392478007"},{"id":"4c98ed89b6ee236ab966aca7","name":"Platform 4","location":{"address":"Liverpool Street Station (LST)","lat":"51.51865749330747","lng":"-0.08140775064036229","distance":"119","postalCode":"EC2M 7PY","cc":"GB","city":"London","state":"Greater London","country":"United Kingdom"},"categories":[{"id":"4f4531504b9074f6e4fb0102","name":"Platform","pluralName":"Platforms","shortName":"Platform","icon":{"prefix":"https:\/\/ss1.4sqi.net\/img\/categories_v2\/travel\/trainstation_","suffix":".png"},"primary":"true"}],"verified":"false","restricted":"true","stats":{"checkinsCount":"1578","usersCount":"453","tipCount":"1"},"specials":{"count":"0"},"hereNow":{"count":"0"},"referralId":"v-1392478007"},{"id":"4cd99a031647a093d3dee74c","name":"Platform 7","location":{"address":"Liverpool Street Station (LST)","lat":"51.5186520605385","lng":"-0.08100555714258889","distance":"143","postalCode":"EC2M 7PY","cc":"GB","city":"London","state":"Greater London","country":"United Kingdom"},"categories":[{"id":"4f4531504b9074f6e4fb0102","name":"Platform","pluralName":"Platforms","shortName":"Platform","icon":{"prefix":"https:\/\/ss1.4sqi.net\/img\/categories_v2\/travel\/trainstation_","suffix":".png"},"primary":"true"}],"verified":"false","restricted":"true","stats":{"checkinsCount":"532","usersCount":"226","tipCount":"0"},"specials":{"count":"0"},"hereNow":{"count":"0"},"referralId":"v-1392478007"},{"id":"4c500764371520a116459dc0","name":"Exchange Square","location":{"address":"Moorgate","lat":"51.51979918312931","lng":"-0.08115291595458984","distance":"127","postalCode":"EC2M 2QA","cc":"GB","city":"London","state":"Greater London","country":"United Kingdom"},"categories":[{"id":"4bf58dd8d48988d166941735","name":"Sculpture Garden","pluralName":"Sculpture Gardens","shortName":"Sculpture","icon":{"prefix":"https:\/\/ss1.4sqi.net\/img\/categories_v2\/parks_outdoors\/sculpture_","suffix":".png"},"primary":"true"}],"verified":"false","restricted":"true","stats":{"checkinsCount":"1785","usersCount":"557","tipCount":"3"},"specials":{"count":"0"},"hereNow":{"count":"0"},"referralId":"v-1392478007"},{"id":"4b58a4a8f964a5203e6328e3","name":"Gaucho Broadgate","contact":{"phone":"+442072566877","formattedPhone":"+44 20 7256 6877"},"location":{"address":"5 Finsbury Avenue","lat":"51.51941197605914","lng":"-0.08413553237915039","distance":"93","postalCode":"EC2M 2PG","cc":"GB","city":"London","state":"Greater London","country":"United Kingdom"},"categories":[{"id":"4bf58dd8d48988d107941735","name":"Argentinian Restaurant","pluralName":"Argentinian Restaurants","shortName":"Argentinian","icon":{"prefix":"https:\/\/ss1.4sqi.net\/img\/categories_v2\/food\/argentinian_","suffix":".png"},"primary":"true"}],"verified":"false","restricted":"true","stats":{"checkinsCount":"546","usersCount":"463","tipCount":"7"},"url":"http:\/\/www.gauchorestaurants.co.uk\/restaurants\/restaurant.php?id=broadgate","reservations":{"url":"http:\/\/www.toptable.co.uk\/single.aspx?rid=17680&ref=9601"},"menu":{"type":"Menu","label":"Menu","anchor":"View Menu","url":"https:\/\/foursquare.com\/v\/gaucho-broadgate\/4b58a4a8f964a5203e6328e3\/menu","mobileUrl":"https:\/\/foursquare.com\/v\/4b58a4a8f964a5203e6328e3\/device_menu"},"specials":{"count":"0"},"hereNow":{"count":"0"},"referralId":"v-1392478007"},{"id":"4b9bd148f964a520da2836e3","name":"Boots","contact":{"phone":"+442073740092","formattedPhone":"+44 20 7374 0092"},"location":{"address":"11 Octagon Arcade","crossStreet":"Liverpool Street Station","lat":"51.51810751607777","lng":"-0.08229522371278211","distance":"136","postalCode":"EC2M 2AB","cc":"GB","city":"London","state":"Greater London","country":"United Kingdom"},"categories":[{"id":"4bf58dd8d48988d10f951735","name":"Drugstore \/ Pharmacy","pluralName":"Drugstores \/ Pharmacies","shortName":"Pharmacy","icon":{"prefix":"https:\/\/ss1.4sqi.net\/img\/categories_v2\/shops\/pharmacy_","suffix":".png"},"primary":"true"}],"verified":"false","restricted":"true","stats":{"checkinsCount":"1649","usersCount":"606","tipCount":"6"},"url":"http:\/\/www.boots.com","specials":{"count":"0"},"hereNow":{"count":"0"},"referralId":"v-1392478007"},{"id":"4f5b3578e4b03a6a1133b76d","name":"The Merchant of Bishopsgate","contact":{"phone":"+442076286255","formattedPhone":"+44 20 7628 6255"},"location":{"address":"Lower Concourse, Liverpool St. Station","lat":"51.51791761384706","lng":"-0.08247879308015253","distance":"154","postalCode":"EC2M 7PY","cc":"GB","city":"London","state":"Greater London","country":"United Kingdom"},"categories":[{"id":"4bf58dd8d48988d11b941735","name":"Pub","pluralName":"Pubs","shortName":"Pub","icon":{"prefix":"https:\/\/ss1.4sqi.net\/img\/categories_v2\/nightlife\/pub_","suffix":".png"},"primary":"true"}],"verified":"false","restricted":"true","stats":{"checkinsCount":"914","usersCount":"555","tipCount":"32"},"url":"http:\/\/www.iamthemerchant.com","reservations":{"url":"http:\/\/www.toptable.co.uk\/single.aspx?rid=86767&ref=9601"},"menu":{"type":"Menu","label":"Menu","anchor":"View Menu","url":"https:\/\/foursquare.com\/v\/the-merchant-of-bishopsgate\/4f5b3578e4b03a6a1133b76d\/menu","mobileUrl":"https:\/\/foursquare.com\/v\/4f5b3578e4b03a6a1133b76d\/device_menu"},"specials":{"count":"0"},"hereNow":{"count":"1","groups":[{"type":"others","name":"Other people here","count":"1"}]},"referralId":"v-1392478007"},{"id":"4c6ac5008d22c92824a3ba45","name":"Skin Health Spa","contact":{"phone":"+442076556920","formattedPhone":"+44 20 7655 6920"},"location":{"address":"12 Brushfield St.","lat":"51.518514869781406","lng":"-0.08150864647919603","distance":"124","postalCode":"E1 6AN","cc":"GB","city":"London","state":"Greater London","country":"United Kingdom"},"categories":[{"id":"4bf58dd8d48988d1ed941735","name":"Spa","pluralName":"Spas","shortName":"Spa","icon":{"prefix":"https:\/\/ss1.4sqi.net\/img\/categories_v2\/shops\/spa_","suffix":".png"},"primary":"true"}],"verified":"false","restricted":"true","stats":{"checkinsCount":"16","usersCount":"12","tipCount":"0"},"specials":{"count":"0"},"hereNow":{"count":"1","groups":[{"type":"others","name":"Other people here","count":"1"}]},"referralId":"v-1392478007"},{"id":"4c96770ff244b1f7c5b3341d","name":"Platform 3","location":{"address":"Liverpool Street Station (LST)","lat":"51.518575209569654","lng":"-0.08144877046456679","distance":"122","postalCode":"EC2M 7PY","cc":"GB","city":"London","state":"Greater London","country":"United Kingdom"},"categories":[{"id":"4f4531504b9074f6e4fb0102","name":"Platform","pluralName":"Platforms","shortName":"Platform","icon":{"prefix":"https:\/\/ss1.4sqi.net\/img\/categories_v2\/travel\/trainstation_","suffix":".png"},"primary":"true"}],"verified":"false","restricted":"true","stats":{"checkinsCount":"953","usersCount":"302","tipCount":"4"},"specials":{"count":"0"},"hereNow":{"count":"0"},"referralId":"v-1392478007"},{"id":"515b25f0e4b05e07eef3e0a9","name":"Fitness First Broadgate","location":{"lat":"51.51865644512213","lng":"-0.08349626782522257","distance":"85","cc":"GB","country":"United Kingdom"},"categories":[{"id":"4bf58dd8d48988d1b2941735","name":"College Gym","pluralName":"College Gyms","shortName":"Gym","icon":{"prefix":"https:\/\/ss1.4sqi.net\/img\/categories_v2\/building\/gym_","suffix":".png"},"primary":"true"}],"verified":"false","restricted":"true","stats":{"checkinsCount":"44","usersCount":"8","tipCount":"0"},"specials":{"count":"0"},"hereNow":{"count":"0"},"referralId":"v-1392478007"},{"id":"4ca4b822554b236a30853148","name":"Platform 12","location":{"address":"Liverpool Street Station (LST)","lat":"51.51844183396285","lng":"-0.08144255305016454","distance":"133","postalCode":"EC2M 7PY","cc":"GB","city":"London","state":"Greater London","country":"United Kingdom"},"categories":[{"id":"4f4531504b9074f6e4fb0102","name":"Platform","pluralName":"Platforms","shortName":"Platform","icon":{"prefix":"https:\/\/ss1.4sqi.net\/img\/categories_v2\/travel\/trainstation_","suffix":".png"},"primary":"true"}],"verified":"false","restricted":"true","stats":{"checkinsCount":"916","usersCount":"199","tipCount":"1"},"specials":{"count":"0"},"hereNow":{"count":"0"},"referralId":"v-1392478007"},{"id":"4bab9ae4f964a52058b83ae3","name":"Starbucks","contact":{"twitter":"starbucksuk"},"location":{"address":"31 - 33 Sun Street, Broadgate","crossStreet":"Near Appold St.","lat":"51.51989284396197","lng":"-0.08387343429736724","distance":"100","postalCode":"EC2M 2PY","cc":"GB","city":"London","state":"Greater London","country":"United Kingdom"},"categories":[{"id":"4bf58dd8d48988d1e0931735","name":"Coffee Shop","pluralName":"Coffee Shops","shortName":"Coffee Shop","icon":{"prefix":"https:\/\/ss1.4sqi.net\/img\/categories_v2\/food\/coffeeshop_","suffix":".png"},"primary":"true"}],"verified":"true","restricted":"true","stats":{"checkinsCount":"600","usersCount":"269","tipCount":"6"},"url":"http:\/\/starbucks.co.uk","specials":{"count":"0"},"hereNow":{"count":"0"},"storeId":"12215","referralId":"v-1392478007"},{"id":"4d231ee1d7b0b1f7b9e02a9f","name":"EAT.","contact":{"phone":"+442076368327","formattedPhone":"+44 20 7636 8327","twitter":"eat_news"},"location":{"address":"34 Broadgate Circle","lat":"51.51898929641811","lng":"-0.08349685142654213","distance":"58","postalCode":"EC2M 2QS","cc":"GB","city":"London","state":"Greater London","country":"United Kingdom"},"categories":[{"id":"4bf58dd8d48988d1c5941735","name":"Sandwich Place","pluralName":"Sandwich Places","shortName":"Sandwiches","icon":{"prefix":"https:\/\/ss1.4sqi.net\/img\/categories_v2\/food\/sandwiches_","suffix":".png"},"primary":"true"}],"verified":"true","restricted":"true","stats":{"checkinsCount":"74","usersCount":"31","tipCount":"2"},"url":"http:\/\/www.eat.co.uk","specials":{"count":"0"},"hereNow":{"count":"0"},"storeId":"EAT - Broadgate Kiosk","referralId":"v-1392478007"},{"id":"4d33062ac75a6ea8426913ae","name":"Platform 8","location":{"address":"Liverpool Street Station (LST)","lat":"51.518490677036795","lng":"-0.0819253921508789","distance":"107","postalCode":"EC2M 7PY","cc":"GB","city":"London","state":"Greater London","country":"United Kingdom"},"categories":[{"id":"4f4531504b9074f6e4fb0102","name":"Platform","pluralName":"Platforms","shortName":"Platform","icon":{"prefix":"https:\/\/ss1.4sqi.net\/img\/categories_v2\/travel\/trainstation_","suffix":".png"},"primary":"true"}],"verified":"false","restricted":"true","stats":{"checkinsCount":"703","usersCount":"201","tipCount":"2"},"specials":{"count":"0"},"hereNow":{"count":"0"},"referralId":"v-1392478007"},{"id":"4c76a36466be6dcb03b8c30f","name":"Platform 9","location":{"address":"Liverpool Street Station (LST)","lat":"51.51887845755113","lng":"-0.08120735483795882","distance":"119","postalCode":"EC2M 7PY","cc":"GB","city":"London","state":"Greater London","country":"United Kingdom"},"categories":[{"id":"4f4531504b9074f6e4fb0102","name":"Platform","pluralName":"Platforms","shortName":"Platform","icon":{"prefix":"https:\/\/ss1.4sqi.net\/img\/categories_v2\/travel\/trainstation_","suffix":".png"},"primary":"true"}],"verified":"false","restricted":"true","stats":{"checkinsCount":"1442","usersCount":"462","tipCount":"3"},"specials":{"count":"0"},"hereNow":{"count":"0"},"referralId":"v-1392478007"},{"id":"4be05de0adacb713df2d38d4","name":"UBS","location":{"address":"1 Finsbury Avenue","lat":"51.5193068245258","lng":"-0.08508712681076844","distance":"158","postalCode":"EC2M 2PP","cc":"GB","city":"London","state":"Greater London","country":"United Kingdom"},"categories":[{"id":"4bf58dd8d48988d124941735","name":"Office","pluralName":"Offices","shortName":"Office","icon":{"prefix":"https:\/\/ss1.4sqi.net\/img\/categories_v2\/building\/default_","suffix":".png"},"primary":"true"}],"verified":"false","restricted":"true","stats":{"checkinsCount":"1321","usersCount":"217","tipCount":"0"},"specials":{"count":"0"},"hereNow":{"count":"0"},"referralId":"v-1392478007"},{"id":"4ac518f8f964a520e5af20e3","name":"Broadgate Ice Rink","location":{"address":"12 Exchange Square","lat":"51.518776","lng":"-0.083524","distance":"75","postalCode":"EC2M 2QS","cc":"GB","city":"London","state":"Greater London","country":"United Kingdom"},"categories":[{"id":"4bf58dd8d48988d168941735","name":"Skating Rink","pluralName":"Skating Rinks","shortName":"Skating Rink","icon":{"prefix":"https:\/\/ss1.4sqi.net\/img\/categories_v2\/parks_outdoors\/skatingrink_","suffix":".png"},"primary":"true"}],"verified":"false","restricted":"true","stats":{"checkinsCount":"222","usersCount":"137","tipCount":"4"},"specials":{"count":"0"},"hereNow":{"count":"0"},"referralId":"v-1392478007"},{"id":"4ac518d8f964a52090a820e3","name":"Moshi Moshi","contact":{"phone":"+442072473227","formattedPhone":"+44 20 7247 3227"},"location":{"address":"Liverpool Street Railway Station (LST)","crossStreet":"above platform 1, behind M&S","lat":"51.51830374452608","lng":"-0.08132457733154297","distance":"150","postalCode":"EC2M 7QH","cc":"GB","city":"London","state":"Greater London","country":"United Kingdom"},"categories":[{"id":"4bf58dd8d48988d1d2941735","name":"Sushi Restaurant","pluralName":"Sushi Restaurants","shortName":"Sushi","icon":{"prefix":"https:\/\/ss1.4sqi.net\/img\/categories_v2\/food\/sushi_","suffix":".png"},"primary":"true"}],"verified":"false","restricted":"true","stats":{"checkinsCount":"482","usersCount":"309","tipCount":"15"},"menu":{"type":"Menu","label":"Menu","anchor":"View Menu","url":"https:\/\/foursquare.com\/v\/moshi-moshi\/4ac518d8f964a52090a820e3\/menu","mobileUrl":"https:\/\/foursquare.com\/v\/4ac518d8f964a52090a820e3\/device_menu"},"specials":{"count":"0"},"hereNow":{"count":"0"},"referralId":"v-1392478007"},{"id":"5285ee6111d2d29197d46592","name":"UBS Group Internal Audit","location":{"address":"2 Finsbury Avenue","lat":"51.51962050758508","lng":"-0.08457268689593565","distance":"128","cc":"GB","country":"United Kingdom"},"categories":[{"id":"4bf58dd8d48988d124941735","name":"Office","pluralName":"Offices","shortName":"Office","icon":{"prefix":"https:\/\/ss1.4sqi.net\/img\/categories_v2\/building\/default_","suffix":".png"},"primary":"true"}],"verified":"false","restricted":"true","stats":{"checkinsCount":"41","usersCount":"1","tipCount":"0"},"specials":{"count":"0"},"hereNow":{"count":"0"},"referralId":"v-1392478007"},{"id":"4ccaf2de54f0b1f726220cca","name":"Platform 6","location":{"address":"Liverpool Street Station (LST)","lat":"51.51869848982376","lng":"-0.08140241692150935","distance":"117","postalCode":"EC2M 7PY","cc":"GB","city":"London","state":"Greater London","country":"United Kingdom"},"categories":[{"id":"4f4531504b9074f6e4fb0102","name":"Platform","pluralName":"Platforms","shortName":"Platform","icon":{"prefix":"https:\/\/ss1.4sqi.net\/img\/categories_v2\/travel\/trainstation_","suffix":".png"},"primary":"true"}],"verified":"false","restricted":"true","stats":{"checkinsCount":"529","usersCount":"205","tipCount":"0"},"specials":{"count":"0"},"hereNow":{"count":"0"},"referralId":"v-1392478007"},{"id":"52933ce811d26e8f9e581cf2","name":"Vital Ingredient","location":{"address":"37 Sun Street","lat":"51.51994","lng":"-0.083455","distance":"85","cc":"GB","city":"London","state":"Greater London","country":"United Kingdom"},"categories":[{"id":"4bf58dd8d48988d1bd941735","name":"Salad Place","pluralName":"Salad Shop","shortName":"Salad","icon":{"prefix":"https:\/\/ss1.4sqi.net\/img\/categories_v2\/food\/salad_","suffix":".png"},"primary":"true"}],"verified":"false","restricted":"true","stats":{"checkinsCount":"26","usersCount":"11","tipCount":"0"},"specials":{"count":"0"},"hereNow":{"count":"0"},"referralId":"v-1392478007"},{"id":"4c77ae2b93faa093de75f1fb","name":"Platform 10","location":{"address":"Liverpool Street Station (LST)","lat":"51.51887365992152","lng":"-0.08125381175482306","distance":"116","postalCode":"EC2M 7PY","cc":"GB","city":"London","state":"Greater London","country":"United Kingdom"},"categories":[{"id":"4f4531504b9074f6e4fb0102","name":"Platform","pluralName":"Platforms","shortName":"Platform","icon":{"prefix":"https:\/\/ss1.4sqi.net\/img\/categories_v2\/travel\/trainstation_","suffix":".png"},"primary":"true"}],"verified":"false","restricted":"true","stats":{"checkinsCount":"994","usersCount":"294","tipCount":"2"},"specials":{"count":"0"},"hereNow":{"count":"0"},"referralId":"v-1392478007"},{"id":"4cd0232606b54688071cd994","name":"The White Horse","contact":{"phone":"+442073779958","formattedPhone":"+44 20 7377 9958","twitter":"geronimopubs"},"location":{"address":"2 Exchange Sq","lat":"51.519685691742886","lng":"-0.08119583129882812","distance":"119","postalCode":"EC2M 2QA","cc":"GB","city":"London","state":"Greater London","country":"United Kingdom"},"categories":[{"id":"4bf58dd8d48988d11b941735","name":"Pub","pluralName":"Pubs","shortName":"Pub","icon":{"prefix":"https:\/\/ss1.4sqi.net\/img\/categories_v2\/nightlife\/pub_","suffix":".png"},"primary":"true"}],"verified":"true","restricted":"true","stats":{"checkinsCount":"579","usersCount":"341","tipCount":"5"},"url":"http:\/\/www.geronimo-inns.co.uk\/thewhitehorse","specials":{"count":"0"},"hereNow":{"count":"0"},"referralId":"v-1392478007"},{"id":"4bb498095148d13ac8af523b","name":"1 Appold Street","location":{"address":"1 Appold Street","lat":"51.519744309153126","lng":"-0.08251192964519437","distance":"54","postalCode":"EC2A 2","cc":"GB","city":"London","state":"Greater London","country":"United Kingdom"},"categories":[{"id":"4bf58dd8d48988d1c4941735","name":"Restaurant","pluralName":"Restaurants","shortName":"Restaurant","icon":{"prefix":"https:\/\/ss1.4sqi.net\/img\/categories_v2\/food\/default_","suffix":".png"},"primary":"true"}],"verified":"false","restricted":"true","stats":{"checkinsCount":"97","usersCount":"14","tipCount":"0"},"specials":{"count":"0"},"hereNow":{"count":"0"},"referralId":"v-1392478007"},{"id":"51920ddc498e450a358898b1","name":"Traiana","location":{"lat":"51.519230264582966","lng":"-0.08442211765363192","distance":"112","cc":"GB","country":"United Kingdom"},"categories":[{"id":"4bf58dd8d48988d124941735","name":"Office","pluralName":"Offices","shortName":"Office","icon":{"prefix":"https:\/\/ss1.4sqi.net\/img\/categories_v2\/building\/default_","suffix":".png"},"primary":"true"}],"verified":"false","restricted":"true","stats":{"checkinsCount":"19","usersCount":"4","tipCount":"0"},"specials":{"count":"0"},"hereNow":{"count":"0"},"referralId":"v-1392478007"},{"id":"4c89e673a92fa09393a28cbf","name":"Platform 2","location":{"address":"Liverpool Street Station (LST)","crossStreet":"Liverpool St.","lat":"51.518524713963394","lng":"-0.08143166117275646","distance":"127","postalCode":"EC2M 7PY","cc":"GB","city":"London","state":"Greater London","country":"United Kingdom"},"categories":[{"id":"4f4531504b9074f6e4fb0102","name":"Platform","pluralName":"Platforms","shortName":"Platform","icon":{"prefix":"https:\/\/ss1.4sqi.net\/img\/categories_v2\/travel\/trainstation_","suffix":".png"},"primary":"true"}],"verified":"false","restricted":"true","stats":{"checkinsCount":"724","usersCount":"209","tipCount":"2"},"specials":{"count":"0"},"hereNow":{"count":"0"},"referralId":"v-1392478007"}],"confident":"false"}}