{"meta":{"code":"200"},"response":{"venues":[{"id":"50714cc8e4b008c20de68d4b","name":"Barbican","location":{"address":"Anywhere!","lat":"51.52010319619744","lng":"-0.09763717246379719","distance":"91","cc":"GB","city":"London","state":"Greater London","country":"United Kingdom"},"categories":[{"id":"4f2a25ac4b909258e854f55f","name":"Neighborhood","pluralName":"Neighborhoods","shortName":"Neighborhood","icon":{"prefix":"https:\/\/ss1.4sqi.net\/img\/categories_v2\/parks_outdoors\/neighborhood_","suffix":".png"},"primary":"true"}],"verified":"false","restricted":"true","stats":{"checkinsCount":"1101","usersCount":"651","tipCount":"2"},"specials":{"count":"0"},"hereNow":{"count":"0"},"referralId":"v-1392478006"},{"id":"4b29ffe2f964a52099a424e3","name":"Pret A Manger","contact":{"phone":"+442079325221","formattedPhone":"+44 20 7932 5221","twitter":"pret","facebook":"162638680417951"},"location":{"address":"1 Long Ln","lat":"51.519807","lng":"-0.097617","distance":"59","postalCode":"EC1A 9HA","cc":"GB","city":"London","state":"Greater London","country":"United Kingdom"},"categories":[{"id":"4bf58dd8d48988d1c5941735","name":"Sandwich Place","pluralName":"Sandwich Places","shortName":"Sandwiches","icon":{"prefix":"https:\/\/ss1.4sqi.net\/img\/categories_v2\/food\/sandwiches_","suffix":".png"},"primary":"true"}],"verified":"true","restricted":"true","stats":{"checkinsCount":"813","usersCount":"306","tipCount":"2"},"url":"http:\/\/www.pret.com","specials":{"count":"0"},"hereNow":{"count":"1","groups":[{"type":"others","name":"Other people here","count":"1"}]},"storeId":"227","referralId":"v-1392478006"},{"id":"4b865f67f964a520cf8731e3","name":"Vibrant Media","location":{"address":"140 Aldersgate St.","lat":"51.51964665638099","lng":"-0.09795763521309674","distance":"41","postalCode":"EC1A 4HY","cc":"GB","city":"London","state":"Greater London","country":"United Kingdom"},"categories":[{"id":"4bf58dd8d48988d125941735","name":"Tech Startup","pluralName":"Tech Startups","shortName":"Tech Startup","icon":{"prefix":"https:\/\/ss1.4sqi.net\/img\/categories_v2\/shops\/technology_","suffix":".png"},"primary":"true"}],"verified":"false","restricted":"true","stats":{"checkinsCount":"441","usersCount":"30","tipCount":"2"},"specials":{"count":"0"},"hereNow":{"count":"0"},"referralId":"v-1392478006"},{"id":"4ada5cf0f964a520e32121e3","name":"The Old Red Cow","contact":{"phone":"+442077262595","formattedPhone":"+44 20 7726 2595","twitter":"oldredcow"},"location":{"address":"71 Long Ln","crossStreet":"at Hayne St","lat":"51.519492088136865","lng":"-0.09900569915771484","distance":"86","postalCode":"EC1A 9EJ","cc":"GB","city":"Farringdon","state":"Greater London","country":"United Kingdom"},"categories":[{"id":"4bf58dd8d48988d11b941735","name":"Pub","pluralName":"Pubs","shortName":"Pub","icon":{"prefix":"https:\/\/ss1.4sqi.net\/img\/categories_v2\/nightlife\/pub_","suffix":".png"},"primary":"true"}],"verified":"true","restricted":"true","stats":{"checkinsCount":"1705","usersCount":"989","tipCount":"30"},"url":"http:\/\/www.theoldredcow.com","menu":{"type":"Menu","label":"Menu","anchor":"View Menu","url":"https:\/\/foursquare.com\/v\/the-old-red-cow\/4ada5cf0f964a520e32121e3\/menu","mobileUrl":"https:\/\/foursquare.com\/v\/4ada5cf0f964a520e32121e3\/device_menu"},"specials":{"count":"0"},"hereNow":{"count":"1","groups":[{"type":"others","name":"Other people here","count":"1"}]},"referralId":"v-1392478006"},{"id":"4ad7a8ddf964a520650d21e3","name":"Dose Espresso","contact":{"phone":"+442076000382","formattedPhone":"+44 20 7600 0382","twitter":"dose_espresso"},"location":{"address":"70 Long Ln","crossStreet":"Barbican","lat":"51.51963966102404","lng":"-0.09940932591062682","distance":"117","postalCode":"EC1A 9EJ","cc":"GB","city":"London","state":"Greater London","country":"United Kingdom"},"categories":[{"id":"4bf58dd8d48988d1e0931735","name":"Coffee Shop","pluralName":"Coffee Shops","shortName":"Coffee Shop","icon":{"prefix":"https:\/\/ss1.4sqi.net\/img\/categories_v2\/food\/coffeeshop_","suffix":".png"},"primary":"true"}],"verified":"true","restricted":"true","stats":{"checkinsCount":"2524","usersCount":"551","tipCount":"40"},"menu":{"type":"Menu","label":"Menu","anchor":"View Menu","url":"https:\/\/foursquare.com\/v\/dose-espresso-london-greater-london\/4ad7a8ddf964a520650d21e3\/menu","mobileUrl":"https:\/\/foursquare.com\/v\/4ad7a8ddf964a520650d21e3\/device_menu"},"specials":{"count":"0"},"hereNow":{"count":"0"},"referralId":"v-1392478006"},{"id":"4fb02b2fe4b0ba6ff49ac515","name":"23 Middle Street","location":{"lat":"51.519401","lng":"-0.098792","distance":"69","cc":"GB","country":"United Kingdom"},"categories":[{"id":"4d954b06a243a5684965b473","name":"Residential Building (Apartment \/ Condo)","pluralName":"Residential Buildings (Apartments \/ Condos)","shortName":"Residential","icon":{"prefix":"https:\/\/ss1.4sqi.net\/img\/categories_v2\/building\/apartment_","suffix":".png"},"primary":"true"}],"verified":"false","restricted":"true","stats":{"checkinsCount":"145","usersCount":"6","tipCount":"0"},"specials":{"count":"0"},"hereNow":{"count":"0"},"referralId":"v-1392478006"},{"id":"527cc42211d2f3e19332ffc9","name":"Mibtree","contact":{"twitter":"mibtree"},"location":{"address":"39a Bartholomew Close","lat":"51.519247","lng":"-0.098163","distance":"25","postalCode":"EC1A 7JN","cc":"GB","city":"London","state":"Greater London","country":"United Kingdom"},"categories":[{"id":"4bf58dd8d48988d124941735","name":"Office","pluralName":"Offices","shortName":"Office","icon":{"prefix":"https:\/\/ss1.4sqi.net\/img\/categories_v2\/building\/default_","suffix":".png"},"primary":"true"}],"verified":"false","restricted":"true","stats":{"checkinsCount":"4","usersCount":"1","tipCount":"0"},"url":"http:\/\/www.mibtree.com","specials":{"count":"0"},"hereNow":{"count":"0"},"referralId":"v-1392478006"},{"id":"4ada5d23f964a520e72121e3","name":"The Hand & Shears","contact":{"phone":"+442076000257","formattedPhone":"+44 20 7600 0257"},"location":{"address":"1 Middle St","lat":"51.51933019483447","lng":"-0.09889572858810425","distance":"75","postalCode":"EC1A 7JA","cc":"GB","city":"Cloth Fair","state":"Greater London","country":"United Kingdom"},"categories":[{"id":"4bf58dd8d48988d116941735","name":"Bar","pluralName":"Bars","shortName":"Bar","icon":{"prefix":"https:\/\/ss1.4sqi.net\/img\/categories_v2\/nightlife\/bar_","suffix":".png"},"primary":"true"}],"verified":"false","restricted":"true","stats":{"checkinsCount":"244","usersCount":"158","tipCount":"5"},"url":"http:\/\/www.pubs.com","specials":{"count":"0"},"hereNow":{"count":"0"},"referralId":"v-1392478006"},{"id":"4bcc65b20687ef3b2f20dfcc","name":"The Neaman Practice","location":{"address":"15 Half Moon Court","lat":"51.51896840609786","lng":"-0.09809561689698107","distance":"41","postalCode":"EC1A 7HF","cc":"GB","city":"London","state":"Greater London","country":"United Kingdom"},"categories":[{"id":"4bf58dd8d48988d177941735","name":"Doctor's Office","pluralName":"Doctor's Offices","shortName":"Doctor's Office","icon":{"prefix":"https:\/\/ss1.4sqi.net\/img\/categories_v2\/building\/medical_doctorsoffice_","suffix":".png"},"primary":"true"}],"verified":"false","restricted":"true","stats":{"checkinsCount":"83","usersCount":"33","tipCount":"1"},"specials":{"count":"0"},"hereNow":{"count":"0"},"referralId":"v-1392478006"},{"id":"4c8b246f770fb60c659bd9c3","name":"Seddon House","location":{"lat":"51.518953936993206","lng":"-0.09677903795808616","distance":"80","cc":"GB","country":"United Kingdom"},"categories":[{"id":"4bf58dd8d48988d130941735","name":"Building","pluralName":"Buildings","shortName":"Building","icon":{"prefix":"https:\/\/ss1.4sqi.net\/img\/categories_v2\/building\/default_","suffix":".png"},"primary":"true"}],"verified":"false","restricted":"true","stats":{"checkinsCount":"432","usersCount":"23","tipCount":"0"},"specials":{"count":"0"},"hereNow":{"count":"0"},"referralId":"v-1392478006"},{"id":"52ee0ed2498ef60e3e7036b5","name":"Virgin Active Barbican","location":{"lat":"51.52021178492681","lng":"-0.0966904178121163","distance":"128","cc":"GB","country":"United Kingdom"},"categories":[{"id":"4bf58dd8d48988d176941735","name":"Gym","pluralName":"Gyms","shortName":"Gym","icon":{"prefix":"https:\/\/ss1.4sqi.net\/img\/categories_v2\/building\/gym_","suffix":".png"},"primary":"true"}],"verified":"false","restricted":"true","stats":{"checkinsCount":"14","usersCount":"3","tipCount":"0"},"specials":{"count":"0"},"hereNow":{"count":"1","groups":[{"type":"others","name":"Other people here","count":"1"}]},"referralId":"v-1392478006"},{"id":"4b19280af964a52094d823e3","name":"EAT.","contact":{"phone":"+442076368391","formattedPhone":"+44 20 7636 8391","twitter":"eat_news"},"location":{"address":"140 Aldersgate Street","lat":"51.519886","lng":"-0.097747","distance":"66","postalCode":"EC1A 4HY","cc":"GB","city":"London","state":"Greater London","country":"United Kingdom"},"categories":[{"id":"4bf58dd8d48988d1c5941735","name":"Sandwich Place","pluralName":"Sandwich Places","shortName":"Sandwiches","icon":{"prefix":"https:\/\/ss1.4sqi.net\/img\/categories_v2\/food\/sandwiches_","suffix":".png"},"primary":"true"}],"verified":"true","restricted":"true","stats":{"checkinsCount":"451","usersCount":"209","tipCount":"6"},"url":"http:\/\/www.eat.co.uk","specials":{"count":"0"},"hereNow":{"count":"0"},"storeId":"EAT - Long Lane","referralId":"v-1392478006"},{"id":"4bfa6e638d30d13a8e870318","name":"Subway","contact":{"phone":"+448000855058","formattedPhone":"+44 800 085 5058","twitter":"subwayukireland"},"location":{"address":"13-17 Long Ln.","lat":"51.519787","lng":"-0.098742","distance":"85","postalCode":"EC1A 9PN","cc":"GB","city":"London","state":"Greater London","country":"United Kingdom"},"categories":[{"id":"4bf58dd8d48988d1c5941735","name":"Sandwich Place","pluralName":"Sandwich Places","shortName":"Sandwiches","icon":{"prefix":"https:\/\/ss1.4sqi.net\/img\/categories_v2\/food\/sandwiches_","suffix":".png"},"primary":"true"}],"verified":"true","restricted":"true","stats":{"checkinsCount":"262","usersCount":"107","tipCount":"3"},"url":"http:\/\/www.subway.co.uk","specials":{"count":"0"},"hereNow":{"count":"0"},"storeId":"42148","referralId":"v-1392478006"},{"id":"4f7c7274e4b0a12a33607f81","name":"Industry","contact":{"twitter":"industry_brand"},"location":{"address":"Newbury St, City of London, London EC1A 7HU","lat":"51.51920457819352","lng":"-0.09811031109502853","distance":"23","postalCode":"EC1A 7HU","cc":"GB","city":"London","state":"Greater London","country":"United Kingdom"},"categories":[{"id":"4bf58dd8d48988d124941735","name":"Office","pluralName":"Offices","shortName":"Office","icon":{"prefix":"https:\/\/ss1.4sqi.net\/img\/categories_v2\/building\/default_","suffix":".png"},"primary":"true"}],"verified":"false","restricted":"true","stats":{"checkinsCount":"26","usersCount":"3","tipCount":"0"},"specials":{"count":"0"},"hereNow":{"count":"0"},"referralId":"v-1392478006"},{"id":"508fbbfee4b0aaac8b6b4edb","name":"Banh Mi Saigon","contact":{"phone":"+447714160163","formattedPhone":"+44 7714 160163"},"location":{"address":"69 Long Lane","lat":"51.51957794136212","lng":"-0.09956398580589154","distance":"126","postalCode":"EC1A 9EK","cc":"GB","city":"London","state":"Greater London","country":"United Kingdom"},"categories":[{"id":"4bf58dd8d48988d14a941735","name":"Vietnamese Restaurant","pluralName":"Vietnamese Restaurants","shortName":"Vietnamese","icon":{"prefix":"https:\/\/ss1.4sqi.net\/img\/categories_v2\/food\/default_","suffix":".png"},"primary":"true"}],"verified":"false","restricted":"true","stats":{"checkinsCount":"156","usersCount":"44","tipCount":"4"},"specials":{"count":"0"},"hereNow":{"count":"0"},"referralId":"v-1392478006"},{"id":"4b93e06ff964a520db5634e3","name":"Tesco Express","contact":{"phone":"+448456719280","formattedPhone":"+44 845 671 9280","twitter":"uktescooffers"},"location":{"address":"131 Aldersgate Street","lat":"51.520385997936444","lng":"-0.0972660450835298","distance":"127","postalCode":"EC1A 4JQ","cc":"GB","city":"London","state":"Greater London","country":"United Kingdom"},"categories":[{"id":"4bf58dd8d48988d118951735","name":"Grocery Store","pluralName":"Grocery Stores","shortName":"Grocery Store","icon":{"prefix":"https:\/\/ss1.4sqi.net\/img\/categories_v2\/shops\/food_grocery_","suffix":".png"},"primary":"true"}],"verified":"true","restricted":"true","stats":{"checkinsCount":"1141","usersCount":"258","tipCount":"9"},"url":"http:\/\/www.tesco.com","specials":{"count":"0"},"hereNow":{"count":"0"},"storeId":"5380","referralId":"v-1392478006"},{"id":"4cc93bac5c17b60c71d20705","name":"Dentistry 100","location":{"address":"100 Aldersgate","lat":"51.51953680459086","lng":"-0.09697461357169435","distance":"63","postalCode":"EC1A 4JR","cc":"GB","city":"London","state":"Greater London","country":"United Kingdom"},"categories":[{"id":"4bf58dd8d48988d178941735","name":"Dentist's Office","pluralName":"Dentist's Offices","shortName":"Dentist's Office","icon":{"prefix":"https:\/\/ss1.4sqi.net\/img\/categories_v2\/building\/medical_dentist_","suffix":".png"},"primary":"true"}],"verified":"false","restricted":"true","stats":{"checkinsCount":"96","usersCount":"11","tipCount":"1"},"specials":{"count":"0"},"hereNow":{"count":"0"},"referralId":"v-1392478006"},{"id":"4bcf1c5b29d4b713f48fa9dc","name":"NatWest","contact":{"phone":"+448453017948","formattedPhone":"+44 845 301 7948"},"location":{"address":"134 Aldersgate St","lat":"51.52025707657129","lng":"-0.09732813214871575","distance":"112","postalCode":"EC1A 4JA","cc":"GB","city":"London","state":"Greater London","country":"United Kingdom"},"categories":[{"id":"4bf58dd8d48988d10a951735","name":"Bank","pluralName":"Banks","shortName":"Bank","icon":{"prefix":"https:\/\/ss1.4sqi.net\/img\/categories_v2\/shops\/financial_","suffix":".png"},"primary":"true"}],"verified":"false","restricted":"true","stats":{"checkinsCount":"327","usersCount":"99","tipCount":"0"},"specials":{"count":"0"},"hereNow":{"count":"0"},"referralId":"v-1392478006"},{"id":"4ac518d2f964a5201fa720e3","name":"Charterhouse Square","location":{"address":"Charterhouse Square","lat":"51.52067333139687","lng":"-0.0988108828341355","distance":"169","postalCode":"EC1M","cc":"GB","city":"London","state":"Greater London","country":"United Kingdom"},"categories":[{"id":"4bf58dd8d48988d164941735","name":"Plaza","pluralName":"Plazas","shortName":"Plaza","icon":{"prefix":"https:\/\/ss1.4sqi.net\/img\/categories_v2\/parks_outdoors\/plaza_","suffix":".png"},"primary":"true"}],"verified":"false","restricted":"true","stats":{"checkinsCount":"1305","usersCount":"340","tipCount":"5"},"specials":{"count":"0"},"hereNow":{"count":"0"},"referralId":"v-1392478006"},{"id":"4cf405f494feb1f796cf25ba","name":"London House","location":{"lat":"51.518189019952395","lng":"-0.09698232313102938","distance":"135","cc":"GB","country":"United Kingdom"},"categories":[{"id":"4d954b06a243a5684965b473","name":"Residential Building (Apartment \/ Condo)","pluralName":"Residential Buildings (Apartments \/ Condos)","shortName":"Residential","icon":{"prefix":"https:\/\/ss1.4sqi.net\/img\/categories_v2\/building\/apartment_","suffix":".png"},"primary":"true"}],"verified":"false","restricted":"true","stats":{"checkinsCount":"207","usersCount":"43","tipCount":"1"},"specials":{"count":"0"},"hereNow":{"count":"0"},"referralId":"v-1392478006"},{"id":"5248853b11d20d87cc4abf50","name":"Geranium","location":{"lat":"51.51962636357279","lng":"-0.09691799150458033","distance":"71","cc":"GB","country":"United Kingdom"},"categories":[{"id":"4bf58dd8d48988d118951735","name":"Grocery Store","pluralName":"Grocery Stores","shortName":"Grocery Store","icon":{"prefix":"https:\/\/ss1.4sqi.net\/img\/categories_v2\/shops\/food_grocery_","suffix":".png"},"primary":"true"}],"verified":"false","restricted":"true","stats":{"checkinsCount":"4","usersCount":"1","tipCount":"1"},"specials":{"count":"0"},"hereNow":{"count":"0"},"referralId":"v-1392478006"},{"id":"514746b6e4b076f4b8b1d2c1","name":"Metropolitan Line","location":{"lat":"51.519844","lng":"-0.098315","distance":"71","cc":"GB","country":"United Kingdom"},"categories":[{"id":"4f2a23984b9023bd5841ed2c","name":"Moving Target","pluralName":"Moving Targets","shortName":"Moving Target","icon":{"prefix":"https:\/\/ss1.4sqi.net\/img\/categories_v2\/travel\/movingtarget_","suffix":".png"},"primary":"true"}],"verified":"false","restricted":"true","stats":{"checkinsCount":"28","usersCount":"15","tipCount":"0"},"specials":{"count":"0"},"hereNow":{"count":"0"},"referralId":"v-1392478006"},{"id":"4e503232aeb70f1284ac2481","name":"Lauderdale Tower, Barbican","location":{"lat":"51.52006786838077","lng":"-0.09723412416708924","distance":"95","cc":"GB","city":"London","state":"Greater London","country":"United Kingdom"},"categories":[{"id":"4d954b06a243a5684965b473","name":"Residential Building (Apartment \/ Condo)","pluralName":"Residential Buildings (Apartments \/ Condos)","shortName":"Residential","icon":{"prefix":"https:\/\/ss1.4sqi.net\/img\/categories_v2\/building\/apartment_","suffix":".png"},"primary":"true"}],"verified":"false","restricted":"true","stats":{"checkinsCount":"157","usersCount":"52","tipCount":"1"},"specials":{"count":"0"},"hereNow":{"count":"0"},"referralId":"v-1392478006"},{"id":"524bd55111d218f37633d2d4","name":"London School Of Beauty And Spa","location":{"lat":"51.519555","lng":"-0.099594","distance":"127","cc":"GB","country":"United Kingdom"},"categories":[{"id":"4bf58dd8d48988d198941735","name":"College Academic Building","pluralName":"College Academic Buildings","shortName":"Academic Building","icon":{"prefix":"https:\/\/ss1.4sqi.net\/img\/categories_v2\/education\/academicbuilding_","suffix":".png"},"primary":"true"}],"verified":"false","restricted":"true","stats":{"checkinsCount":"18","usersCount":"4","tipCount":"0"},"specials":{"count":"0"},"hereNow":{"count":"0"},"referralId":"v-1392478006"},{"id":"4bf5a52794b2a5935d01acee","name":"Barbican Tandoori","contact":{"phone":"+442077964499","formattedPhone":"+44 20 7796 4499"},"location":{"address":"55 Aldersgate St","crossStreet":"at Barbican Gate 8","lat":"51.51873364734927","lng":"-0.09693841970243794","distance":"86","postalCode":"EC1A 4LA","cc":"GB","city":"London","state":"Greater London","country":"United Kingdom"},"categories":[{"id":"4bf58dd8d48988d10f941735","name":"Indian Restaurant","pluralName":"Indian Restaurants","shortName":"Indian","icon":{"prefix":"https:\/\/ss1.4sqi.net\/img\/categories_v2\/food\/indian_","suffix":".png"},"primary":"true"}],"verified":"false","restricted":"true","stats":{"checkinsCount":"111","usersCount":"48","tipCount":"4"},"specials":{"count":"0"},"hereNow":{"count":"0"},"referralId":"v-1392478006"},{"id":"5002c8b6e4b06c76d10030f3","name":"Trundle Highwalk","location":{"lat":"51.520262600611055","lng":"-0.09712053694993593","distance":"118","cc":"GB","country":"United Kingdom"},"categories":[{"id":"4bf58dd8d48988d162941735","name":"Other Great Outdoors","pluralName":"Other Great Outdoors","shortName":"Other Outdoors","icon":{"prefix":"https:\/\/ss1.4sqi.net\/img\/categories_v2\/parks_outdoors\/outdoors_","suffix":".png"},"primary":"true"}],"verified":"false","restricted":"true","stats":{"checkinsCount":"80","usersCount":"15","tipCount":"0"},"specials":{"count":"0"},"hereNow":{"count":"0"},"referralId":"v-1392478006"},{"id":"4f183b92e4b062dab9bcb6af","name":"etc Venues","location":{"address":"200 Aldersgate St, City of London, London EC1A","lat":"51.518075084707135","lng":"-0.09799558958901283","distance":"135","postalCode":"8UE","cc":"GB","city":"London","country":"United Kingdom"},"categories":[{"id":"4bf58dd8d48988d171941735","name":"Event Space","pluralName":"Event Spaces","shortName":"Event Space","icon":{"prefix":"https:\/\/ss1.4sqi.net\/img\/categories_v2\/building\/eventspace_","suffix":".png"},"primary":"true"}],"verified":"false","restricted":"true","stats":{"checkinsCount":"445","usersCount":"325","tipCount":"2"},"specials":{"count":"0"},"hereNow":{"count":"0"},"referralId":"v-1392478006"},{"id":"50349305e4b0514bf44c124e","name":"WAYN - Where Are You Now?","location":{"lat":"51.52017001544312","lng":"-0.09829779122933006","distance":"103","cc":"GB","country":"United Kingdom"},"categories":[{"id":"4bf58dd8d48988d124941735","name":"Office","pluralName":"Offices","shortName":"Office","icon":{"prefix":"https:\/\/ss1.4sqi.net\/img\/categories_v2\/building\/default_","suffix":".png"},"primary":"true"}],"verified":"false","restricted":"true","stats":{"checkinsCount":"43","usersCount":"13","tipCount":"0"},"specials":{"count":"0"},"hereNow":{"count":"0"},"referralId":"v-1392478006"},{"id":"4d7f2a9095c1a1430f1edff2","name":"Costa","location":{"address":"Long lane","crossStreet":"Grande avenue","lat":"51.52004637291084","lng":"-0.0992562721131311","distance":"131","cc":"GB","city":"London","state":"Greater London","country":"United Kingdom"},"categories":[{"id":"4bf58dd8d48988d1e0931735","name":"Coffee Shop","pluralName":"Coffee Shops","shortName":"Coffee Shop","icon":{"prefix":"https:\/\/ss1.4sqi.net\/img\/categories_v2\/food\/coffeeshop_","suffix":".png"},"primary":"true"}],"verified":"false","restricted":"true","stats":{"checkinsCount":"72","usersCount":"45","tipCount":"0"},"specials":{"count":"0"},"hereNow":{"count":"0"},"referralId":"v-1392478006"},{"id":"4d8b85efd85f370478eb16dc","name":"Information Technologists Hall","location":{"address":"39a Bartholemew Close","lat":"51.519143","lng":"-0.09823198","distance":"33","cc":"GB","city":"London","state":"Greater London","country":"United Kingdom"},"categories":[{"id":"4bf58dd8d48988d130941735","name":"Building","pluralName":"Buildings","shortName":"Building","icon":{"prefix":"https:\/\/ss1.4sqi.net\/img\/categories_v2\/building\/default_","suffix":".png"},"primary":"true"}],"verified":"false","restricted":"true","stats":{"checkinsCount":"43","usersCount":"23","tipCount":"1"},"specials":{"count":"0"},"hereNow":{"count":"0"},"referralId":"v-1392478006"}],"confident":"false"}}