{"meta":{"code":"200"},"response":{"venues":[{"id":"4ac518f4f964a520daae20e3","name":"Apple Store","contact":{"phone":"+442071539000","formattedPhone":"+44 20 7153 9000"},"location":{"address":"235 Regent St","lat":"51.51443139853858","lng":"-0.14149188995361328","distance":"92","postalCode":"W1B 2EL","cc":"GB","city":"Mayfair","state":"Greater London","country":"United Kingdom"},"categories":[{"id":"4bf58dd8d48988d122951735","name":"Electronics Store","pluralName":"Electronics Stores","shortName":"Electronics","icon":{"prefix":"https:\/\/ss1.4sqi.net\/img\/categories_v2\/shops\/technology_","suffix":".png"},"primary":"true"}],"verified":"true","restricted":"true","stats":{"checkinsCount":"46976","usersCount":"29679","tipCount":"276"},"url":"http:\/\/www.apple.com\/uk\/retail\/regentstreet","specials":{"count":"0"},"hereNow":{"count":"6","groups":[{"type":"others","name":"Other people here","count":"6"}]},"storeId":"R092","referralId":"v-1392478014"},{"id":"4adc13eaf964a520752b21e3","name":"Starbucks","contact":{"phone":"+442074958370","formattedPhone":"+44 20 7495 8370","twitter":"starbucksuk"},"location":{"address":"22-23 Princes St","lat":"51.51458496335501","lng":"-0.14247894287109375","distance":"39","postalCode":"W1B 2LY","cc":"GB","city":"London","state":"Greater London","country":"United Kingdom"},"categories":[{"id":"4bf58dd8d48988d1e0931735","name":"Coffee Shop","pluralName":"Coffee Shops","shortName":"Coffee Shop","icon":{"prefix":"https:\/\/ss1.4sqi.net\/img\/categories_v2\/food\/coffeeshop_","suffix":".png"},"primary":"true"}],"verified":"true","restricted":"true","stats":{"checkinsCount":"2891","usersCount":"1897","tipCount":"25"},"url":"http:\/\/starbucks.co.uk","specials":{"count":"0"},"hereNow":{"count":"0"},"storeId":"12058","referralId":"v-1392478014"},{"id":"4bf3b6f76a31d13a15e4942e","name":"Ted Baker","contact":{"phone":"+442074936251","formattedPhone":"+44 20 7493 6251","twitter":"ted_baker"},"location":{"address":"245 Regent St.","crossStreet":"btwn Oxford & Hanover St.","lat":"51.51428450996886","lng":"-0.14194250106811523","distance":"59","postalCode":"W1B 2EN","cc":"GB","city":"London","state":"Greater London","country":"United Kingdom"},"categories":[{"id":"4bf58dd8d48988d103951735","name":"Clothing Store","pluralName":"Clothing Stores","shortName":"Apparel","icon":{"prefix":"https:\/\/ss1.4sqi.net\/img\/categories_v2\/shops\/apparel_","suffix":".png"},"primary":"true"}],"verified":"false","restricted":"true","stats":{"checkinsCount":"1043","usersCount":"830","tipCount":"6"},"specials":{"count":"0"},"hereNow":{"count":"0"},"referralId":"v-1392478014"},{"id":"4ba0c5e6f964a520b47c37e3","name":"Apple Europe","location":{"address":"1 Hanover St.","lat":"51.514087968320254","lng":"-0.14182680711242074","distance":"71","postalCode":"W1S 1YZ","cc":"GB","city":"Mayfair","state":"Greater London","country":"United Kingdom"},"categories":[{"id":"4bf58dd8d48988d124941735","name":"Office","pluralName":"Offices","shortName":"Office","icon":{"prefix":"https:\/\/ss1.4sqi.net\/img\/categories_v2\/building\/default_","suffix":".png"},"primary":"true"}],"verified":"false","restricted":"true","stats":{"checkinsCount":"3873","usersCount":"1128","tipCount":"6"},"specials":{"count":"0"},"hereNow":{"count":"0"},"referralId":"v-1392478014"},{"id":"4ebc159ecc2178857ebfbcaf","name":"Dirty Martini","contact":{"phone":"+448443712550","formattedPhone":"+44 844 371 2550"},"location":{"address":"10c Hanover Sq","lat":"51.514353018483966","lng":"-0.1434134037349285","distance":"42","postalCode":"W1S 1JH","cc":"GB","city":"London","state":"Greater London","country":"United Kingdom"},"categories":[{"id":"4bf58dd8d48988d121941735","name":"Lounge","pluralName":"Lounges","shortName":"Lounge","icon":{"prefix":"https:\/\/ss1.4sqi.net\/img\/categories_v2\/nightlife\/lounge_","suffix":".png"},"primary":"true"}],"verified":"true","restricted":"true","stats":{"checkinsCount":"540","usersCount":"455","tipCount":"5"},"url":"http:\/\/dirtymartini.uk.com\/hanover-square\/","specials":{"count":"0"},"hereNow":{"count":"0"},"referralId":"v-1392478014"},{"id":"4b6033c8f964a520c0d929e3","name":"Persy's","contact":{"phone":"+442074931718","formattedPhone":"+44 20 7493 1718"},"location":{"address":"18 Princes Street","lat":"51.51441136830697","lng":"-0.14296174049377441","distance":"17","postalCode":"W1B 2LN","cc":"GB","city":"Mayfair","state":"Greater London","country":"United Kingdom"},"categories":[{"id":"4bf58dd8d48988d1c5941735","name":"Sandwich Place","pluralName":"Sandwich Places","shortName":"Sandwiches","icon":{"prefix":"https:\/\/ss1.4sqi.net\/img\/categories_v2\/food\/sandwiches_","suffix":".png"},"primary":"true"}],"verified":"false","restricted":"true","stats":{"checkinsCount":"535","usersCount":"79","tipCount":"5"},"specials":{"count":"0"},"hereNow":{"count":"0"},"referralId":"v-1392478014"},{"id":"4b8d0092f964a520dfe332e3","name":"Chisou","contact":{"phone":"+442076293931","formattedPhone":"+44 20 7629 3931"},"location":{"address":"4 Princes St.","lat":"51.514529414047686","lng":"-0.14242688355891955","distance":"37","postalCode":"W1B 2LE","cc":"GB","city":"London","state":"Greater London","country":"United Kingdom"},"categories":[{"id":"4bf58dd8d48988d111941735","name":"Japanese Restaurant","pluralName":"Japanese Restaurants","shortName":"Japanese","icon":{"prefix":"https:\/\/ss1.4sqi.net\/img\/categories_v2\/food\/japanese_","suffix":".png"},"primary":"true"}],"verified":"false","restricted":"true","stats":{"checkinsCount":"524","usersCount":"344","tipCount":"17"},"reservations":{"url":"http:\/\/www.toptable.co.uk\/single.aspx?rid=91665&ref=9601"},"menu":{"type":"Menu","label":"Menu","anchor":"View Menu","url":"https:\/\/foursquare.com\/v\/chisou\/4b8d0092f964a520dfe332e3\/menu","mobileUrl":"https:\/\/foursquare.com\/v\/4b8d0092f964a520dfe332e3\/device_menu"},"specials":{"count":"0"},"hereNow":{"count":"0"},"referralId":"v-1392478014"},{"id":"4b2a3cb7f964a5205fa624e3","name":"Bar Remo","contact":{"twitter":"barremopizzeria"},"location":{"address":"2 Princes St","lat":"51.514549419281664","lng":"-0.14235170873972558","distance":"42","postalCode":"W1B 2LB","cc":"GB","city":"London","state":"Greater London","country":"United Kingdom"},"categories":[{"id":"4bf58dd8d48988d110941735","name":"Italian Restaurant","pluralName":"Italian Restaurants","shortName":"Italian","icon":{"prefix":"https:\/\/ss1.4sqi.net\/img\/categories_v2\/food\/italian_","suffix":".png"},"primary":"true"}],"verified":"false","restricted":"true","stats":{"checkinsCount":"712","usersCount":"441","tipCount":"22"},"specials":{"count":"0"},"hereNow":{"count":"0"},"referralId":"v-1392478014"},{"id":"4b3b3f89f964a520d17125e3","name":"Pret A Manger","contact":{"phone":"+442079325404","formattedPhone":"+44 20 7932 5404","twitter":"pret","facebook":"162638680417951"},"location":{"address":"18 Hanover St.","lat":"51.5137212076112","lng":"-0.141913536362551","distance":"88","postalCode":"W1S 1YN","cc":"GB","city":"Mayfair","state":"Greater London","country":"United Kingdom"},"categories":[{"id":"4bf58dd8d48988d1c5941735","name":"Sandwich Place","pluralName":"Sandwich Places","shortName":"Sandwiches","icon":{"prefix":"https:\/\/ss1.4sqi.net\/img\/categories_v2\/food\/sandwiches_","suffix":".png"},"primary":"true"}],"verified":"true","restricted":"true","stats":{"checkinsCount":"893","usersCount":"474","tipCount":"2"},"url":"http:\/\/www.pret.com","specials":{"count":"0"},"hereNow":{"count":"1","groups":[{"type":"others","name":"Other people here","count":"1"}]},"storeId":"204","referralId":"v-1392478014"},{"id":"4b5f3500f964a52049ad29e3","name":"The Slug and Lettuce","location":{"address":"Hanover St.","lat":"51.514005","lng":"-0.141745","distance":"79","cc":"GB","city":"London","state":"Greater London","country":"United Kingdom"},"categories":[{"id":"4bf58dd8d48988d11b941735","name":"Pub","pluralName":"Pubs","shortName":"Pub","icon":{"prefix":"https:\/\/ss1.4sqi.net\/img\/categories_v2\/nightlife\/pub_","suffix":".png"},"primary":"true"}],"verified":"false","restricted":"true","stats":{"checkinsCount":"1075","usersCount":"858","tipCount":"19"},"specials":{"count":"0"},"hereNow":{"count":"0"},"referralId":"v-1392478014"},{"id":"4b75a9acf964a520291b2ee3","name":"Thai Square","contact":{"phone":"+442074993333","formattedPhone":"+44 20 7499 3333","twitter":"thaisquaregroup"},"location":{"address":"Prince's St, Hanover Sq","lat":"51.514571","lng":"-0.142586","distance":"34","postalCode":"W1B 2LF","cc":"GB","city":"Mayfair","state":"Greater London","country":"United Kingdom"},"categories":[{"id":"4bf58dd8d48988d149941735","name":"Thai Restaurant","pluralName":"Thai Restaurants","shortName":"Thai","icon":{"prefix":"https:\/\/ss1.4sqi.net\/img\/categories_v2\/food\/thai_","suffix":".png"},"primary":"true"}],"verified":"false","restricted":"true","stats":{"checkinsCount":"256","usersCount":"219","tipCount":"4"},"url":"http:\/\/thaisq.com","specials":{"count":"0"},"hereNow":{"count":"0"},"referralId":"v-1392478014"},{"id":"4e599649b61c4aaa3e00675d","name":"Oxford Circus Bus Stop","location":{"address":"Oxford St","lat":"51.51524296562171","lng":"-0.14188912939052956","distance":"123","cc":"GB","city":"London","state":"Greater London","country":"United Kingdom"},"categories":[{"id":"4bf58dd8d48988d1fe931735","name":"Bus Station","pluralName":"Bus Stations","shortName":"Bus Station","icon":{"prefix":"https:\/\/ss1.4sqi.net\/img\/categories_v2\/travel\/busstation_","suffix":".png"},"primary":"true"}],"verified":"false","restricted":"true","stats":{"checkinsCount":"815","usersCount":"723","tipCount":"2"},"specials":{"count":"0"},"hereNow":{"count":"1","groups":[{"type":"others","name":"Other people here","count":"1"}]},"referralId":"v-1392478014"},{"id":"4aeb4302f964a52047c021e3","name":"McDonald's","location":{"address":"185-187 Oxford St","crossStreet":"Harewood Pl","lat":"51.514912121454984","lng":"-0.14368057250976562","distance":"92","postalCode":"W1D 2JU","cc":"GB","city":"Oxford Circus","state":"Greater London","country":"United Kingdom"},"categories":[{"id":"4bf58dd8d48988d16e941735","name":"Fast Food Restaurant","pluralName":"Fast Food Restaurants","shortName":"Fast Food","icon":{"prefix":"https:\/\/ss1.4sqi.net\/img\/categories_v2\/food\/fastfood_","suffix":".png"},"primary":"true"}],"verified":"false","restricted":"true","stats":{"checkinsCount":"2085","usersCount":"1538","tipCount":"14"},"specials":{"count":"0"},"hereNow":{"count":"0"},"referralId":"v-1392478014"},{"id":"524d61db11d2d55ccdc959f6","name":"Westminster","location":{"lat":"51.51436035140355","lng":"-0.1416497259631194","distance":"80","cc":"GB","city":"London W1","country":"United Kingdom"},"categories":[{"id":"4f2a25ac4b909258e854f55f","name":"Neighborhood","pluralName":"Neighborhoods","shortName":"Neighborhood","icon":{"prefix":"https:\/\/ss1.4sqi.net\/img\/categories_v2\/parks_outdoors\/neighborhood_","suffix":".png"},"primary":"true"}],"verified":"false","restricted":"true","stats":{"checkinsCount":"170","usersCount":"153","tipCount":"0"},"specials":{"count":"0"},"hereNow":{"count":"0"},"referralId":"v-1392478014"},{"id":"4f66fd1ac2ee2f0b4072183d","name":"Pret A Manger","contact":{"phone":"+442079325464","formattedPhone":"+44 20 7932 5464","twitter":"pret","facebook":"162638680417951"},"location":{"address":"13 Hanover Sq.","lat":"51.51439133806654","lng":"-0.1438736915588379","distance":"75","postalCode":"W1S 1HN","cc":"GB","city":"Mayfair","state":"Greater London","country":"United Kingdom"},"categories":[{"id":"4bf58dd8d48988d1c5941735","name":"Sandwich Place","pluralName":"Sandwich Places","shortName":"Sandwiches","icon":{"prefix":"https:\/\/ss1.4sqi.net\/img\/categories_v2\/food\/sandwiches_","suffix":".png"},"primary":"true"}],"verified":"true","restricted":"true","stats":{"checkinsCount":"701","usersCount":"526","tipCount":"11"},"url":"http:\/\/www.pret.com","specials":{"count":"0"},"hereNow":{"count":"0"},"storeId":"305","referralId":"v-1392478014"},{"id":"4bbf26a9b083a5934ae9a2e9","name":"Hanover Square","location":{"address":"Hanover Sq","lat":"51.51379192261022","lng":"-0.1438683271408081","distance":"92","postalCode":"W1S","cc":"GB","city":"Mayfair","state":"Greater London","country":"United Kingdom"},"categories":[{"id":"4bf58dd8d48988d164941735","name":"Plaza","pluralName":"Plazas","shortName":"Plaza","icon":{"prefix":"https:\/\/ss1.4sqi.net\/img\/categories_v2\/parks_outdoors\/plaza_","suffix":".png"},"primary":"true"}],"verified":"false","restricted":"true","stats":{"checkinsCount":"2761","usersCount":"1035","tipCount":"10"},"url":"http:\/\/www.thaisq.com","reservations":{"url":"http:\/\/www.toptable.co.uk\/single.aspx?rid=25800&ref=9601"},"menu":{"type":"Menu","label":"Menu","anchor":"View Menu","url":"https:\/\/foursquare.com\/v\/hanover-square\/4bbf26a9b083a5934ae9a2e9\/menu","mobileUrl":"https:\/\/foursquare.com\/v\/4bbf26a9b083a5934ae9a2e9\/device_menu"},"specials":{"count":"0"},"hereNow":{"count":"0"},"referralId":"v-1392478014"},{"id":"4bf95bab4a67c9284aaf26cf","name":"AllSaints","contact":{"phone":"+442072922540","formattedPhone":"+44 20 7292 2540","twitter":"allsaints_"},"location":{"address":"240, Regent Street","lat":"51.51426791973946","lng":"-0.14150100004544997","distance":"90","postalCode":"W1B 3BR","cc":"GB","city":"London","state":"Greater London","country":"United Kingdom"},"categories":[{"id":"4bf58dd8d48988d103951735","name":"Clothing Store","pluralName":"Clothing Stores","shortName":"Apparel","icon":{"prefix":"https:\/\/ss1.4sqi.net\/img\/categories_v2\/shops\/apparel_","suffix":".png"},"primary":"true"}],"verified":"true","restricted":"true","stats":{"checkinsCount":"888","usersCount":"637","tipCount":"6"},"url":"http:\/\/www.allsaints.com","specials":{"count":"0"},"hereNow":{"count":"0"},"referralId":"v-1392478014"},{"id":"4d3df7635f5488bfc2d546e6","name":"Pollen Street Social","contact":{"phone":"+442072907600","formattedPhone":"+44 20 7290 7600"},"location":{"address":"8-10 Pollen St","lat":"51.51344603598195","lng":"-0.14226597579334735","distance":"100","postalCode":"W1S 1NQ","cc":"GB","city":"Mayfair","state":"Greater London","country":"United Kingdom"},"categories":[{"id":"4bf58dd8d48988d11e941735","name":"Cocktail Bar","pluralName":"Cocktail Bars","shortName":"Cocktail","icon":{"prefix":"https:\/\/ss1.4sqi.net\/img\/categories_v2\/nightlife\/cocktails_","suffix":".png"},"primary":"true"}],"verified":"false","restricted":"true","stats":{"checkinsCount":"1288","usersCount":"960","tipCount":"50"},"url":"http:\/\/www.pollenstreetsocial.com","reservations":{"url":"http:\/\/www.toptable.co.uk\/single.aspx?rid=94350&ref=9601"},"specials":{"count":"0"},"hereNow":{"count":"0"},"referralId":"v-1392478014"},{"id":"4b75574ef964a5203d072ee3","name":"Itsu","contact":{"phone":"+442074919799","formattedPhone":"+44 20 7491 9799","twitter":"itsuofficial"},"location":{"address":"Vogue House","crossStreet":"1 Hanover Square","lat":"51.513776","lng":"-0.143513","distance":"75","postalCode":"W1S 1HA","cc":"GB","city":"London","state":"Greater London","country":"United Kingdom"},"categories":[{"id":"4bf58dd8d48988d1d2941735","name":"Sushi Restaurant","pluralName":"Sushi Restaurants","shortName":"Sushi","icon":{"prefix":"https:\/\/ss1.4sqi.net\/img\/categories_v2\/food\/sushi_","suffix":".png"},"primary":"true"}],"verified":"true","restricted":"true","stats":{"checkinsCount":"747","usersCount":"287","tipCount":"6"},"menu":{"type":"Menu","label":"Menu","anchor":"View Menu","url":"https:\/\/foursquare.com\/v\/itsu\/4b75574ef964a5203d072ee3\/menu","mobileUrl":"https:\/\/foursquare.com\/v\/4b75574ef964a5203d072ee3\/device_menu"},"specials":{"count":"0"},"hereNow":{"count":"0"},"referralId":"v-1392478014"},{"id":"52aefc2111d2696d7989ab7a","name":"KIKO Make Up Milano","location":{"lat":"51.51495526194708","lng":"-0.14177933317401106","distance":"102","cc":"GB","country":"United Kingdom"},"categories":[{"id":"4bf58dd8d48988d10c951735","name":"Cosmetics Shop","pluralName":"Cosmetics Shops","shortName":"Cosmetics","icon":{"prefix":"https:\/\/ss1.4sqi.net\/img\/categories_v2\/shops\/beauty_cosmetic_","suffix":".png"},"primary":"true"}],"verified":"false","restricted":"true","stats":{"checkinsCount":"16","usersCount":"16","tipCount":"0"},"specials":{"count":"0"},"hereNow":{"count":"2","groups":[{"type":"others","name":"Other people here","count":"2"}]},"referralId":"v-1392478014"},{"id":"529dcce211d2210dff7bcf68","name":"Benugo","contact":{"phone":"+442074992530","formattedPhone":"+44 20 7499 2530"},"location":{"address":"11-12 Hanover Street","lat":"51.51384557726658","lng":"-0.14254940695768997","distance":"52","postalCode":"W1S 1YQ","cc":"GB","city":"London","state":"Greater London","country":"United Kingdom"},"categories":[{"id":"4bf58dd8d48988d1c5941735","name":"Sandwich Place","pluralName":"Sandwich Places","shortName":"Sandwiches","icon":{"prefix":"https:\/\/ss1.4sqi.net\/img\/categories_v2\/food\/sandwiches_","suffix":".png"},"primary":"true"}],"verified":"false","restricted":"true","stats":{"checkinsCount":"29","usersCount":"22","tipCount":"0"},"specials":{"count":"0"},"hereNow":{"count":"0"},"referralId":"v-1392478014"},{"id":"52761dea11d260ffc0f5be5a","name":"Starbucks Harewood Place","location":{"address":"Harewood Place","lat":"51.514642","lng":"-0.144045","distance":"94","cc":"GB","country":"United Kingdom"},"categories":[{"id":"4bf58dd8d48988d1e0931735","name":"Coffee Shop","pluralName":"Coffee Shops","shortName":"Coffee Shop","icon":{"prefix":"https:\/\/ss1.4sqi.net\/img\/categories_v2\/food\/coffeeshop_","suffix":".png"},"primary":"true"}],"verified":"false","restricted":"true","stats":{"checkinsCount":"99","usersCount":"86","tipCount":"0"},"specials":{"count":"0"},"hereNow":{"count":"0"},"referralId":"v-1392478014"},{"id":"4ac518edf964a520a6ac20e3","name":"Karen Millen","contact":{"phone":"+442076291901","formattedPhone":"+44 20 7629 1901","twitter":"karenmillen"},"location":{"address":"247 Regent St","lat":"51.51443139853858","lng":"-0.14230728149414062","distance":"37","postalCode":"W1B 2EW","cc":"GB","city":"London","state":"Greater London","country":"United Kingdom"},"categories":[{"id":"4bf58dd8d48988d108951735","name":"Women's Store","pluralName":"Women's Stores","shortName":"Women's Store","icon":{"prefix":"https:\/\/ss1.4sqi.net\/img\/categories_v2\/shops\/apparel_women_","suffix":".png"},"primary":"true"}],"verified":"true","restricted":"true","stats":{"checkinsCount":"192","usersCount":"163","tipCount":"2"},"specials":{"count":"0"},"hereNow":{"count":"0"},"referralId":"v-1392478014"},{"id":"4af2f214f964a52057e921e3","name":"H&M","contact":{"phone":"+448447369000","formattedPhone":"+44 844 736 9000","twitter":"hmunitedkingdom"},"location":{"address":"234 Regent St","lat":"51.514042516739565","lng":"-0.14147586333727757","distance":"95","postalCode":"W1B 3BR","cc":"GB","city":"London","state":"Greater London","country":"United Kingdom"},"categories":[{"id":"4bf58dd8d48988d103951735","name":"Clothing Store","pluralName":"Clothing Stores","shortName":"Apparel","icon":{"prefix":"https:\/\/ss1.4sqi.net\/img\/categories_v2\/shops\/apparel_","suffix":".png"},"primary":"true"}],"verified":"false","restricted":"true","stats":{"checkinsCount":"1137","usersCount":"909","tipCount":"11"},"url":"http:\/\/www.hm.com","specials":{"count":"0"},"hereNow":{"count":"0"},"referralId":"v-1392478014"},{"id":"4b585ce5f964a520665428e3","name":"1 Hanover Street","location":{"address":"1 Hanover Street","lat":"51.51417010575378","lng":"-0.14193085612025805","distance":"61","postalCode":"W1S 1","cc":"GB","city":"London","state":"Greater London","country":"United Kingdom"},"categories":[{"id":"4bf58dd8d48988d174941735","name":"Coworking Space","pluralName":"Coworking Spaces","shortName":"Coworking Space","icon":{"prefix":"https:\/\/ss1.4sqi.net\/img\/categories_v2\/building\/office_coworkingspace_","suffix":".png"},"primary":"true"}],"verified":"false","restricted":"true","stats":{"checkinsCount":"979","usersCount":"121","tipCount":"1"},"specials":{"count":"0"},"hereNow":{"count":"0"},"referralId":"v-1392478014"},{"id":"4e3408676365289ac8674186","name":"Garfunkel's","location":{"address":"289-291 Oxford St","crossStreet":"Duke street","lat":"51.51516872103438","lng":"-0.1438544834150011","distance":"122","cc":"GB","city":"London","state":"Greater London","country":"United Kingdom"},"categories":[{"id":"4bf58dd8d48988d1c4941735","name":"Restaurant","pluralName":"Restaurants","shortName":"Restaurant","icon":{"prefix":"https:\/\/ss1.4sqi.net\/img\/categories_v2\/food\/default_","suffix":".png"},"primary":"true"}],"verified":"false","restricted":"true","stats":{"checkinsCount":"1094","usersCount":"1017","tipCount":"26"},"specials":{"count":"0"},"hereNow":{"count":"0"},"referralId":"v-1392478014"},{"id":"5237207711d2bbb2fe31a03b","name":"Longchamp","location":{"address":"Oxford Circus","lat":"51.51408841125566","lng":"-0.14152805550314157","distance":"91","cc":"GB","city":"London","state":"Greater London","country":"United Kingdom"},"categories":[{"id":"5032781d91d4c4b30a586d5b","name":"Tailor Shop","pluralName":"Tailor Shops","shortName":"Tailor","icon":{"prefix":"https:\/\/ss1.4sqi.net\/img\/categories_v2\/shops\/apparel_","suffix":".png"},"primary":"true"}],"verified":"false","restricted":"true","stats":{"checkinsCount":"56","usersCount":"51","tipCount":"0"},"specials":{"count":"0"},"hereNow":{"count":"1","groups":[{"type":"others","name":"Other people here","count":"1"}]},"referralId":"v-1392478014"},{"id":"4ba623a6f964a520573639e3","name":"A|X Armani Exchange","contact":{"phone":"+442074797760","formattedPhone":"+44 20 7479 7760","twitter":"armaniexchange"},"location":{"address":"244 Regent St","crossStreet":"at Little Argyll St","lat":"51.51435127755928","lng":"-0.14154553413391113","distance":"87","postalCode":"W1B 3RB","cc":"GB","city":"London","state":"Greater London","country":"United Kingdom"},"categories":[{"id":"4bf58dd8d48988d103951735","name":"Clothing Store","pluralName":"Clothing Stores","shortName":"Apparel","icon":{"prefix":"https:\/\/ss1.4sqi.net\/img\/categories_v2\/shops\/apparel_","suffix":".png"},"primary":"true"}],"verified":"true","restricted":"true","stats":{"checkinsCount":"917","usersCount":"659","tipCount":"7"},"specials":{"count":"0"},"hereNow":{"count":"0"},"referralId":"v-1392478014"},{"id":"51430b66e4b0823a367c58f9","name":"Little Social","contact":{"phone":"+442078703730","formattedPhone":"+44 20 7870 3730"},"location":{"address":"5 Pollen Street","lat":"51.513416522387836","lng":"-0.1422750949859619","distance":"103","postalCode":"W1S 1NQ","cc":"GB","city":"London","state":"Greater London","country":"United Kingdom"},"categories":[{"id":"4bf58dd8d48988d10c941735","name":"French Restaurant","pluralName":"French Restaurants","shortName":"French","icon":{"prefix":"https:\/\/ss1.4sqi.net\/img\/categories_v2\/food\/french_","suffix":".png"},"primary":"true"}],"verified":"false","restricted":"true","stats":{"checkinsCount":"227","usersCount":"211","tipCount":"14"},"url":"http:\/\/littlesocial.co.uk","reservations":{"url":"http:\/\/www.toptable.co.uk\/single.aspx?rid=95631&ref=9601"},"menu":{"type":"Menu","label":"Menu","anchor":"View Menu","url":"https:\/\/foursquare.com\/v\/little-social\/51430b66e4b0823a367c58f9\/menu","mobileUrl":"https:\/\/foursquare.com\/v\/51430b66e4b0823a367c58f9\/device_menu"},"specials":{"count":"0"},"hereNow":{"count":"0"},"storeId":"","referralId":"v-1392478014"},{"id":"50a26090e4123a6ab3b4bf05","name":"Starbucks","contact":{"phone":"+442074953936","formattedPhone":"+44 20 7495 3936","twitter":"starbucksuk"},"location":{"address":"13b Hanover Square","lat":"51.51419103517786","lng":"-0.14363765716552734","distance":"58","postalCode":"W1S 1HN","cc":"GB","city":"London","state":"Greater London","country":"United Kingdom"},"categories":[{"id":"4bf58dd8d48988d1e0931735","name":"Coffee Shop","pluralName":"Coffee Shops","shortName":"Coffee Shop","icon":{"prefix":"https:\/\/ss1.4sqi.net\/img\/categories_v2\/food\/coffeeshop_","suffix":".png"},"primary":"true"}],"verified":"true","restricted":"true","stats":{"checkinsCount":"637","usersCount":"501","tipCount":"10"},"specials":{"count":"0"},"hereNow":{"count":"0"},"referralId":"v-1392478014"}],"confident":"true"}}