{"meta":{"code":"200"},"response":{"venues":[{"id":"4ac518dbf964a5200aa920e3","name":"Bombay Palace","location":{"address":"50 Connaught Street","lat":"51.5141533","lng":"-0.1679554","distance":"18","postalCode":"W2 2AA","cc":"GB","city":"London","state":"Greater London","country":"United Kingdom"},"categories":[{"id":"4bf58dd8d48988d10f941735","name":"Indian Restaurant","pluralName":"Indian Restaurants","shortName":"Indian","icon":{"prefix":"https:\/\/ss1.4sqi.net\/img\/categories_v2\/food\/indian_","suffix":".png"},"primary":"true"}],"verified":"false","restricted":"true","stats":{"checkinsCount":"212","usersCount":"172","tipCount":"9"},"url":"http:\/\/bombay-palace.co.uk\/index.php","reservations":{"url":"http:\/\/www.toptable.co.uk\/single.aspx?rid=92097&ref=9601"},"menu":{"type":"Menu","label":"Menu","anchor":"View Menu","url":"https:\/\/foursquare.com\/v\/bombay-palace\/4ac518dbf964a5200aa920e3\/menu","mobileUrl":"https:\/\/foursquare.com\/v\/4ac518dbf964a5200aa920e3\/device_menu"},"specials":{"count":"0"},"hereNow":{"count":"0"},"referralId":"v-1392478012"},{"id":"4f450c7fe4b025d843e8a99b","name":"Le Pain Quotidien","contact":{"phone":"+442074866154","formattedPhone":"+44 20 7486 6154"},"location":{"address":"30-31 Kendal St.","lat":"51.51437847539266","lng":"-0.1669890395460027","distance":"57","postalCode":"W2 2AW","cc":"GB","city":"London","state":"Greater London","country":"United Kingdom"},"categories":[{"id":"4bf58dd8d48988d16d941735","name":"Caf\u00e9","pluralName":"Caf\u00e9s","shortName":"Caf\u00e9","icon":{"prefix":"https:\/\/ss1.4sqi.net\/img\/categories_v2\/food\/cafe_","suffix":".png"},"primary":"true"}],"verified":"false","restricted":"true","stats":{"checkinsCount":"462","usersCount":"250","tipCount":"6"},"specials":{"count":"0"},"hereNow":{"count":"0"},"referralId":"v-1392478012"},{"id":"5098d0e2e4b0bd19423a6e18","name":"Hyde Park Square","location":{"address":"Hyde Park Sq","lat":"51.51397070098306","lng":"-0.16905426979064941","distance":"93","cc":"GB","city":"London","state":"Greater London","country":"United Kingdom"},"categories":[{"id":"4bf58dd8d48988d15a941735","name":"Garden","pluralName":"Gardens","shortName":"Garden","icon":{"prefix":"https:\/\/ss1.4sqi.net\/img\/categories_v2\/parks_outdoors\/garden_","suffix":".png"},"primary":"true"}],"verified":"false","restricted":"true","stats":{"checkinsCount":"932","usersCount":"545","tipCount":"4"},"specials":{"count":"0"},"hereNow":{"count":"0"},"referralId":"v-1392478012"},{"id":"4dd78152e4cd37c893ad2870","name":"Hyde Park Veterinary Centre","location":{"lat":"51.514238980997135","lng":"-0.16727600415909236","distance":"36","cc":"GB","city":"Paddington","state":"Greater London","country":"United Kingdom"},"categories":[{"id":"4d954af4a243a5684765b473","name":"Veterinarian","pluralName":"Veterinarians","shortName":"Veterinarians","icon":{"prefix":"https:\/\/ss1.4sqi.net\/img\/categories_v2\/building\/medical_veterinarian_","suffix":".png"},"primary":"true"}],"verified":"false","restricted":"true","stats":{"checkinsCount":"76","usersCount":"32","tipCount":"0"},"specials":{"count":"0"},"hereNow":{"count":"0"},"referralId":"v-1392478012"},{"id":"4bd1ec059854d13a1189fa4d","name":"Duke of Kendal","location":{"address":"38 Connaught St.","lat":"51.5145946391238","lng":"-0.16628968157516746","distance":"110","postalCode":"W2 2AF","cc":"GB","city":"City of Westminster","state":"Greater London","country":"United Kingdom"},"categories":[{"id":"4bf58dd8d48988d11b941735","name":"Pub","pluralName":"Pubs","shortName":"Pub","icon":{"prefix":"https:\/\/ss1.4sqi.net\/img\/categories_v2\/nightlife\/pub_","suffix":".png"},"primary":"true"}],"verified":"false","restricted":"true","stats":{"checkinsCount":"537","usersCount":"342","tipCount":"10"},"url":"http:\/\/dukeofkendal.tripod.com","specials":{"count":"0"},"hereNow":{"count":"0"},"referralId":"v-1392478012"},{"id":"4b867384f964a520aa8a31e3","name":"Cocomaya","contact":{"phone":"+442077062770","formattedPhone":"+44 20 7706 2770"},"location":{"address":"35 Connaught St","lat":"51.51475","lng":"-0.165159","distance":"190","postalCode":"W2 2az","cc":"GB","city":"Paddington","state":"Greater London","country":"United Kingdom"},"categories":[{"id":"4bf58dd8d48988d16a941735","name":"Bakery","pluralName":"Bakeries","shortName":"Bakery","icon":{"prefix":"https:\/\/ss1.4sqi.net\/img\/categories_v2\/food\/bakery_","suffix":".png"},"primary":"true"}],"verified":"false","restricted":"true","stats":{"checkinsCount":"502","usersCount":"283","tipCount":"16"},"specials":{"count":"0"},"hereNow":{"count":"0"},"referralId":"v-1392478012"},{"id":"4f912528e4b076d2c9254007","name":"Connaught Village","location":{"lat":"51.514373309593246","lng":"-0.16716825069785368","distance":"44","cc":"GB","country":"United Kingdom"},"categories":[{"id":"4d954b06a243a5684965b473","name":"Residential Building (Apartment \/ Condo)","pluralName":"Residential Buildings (Apartments \/ Condos)","shortName":"Residential","icon":{"prefix":"https:\/\/ss1.4sqi.net\/img\/categories_v2\/building\/apartment_","suffix":".png"},"primary":"true"}],"verified":"false","restricted":"true","stats":{"checkinsCount":"131","usersCount":"31","tipCount":"0"},"specials":{"count":"0"},"hereNow":{"count":"0"},"referralId":"v-1392478012"},{"id":"4b69ead9f964a52007bc2be3","name":"Colbeh Restaurant","location":{"address":"6 Porchester Pl.","lat":"51.51482254950908","lng":"-0.16511257171152832","distance":"195","postalCode":"W2 2BS","cc":"GB","city":"Paddington","state":"Greater London","country":"United Kingdom"},"categories":[{"id":"4bf58dd8d48988d115941735","name":"Middle Eastern Restaurant","pluralName":"Middle Eastern Restaurants","shortName":"Middle Eastern","icon":{"prefix":"https:\/\/ss1.4sqi.net\/img\/categories_v2\/food\/default_","suffix":".png"},"primary":"true"}],"verified":"false","restricted":"true","stats":{"checkinsCount":"522","usersCount":"362","tipCount":"24"},"specials":{"count":"0"},"hereNow":{"count":"0"},"referralId":"v-1392478012"},{"id":"4c48287389a6c9b668739c88","name":"Raynham Building","location":{"address":"Norfolk Cresent","lat":"51.515875674347065","lng":"-0.1679008499295744","distance":"176","postalCode":"W2 2","cc":"GB","city":"London","state":"Greater London","country":"United Kingdom"},"categories":[{"id":"4d954b06a243a5684965b473","name":"Residential Building (Apartment \/ Condo)","pluralName":"Residential Buildings (Apartments \/ Condos)","shortName":"Residential","icon":{"prefix":"https:\/\/ss1.4sqi.net\/img\/categories_v2\/building\/apartment_","suffix":".png"},"primary":"true"}],"verified":"false","restricted":"true","stats":{"checkinsCount":"104","usersCount":"14","tipCount":"0"},"specials":{"count":"0"},"hereNow":{"count":"0"},"referralId":"v-1392478012"},{"id":"52485482498e17fa18adc1a0","name":"Pardis Shisha Garden","location":{"address":"29 Connaught Street","lat":"51.51426760059494","lng":"-0.16552858407972976","distance":"157","cc":"GB","city":"London","state":"Greater London","country":"United Kingdom"},"categories":[{"id":"4bf58dd8d48988d119941735","name":"Hookah Bar","pluralName":"Hookah Bars","shortName":"Hookah Bar","icon":{"prefix":"https:\/\/ss1.4sqi.net\/img\/categories_v2\/nightlife\/hookahbar_","suffix":".png"},"primary":"true"}],"verified":"false","restricted":"true","stats":{"checkinsCount":"85","usersCount":"33","tipCount":"0"},"specials":{"count":"0"},"hereNow":{"count":"0"},"referralId":"v-1392478012"},{"id":"4bcfeb3b41b9ef3b3757f9e5","name":"Connaught Square","location":{"address":"Connaught Sq.","lat":"51.51450320015944","lng":"-0.16432144062663553","distance":"242","postalCode":"W2 2","cc":"GB","city":"Paddington","state":"Greater London","country":"United Kingdom"},"categories":[{"id":"4bf58dd8d48988d15a941735","name":"Garden","pluralName":"Gardens","shortName":"Garden","icon":{"prefix":"https:\/\/ss1.4sqi.net\/img\/categories_v2\/parks_outdoors\/garden_","suffix":".png"},"primary":"true"}],"verified":"false","restricted":"true","stats":{"checkinsCount":"586","usersCount":"144","tipCount":"4"},"specials":{"count":"0"},"hereNow":{"count":"0"},"referralId":"v-1392478012"},{"id":"4ba7f496f964a52095c139e3","name":"Videoplaza","location":{"address":"77 Oxford Street","lat":"51.514355","lng":"-0.167546","distance":"19","postalCode":"W1D 2ES","cc":"GB","city":"London","state":"Greater London","country":"United Kingdom"},"verified":"false","restricted":"true","stats":{"checkinsCount":"2","usersCount":"2","tipCount":"0"},"specials":{"count":"0"},"hereNow":{"count":"0"},"referralId":"v-1392478012"},{"id":"4ebfcf728231b62f425d9070","name":"Pardis Restaurant","contact":{"phone":"+442074028933","formattedPhone":"+44 20 7402 8933"},"location":{"address":"29 Connaught Street","lat":"51.514508195519944","lng":"-0.1655873339684042","distance":"155","postalCode":"W22AY","cc":"GB","city":"London","state":"Greater London","country":"United Kingdom"},"categories":[{"id":"4bf58dd8d48988d115941735","name":"Middle Eastern Restaurant","pluralName":"Middle Eastern Restaurants","shortName":"Middle Eastern","icon":{"prefix":"https:\/\/ss1.4sqi.net\/img\/categories_v2\/food\/default_","suffix":".png"},"primary":"true"}],"verified":"false","restricted":"true","stats":{"checkinsCount":"242","usersCount":"144","tipCount":"5"},"specials":{"count":"0"},"hereNow":{"count":"0"},"referralId":"v-1392478012"},{"id":"51e80884498eb9f9cb01582b","name":"Kurobuta Marble Arch","contact":{"twitter":"kurobutalondon","facebook":"162609783945853"},"location":{"address":"17-20 Kendal Street","crossStreet":"Connaught Street","lat":"51.5147705078125","lng":"-0.16656360030174255","distance":"101","postalCode":"W2 2AW","cc":"GB","city":"London","state":"Greater London","country":"United Kingdom"},"categories":[{"id":"4bf58dd8d48988d111941735","name":"Japanese Restaurant","pluralName":"Japanese Restaurants","shortName":"Japanese","icon":{"prefix":"https:\/\/ss1.4sqi.net\/img\/categories_v2\/food\/japanese_","suffix":".png"},"primary":"true"}],"verified":"true","restricted":"true","stats":{"checkinsCount":"6","usersCount":"1","tipCount":"0"},"reservations":{"url":"http:\/\/www.toptable.co.uk\/single.aspx?rid=97002&ref=9601"},"specials":{"count":"0"},"hereNow":{"count":"0"},"referralId":"v-1392478012"},{"id":"4df7a9321f6e94c2c78064ee","name":"Masgouf","location":{"address":"41 Connaugh St","lat":"51.514627","lng":"-0.166063","distance":"126","postalCode":"W2 2BB","cc":"GB","city":"Paddington","state":"Greater London","country":"United Kingdom"},"categories":[{"id":"4bf58dd8d48988d115941735","name":"Middle Eastern Restaurant","pluralName":"Middle Eastern Restaurants","shortName":"Middle Eastern","icon":{"prefix":"https:\/\/ss1.4sqi.net\/img\/categories_v2\/food\/default_","suffix":".png"},"primary":"true"}],"verified":"false","restricted":"true","stats":{"checkinsCount":"122","usersCount":"104","tipCount":"2"},"specials":{"count":"0"},"hereNow":{"count":"0"},"referralId":"v-1392478012"},{"id":"4bc78b5593bdeee1a37f37ae","name":"Griffin House Hotel","location":{"address":"10 Connaught St.","lat":"51.514828","lng":"-0.164849","distance":"213","cc":"GB","city":"London","state":"Greater London","country":"United Kingdom"},"categories":[{"id":"4bf58dd8d48988d1fa931735","name":"Hotel","pluralName":"Hotels","shortName":"Hotel","icon":{"prefix":"https:\/\/ss1.4sqi.net\/img\/categories_v2\/travel\/hotel_","suffix":".png"},"primary":"true"}],"verified":"false","restricted":"true","stats":{"checkinsCount":"130","usersCount":"57","tipCount":"4"},"specials":{"count":"0"},"hereNow":{"count":"0"},"referralId":"v-1392478012"},{"id":"4c5802e8cc96c9b671227a2e","name":"Indurrah Apartments","location":{"address":"20 Porchester Place","lat":"51.5152423170396","lng":"-0.16580488778011873","distance":"174","postalCode":"W2 2PD","cc":"GB","city":"Paddington","state":"Greater London","country":"United Kingdom"},"categories":[{"id":"4bf58dd8d48988d130941735","name":"Building","pluralName":"Buildings","shortName":"Building","icon":{"prefix":"https:\/\/ss1.4sqi.net\/img\/categories_v2\/building\/default_","suffix":".png"},"primary":"true"}],"verified":"false","restricted":"true","stats":{"checkinsCount":"279","usersCount":"48","tipCount":"6"},"specials":{"count":"0"},"hereNow":{"count":"0"},"referralId":"v-1392478012"},{"id":"4bf633ecbfeac92814019436","name":"Stuzzico","contact":{"phone":"+442072629122","formattedPhone":"+44 20 7262 9122"},"location":{"address":"24 Kendal Street","lat":"51.514629","lng":"-0.166477","distance":"99","postalCode":"W2 2AW","cc":"GB","city":"London","state":"Greater London","country":"United Kingdom"},"categories":[{"id":"4bf58dd8d48988d16d941735","name":"Caf\u00e9","pluralName":"Caf\u00e9s","shortName":"Caf\u00e9","icon":{"prefix":"https:\/\/ss1.4sqi.net\/img\/categories_v2\/food\/cafe_","suffix":".png"},"primary":"true"}],"verified":"false","restricted":"true","stats":{"checkinsCount":"62","usersCount":"44","tipCount":"3"},"url":"http:\/\/www.stuzzico.co.uk","menu":{"type":"Menu","label":"Menu","anchor":"View Menu","url":"https:\/\/foursquare.com\/v\/stuzzico\/4bf633ecbfeac92814019436\/menu","mobileUrl":"https:\/\/foursquare.com\/v\/4bf633ecbfeac92814019436\/device_menu"},"specials":{"count":"0"},"hereNow":{"count":"0"},"referralId":"v-1392478012"},{"id":"4cd012e46449a0933459c8cf","name":"Porchester Place","location":{"lat":"51.51542602486219","lng":"-0.16618075762269008","distance":"169","cc":"GB","country":"United Kingdom"},"categories":[{"id":"4bf58dd8d48988d130941735","name":"Building","pluralName":"Buildings","shortName":"Building","icon":{"prefix":"https:\/\/ss1.4sqi.net\/img\/categories_v2\/building\/default_","suffix":".png"},"primary":"true"}],"verified":"false","restricted":"true","stats":{"checkinsCount":"317","usersCount":"62","tipCount":"1"},"specials":{"count":"0"},"hereNow":{"count":"0"},"referralId":"v-1392478012"},{"id":"4df8d954e4cd2129701b54b4","name":"Almaskof Restoutant","location":{"lat":"51.514617","lng":"-0.166363","distance":"106","cc":"GB","city":"Paddington","state":"Greater London","country":"United Kingdom"},"categories":[{"id":"4bf58dd8d48988d115941735","name":"Middle Eastern Restaurant","pluralName":"Middle Eastern Restaurants","shortName":"Middle Eastern","icon":{"prefix":"https:\/\/ss1.4sqi.net\/img\/categories_v2\/food\/default_","suffix":".png"},"primary":"true"}],"verified":"false","restricted":"true","stats":{"checkinsCount":"2","usersCount":"2","tipCount":"0"},"specials":{"count":"0"},"hereNow":{"count":"0"},"referralId":"v-1392478012"},{"id":"5154054fe4b0e5a8eebd0b59","name":"Chesterton Humberts","location":{"lat":"51.51432146339443","lng":"-0.1673279760300372","distance":"33","cc":"GB","country":"United Kingdom"},"categories":[{"id":"4bf58dd8d48988d124941735","name":"Office","pluralName":"Offices","shortName":"Office","icon":{"prefix":"https:\/\/ss1.4sqi.net\/img\/categories_v2\/building\/default_","suffix":".png"},"primary":"true"}],"verified":"false","restricted":"true","stats":{"checkinsCount":"7","usersCount":"2","tipCount":"0"},"specials":{"count":"0"},"hereNow":{"count":"0"},"referralId":"v-1392478012"},{"id":"4cdff9c269136dcb1590e0e6","name":"Casa Malevo","contact":{"phone":"+442074021988","formattedPhone":"+44 20 7402 1988"},"location":{"address":"23 Connaught St.","crossStreet":"at Kendal St","lat":"51.514538622222226","lng":"-0.165361","distance":"171","postalCode":"W2 2AY","cc":"GB","city":"London","state":"Greater London","country":"United Kingdom"},"categories":[{"id":"4bf58dd8d48988d107941735","name":"Argentinian Restaurant","pluralName":"Argentinian Restaurants","shortName":"Argentinian","icon":{"prefix":"https:\/\/ss1.4sqi.net\/img\/categories_v2\/food\/argentinian_","suffix":".png"},"primary":"true"}],"verified":"false","restricted":"true","stats":{"checkinsCount":"268","usersCount":"217","tipCount":"12"},"url":"http:\/\/casamalevo.com","menu":{"type":"Menu","label":"Menu","anchor":"View Menu","url":"https:\/\/foursquare.com\/v\/casa-malevo\/4cdff9c269136dcb1590e0e6\/menu","mobileUrl":"https:\/\/foursquare.com\/v\/4cdff9c269136dcb1590e0e6\/device_menu"},"specials":{"count":"0"},"hereNow":{"count":"0"},"referralId":"v-1392478012"},{"id":"4f6d033fe4b0600331f8133c","name":"The Delightful Den","location":{"lat":"51.51396175017622","lng":"-0.16760168990986948","distance":"39","cc":"GB","country":"United Kingdom"},"categories":[{"id":"4d954b06a243a5684965b473","name":"Residential Building (Apartment \/ Condo)","pluralName":"Residential Buildings (Apartments \/ Condos)","shortName":"Residential","icon":{"prefix":"https:\/\/ss1.4sqi.net\/img\/categories_v2\/building\/apartment_","suffix":".png"},"primary":"true"}],"verified":"false","restricted":"true","stats":{"checkinsCount":"18","usersCount":"3","tipCount":"0"},"specials":{"count":"0"},"hereNow":{"count":"0"},"referralId":"v-1392478012"},{"id":"4c8e305ef1e8ef3b3ba90bab","name":"Medicetics","location":{"address":"Connaught Street","lat":"51.51444777836191","lng":"-0.16585754131658864","distance":"135","cc":"GB","city":"London","state":"Greater London","country":"United Kingdom"},"verified":"false","restricted":"true","stats":{"checkinsCount":"16","usersCount":"5","tipCount":"2"},"specials":{"count":"0"},"hereNow":{"count":"0"},"referralId":"v-1392478012"},{"id":"515443e2e4b092fc55055d9b","name":"Castleacre","location":{"lat":"51.51525506288133","lng":"-0.16934776703726495","distance":"151","cc":"GB","country":"United Kingdom"},"categories":[{"id":"4d954b06a243a5684965b473","name":"Residential Building (Apartment \/ Condo)","pluralName":"Residential Buildings (Apartments \/ Condos)","shortName":"Residential","icon":{"prefix":"https:\/\/ss1.4sqi.net\/img\/categories_v2\/building\/apartment_","suffix":".png"},"primary":"true"}],"verified":"false","restricted":"true","stats":{"checkinsCount":"66","usersCount":"5","tipCount":"2"},"specials":{"count":"0"},"hereNow":{"count":"0"},"referralId":"v-1392478012"},{"id":"51b0e0f1498e40f1ba18a080","name":"Spirited Wines Connaught Village","location":{"lat":"51.51377159503418","lng":"-0.16776147207581782","distance":"57","cc":"GB","country":"United Kingdom"},"categories":[{"id":"4bf58dd8d48988d119951735","name":"Wine Shop","pluralName":"Wine Shops","shortName":"Wine Shop","icon":{"prefix":"https:\/\/ss1.4sqi.net\/img\/categories_v2\/shops\/food_wineshop_","suffix":".png"},"primary":"true"}],"verified":"false","restricted":"true","stats":{"checkinsCount":"1","usersCount":"1","tipCount":"0"},"specials":{"count":"0"},"hereNow":{"count":"0"},"referralId":"v-1392478012"},{"id":"4bfd9bebb68d0f472509e957","name":"8 Kendal Steps","location":{"lat":"51.514267","lng":"-0.166938","distance":"59","cc":"GB","country":"United Kingdom"},"verified":"false","restricted":"true","stats":{"checkinsCount":"1","usersCount":"1","tipCount":"0"},"specials":{"count":"0"},"hereNow":{"count":"0"},"referralId":"v-1392478012"},{"id":"4cee8137ed62721e31e85bfd","name":"Markus Coffee","location":{"address":"Connaught Street","lat":"51.514811","lng":"-0.1652","distance":"189","postalCode":"W2","cc":"GB","city":"London","state":"Greater London","country":"United Kingdom"},"categories":[{"id":"4bf58dd8d48988d16d941735","name":"Caf\u00e9","pluralName":"Caf\u00e9s","shortName":"Caf\u00e9","icon":{"prefix":"https:\/\/ss1.4sqi.net\/img\/categories_v2\/food\/cafe_","suffix":".png"},"primary":"true"}],"verified":"false","restricted":"true","stats":{"checkinsCount":"78","usersCount":"24","tipCount":"1"},"specials":{"count":"0"},"hereNow":{"count":"0"},"referralId":"v-1392478012"},{"id":"4c45e9b0cd5ca593cf44ff86","name":"Arvon Court","location":{"address":"5 Titchborne Row","lat":"51.514578","lng":"-0.167206","distance":"52","cc":"GB","city":"London","state":"Greater London","country":"United Kingdom"},"categories":[{"id":"4d954b06a243a5684965b473","name":"Residential Building (Apartment \/ Condo)","pluralName":"Residential Buildings (Apartments \/ Condos)","shortName":"Residential","icon":{"prefix":"https:\/\/ss1.4sqi.net\/img\/categories_v2\/building\/apartment_","suffix":".png"},"primary":"true"}],"verified":"false","restricted":"true","stats":{"checkinsCount":"66","usersCount":"4","tipCount":"0"},"specials":{"count":"0"},"hereNow":{"count":"0"},"referralId":"v-1392478012"},{"id":"4d2ee01f79dd6ea8df958cd3","name":"Jeeves of Belgravia","location":{"address":"59 Connaught Street","lat":"51.51398238097494","lng":"-0.16701703871287052","distance":"64","postalCode":"W2 2BB","cc":"GB","city":"London","state":"Greater London","country":"United Kingdom"},"categories":[{"id":"4bf58dd8d48988d1fc941735","name":"Laundry Service","pluralName":"Laundry Services","shortName":"Laundry","icon":{"prefix":"https:\/\/ss1.4sqi.net\/img\/categories_v2\/shops\/laundry_","suffix":".png"},"primary":"true"}],"verified":"false","restricted":"true","stats":{"checkinsCount":"16","usersCount":"13","tipCount":"1"},"specials":{"count":"0"},"hereNow":{"count":"0"},"referralId":"v-1392478012"}],"confident":"true"}}