{"meta":{"code":"200"},"response":{"venues":[{"id":"4aef23ccf964a520fad521e3","name":"RSA","contact":{"phone":"+442079305115","formattedPhone":"+44 20 7930 5115","twitter":"thersaorg"},"location":{"address":"8 John Adam St.","lat":"51.509463631328444","lng":"-0.12267351150512695","distance":"21","postalCode":"WC2N 6EZ","cc":"GB","city":"London","state":"Greater London","country":"United Kingdom"},"categories":[{"id":"4bf58dd8d48988d171941735","name":"Event Space","pluralName":"Event Spaces","shortName":"Event Space","icon":{"prefix":"https:\/\/ss1.4sqi.net\/img\/categories_v2\/building\/eventspace_","suffix":".png"},"primary":"true"}],"verified":"true","restricted":"true","stats":{"checkinsCount":"2312","usersCount":"1026","tipCount":"21"},"url":"http:\/\/www.thersa.org","specials":{"count":"1","items":[{"id":"50223960067d766e9b062053","type":"frequency","message":"Welcome to the RSA and thanks for checking in. You'll get 10% off your order in the Gerard Bar- just show this message at the check-out.","description":"Unlocked every check-in","finePrint":"Offer available once per customer per check in. Not available during RSA lectures.","icon":"check-in","title":"Check-in Special","provider":"foursquare","redemption":"standard","page":{"id":"34270410","firstName":"RSA","gender":"none","photo":{"prefix":"https:\/\/irs1.4sqi.net\/img\/user\/","suffix":"\/34270410-HEYALSFZFGPT04WJ.png"},"type":"venuePage","venue":{"id":"4aef23ccf964a520fad521e3"},"tips":{"count":"0"},"homeCity":"London, UK","bio":""}}]},"hereNow":{"count":"0"},"venuePage":{"id":"34270410"},"storeId":"","referralId":"v-1392478029"},{"id":"52f01830498ea41fce49ca97","name":"SKILLS 2014","contact":{"twitter":"skillssummit"},"location":{"address":"8 John Adam St","crossStreet":"Adam St","lat":"51.5093167267399","lng":"-0.12267887592315675","distance":"9","postalCode":"WC2N 6EZ","cc":"GB","city":"London","state":"Greater London","country":"United Kingdom"},"categories":[{"id":"5267e4d9e4b0ec79466e48c6","name":"Conference","pluralName":"Conferences","shortName":"Conference","icon":{"prefix":"https:\/\/ss1.4sqi.net\/img\/categories_v2\/event\/default_","suffix":".png"},"primary":"true"}],"verified":"false","restricted":"true","stats":{"checkinsCount":"10","usersCount":"9","tipCount":"2"},"specials":{"count":"0"},"hereNow":{"count":"0"},"referralId":"v-1392478029"},{"id":"4acdc130f964a520eacc20e3","name":"Adam St. Private Members Club","contact":{"phone":"+442073798000","formattedPhone":"+44 20 7379 8000","twitter":"adamstreetclub"},"location":{"address":"9 Adam St.","crossStreet":"The Strand","lat":"51.509623859310125","lng":"-0.12218779900653674","distance":"56","postalCode":"WC2N 6AA","cc":"GB","city":"London","state":"Greater London","country":"United Kingdom"},"categories":[{"id":"4bf58dd8d48988d174941735","name":"Coworking Space","pluralName":"Coworking Spaces","shortName":"Coworking Space","icon":{"prefix":"https:\/\/ss1.4sqi.net\/img\/categories_v2\/building\/office_coworkingspace_","suffix":".png"},"primary":"true"}],"verified":"false","restricted":"true","stats":{"checkinsCount":"2748","usersCount":"1023","tipCount":"24"},"url":"http:\/\/www.adamstreet.co.uk","reservations":{"url":"http:\/\/www.toptable.co.uk\/single.aspx?rid=55963&ref=9601"},"menu":{"type":"Menu","label":"Menu","anchor":"View Menu","url":"https:\/\/foursquare.com\/v\/adam-st-private-members-club\/4acdc130f964a520eacc20e3\/menu","mobileUrl":"https:\/\/foursquare.com\/v\/4acdc130f964a520eacc20e3\/device_menu"},"specials":{"count":"0"},"hereNow":{"count":"0"},"storeId":"","referralId":"v-1392478029"},{"id":"4bc6005242419521ca66031d","name":"Pizza Hut","contact":{"phone":"+442079250050","formattedPhone":"+44 20 7925 0050","twitter":"pizzahutuk"},"location":{"address":"56\/59 Strand","lat":"51.50954376090435","lng":"-0.12329578399658203","distance":"44","postalCode":"WC2N 5LR","cc":"GB","city":"London","state":"Greater London","country":"United Kingdom"},"categories":[{"id":"4bf58dd8d48988d1ca941735","name":"Pizza Place","pluralName":"Pizza Places","shortName":"Pizza","icon":{"prefix":"https:\/\/ss1.4sqi.net\/img\/categories_v2\/food\/pizza_","suffix":".png"},"primary":"true"}],"verified":"true","restricted":"true","stats":{"checkinsCount":"841","usersCount":"703","tipCount":"11"},"specials":{"count":"0"},"hereNow":{"count":"1","groups":[{"type":"others","name":"Other people here","count":"1"}]},"storeId":"228","referralId":"v-1392478029"},{"id":"4b4635a1f964a5201c1a26e3","name":"Adelphi Theatre","contact":{"phone":"+442073440055","formattedPhone":"+44 20 7344 0055"},"location":{"address":"411-412 The Strand","lat":"51.50997111626242","lng":"-0.12284517288208008","distance":"75","postalCode":"WC2R 0JT","cc":"GB","city":"London","state":"Greater London","country":"United Kingdom"},"categories":[{"id":"4bf58dd8d48988d137941735","name":"Theater","pluralName":"Theaters","shortName":"Theater","icon":{"prefix":"https:\/\/ss1.4sqi.net\/img\/categories_v2\/arts_entertainment\/performingarts_theater_","suffix":".png"},"primary":"true"}],"verified":"false","restricted":"true","stats":{"checkinsCount":"2365","usersCount":"2038","tipCount":"27"},"specials":{"count":"0"},"hereNow":{"count":"1","groups":[{"type":"others","name":"Other people here","count":"1"}]},"referralId":"v-1392478029"},{"id":"50648639e4b0593606e6b6e7","name":"Ingram House","location":{"address":"15 John Adam St.","lat":"51.50890912576165","lng":"-0.12327056042747701","distance":"53","postalCode":"WC2N","cc":"GB","city":"London","state":"Greater London","country":"United Kingdom"},"categories":[{"id":"4bf58dd8d48988d124941735","name":"Office","pluralName":"Offices","shortName":"Office","icon":{"prefix":"https:\/\/ss1.4sqi.net\/img\/categories_v2\/building\/default_","suffix":".png"},"primary":"true"}],"verified":"false","restricted":"true","stats":{"checkinsCount":"102","usersCount":"6","tipCount":"0"},"specials":{"count":"0"},"hereNow":{"count":"0"},"referralId":"v-1392478029"},{"id":"4b72fa24f964a5207e932de3","name":"Fitness First","contact":{"phone":"+442072408411","formattedPhone":"+44 20 7240 8411"},"location":{"address":"6 Bedford St.","lat":"51.50977663349805","lng":"-0.1236179294887649","distance":"78","postalCode":"WC2E 9HZ","cc":"GB","city":"London","state":"Greater London","country":"United Kingdom"},"categories":[{"id":"4bf58dd8d48988d176941735","name":"Gym","pluralName":"Gyms","shortName":"Gym","icon":{"prefix":"https:\/\/ss1.4sqi.net\/img\/categories_v2\/building\/gym_","suffix":".png"},"primary":"true"}],"verified":"true","restricted":"true","stats":{"checkinsCount":"1878","usersCount":"178","tipCount":"13"},"specials":{"count":"0"},"hereNow":{"count":"0"},"referralId":"v-1392478029"},{"id":"4b0e8fa3f964a5207c5823e3","name":"Leon","contact":{"phone":"+442072403070","formattedPhone":"+44 20 7240 3070"},"location":{"address":"73-76 Strand","lat":"51.509982840668975","lng":"-0.12256355390979863","distance":"78","postalCode":"WC2R 0DE","cc":"GB","city":"London","state":"Greater London","country":"United Kingdom"},"categories":[{"id":"4bf58dd8d48988d16e941735","name":"Fast Food Restaurant","pluralName":"Fast Food Restaurants","shortName":"Fast Food","icon":{"prefix":"https:\/\/ss1.4sqi.net\/img\/categories_v2\/food\/fastfood_","suffix":".png"},"primary":"true"}],"verified":"true","restricted":"true","stats":{"checkinsCount":"2126","usersCount":"1161","tipCount":"37"},"url":"http:\/\/www.leonrestaurants.co.uk","specials":{"count":"0"},"hereNow":{"count":"0"},"referralId":"v-1392478029"},{"id":"4ac518baf964a520fea120e3","name":"Retro Bar","contact":{"phone":"+442078398760","formattedPhone":"+44 20 7839 8760"},"location":{"address":"St George's Court","crossStreet":"The Strand","lat":"51.50905964257018","lng":"-0.1237410306930542","distance":"69","postalCode":"WC2N 6HH","cc":"GB","city":"London","state":"Greater London","country":"United Kingdom"},"categories":[{"id":"4bf58dd8d48988d1d8941735","name":"Gay Bar","pluralName":"Gay Bars","shortName":"Gay Bar","icon":{"prefix":"https:\/\/ss1.4sqi.net\/img\/categories_v2\/nightlife\/gaybar_","suffix":".png"},"primary":"true"}],"verified":"false","restricted":"true","stats":{"checkinsCount":"2508","usersCount":"924","tipCount":"17"},"url":"http:\/\/www.retrobarlondon.co.uk","specials":{"count":"0"},"hereNow":{"count":"0"},"referralId":"v-1392478029"},{"id":"4ac518e7f964a5205fab20e3","name":"Vaudeville Theatre","contact":{"phone":"+448445791975","formattedPhone":"+44 844 579 1975"},"location":{"address":"404 Strand","lat":"51.51013137348817","lng":"-0.1224374771118164","distance":"97","postalCode":"WC2R 0NH","cc":"GB","city":"London","state":"Greater London","country":"United Kingdom"},"categories":[{"id":"4bf58dd8d48988d137941735","name":"Theater","pluralName":"Theaters","shortName":"Theater","icon":{"prefix":"https:\/\/ss1.4sqi.net\/img\/categories_v2\/arts_entertainment\/performingarts_theater_","suffix":".png"},"primary":"true"}],"verified":"false","restricted":"true","stats":{"checkinsCount":"1369","usersCount":"1088","tipCount":"12"},"url":"http:\/\/www.nimaxtheatres.com\/vaudeville-theatre\/","specials":{"count":"0"},"hereNow":{"count":"1","groups":[{"type":"others","name":"Other people here","count":"1"}]},"referralId":"v-1392478029"},{"id":"50ac00cee4b0dc61eb2b2dca","name":"The Port House","location":{"address":"17921 Strand","lat":"51.50978198887799","lng":"-0.12276978283491298","distance":"54","postalCode":"WC2N","cc":"GB","city":"London","state":"Greater London","country":"United Kingdom"},"categories":[{"id":"4bf58dd8d48988d123941735","name":"Wine Bar","pluralName":"Wine Bars","shortName":"Wine Bar","icon":{"prefix":"https:\/\/ss1.4sqi.net\/img\/categories_v2\/nightlife\/wine_","suffix":".png"},"primary":"true"}],"verified":"false","restricted":"true","stats":{"checkinsCount":"242","usersCount":"188","tipCount":"8"},"specials":{"count":"0"},"hereNow":{"count":"0"},"referralId":"v-1392478029"},{"id":"4ba0e658f964a520b28537e3","name":"Pret A Manger","contact":{"phone":"+442079325255","formattedPhone":"+44 20 7932 5255","twitter":"pret","facebook":"162638680417951"},"location":{"address":"421\/422 Strand","crossStreet":"Bedford Street","lat":"51.509870454","lng":"-0.12337114745","distance":"75","postalCode":"WC2R 0PS","cc":"GB","city":"The Strand, London","country":"United Kingdom"},"categories":[{"id":"4bf58dd8d48988d1c5941735","name":"Sandwich Place","pluralName":"Sandwich Places","shortName":"Sandwiches","icon":{"prefix":"https:\/\/ss1.4sqi.net\/img\/categories_v2\/food\/sandwiches_","suffix":".png"},"primary":"true"}],"verified":"true","restricted":"true","stats":{"checkinsCount":"900","usersCount":"551","tipCount":"4"},"url":"http:\/\/www.pret.com","specials":{"count":"0"},"hereNow":{"count":"0"},"storeId":"55","referralId":"v-1392478029"},{"id":"4b47639bf964a5209e3026e3","name":"Pearson HQ","location":{"address":"80 Strand","lat":"51.509558726774856","lng":"-0.12135772360307226","distance":"104","postalCode":"WC2R 0","cc":"GB","city":"London","state":"Greater London","country":"United Kingdom"},"categories":[{"id":"4bf58dd8d48988d124941735","name":"Office","pluralName":"Offices","shortName":"Office","icon":{"prefix":"https:\/\/ss1.4sqi.net\/img\/categories_v2\/building\/default_","suffix":".png"},"primary":"true"}],"verified":"false","restricted":"true","stats":{"checkinsCount":"2323","usersCount":"270","tipCount":"10"},"specials":{"count":"0"},"hereNow":{"count":"0"},"referralId":"v-1392478029"},{"id":"4b2a4d5bf964a52010a724e3","name":"Topshop","contact":{"twitter":"topshop"},"location":{"address":"60\/64 The Strand","lat":"51.50954376090435","lng":"-0.12320995330810547","distance":"39","postalCode":"WC2N 5LR","cc":"GB","city":"Strand","state":"Greater London","country":"United Kingdom"},"categories":[{"id":"4bf58dd8d48988d103951735","name":"Clothing Store","pluralName":"Clothing Stores","shortName":"Apparel","icon":{"prefix":"https:\/\/ss1.4sqi.net\/img\/categories_v2\/shops\/apparel_","suffix":".png"},"primary":"true"}],"verified":"true","restricted":"true","stats":{"checkinsCount":"321","usersCount":"252","tipCount":"1"},"url":"http:\/\/www.topshop.com","specials":{"count":"0"},"hereNow":{"count":"0"},"storeId":"0032","referralId":"v-1392478029"},{"id":"4b99eaaaf964a520ef9635e3","name":"Zizzi","contact":{"phone":"+442072401717","formattedPhone":"+44 20 7240 1717"},"location":{"address":"73-75 The Strand","lat":"51.509997","lng":"-0.122497","distance":"81","postalCode":"WC2R 0DE","cc":"GB","city":"London","state":"Greater London","country":"United Kingdom"},"categories":[{"id":"4bf58dd8d48988d110941735","name":"Italian Restaurant","pluralName":"Italian Restaurants","shortName":"Italian","icon":{"prefix":"https:\/\/ss1.4sqi.net\/img\/categories_v2\/food\/italian_","suffix":".png"},"primary":"true"}],"verified":"true","restricted":"true","stats":{"checkinsCount":"745","usersCount":"627","tipCount":"14"},"url":"http:\/\/www.zizzi.co.uk","menu":{"type":"Menu","label":"Menu","anchor":"View Menu","url":"https:\/\/foursquare.com\/v\/zizzi\/4b99eaaaf964a520ef9635e3\/menu","mobileUrl":"https:\/\/foursquare.com\/v\/4b99eaaaf964a520ef9635e3\/device_menu"},"specials":{"count":"0"},"hereNow":{"count":"0"},"referralId":"v-1392478029"},{"id":"4e3437d0cc3f2f6e11e65625","name":"Garfunkel's","location":{"address":"420 Strand","lat":"51.50998447105276","lng":"-0.1231241226196289","distance":"80","postalCode":"WC2R 0PT","cc":"GB","city":"London","state":"Greater London","country":"United Kingdom"},"categories":[{"id":"4bf58dd8d48988d1c4941735","name":"Restaurant","pluralName":"Restaurants","shortName":"Restaurant","icon":{"prefix":"https:\/\/ss1.4sqi.net\/img\/categories_v2\/food\/default_","suffix":".png"},"primary":"true"}],"verified":"false","restricted":"true","stats":{"checkinsCount":"322","usersCount":"298","tipCount":"9"},"specials":{"count":"0"},"hereNow":{"count":"0"},"referralId":"v-1392478029"},{"id":"4ba2632df964a520dcf337e3","name":"Caff\u00e8 Nero","contact":{"phone":"+442079308483","formattedPhone":"+44 20 7930 8483"},"location":{"address":"65-72 Strand","crossStreet":"Adam St.","lat":"51.509998131532825","lng":"-0.12253509623240431","distance":"81","postalCode":"WC2N 5LR","cc":"GB","city":"London","state":"Greater London","country":"United Kingdom"},"categories":[{"id":"4bf58dd8d48988d1e0931735","name":"Coffee Shop","pluralName":"Coffee Shops","shortName":"Coffee Shop","icon":{"prefix":"https:\/\/ss1.4sqi.net\/img\/categories_v2\/food\/coffeeshop_","suffix":".png"},"primary":"true"}],"verified":"false","restricted":"true","stats":{"checkinsCount":"487","usersCount":"353","tipCount":"5"},"url":"http:\/\/www.caffenero.com","specials":{"count":"0"},"hereNow":{"count":"0"},"referralId":"v-1392478029"},{"id":"5222360a11d247cfdb249094","name":"H&M","location":{"address":"The Strand","lat":"51.509442723582275","lng":"-0.12368809702649107","distance":"63","postalCode":"WC2","cc":"GB","city":"London","state":"Greater London","country":"United Kingdom"},"categories":[{"id":"4bf58dd8d48988d103951735","name":"Clothing Store","pluralName":"Clothing Stores","shortName":"Apparel","icon":{"prefix":"https:\/\/ss1.4sqi.net\/img\/categories_v2\/shops\/apparel_","suffix":".png"},"primary":"true"}],"verified":"false","restricted":"true","stats":{"checkinsCount":"25","usersCount":"21","tipCount":"0"},"specials":{"count":"0"},"hereNow":{"count":"0"},"referralId":"v-1392478029"},{"id":"4ad2ee7ef964a520d5e220e3","name":"The Adelphi","location":{"address":"John Adam St","lat":"51.509058030056","lng":"-0.12221939028485726","distance":"47","cc":"GB","city":"London","state":"Greater London","country":"United Kingdom"},"categories":[{"id":"4bf58dd8d48988d124941735","name":"Office","pluralName":"Offices","shortName":"Office","icon":{"prefix":"https:\/\/ss1.4sqi.net\/img\/categories_v2\/building\/default_","suffix":".png"},"primary":"true"}],"verified":"false","restricted":"true","stats":{"checkinsCount":"193","usersCount":"77","tipCount":"0"},"specials":{"count":"0"},"hereNow":{"count":"0"},"referralId":"v-1392478029"},{"id":"4aef2314f964a520f0d521e3","name":"Theodore Bullfrog","contact":{"phone":"+442078392697","formattedPhone":"+44 20 7839 2697"},"location":{"address":"28 John Adam St.","lat":"51.50871741788559","lng":"-0.12394756078720093","distance":"101","postalCode":"WC2N 6HL","cc":"GB","city":"London","state":"Greater London","country":"United Kingdom"},"categories":[{"id":"4bf58dd8d48988d11b941735","name":"Pub","pluralName":"Pubs","shortName":"Pub","icon":{"prefix":"https:\/\/ss1.4sqi.net\/img\/categories_v2\/nightlife\/pub_","suffix":".png"},"primary":"true"}],"verified":"false","restricted":"true","stats":{"checkinsCount":"1042","usersCount":"648","tipCount":"13"},"url":"http:\/\/www.theodore-bullfrog.co.uk","menu":{"type":"Menu","label":"Menu","anchor":"View Menu","url":"https:\/\/foursquare.com\/v\/theodore-bullfrog\/4aef2314f964a520f0d521e3\/menu","mobileUrl":"https:\/\/foursquare.com\/v\/4aef2314f964a520f0d521e3\/device_menu"},"specials":{"count":"0"},"hereNow":{"count":"0"},"referralId":"v-1392478029"},{"id":"4ac518c0f964a520aaa320e3","name":"Bedford & Strand","contact":{"phone":"+442078363033","formattedPhone":"+44 20 7836 3033"},"location":{"address":"1a Bedford St","lat":"51.509778","lng":"-0.123598","distance":"77","postalCode":"WC2E 9HH","cc":"GB","city":"London","state":"Greater London","country":"United Kingdom"},"categories":[{"id":"4bf58dd8d48988d123941735","name":"Wine Bar","pluralName":"Wine Bars","shortName":"Wine Bar","icon":{"prefix":"https:\/\/ss1.4sqi.net\/img\/categories_v2\/nightlife\/wine_","suffix":".png"},"primary":"true"}],"verified":"false","restricted":"true","stats":{"checkinsCount":"479","usersCount":"367","tipCount":"17"},"url":"http:\/\/www.bedford-strand.com","reservations":{"url":"http:\/\/www.toptable.co.uk\/single.aspx?rid=19933&ref=9601"},"menu":{"type":"Menu","label":"Menu","anchor":"View Menu","url":"https:\/\/foursquare.com\/v\/bedford--strand\/4ac518c0f964a520aaa320e3\/menu","mobileUrl":"https:\/\/foursquare.com\/v\/4ac518c0f964a520aaa320e3\/device_menu"},"specials":{"count":"0"},"hereNow":{"count":"0"},"referralId":"v-1392478029"},{"id":"4d342c7ec75a6ea8462e1dae","name":"Itsu","contact":{"phone":"+442072407240","formattedPhone":"+44 20 7240 7240","twitter":"itsuofficial","facebook":"115164458642981"},"location":{"address":"82-83 Strand","lat":"51.510273","lng":"-0.121851","distance":"127","postalCode":"WC2R 0RE","cc":"GB","city":"London","state":"Greater London","country":"United Kingdom"},"categories":[{"id":"4bf58dd8d48988d1d2941735","name":"Sushi Restaurant","pluralName":"Sushi Restaurants","shortName":"Sushi","icon":{"prefix":"https:\/\/ss1.4sqi.net\/img\/categories_v2\/food\/sushi_","suffix":".png"},"primary":"true"}],"verified":"true","restricted":"true","stats":{"checkinsCount":"771","usersCount":"332","tipCount":"7"},"url":"http:\/\/www.itsu.com","specials":{"count":"0"},"hereNow":{"count":"0"},"storeId":"","referralId":"v-1392478029"},{"id":"500fbcaae4b083b16d4f2856","name":"London Fish & Chips","location":{"lat":"51.50997624072649","lng":"-0.12387821801698398","distance":"106","cc":"GB","country":"United Kingdom"},"categories":[{"id":"4edd64a0c7ddd24ca188df1a","name":"Fish & Chips Shop","pluralName":"Fish & Chips Shops","shortName":"Fish & Chips","icon":{"prefix":"https:\/\/ss1.4sqi.net\/img\/categories_v2\/food\/fishandchips_","suffix":".png"},"primary":"true"}],"verified":"false","restricted":"true","stats":{"checkinsCount":"187","usersCount":"157","tipCount":"14"},"specials":{"count":"0"},"hereNow":{"count":"0"},"referralId":"v-1392478029"},{"id":"4ad84d83f964a520fe1021e3","name":"Nell Gwynne Tavern","location":{"address":"1 Bull Inn Ct.","lat":"51.510071","lng":"-0.122649","distance":"87","postalCode":"WC2R 0NP","cc":"GB","city":"London","state":"Greater London","country":"United Kingdom"},"categories":[{"id":"4bf58dd8d48988d11b941735","name":"Pub","pluralName":"Pubs","shortName":"Pub","icon":{"prefix":"https:\/\/ss1.4sqi.net\/img\/categories_v2\/nightlife\/pub_","suffix":".png"},"primary":"true"}],"verified":"false","restricted":"true","stats":{"checkinsCount":"629","usersCount":"414","tipCount":"15"},"specials":{"count":"0"},"hereNow":{"count":"0"},"referralId":"v-1392478029"},{"id":"4e665daee4cdf1e2c0f5a38d","name":"Wrap It","location":{"address":"417 The Strand","lat":"51.50976666250514","lng":"-0.12292983352606376","distance":"53","cc":"GB","city":"London","state":"Greater London","country":"United Kingdom"},"categories":[{"id":"4bf58dd8d48988d115941735","name":"Middle Eastern Restaurant","pluralName":"Middle Eastern Restaurants","shortName":"Middle Eastern","icon":{"prefix":"https:\/\/ss1.4sqi.net\/img\/categories_v2\/food\/default_","suffix":".png"},"primary":"true"}],"verified":"false","restricted":"true","stats":{"checkinsCount":"202","usersCount":"159","tipCount":"7"},"specials":{"count":"0"},"hereNow":{"count":"0"},"referralId":"v-1392478029"},{"id":"4bcd8d77937ca5931adeac92","name":"Superdrug","contact":{"phone":"+442079300381","formattedPhone":"+44 20 7930 0381"},"location":{"address":"49-50 The Strand","crossStreet":"Charing Cross","lat":"51.50932934281316","lng":"-0.12393314646323181","distance":"78","postalCode":"WC2N 5LL","cc":"GB","city":"London","state":"Greater London","country":"United Kingdom"},"categories":[{"id":"4bf58dd8d48988d10f951735","name":"Drugstore \/ Pharmacy","pluralName":"Drugstores \/ Pharmacies","shortName":"Pharmacy","icon":{"prefix":"https:\/\/ss1.4sqi.net\/img\/categories_v2\/shops\/pharmacy_","suffix":".png"},"primary":"true"}],"verified":"true","restricted":"true","stats":{"checkinsCount":"336","usersCount":"197","tipCount":"2"},"specials":{"count":"0"},"hereNow":{"count":"0"},"referralId":"v-1392478029"},{"id":"50510ad9f31cea338ca10be6","name":"Bella Italia","contact":{"twitter":"big_bella"},"location":{"address":"65 Strand","lat":"51.51013137348817","lng":"-0.12228727340698242","distance":"100","postalCode":"WC2N 5LR","cc":"GB","city":"London","state":"Greater London","country":"United Kingdom"},"categories":[{"id":"4bf58dd8d48988d1c4941735","name":"Restaurant","pluralName":"Restaurants","shortName":"Restaurant","icon":{"prefix":"https:\/\/ss1.4sqi.net\/img\/categories_v2\/food\/default_","suffix":".png"},"primary":"true"}],"verified":"false","restricted":"true","stats":{"checkinsCount":"223","usersCount":"179","tipCount":"7"},"specials":{"count":"0"},"hereNow":{"count":"0"},"referralId":"v-1392478029"},{"id":"52c07eac498e51147444bfc3","name":"Sesamo Cafe","location":{"address":"418 the Strand","crossStreet":"Charing Cross","lat":"51.509887","lng":"-0.123002","distance":"67","cc":"GB","city":"London","state":"Greater London","country":"United Kingdom"},"categories":[{"id":"4bf58dd8d48988d1c0941735","name":"Mediterranean Restaurant","pluralName":"Mediterranean Restaurants","shortName":"Mediterranean","icon":{"prefix":"https:\/\/ss1.4sqi.net\/img\/categories_v2\/food\/mediterranean_","suffix":".png"},"primary":"true"}],"verified":"false","restricted":"true","stats":{"checkinsCount":"13","usersCount":"8","tipCount":"2"},"specials":{"count":"0"},"hereNow":{"count":"0"},"referralId":"v-1392478029"},{"id":"5294e15711d23dcf65e535c9","name":"The Duck House - Vaudeville Theatre","contact":{"phone":"+448444829675","formattedPhone":"+44 844 482 9675","twitter":"the_duck_house","facebook":"561118847267443"},"location":{"address":"404 The Strand","lat":"51.51024488868204","lng":"-0.12240529060363771","distance":"109","postalCode":"WC2R 0NH","cc":"GB","city":"London","state":"Greater London","country":"United Kingdom"},"categories":[{"id":"4bf58dd8d48988d137941735","name":"Theater","pluralName":"Theaters","shortName":"Theater","icon":{"prefix":"https:\/\/ss1.4sqi.net\/img\/categories_v2\/arts_entertainment\/performingarts_theater_","suffix":".png"},"primary":"true"}],"verified":"true","restricted":"true","stats":{"checkinsCount":"31","usersCount":"23","tipCount":"1"},"url":"http:\/\/the-duck-house.co.uk","specials":{"count":"0"},"hereNow":{"count":"0"},"venuePage":{"id":"72507219"},"storeId":"","referralId":"v-1392478029"},{"id":"50f95eaee4b0b14e56fa11d0","name":"Rocket Fuel","contact":{"phone":"+442036511300","formattedPhone":"+44 20 3651 1300"},"location":{"address":"Ivy Bridge House, 1-5 Adam Street","lat":"51.50959718054336","lng":"-0.12183666229248045","distance":"75","postalCode":"WC2N 6LE","cc":"GB","city":"London","state":"Greater London","country":"United Kingdom"},"categories":[{"id":"4bf58dd8d48988d124941735","name":"Office","pluralName":"Offices","shortName":"Office","icon":{"prefix":"https:\/\/ss1.4sqi.net\/img\/categories_v2\/building\/default_","suffix":".png"},"primary":"true"}],"verified":"false","restricted":"true","stats":{"checkinsCount":"31","usersCount":"16","tipCount":"0"},"specials":{"count":"0"},"hereNow":{"count":"0"},"referralId":"v-1392478029"}],"confident":"true"}}