{"meta":{"code":"200"},"response":{"venues":[{"id":"50bb5f0ee4b069aaeb023fed","name":"Costa Coffee","location":{"address":"117-119 Essex Road","lat":"51.53923302966995","lng":"-0.09816931648150276","distance":"26","postalCode":"N1 2SN","cc":"GB","city":"London","state":"Greater London","country":"United Kingdom"},"categories":[{"id":"4bf58dd8d48988d1e0931735","name":"Coffee Shop","pluralName":"Coffee Shops","shortName":"Coffee Shop","icon":{"prefix":"https:\/\/ss1.4sqi.net\/img\/categories_v2\/food\/coffeeshop_","suffix":".png"},"primary":"true"}],"verified":"false","restricted":"true","stats":{"checkinsCount":"137","usersCount":"75","tipCount":"4"},"specials":{"count":"0"},"hereNow":{"count":"0"},"referralId":"v-1392477953"},{"id":"4e842158722e7eac01116c9c","name":"Essex Road","location":{"address":"374 Essex Rd","lat":"51.53970049540425","lng":"-0.09675939452499148","distance":"85","cc":"GB","city":"Islington","state":"Greater London","country":"United Kingdom"},"categories":[{"id":"4bf58dd8d48988d14e941735","name":"American Restaurant","pluralName":"American Restaurants","shortName":"American","icon":{"prefix":"https:\/\/ss1.4sqi.net\/img\/categories_v2\/food\/default_","suffix":".png"},"primary":"true"}],"verified":"false","restricted":"true","stats":{"checkinsCount":"299","usersCount":"122","tipCount":"1"},"specials":{"count":"0"},"hereNow":{"count":"0"},"referralId":"v-1392477953"},{"id":"4aec3686f964a52086c521e3","name":"Mosquito bikes","location":{"address":"123 Essex road","lat":"51.53920786823319","lng":"-0.0980146558645233","distance":"17","cc":"GB","city":"London","state":"Greater London","country":"United Kingdom"},"categories":[{"id":"4bf58dd8d48988d115951735","name":"Bike Shop","pluralName":"Bike Shops","shortName":"Bike shop","icon":{"prefix":"https:\/\/ss1.4sqi.net\/img\/categories_v2\/shops\/bikeshop_","suffix":".png"},"primary":"true"}],"verified":"false","restricted":"true","stats":{"checkinsCount":"47","usersCount":"38","tipCount":"3"},"specials":{"count":"0"},"hereNow":{"count":"0"},"referralId":"v-1392477953"},{"id":"4b47bd03f964a5209d3c26e3","name":"The New Rose","contact":{"phone":"+442072261082","formattedPhone":"+44 20 7226 1082","twitter":"thenewrosepub"},"location":{"address":"84-86 Essex Rd.","lat":"51.538457","lng":"-0.0992","distance":"133","cc":"GB","city":"Islington","state":"Greater London","country":"United Kingdom"},"categories":[{"id":"4bf58dd8d48988d11b941735","name":"Pub","pluralName":"Pubs","shortName":"Pub","icon":{"prefix":"https:\/\/ss1.4sqi.net\/img\/categories_v2\/nightlife\/pub_","suffix":".png"},"primary":"true"}],"verified":"false","restricted":"true","stats":{"checkinsCount":"1477","usersCount":"750","tipCount":"18"},"url":"http:\/\/www.thenewrose.co.uk","specials":{"count":"0"},"hereNow":{"count":"1","groups":[{"type":"others","name":"Other people here","count":"1"}]},"referralId":"v-1392477953"},{"id":"4aec3461f964a52082c521e3","name":"Steve Hatt","contact":{"phone":"+442072263963","formattedPhone":"+44 20 7226 3963"},"location":{"address":"88-90 Essex Rd","lat":"51.538613","lng":"-0.099074","distance":"115","postalCode":"N1 8LU","cc":"GB","city":"Islington","state":"Greater London","country":"United Kingdom"},"categories":[{"id":"4bf58dd8d48988d10e951735","name":"Fish Market","pluralName":"Fish Markets","shortName":"Fish Market","icon":{"prefix":"https:\/\/ss1.4sqi.net\/img\/categories_v2\/shops\/food_fishmarket_","suffix":".png"},"primary":"true"}],"verified":"false","restricted":"true","stats":{"checkinsCount":"173","usersCount":"84","tipCount":"4"},"specials":{"count":"0"},"hereNow":{"count":"2","groups":[{"type":"others","name":"Other people here","count":"2"}]},"referralId":"v-1392477953"},{"id":"4acddc9ff964a5204ecd20e3","name":"Get Stuffed Taxidermy","location":{"address":"105 Essex Road,","lat":"51.538703","lng":"-0.099055","distance":"108","postalCode":"N1 2SL","cc":"GB","city":"Islington","state":"Greater London","country":"United Kingdom"},"categories":[{"id":"4bf58dd8d48988d1ff941735","name":"Miscellaneous Shop","pluralName":"Miscellaneous Shops","shortName":"Shop","icon":{"prefix":"https:\/\/ss1.4sqi.net\/img\/categories_v2\/shops\/default_","suffix":".png"},"primary":"true"}],"verified":"false","restricted":"true","stats":{"checkinsCount":"45","usersCount":"43","tipCount":"0"},"specials":{"count":"0"},"hereNow":{"count":"1","groups":[{"type":"others","name":"Other people here","count":"1"}]},"referralId":"v-1392477953"},{"id":"4bc307bdf8219c74c87bb510","name":"Market Garden","location":{"lat":"51.53858064148141","lng":"-0.09916655698719008","distance":"123","cc":"GB","country":"United Kingdom"},"categories":[{"id":"4bf58dd8d48988d1d3941735","name":"Vegetarian \/ Vegan Restaurant","pluralName":"Vegetarian \/ Vegan Restaurants","shortName":"Vegetarian \/ Vegan","icon":{"prefix":"https:\/\/ss1.4sqi.net\/img\/categories_v2\/food\/vegetarian_","suffix":".png"},"primary":"true"}],"verified":"false","restricted":"true","stats":{"checkinsCount":"98","usersCount":"25","tipCount":"5"},"specials":{"count":"0"},"hereNow":{"count":"1","groups":[{"type":"others","name":"Other people here","count":"1"}]},"referralId":"v-1392477953"},{"id":"4d837452d5fab60c055acc9b","name":"The Life Centre Islington","contact":{"phone":"+442077040919","formattedPhone":"+44 20 7704 0919","twitter":"thelifecentreuk"},"location":{"address":"1 Britannia Row","crossStreet":"Essex Road","lat":"51.53810097468596","lng":"-0.09937047958374023","distance":"171","postalCode":"N1 8QH","cc":"GB","city":"London","state":"Greater London","country":"United Kingdom"},"categories":[{"id":"4bf58dd8d48988d102941735","name":"Yoga Studio","pluralName":"Yoga Studios","shortName":"Yoga Studio","icon":{"prefix":"https:\/\/ss1.4sqi.net\/img\/categories_v2\/shops\/gym_yogastudio_","suffix":".png"},"primary":"true"}],"verified":"false","restricted":"true","stats":{"checkinsCount":"356","usersCount":"65","tipCount":"4"},"url":"http:\/\/www.thelifecentre.com","specials":{"count":"0"},"hereNow":{"count":"1","groups":[{"type":"others","name":"Other people here","count":"1"}]},"referralId":"v-1392477953"},{"id":"4f17353de4b0f1e7ba234c20","name":"Tierra Peru","contact":{"phone":"+442073545586","formattedPhone":"+44 20 7354 5586","twitter":"tierraperu"},"location":{"address":"164 Essex Road","lat":"51.54001004992632","lng":"-0.09681046908498589","distance":"105","postalCode":"N1 8LY","cc":"GB","city":"London","state":"Greater London","country":"United Kingdom"},"categories":[{"id":"4eb1bfa43b7b52c0e1adc2e8","name":"Peruvian Restaurant","pluralName":"Peruvian Restaurants","shortName":"Peruvian","icon":{"prefix":"https:\/\/ss1.4sqi.net\/img\/categories_v2\/food\/default_","suffix":".png"},"primary":"true"}],"verified":"true","restricted":"true","stats":{"checkinsCount":"210","usersCount":"179","tipCount":"11"},"url":"http:\/\/www.tierraperu.co.uk","reservations":{"url":"http:\/\/www.toptable.co.uk\/single.aspx?rid=85315&ref=9601"},"menu":{"type":"Menu","label":"Menu","anchor":"View Menu","url":"https:\/\/foursquare.com\/v\/tierra-peru\/4f17353de4b0f1e7ba234c20\/menu","mobileUrl":"https:\/\/foursquare.com\/v\/4f17353de4b0f1e7ba234c20\/device_menu"},"specials":{"count":"0"},"hereNow":{"count":"0"},"venuePage":{"id":"74156636"},"referralId":"v-1392477953"},{"id":"4fdb5a5fe4b0a4975b69d13c","name":"Tahir Food Centre","location":{"lat":"51.53952661407702","lng":"-0.0976591984539642","distance":"28","cc":"GB","country":"United Kingdom"},"categories":[{"id":"4d954b0ea243a5684a65b473","name":"Convenience Store","pluralName":"Convenience Stores","shortName":"Convenience Stores","icon":{"prefix":"https:\/\/ss1.4sqi.net\/img\/categories_v2\/shops\/conveniencestore_","suffix":".png"},"primary":"true"}],"verified":"false","restricted":"true","stats":{"checkinsCount":"4","usersCount":"3","tipCount":"0"},"specials":{"count":"0"},"hereNow":{"count":"0"},"referralId":"v-1392477953"},{"id":"4f0ec9cee4b0a91e156c8e08","name":"Run Rabbit Run","location":{"address":"162 Essex Road","lat":"51.53998933419436","lng":"-0.09695405646995588","distance":"97","cc":"GB","city":"London","state":"Greater London","country":"United Kingdom"},"categories":[{"id":"4bf58dd8d48988d1e0931735","name":"Coffee Shop","pluralName":"Coffee Shops","shortName":"Coffee Shop","icon":{"prefix":"https:\/\/ss1.4sqi.net\/img\/categories_v2\/food\/coffeeshop_","suffix":".png"},"primary":"true"}],"verified":"false","restricted":"true","stats":{"checkinsCount":"199","usersCount":"111","tipCount":"5"},"specials":{"count":"0"},"hereNow":{"count":"0"},"referralId":"v-1392477953"},{"id":"4c54f13db426ef3b372e9a8a","name":"The Co-operative Food","contact":{"phone":"+442072266602","formattedPhone":"+44 20 7226 6602","twitter":"cooperativefood","facebook":"10150110761225377"},"location":{"address":"132-134 Essex Road, Islington","lat":"51.53962","lng":"-0.097824","distance":"36","postalCode":"N1 8LX","cc":"GB","city":"London","state":"Greater London","country":"United Kingdom"},"categories":[{"id":"4bf58dd8d48988d118951735","name":"Grocery Store","pluralName":"Grocery Stores","shortName":"Grocery Store","icon":{"prefix":"https:\/\/ss1.4sqi.net\/img\/categories_v2\/shops\/food_grocery_","suffix":".png"},"primary":"true"}],"verified":"true","restricted":"true","stats":{"checkinsCount":"136","usersCount":"45","tipCount":"1"},"url":"http:\/\/co-operativefood.co.uk","specials":{"count":"0"},"hereNow":{"count":"0"},"storeId":"5000128111850","referralId":"v-1392477953"},{"id":"4b6ec9b0f964a5209cca2ce3","name":"Essex Road Railway Station (EXR)","contact":{"phone":"+448457484950","formattedPhone":"+44 845 748 4950","twitter":"nationalrailenq","facebook":"94740547473"},"location":{"address":"181 Essex Road","lat":"51.54057001851906","lng":"-0.09673118591308594","distance":"160","postalCode":"N1 2SU","cc":"GB","city":"Islington","state":"Greater London","country":"United Kingdom"},"categories":[{"id":"4bf58dd8d48988d129951735","name":"Train Station","pluralName":"Train Stations","shortName":"Train Station","icon":{"prefix":"https:\/\/ss1.4sqi.net\/img\/categories_v2\/travel\/trainstation_","suffix":".png"},"primary":"true"}],"verified":"true","restricted":"true","stats":{"checkinsCount":"479","usersCount":"146","tipCount":"4"},"url":"http:\/\/www.nationalrail.co.uk\/stations\/exr\/details.html","specials":{"count":"0"},"hereNow":{"count":"0"},"storeId":"EXR","referralId":"v-1392477953"},{"id":"4c90ccd67f3b8cfa690e971e","name":"Social Fuel HQ","contact":{"phone":"+442072262515","formattedPhone":"+44 20 7226 2515"},"location":{"address":"35 Britannia Row","lat":"51.537582","lng":"-0.097025","distance":"197","postalCode":"N1 8","cc":"GB","city":"Islington","state":"Greater London","country":"United Kingdom"},"categories":[{"id":"4bf58dd8d48988d124941735","name":"Office","pluralName":"Offices","shortName":"Office","icon":{"prefix":"https:\/\/ss1.4sqi.net\/img\/categories_v2\/building\/default_","suffix":".png"},"primary":"true"}],"verified":"false","restricted":"true","stats":{"checkinsCount":"815","usersCount":"12","tipCount":"0"},"specials":{"count":"0"},"hereNow":{"count":"0"},"referralId":"v-1392477953"},{"id":"4eaffa75108157d9cf56cc6d","name":"Handmade & Found","contact":{"phone":"+442073593898","formattedPhone":"+44 20 7359 3898"},"location":{"address":"109 Essex Road","lat":"51.53938222496234","lng":"-0.09766459465026855","distance":"14","postalCode":"N1 2SL","cc":"GB","city":"Islington","state":"Greater London","country":"United Kingdom"},"categories":[{"id":"4bf58dd8d48988d103951735","name":"Clothing Store","pluralName":"Clothing Stores","shortName":"Apparel","icon":{"prefix":"https:\/\/ss1.4sqi.net\/img\/categories_v2\/shops\/apparel_","suffix":".png"},"primary":"true"}],"verified":"false","restricted":"true","stats":{"checkinsCount":"0","usersCount":"0","tipCount":"1"},"specials":{"count":"0"},"hereNow":{"count":"0"},"referralId":"v-1392477953"},{"id":"4c8b6f40770fb60c43b9dbc3","name":"Haggle Vinyl","location":{"address":"114 Essex Rd","lat":"51.538984179496765","lng":"-0.09844779968261719","distance":"56","postalCode":"N1 8","cc":"GB","city":"Islington","state":"Greater London","country":"United Kingdom"},"categories":[{"id":"4bf58dd8d48988d10d951735","name":"Record Shop","pluralName":"Record Shops","shortName":"Record Shop","icon":{"prefix":"https:\/\/ss1.4sqi.net\/img\/categories_v2\/shops\/record_shop_","suffix":".png"},"primary":"true"}],"verified":"false","restricted":"true","stats":{"checkinsCount":"61","usersCount":"49","tipCount":"3"},"specials":{"count":"0"},"hereNow":{"count":"0"},"referralId":"v-1392477953"},{"id":"4bb445e9643cd13afc92395c","name":"Raabs The Bakers","contact":{"phone":"+442072262830","formattedPhone":"+44 20 7226 2830"},"location":{"address":"136 Essex Rd.","lat":"51.53955280780792","lng":"-0.09784698486328125","distance":"29","postalCode":"N1 8LX","cc":"GB","city":"Islington","state":"Greater London","country":"United Kingdom"},"categories":[{"id":"4bf58dd8d48988d16a941735","name":"Bakery","pluralName":"Bakeries","shortName":"Bakery","icon":{"prefix":"https:\/\/ss1.4sqi.net\/img\/categories_v2\/food\/bakery_","suffix":".png"},"primary":"true"}],"verified":"false","restricted":"true","stats":{"checkinsCount":"66","usersCount":"28","tipCount":"2"},"specials":{"count":"0"},"hereNow":{"count":"0"},"referralId":"v-1392477953"},{"id":"4cb425b41463a1438ea6b8a9","name":"BrandFuel HQ","contact":{"phone":"+442074245444","formattedPhone":"+44 20 7424 5444","twitter":"brand_fuel"},"location":{"address":"35 Britannia Row","lat":"51.537657915800175","lng":"-0.09726243601188424","distance":"185","postalCode":"N18QH","cc":"GB","city":"London","state":"Greater London","country":"United Kingdom"},"categories":[{"id":"4bf58dd8d48988d124941735","name":"Office","pluralName":"Offices","shortName":"Office","icon":{"prefix":"https:\/\/ss1.4sqi.net\/img\/categories_v2\/building\/default_","suffix":".png"},"primary":"true"}],"verified":"false","restricted":"true","stats":{"checkinsCount":"462","usersCount":"9","tipCount":"0"},"specials":{"count":"0"},"hereNow":{"count":"0"},"referralId":"v-1392477953"},{"id":"5218df0811d2b4625985ff78","name":"Jimmy Shoes","location":{"lat":"51.539428","lng":"-0.097864","distance":"16","cc":"GB","country":"United Kingdom"},"categories":[{"id":"4bf58dd8d48988d107951735","name":"Shoe Store","pluralName":"Shoe Stores","shortName":"Shoes","icon":{"prefix":"https:\/\/ss1.4sqi.net\/img\/categories_v2\/shops\/apparel_shoestore_","suffix":".png"},"primary":"true"}],"verified":"false","restricted":"true","stats":{"checkinsCount":"2","usersCount":"2","tipCount":"1"},"specials":{"count":"0"},"hereNow":{"count":"0"},"referralId":"v-1392477953"},{"id":"4b492890f964a520326826e3","name":"Angel Kebab & Pizza","location":{"address":"Essex Rd","lat":"51.53944729330004","lng":"-0.09786113128279794","distance":"18","postalCode":"N1","cc":"GB","city":"Angel","state":"Greater London","country":"United Kingdom"},"categories":[{"id":"4bf58dd8d48988d16e941735","name":"Fast Food Restaurant","pluralName":"Fast Food Restaurants","shortName":"Fast Food","icon":{"prefix":"https:\/\/ss1.4sqi.net\/img\/categories_v2\/food\/fastfood_","suffix":".png"},"primary":"true"}],"verified":"false","restricted":"true","stats":{"checkinsCount":"42","usersCount":"24","tipCount":"1"},"specials":{"count":"0"},"hereNow":{"count":"0"},"referralId":"v-1392477953"},{"id":"4ce67647baa6a1cde675216c","name":"Wiggle Salon","location":{"lat":"51.539516128935404","lng":"-0.09791765291121733","distance":"26","cc":"GB","country":"United Kingdom"},"categories":[{"id":"4bf58dd8d48988d110951735","name":"Salon \/ Barbershop","pluralName":"Salons \/ Barbershops","shortName":"Salon \/ Barbershop","icon":{"prefix":"https:\/\/ss1.4sqi.net\/img\/categories_v2\/shops\/salon_barber_","suffix":".png"},"primary":"true"}],"verified":"false","restricted":"true","stats":{"checkinsCount":"9","usersCount":"3","tipCount":"0"},"specials":{"count":"0"},"hereNow":{"count":"0"},"referralId":"v-1392477953"},{"id":"4fc7447ae4b0d4e5a600e3a4","name":"James Elliott Master Butcher","location":{"lat":"51.538807","lng":"-0.098939","distance":"95","cc":"GB","country":"United Kingdom"},"categories":[{"id":"4bf58dd8d48988d11d951735","name":"Butcher","pluralName":"Butchers","shortName":"Butcher","icon":{"prefix":"https:\/\/ss1.4sqi.net\/img\/categories_v2\/shops\/food_butcher_","suffix":".png"},"primary":"true"}],"verified":"false","restricted":"true","stats":{"checkinsCount":"27","usersCount":"17","tipCount":"1"},"specials":{"count":"0"},"hereNow":{"count":"0"},"referralId":"v-1392477953"},{"id":"4e73724eae6050af79e28a91","name":"Ray Stitch Haberdashery Shop and Caf\u00e9","contact":{"phone":"+442077041060","formattedPhone":"+44 20 7704 1060","twitter":"ray_stitch"},"location":{"address":"99 Essex Rd","lat":"51.538379","lng":"-0.099247","distance":"142","postalCode":"N1 2SJ","cc":"GB","city":"Islington","state":"Greater London","country":"United Kingdom"},"categories":[{"id":"4bf58dd8d48988d1fb941735","name":"Hobby Shop","pluralName":"Hobby Shops","shortName":"Hobbies","icon":{"prefix":"https:\/\/ss1.4sqi.net\/img\/categories_v2\/shops\/hobbyshop_","suffix":".png"},"primary":"true"}],"verified":"false","restricted":"true","stats":{"checkinsCount":"120","usersCount":"77","tipCount":"4"},"url":"http:\/\/www.raystitch.co.uk","menu":{"type":"Menu","label":"Menu","anchor":"View Menu","url":"https:\/\/foursquare.com\/v\/ray-stitch-haberdashery-shop-and-caf%C3%A9\/4e73724eae6050af79e28a91\/menu","mobileUrl":"https:\/\/foursquare.com\/v\/4e73724eae6050af79e28a91\/device_menu"},"specials":{"count":"0"},"hereNow":{"count":"0"},"referralId":"v-1392477953"},{"id":"4cb3436e0cdc721e1a4b224f","name":"The Green Man","location":{"address":"144a Essex Rd","crossStreet":"Islington","lat":"51.53989135287475","lng":"-0.0974298605892809","distance":"71","postalCode":"N1 8LX","cc":"GB","city":"London","state":"Greater London","country":"United Kingdom"},"categories":[{"id":"4bf58dd8d48988d11b941735","name":"Pub","pluralName":"Pubs","shortName":"Pub","icon":{"prefix":"https:\/\/ss1.4sqi.net\/img\/categories_v2\/nightlife\/pub_","suffix":".png"},"primary":"true"}],"verified":"false","restricted":"true","stats":{"checkinsCount":"24","usersCount":"19","tipCount":"1"},"specials":{"count":"0"},"hereNow":{"count":"0"},"referralId":"v-1392477953"},{"id":"4cf005218604a1cd2c5f00c1","name":"Mikes Fish & Chips","location":{"lat":"51.53920758032784","lng":"-0.09823244863483309","distance":"31","cc":"GB","country":"United Kingdom"},"categories":[{"id":"4bf58dd8d48988d1c4941735","name":"Restaurant","pluralName":"Restaurants","shortName":"Restaurant","icon":{"prefix":"https:\/\/ss1.4sqi.net\/img\/categories_v2\/food\/default_","suffix":".png"},"primary":"true"}],"verified":"false","restricted":"true","stats":{"checkinsCount":"20","usersCount":"12","tipCount":"1"},"specials":{"count":"0"},"hereNow":{"count":"0"},"referralId":"v-1392477953"},{"id":"4ea80ffc8231a8f6a1b427cd","name":"35 Britannia Row","location":{"lat":"51.537591241455615","lng":"-0.0969918888018711","distance":"197","cc":"GB","city":"Islington","state":"Greater London","country":"United Kingdom"},"categories":[{"id":"4bf58dd8d48988d174941735","name":"Coworking Space","pluralName":"Coworking Spaces","shortName":"Coworking Space","icon":{"prefix":"https:\/\/ss1.4sqi.net\/img\/categories_v2\/building\/office_coworkingspace_","suffix":".png"},"primary":"true"}],"verified":"false","restricted":"true","stats":{"checkinsCount":"186","usersCount":"18","tipCount":"1"},"specials":{"count":"0"},"hereNow":{"count":"0"},"referralId":"v-1392477953"},{"id":"51a8b9fd7dd2d8e382b3b769","name":"Attenborough Jewellers Pawnbrokers","contact":{"phone":"+442072261784","formattedPhone":"+44 20 7226 1784","facebook":"395559217177222"},"location":{"address":"135 Essex Road","lat":"51.539582417059776","lng":"-0.0977182388305664","distance":"33","postalCode":"N1 2SN","cc":"GB","city":"Islington","state":"Greater London","country":"United Kingdom"},"categories":[{"id":"4bf58dd8d48988d111951735","name":"Jewelry Store","pluralName":"Jewelry Stores","shortName":"Jewelry","icon":{"prefix":"https:\/\/ss1.4sqi.net\/img\/categories_v2\/shops\/jewelry_","suffix":".png"},"primary":"true"}],"verified":"true","restricted":"true","stats":{"checkinsCount":"0","usersCount":"0","tipCount":"0"},"specials":{"count":"0"},"hereNow":{"count":"0"},"storeId":"","referralId":"v-1392477953"},{"id":"50bfbeb1e4b0c56b42949579","name":"Mahal","location":{"address":"108 Essex Road","lat":"51.53886172138777","lng":"-0.09879112243652344","distance":"83","postalCode":"N1 8LX","cc":"GB","city":"London","state":"Greater London","country":"United Kingdom"},"categories":[{"id":"4bf58dd8d48988d10f941735","name":"Indian Restaurant","pluralName":"Indian Restaurants","shortName":"Indian","icon":{"prefix":"https:\/\/ss1.4sqi.net\/img\/categories_v2\/food\/indian_","suffix":".png"},"primary":"true"}],"verified":"false","restricted":"true","stats":{"checkinsCount":"6","usersCount":"6","tipCount":"1"},"url":"http:\/\/mahal-restaurant.com","menu":{"type":"Menu","label":"Menu","anchor":"View Menu","url":"https:\/\/foursquare.com\/v\/mahal-london-greater-london\/50bfbeb1e4b0c56b42949579\/menu","mobileUrl":"https:\/\/foursquare.com\/v\/50bfbeb1e4b0c56b42949579\/device_menu"},"specials":{"count":"0"},"hereNow":{"count":"0"},"referralId":"v-1392477953"},{"id":"4ac518bcf964a5206ea220e3","name":"Embassy Bar","location":{"address":"199 Essex Road","lat":"51.53922821686807","lng":"-0.098278167284828","distance":"33","postalCode":"N1 2SN","cc":"GB","city":"London","state":"Greater London","country":"United Kingdom"},"categories":[{"id":"4bf58dd8d48988d116941735","name":"Bar","pluralName":"Bars","shortName":"Bar","icon":{"prefix":"https:\/\/ss1.4sqi.net\/img\/categories_v2\/nightlife\/bar_","suffix":".png"},"primary":"true"}],"verified":"false","restricted":"true","stats":{"checkinsCount":"48","usersCount":"40","tipCount":"0"},"specials":{"count":"0"},"hereNow":{"count":"0"},"referralId":"v-1392477953"},{"id":"4c6e4812d5c3a1cd5ae2c72b","name":"River Place Health Centre","location":{"lat":"51.540412","lng":"-0.0965328","distance":"152","cc":"GB","country":"United Kingdom"},"categories":[{"id":"4bf58dd8d48988d177941735","name":"Doctor's Office","pluralName":"Doctor's Offices","shortName":"Doctor's Office","icon":{"prefix":"https:\/\/ss1.4sqi.net\/img\/categories_v2\/building\/medical_doctorsoffice_","suffix":".png"},"primary":"true"}],"verified":"false","restricted":"true","stats":{"checkinsCount":"108","usersCount":"38","tipCount":"0"},"specials":{"count":"0"},"hereNow":{"count":"0"},"referralId":"v-1392477953"}],"confident":"true"}}