{"meta":{"code":"200"},"response":{"venues":[{"id":"5118e5dae4b03dc123056ed7","name":"Finovate","location":{"lat":"51.509051630533286","lng":"-0.08401865678984743","distance":"88","cc":"GB","country":"United Kingdom"},"categories":[{"id":"4bf58dd8d48988d1f2931735","name":"Performing Arts Venue","pluralName":"Performing Arts Venues","shortName":"Performing Arts","icon":{"prefix":"https:\/\/ss1.4sqi.net\/img\/categories_v2\/arts_entertainment\/default_","suffix":".png"},"primary":"true"}],"verified":"false","restricted":"true","stats":{"checkinsCount":"135","usersCount":"91","tipCount":"2"},"specials":{"count":"0"},"hereNow":{"count":"0"},"referralId":"v-1392478033"},{"id":"4ad3bd1ff964a5200ee620e3","name":"St Dunstan in the East Garden","location":{"address":"St Dunstans Hill","lat":"51.50956379327632","lng":"-0.08255302906036377","distance":"35","postalCode":"EC3","cc":"GB","city":"London","state":"Greater London","country":"United Kingdom"},"categories":[{"id":"4bf58dd8d48988d15a941735","name":"Garden","pluralName":"Gardens","shortName":"Garden","icon":{"prefix":"https:\/\/ss1.4sqi.net\/img\/categories_v2\/parks_outdoors\/garden_","suffix":".png"},"primary":"true"}],"verified":"false","restricted":"true","stats":{"checkinsCount":"447","usersCount":"175","tipCount":"2"},"specials":{"count":"0"},"hereNow":{"count":"0"},"referralId":"v-1392478033"},{"id":"52952fc711d25274228f5628","name":"Premier Inn","location":{"address":"20 St. Mary At Hill","lat":"51.5096115138718","lng":"-0.08346409211971544","distance":"58","cc":"GB","city":"London","state":"Greater London","country":"United Kingdom"},"categories":[{"id":"4bf58dd8d48988d1fa931735","name":"Hotel","pluralName":"Hotels","shortName":"Hotel","icon":{"prefix":"https:\/\/ss1.4sqi.net\/img\/categories_v2\/travel\/hotel_","suffix":".png"},"primary":"true"}],"verified":"false","restricted":"true","stats":{"checkinsCount":"35","usersCount":"15","tipCount":"0"},"specials":{"count":"0"},"hereNow":{"count":"0"},"referralId":"v-1392478033"},{"id":"52f0ced9498e7f2b43b25707","name":"Argenta","location":{"lat":"51.5094549860805","lng":"-0.0830850284546614","distance":"26","cc":"GB","country":"United Kingdom"},"verified":"false","restricted":"true","stats":{"checkinsCount":"1","usersCount":"1","tipCount":"0"},"specials":{"count":"0"},"hereNow":{"count":"0"},"referralId":"v-1392478033"},{"id":"4b17d49ef964a520a1c823e3","name":"The Hung Drawn and Quartered","contact":{"phone":"+442076266123","formattedPhone":"+44 20 7626 6123"},"location":{"address":"26-27 Great Tower St.","lat":"51.5095871643658","lng":"-0.0807344913482666","distance":"147","postalCode":"EC3R 5AQ","cc":"GB","city":"London","state":"Greater London","country":"United Kingdom"},"categories":[{"id":"4bf58dd8d48988d11b941735","name":"Pub","pluralName":"Pubs","shortName":"Pub","icon":{"prefix":"https:\/\/ss1.4sqi.net\/img\/categories_v2\/nightlife\/pub_","suffix":".png"},"primary":"true"}],"verified":"false","restricted":"true","stats":{"checkinsCount":"1168","usersCount":"899","tipCount":"9"},"menu":{"type":"Menu","label":"Menu","anchor":"View Menu","url":"https:\/\/foursquare.com\/v\/the-hung-drawn-and-quartered\/4b17d49ef964a520a1c823e3\/menu","mobileUrl":"https:\/\/foursquare.com\/v\/4b17d49ef964a520a1c823e3\/device_menu"},"specials":{"count":"0"},"hereNow":{"count":"0"},"referralId":"v-1392478033"},{"id":"4b44805df964a520b2f525e3","name":"The Northern and Shell Building","location":{"address":"10 Lower Thames Street","lat":"51.50925135663878","lng":"-0.0847482840532213","distance":"134","cc":"GB","city":"London","state":"Greater London","country":"United Kingdom"},"categories":[{"id":"4bf58dd8d48988d124941735","name":"Office","pluralName":"Offices","shortName":"Office","icon":{"prefix":"https:\/\/ss1.4sqi.net\/img\/categories_v2\/building\/default_","suffix":".png"},"primary":"true"}],"verified":"false","restricted":"true","stats":{"checkinsCount":"898","usersCount":"190","tipCount":"2"},"specials":{"count":"0"},"hereNow":{"count":"0"},"referralId":"v-1392478033"},{"id":"4b06d7eef964a5203ef122e3","name":"The Walrus & The Carpenter","contact":{"phone":"+442076211647","formattedPhone":"+44 20 7621 1647","twitter":"the_walrus45"},"location":{"address":"45 Monument St.","lat":"51.509456499097546","lng":"-0.08455366320245673","distance":"122","postalCode":"EC3R 8BU","cc":"GB","city":"London","state":"Greater London","country":"United Kingdom"},"categories":[{"id":"4bf58dd8d48988d11b941735","name":"Pub","pluralName":"Pubs","shortName":"Pub","icon":{"prefix":"https:\/\/ss1.4sqi.net\/img\/categories_v2\/nightlife\/pub_","suffix":".png"},"primary":"true"}],"verified":"false","restricted":"true","stats":{"checkinsCount":"1705","usersCount":"469","tipCount":"13"},"specials":{"count":"0"},"hereNow":{"count":"0"},"referralId":"v-1392478033"},{"id":"4decff29fa766152f056b055","name":"Lewis Carroll Dining Room (Walrus & Carpenter)","location":{"address":"Monument Street","crossStreet":"Lower Thames Street","lat":"51.509367","lng":"-0.08445","distance":"114","cc":"GB","city":"London","state":"Greater London","country":"United Kingdom"},"categories":[{"id":"4bf58dd8d48988d155941735","name":"Gastropub","pluralName":"Gastropubs","shortName":"Gastropub","icon":{"prefix":"https:\/\/ss1.4sqi.net\/img\/categories_v2\/food\/gastropub_","suffix":".png"},"primary":"true"}],"verified":"false","restricted":"true","stats":{"checkinsCount":"393","usersCount":"33","tipCount":"2"},"specials":{"count":"0"},"hereNow":{"count":"0"},"referralId":"v-1392478033"},{"id":"4bebf04f6295c9b60f3b8808","name":"The Japanese Canteen","contact":{"phone":"+442074054540","formattedPhone":"+44 20 7405 4540"},"location":{"address":"19-21 Great Tower St.","lat":"51.50979750363166","lng":"-0.08144795894622803","distance":"109","postalCode":"EC3R 5AR","cc":"GB","city":"London","state":"Greater London","country":"United Kingdom"},"categories":[{"id":"4bf58dd8d48988d111941735","name":"Japanese Restaurant","pluralName":"Japanese Restaurants","shortName":"Japanese","icon":{"prefix":"https:\/\/ss1.4sqi.net\/img\/categories_v2\/food\/japanese_","suffix":".png"},"primary":"true"}],"verified":"false","restricted":"true","stats":{"checkinsCount":"296","usersCount":"105","tipCount":"3"},"url":"http:\/\/www.thejapanesecanteen.co.uk","specials":{"count":"0"},"hereNow":{"count":"0"},"referralId":"v-1392478033"},{"id":"4ac518e9f964a520e6ab20e3","name":"Old Billingsgate","contact":{"phone":"+442072832800","formattedPhone":"+44 20 7283 2800"},"location":{"address":"16 Lower Thames St","lat":"51.50884929989774","lng":"-0.08407115936279297","distance":"100","postalCode":"EC3R 6DX","cc":"GB","city":"London","state":"Greater London","country":"United Kingdom"},"categories":[{"id":"4bf58dd8d48988d171941735","name":"Event Space","pluralName":"Event Spaces","shortName":"Event Space","icon":{"prefix":"https:\/\/ss1.4sqi.net\/img\/categories_v2\/building\/eventspace_","suffix":".png"},"primary":"true"}],"verified":"false","restricted":"true","stats":{"checkinsCount":"2268","usersCount":"1617","tipCount":"5"},"url":"http:\/\/www.oldbillingsgate.co.uk","specials":{"count":"0"},"hereNow":{"count":"0"},"referralId":"v-1392478033"},{"id":"4d346d9c306160fc23506b88","name":"Custom House","location":{"address":"Lower Thames Street","lat":"51.509304397915045","lng":"-0.0826867948995658","distance":"8","postalCode":"EC3R 6EE","cc":"GB","city":"London","state":"Greater London","country":"United Kingdom"},"categories":[{"id":"4bf58dd8d48988d12d941735","name":"Monument \/ Landmark","pluralName":"Monuments \/ Landmarks","shortName":"Landmark","icon":{"prefix":"https:\/\/ss1.4sqi.net\/img\/categories_v2\/building\/government_monument_","suffix":".png"},"primary":"true"}],"verified":"false","restricted":"true","stats":{"checkinsCount":"78","usersCount":"52","tipCount":"1"},"specials":{"count":"0"},"hereNow":{"count":"0"},"referralId":"v-1392478033"},{"id":"4c8f78a41992a1cd71fee5fb","name":"Lloyds Banking Group","location":{"address":"25 Monument St.","lat":"51.50995413850574","lng":"-0.08501949513527318","distance":"170","cc":"GB","city":"London","state":"Greater London","country":"United Kingdom"},"categories":[{"id":"4bf58dd8d48988d124941735","name":"Office","pluralName":"Offices","shortName":"Office","icon":{"prefix":"https:\/\/ss1.4sqi.net\/img\/categories_v2\/building\/default_","suffix":".png"},"primary":"true"}],"verified":"false","restricted":"true","stats":{"checkinsCount":"207","usersCount":"15","tipCount":"1"},"specials":{"count":"0"},"hereNow":{"count":"0"},"referralId":"v-1392478033"},{"id":"4f477d03e4b068e1ce5aa5a8","name":"Organic Chick Peas","contact":{"phone":"+442072838313","formattedPhone":"+44 20 7283 8313"},"location":{"address":"8 Botolph Alley","lat":"51.51020639214197","lng":"-0.08427480683579541","distance":"144","postalCode":"EC3","cc":"GB","city":"London","state":"Greater London","country":"United Kingdom"},"categories":[{"id":"4bf58dd8d48988d10b941735","name":"Falafel Restaurant","pluralName":"Falafel Restaurants","shortName":"Falafel","icon":{"prefix":"https:\/\/ss1.4sqi.net\/img\/categories_v2\/food\/falafel_","suffix":".png"},"primary":"true"}],"verified":"false","restricted":"true","stats":{"checkinsCount":"177","usersCount":"34","tipCount":"3"},"specials":{"count":"0"},"hereNow":{"count":"0"},"referralId":"v-1392478033"},{"id":"4fa2aa95e4b04c7031515d17","name":"YouView","contact":{"twitter":"youview"},"location":{"address":"10 Lower Thames St","lat":"51.5090615385166","lng":"-0.08462097630988073","distance":"128","postalCode":"EC3R 6YT","cc":"GB","city":"London","state":"Greater London","country":"United Kingdom"},"categories":[{"id":"4bf58dd8d48988d125941735","name":"Tech Startup","pluralName":"Tech Startups","shortName":"Tech Startup","icon":{"prefix":"https:\/\/ss1.4sqi.net\/img\/categories_v2\/shops\/technology_","suffix":".png"},"primary":"true"}],"verified":"false","restricted":"true","stats":{"checkinsCount":"119","usersCount":"28","tipCount":"1"},"specials":{"count":"0"},"hereNow":{"count":"0"},"referralId":"v-1392478033"},{"id":"4c93909f0341370457b769ef","name":"Nicholson & Griffin","contact":{"phone":"+442072830075","formattedPhone":"+44 20 7283 0075"},"location":{"address":"90 Gracechurch St","lat":"51.50879884213194","lng":"-0.0831770582797556","distance":"60","cc":"GB","city":"London","state":"Greater London","country":"United Kingdom"},"categories":[{"id":"4bf58dd8d48988d110951735","name":"Salon \/ Barbershop","pluralName":"Salons \/ Barbershops","shortName":"Salon \/ Barbershop","icon":{"prefix":"https:\/\/ss1.4sqi.net\/img\/categories_v2\/shops\/salon_barber_","suffix":".png"},"primary":"true"}],"verified":"false","restricted":"true","stats":{"checkinsCount":"21","usersCount":"19","tipCount":"1"},"specials":{"count":"0"},"hereNow":{"count":"0"},"referralId":"v-1392478033"},{"id":"4c2dc9fb260bc9280c801ad3","name":"Pret A Manger","contact":{"phone":"+442079325265","formattedPhone":"+44 20 7932 5265","twitter":"pret","facebook":"162638680417951"},"location":{"address":"1 Great Tower St","lat":"51.5102262018","lng":"-0.0825319718049","distance":"106","postalCode":"EC3R 5AA","cc":"GB","city":"London","state":"Greater London","country":"United Kingdom"},"categories":[{"id":"4bf58dd8d48988d1c5941735","name":"Sandwich Place","pluralName":"Sandwich Places","shortName":"Sandwiches","icon":{"prefix":"https:\/\/ss1.4sqi.net\/img\/categories_v2\/food\/sandwiches_","suffix":".png"},"primary":"true"}],"verified":"true","restricted":"true","stats":{"checkinsCount":"400","usersCount":"121","tipCount":"2"},"url":"http:\/\/www.pret.com","specials":{"count":"0"},"hereNow":{"count":"0"},"storeId":"65","referralId":"v-1392478033"},{"id":"4c162b99a5eb76b08257c4b7","name":"EAT.","contact":{"phone":"+442076368366","formattedPhone":"+44 20 7636 8366","twitter":"eat_news"},"location":{"address":"48 Mark Lane","lat":"51.509832560081556","lng":"-0.08052796125411987","distance":"168","postalCode":"EC3R 7QH","cc":"GB","city":"London","state":"Greater London","country":"United Kingdom"},"categories":[{"id":"4bf58dd8d48988d1c5941735","name":"Sandwich Place","pluralName":"Sandwich Places","shortName":"Sandwiches","icon":{"prefix":"https:\/\/ss1.4sqi.net\/img\/categories_v2\/food\/sandwiches_","suffix":".png"},"primary":"true"}],"verified":"true","restricted":"true","stats":{"checkinsCount":"631","usersCount":"119","tipCount":"5"},"url":"http:\/\/www.eat.co.uk","menu":{"type":"Menu","label":"Menu","anchor":"View Menu","url":"https:\/\/foursquare.com\/v\/eat-london\/4c162b99a5eb76b08257c4b7\/menu","mobileUrl":"https:\/\/foursquare.com\/v\/4c162b99a5eb76b08257c4b7\/device_menu"},"specials":{"count":"0"},"hereNow":{"count":"0"},"storeId":"EAT - Mark Lane","referralId":"v-1392478033"},{"id":"4e78834bb61ce1c8988bef71","name":"Custom House Walkway","location":{"address":"nr Sugar Quay Walk","lat":"51.50850206542486","lng":"-0.08226871490478516","distance":"95","postalCode":"EC3R 6EE","cc":"GB","city":"London","state":"Greater London","country":"United Kingdom"},"categories":[{"id":"4d4b7105d754a06377d81259","name":"Outdoors & Recreation","pluralName":"Outdoors & Recreation","shortName":"Outdoors & Recreation","icon":{"prefix":"https:\/\/ss1.4sqi.net\/img\/categories_v2\/parks_outdoors\/default_","suffix":".png"},"primary":"true"}],"verified":"false","restricted":"true","stats":{"checkinsCount":"24","usersCount":"12","tipCount":"0"},"specials":{"count":"0"},"hereNow":{"count":"0"},"referralId":"v-1392478033"},{"id":"4e16ff442271881f2051319b","name":"3 Minster Court","location":{"address":"21-38 Mincing Lane","lat":"51.510238","lng":"-0.08144","distance":"141","cc":"GB","city":"London","state":"Greater London","country":"United Kingdom"},"categories":[{"id":"4bf58dd8d48988d130941735","name":"Building","pluralName":"Buildings","shortName":"Building","icon":{"prefix":"https:\/\/ss1.4sqi.net\/img\/categories_v2\/building\/default_","suffix":".png"},"primary":"true"}],"verified":"false","restricted":"true","stats":{"checkinsCount":"174","usersCount":"45","tipCount":"0"},"specials":{"count":"0"},"hereNow":{"count":"0"},"referralId":"v-1392478033"},{"id":"4d25ce36f50aa35db078379f","name":"RSA","contact":{"phone":"+448450772772","formattedPhone":"+44 845 077 2772","twitter":"rsauk"},"location":{"address":"One Plantation Pl., 30 Fenchurch St.","lat":"51.51060304412212","lng":"-0.08191217313784122","distance":"158","postalCode":"EC3M 3BD","cc":"GB","city":"London","state":"Greater London","country":"United Kingdom"},"categories":[{"id":"4bf58dd8d48988d124941735","name":"Office","pluralName":"Offices","shortName":"Office","icon":{"prefix":"https:\/\/ss1.4sqi.net\/img\/categories_v2\/building\/default_","suffix":".png"},"primary":"true"}],"verified":"true","restricted":"true","stats":{"checkinsCount":"182","usersCount":"21","tipCount":"5"},"url":"http:\/\/www.rsagroup.com","specials":{"count":"0"},"hereNow":{"count":"0"},"storeId":"","referralId":"v-1392478033"},{"id":"4ecded3400391535cc532b4a","name":"Price Forbes & Partners Ltd","contact":{"phone":"+442072048400","formattedPhone":"+44 20 7204 8400"},"location":{"address":"6th Floor, 2 Minster Court","crossStreet":"Mincing Lane","lat":"51.51098324718081","lng":"-0.08147868095428247","distance":"209","postalCode":"EC3R 7PD","cc":"GB","city":"London","state":"Greater London","country":"United Kingdom"},"categories":[{"id":"503287a291d4c4b30a586d65","name":"Financial or Legal Service","pluralName":"Financial or Legal Services","shortName":"Financial \/ Legal","icon":{"prefix":"https:\/\/ss1.4sqi.net\/img\/categories_v2\/shops\/financial_","suffix":".png"},"primary":"true"}],"verified":"false","restricted":"true","stats":{"checkinsCount":"355","usersCount":"4","tipCount":"0"},"specials":{"count":"0"},"hereNow":{"count":"0"},"referralId":"v-1392478033"},{"id":"4facdb87e4b03481b51eaf09","name":"Assenheims 56","contact":{"phone":"+442072830032","formattedPhone":"+44 20 7283 0032"},"location":{"address":"19\/21 Great Tower Stret","lat":"51.50971617814218","lng":"-0.08098082991293012","distance":"134","postalCode":"EC3R 5AR","cc":"GB","country":"United Kingdom"},"categories":[{"id":"4bf58dd8d48988d1cd941735","name":"South American Restaurant","pluralName":"South American Restaurants","shortName":"South American","icon":{"prefix":"https:\/\/ss1.4sqi.net\/img\/categories_v2\/food\/default_","suffix":".png"},"primary":"true"}],"verified":"false","restricted":"true","stats":{"checkinsCount":"200","usersCount":"37","tipCount":"3"},"specials":{"count":"0"},"hereNow":{"count":"0"},"referralId":"v-1392478033"},{"id":"52fa00b4498ebcdab28bd933","name":"Customs House","location":{"address":"20 Lower Thames Street","lat":"51.508437","lng":"-0.082923","distance":"95","postalCode":"EC3R 6EE","cc":"GB","city":"London","state":"Greater London","country":"United Kingdom"},"categories":[{"id":"4bf58dd8d48988d12d941735","name":"Monument \/ Landmark","pluralName":"Monuments \/ Landmarks","shortName":"Landmark","icon":{"prefix":"https:\/\/ss1.4sqi.net\/img\/categories_v2\/building\/government_monument_","suffix":".png"},"primary":"true"}],"verified":"false","restricted":"true","stats":{"checkinsCount":"1","usersCount":"1","tipCount":"0"},"specials":{"count":"0"},"hereNow":{"count":"0"},"referralId":"v-1392478033"},{"id":"4e2abe24227197a112d191ef","name":"Billingsgate Roman Bathhouse","location":{"address":"101 Lower Thames Street","lat":"51.50917544501312","lng":"-0.0832045929116483","distance":"30","postalCode":"EC3R 6DL","cc":"GB","city":"London","state":"Greater London","country":"United Kingdom"},"categories":[{"id":"4deefb944765f83613cdba6e","name":"Historic Site","pluralName":"Historic Sites","shortName":"Historic Site","icon":{"prefix":"https:\/\/ss1.4sqi.net\/img\/categories_v2\/arts_entertainment\/historicsite_","suffix":".png"},"primary":"true"}],"verified":"false","restricted":"true","stats":{"checkinsCount":"26","usersCount":"25","tipCount":"0"},"specials":{"count":"0"},"hereNow":{"count":"0"},"referralId":"v-1392478033"},{"id":"4ac518d2f964a52032a720e3","name":"St Mary-at-Hill Church","contact":{"phone":"+442076264184","formattedPhone":"+44 20 7626 4184"},"location":{"address":"Eastcheap","lat":"51.51023821132552","lng":"-0.08370637893676758","distance":"122","postalCode":"EC3R 8EE","cc":"GB","city":"London","country":"United Kingdom"},"categories":[{"id":"4bf58dd8d48988d132941735","name":"Church","pluralName":"Churches","shortName":"Church","icon":{"prefix":"https:\/\/ss1.4sqi.net\/img\/categories_v2\/building\/religious_church_","suffix":".png"},"primary":"true"}],"verified":"false","restricted":"true","stats":{"checkinsCount":"87","usersCount":"43","tipCount":"1"},"specials":{"count":"0"},"hereNow":{"count":"0"},"referralId":"v-1392478033"},{"id":"52fe0077498e90ce011393d2","name":"Chauncy & Co.","contact":{"phone":"+442079290330","formattedPhone":"+44 20 7929 0330"},"location":{"address":"Peek House","crossStreet":"20 Eastcheap","lat":"51.5101318359375","lng":"-0.08351100236177444","distance":"105","postalCode":"EC3M 1EB","cc":"GB","city":"London","state":"Greater London","country":"United Kingdom"},"categories":[{"id":"52f2ab2ebcbc57f1066b8b3f","name":"Lawyer","pluralName":"Lawyers","shortName":"Lawyer","icon":{"prefix":"https:\/\/ss1.4sqi.net\/img\/categories_v2\/education\/lawschool_","suffix":".png"},"primary":"true"}],"verified":"false","restricted":"true","stats":{"checkinsCount":"1","usersCount":"1","tipCount":"0"},"specials":{"count":"0"},"hereNow":{"count":"0"},"referralId":"v-1392478033"},{"id":"4c496951a3ace21e0e2c8f3b","name":"Mercer","location":{"address":"Tower Place West","lat":"51.5094546396722","lng":"-0.0805141610896545","distance":"159","postalCode":"EC3R 5BU","cc":"GB","city":"London","state":"Greater London","country":"United Kingdom"},"categories":[{"id":"4bf58dd8d48988d124941735","name":"Office","pluralName":"Offices","shortName":"Office","icon":{"prefix":"https:\/\/ss1.4sqi.net\/img\/categories_v2\/building\/default_","suffix":".png"},"primary":"true"}],"verified":"false","restricted":"true","stats":{"checkinsCount":"395","usersCount":"32","tipCount":"0"},"specials":{"count":"0"},"hereNow":{"count":"0"},"referralId":"v-1392478033"},{"id":"4c88e182944e224b25b21f85","name":"Sripur","location":{"address":"25 Great Tower Street","lat":"51.50981871284246","lng":"-0.08072265952887196","distance":"155","postalCode":"EC3R 5AQ","cc":"GB","city":"London","state":"Greater London","country":"United Kingdom"},"categories":[{"id":"4bf58dd8d48988d10f941735","name":"Indian Restaurant","pluralName":"Indian Restaurants","shortName":"Indian","icon":{"prefix":"https:\/\/ss1.4sqi.net\/img\/categories_v2\/food\/indian_","suffix":".png"},"primary":"true"}],"verified":"false","restricted":"true","stats":{"checkinsCount":"43","usersCount":"29","tipCount":"1"},"menu":{"type":"Menu","label":"Menu","anchor":"View Menu","url":"https:\/\/foursquare.com\/v\/sripur\/4c88e182944e224b25b21f85\/menu","mobileUrl":"https:\/\/foursquare.com\/v\/4c88e182944e224b25b21f85\/device_menu"},"specials":{"count":"0"},"hereNow":{"count":"0"},"referralId":"v-1392478033"},{"id":"4fd110d4e4b0b63780abf524","name":"Camino","location":{"address":"15 Mincing Ln.","lat":"51.5108239711124","lng":"-0.08158031816272798","distance":"190","postalCode":"EC","cc":"GB","city":"London","state":"Greater London","country":"United Kingdom"},"categories":[{"id":"4bf58dd8d48988d1db931735","name":"Tapas Restaurant","pluralName":"Tapas Restaurants","shortName":"Tapas","icon":{"prefix":"https:\/\/ss1.4sqi.net\/img\/categories_v2\/food\/tapas_","suffix":".png"},"primary":"true"}],"verified":"false","restricted":"true","stats":{"checkinsCount":"224","usersCount":"142","tipCount":"1"},"url":"http:\/\/www.camino.uk.com\/monument","reservations":{"url":"http:\/\/www.toptable.co.uk\/single.aspx?rid=88297&ref=9601"},"menu":{"type":"Menu","label":"Menu","anchor":"View Menu","url":"https:\/\/foursquare.com\/v\/camino\/4fd110d4e4b0b63780abf524\/menu","mobileUrl":"https:\/\/foursquare.com\/v\/4fd110d4e4b0b63780abf524\/device_menu"},"specials":{"count":"0"},"hereNow":{"count":"0"},"referralId":"v-1392478033"},{"id":"4ac518dbf964a52014a920e3","name":"Rajasthan","location":{"address":"49 Monument Street","lat":"51.50937479096396","lng":"-0.08444252672099295","distance":"113","postalCode":"EC3R 8BU","cc":"GB","city":"London","state":"Greater London","country":"United Kingdom"},"categories":[{"id":"4bf58dd8d48988d10f941735","name":"Indian Restaurant","pluralName":"Indian Restaurants","shortName":"Indian","icon":{"prefix":"https:\/\/ss1.4sqi.net\/img\/categories_v2\/food\/indian_","suffix":".png"},"primary":"true"}],"verified":"false","restricted":"true","stats":{"checkinsCount":"112","usersCount":"71","tipCount":"1"},"specials":{"count":"0"},"hereNow":{"count":"0"},"referralId":"v-1392478033"}],"confident":"false"}}