{"meta":{"code":"200"},"response":{"venues":[{"id":"4cadbb82bf70236a1aee01f9","name":"Linden House Hotel","location":{"lat":"51.5144314119116","lng":"-0.17305158238994545","distance":"23","cc":"GB","country":"United Kingdom"},"categories":[{"id":"4bf58dd8d48988d1fa931735","name":"Hotel","pluralName":"Hotels","shortName":"Hotel","icon":{"prefix":"https:\/\/ss1.4sqi.net\/img\/categories_v2\/travel\/hotel_","suffix":".png"},"primary":"true"}],"verified":"false","restricted":"true","stats":{"checkinsCount":"328","usersCount":"175","tipCount":"15"},"specials":{"count":"0"},"hereNow":{"count":"0"},"referralId":"v-1392478011"},{"id":"4b82eb42f964a52025ed30e3","name":"The Victoria","contact":{"phone":"+442077241191","formattedPhone":"+44 20 7724 1191"},"location":{"address":"10A Strathearn Pl.","lat":"51.51366375432071","lng":"-0.17134144581232835","distance":"122","postalCode":"W2","cc":"GB","city":"Paddington","state":"Greater London","country":"United Kingdom"},"categories":[{"id":"4bf58dd8d48988d11b941735","name":"Pub","pluralName":"Pubs","shortName":"Pub","icon":{"prefix":"https:\/\/ss1.4sqi.net\/img\/categories_v2\/nightlife\/pub_","suffix":".png"},"primary":"true"}],"verified":"false","restricted":"true","stats":{"checkinsCount":"1927","usersCount":"1161","tipCount":"32"},"specials":{"count":"0"},"hereNow":{"count":"0"},"referralId":"v-1392478011"},{"id":"4dd306d045dd45f719267950","name":"Piccolino Hotel","location":{"address":"14 Sussex Pl.","lat":"51.514264","lng":"-0.172708","distance":"7","cc":"GB","city":"Paddington","state":"Greater London","country":"United Kingdom"},"categories":[{"id":"4bf58dd8d48988d1fa931735","name":"Hotel","pluralName":"Hotels","shortName":"Hotel","icon":{"prefix":"https:\/\/ss1.4sqi.net\/img\/categories_v2\/travel\/hotel_","suffix":".png"},"primary":"true"}],"verified":"false","restricted":"true","stats":{"checkinsCount":"108","usersCount":"62","tipCount":"1"},"specials":{"count":"0"},"hereNow":{"count":"0"},"referralId":"v-1392478011"},{"id":"4d9b48d8335ab60c3542f7f9","name":"Alexandra Hotel","location":{"address":"159-161 Sussex Gdns","lat":"51.51448481244648","lng":"-0.17286300659179688","distance":"22","cc":"GB","city":"London","state":"Greater London","country":"United Kingdom"},"categories":[{"id":"4bf58dd8d48988d1fa931735","name":"Hotel","pluralName":"Hotels","shortName":"Hotel","icon":{"prefix":"https:\/\/ss1.4sqi.net\/img\/categories_v2\/travel\/hotel_","suffix":".png"},"primary":"true"}],"verified":"false","restricted":"true","stats":{"checkinsCount":"228","usersCount":"86","tipCount":"6"},"specials":{"count":"0"},"hereNow":{"count":"0"},"referralId":"v-1392478011"},{"id":"521d02de11d232a2e874aada","name":"Sussex Gardens","location":{"address":"Sussex Gardens","lat":"51.51463477918946","lng":"-0.17278365388441072","distance":"38","postalCode":"W2","cc":"GB","city":"London","state":"Greater London","country":"United Kingdom"},"categories":[{"id":"4d954b06a243a5684965b473","name":"Residential Building (Apartment \/ Condo)","pluralName":"Residential Buildings (Apartments \/ Condos)","shortName":"Residential","icon":{"prefix":"https:\/\/ss1.4sqi.net\/img\/categories_v2\/building\/apartment_","suffix":".png"},"primary":"true"}],"verified":"false","restricted":"true","stats":{"checkinsCount":"48","usersCount":"36","tipCount":"0"},"specials":{"count":"0"},"hereNow":{"count":"0"},"referralId":"v-1392478011"},{"id":"4bfea987e584c9280b066d25","name":"Sussex Gardens","location":{"address":"Sussex Gardens","lat":"51.514058541555734","lng":"-0.17482018994476348","distance":"142","cc":"GB","city":"London","state":"Greater London","country":"United Kingdom"},"categories":[{"id":"4bf58dd8d48988d15a941735","name":"Garden","pluralName":"Gardens","shortName":"Garden","icon":{"prefix":"https:\/\/ss1.4sqi.net\/img\/categories_v2\/parks_outdoors\/garden_","suffix":".png"},"primary":"true"}],"verified":"false","restricted":"true","stats":{"checkinsCount":"1678","usersCount":"661","tipCount":"2"},"specials":{"count":"0"},"hereNow":{"count":"0"},"referralId":"v-1392478011"},{"id":"4ac518b7f964a52030a120e3","name":"Stylotel","location":{"address":"160-162 Sussex Gardens","lat":"51.51519054153583","lng":"-0.17328889485786853","distance":"105","postalCode":"W2 1UD","cc":"GB","city":"London","state":"Greater London","country":"United Kingdom"},"categories":[{"id":"4bf58dd8d48988d1fa931735","name":"Hotel","pluralName":"Hotels","shortName":"Hotel","icon":{"prefix":"https:\/\/ss1.4sqi.net\/img\/categories_v2\/travel\/hotel_","suffix":".png"},"primary":"true"}],"verified":"false","restricted":"true","stats":{"checkinsCount":"170","usersCount":"95","tipCount":"8"},"specials":{"count":"0"},"hereNow":{"count":"0"},"referralId":"v-1392478011"},{"id":"50b145d3e4b0af521ae80d36","name":"Klei's Rez","location":{"lat":"51.514615130659635","lng":"-0.17366955551550586","distance":"70","cc":"GB","country":"United Kingdom"},"categories":[{"id":"4bf58dd8d48988d1d6941735","name":"Strip Club","pluralName":"Strip Clubs","shortName":"Strip Club","icon":{"prefix":"https:\/\/ss1.4sqi.net\/img\/categories_v2\/nightlife\/stripclub_","suffix":".png"},"primary":"true"}],"verified":"false","restricted":"true","stats":{"checkinsCount":"50","usersCount":"6","tipCount":"3"},"specials":{"count":"0"},"hereNow":{"count":"0"},"referralId":"v-1392478011"},{"id":"4dc3f34ed164eb9c9fc82ee7","name":"Hyde Park Radnor Hotel","contact":{"phone":"+442077235969","formattedPhone":"+44 20 7723 5969"},"location":{"address":"7-9 Sussex Pl.","crossStreet":"at Bathurst Mews","lat":"51.514434","lng":"-0.172617","distance":"20","postalCode":"W2 2SX","cc":"GB","city":"London","state":"Greater London","country":"United Kingdom"},"categories":[{"id":"4bf58dd8d48988d1fa931735","name":"Hotel","pluralName":"Hotels","shortName":"Hotel","icon":{"prefix":"https:\/\/ss1.4sqi.net\/img\/categories_v2\/travel\/hotel_","suffix":".png"},"primary":"true"}],"verified":"false","restricted":"true","stats":{"checkinsCount":"89","usersCount":"45","tipCount":"1"},"specials":{"count":"0"},"hereNow":{"count":"0"},"referralId":"v-1392478011"},{"id":"4db477bacda1c57c825c54d0","name":"London Street Brasserie","contact":{"phone":"+442077064444","formattedPhone":"+44 20 7706 4444"},"location":{"address":"16 London St","crossStreet":"@Indigo Paddington","lat":"51.51528211666643","lng":"-0.17388828082885538","distance":"133","postalCode":"W2 1HL","cc":"GB","city":"Paddington","state":"Greater London","country":"United Kingdom"},"categories":[{"id":"4bf58dd8d48988d1c4941735","name":"Restaurant","pluralName":"Restaurants","shortName":"Restaurant","icon":{"prefix":"https:\/\/ss1.4sqi.net\/img\/categories_v2\/food\/default_","suffix":".png"},"primary":"true"}],"verified":"false","restricted":"true","stats":{"checkinsCount":"389","usersCount":"271","tipCount":"8"},"menu":{"type":"Menu","label":"Menu","anchor":"View Menu","url":"https:\/\/foursquare.com\/v\/london-street-brasserie\/4db477bacda1c57c825c54d0\/menu","mobileUrl":"https:\/\/foursquare.com\/v\/4db477bacda1c57c825c54d0\/device_menu"},"specials":{"count":"0"},"hereNow":{"count":"0"},"referralId":"v-1392478011"},{"id":"4bb7695f6edc76b05522321c","name":"The Sussex Arms","contact":{"phone":"+442077231026","formattedPhone":"+44 20 7723 1026"},"location":{"address":"21 London Street","lat":"51.515145","lng":"-0.17358295","distance":"109","postalCode":"W2 1HL","cc":"GB","city":"London","state":"Greater London","country":"United Kingdom"},"categories":[{"id":"4bf58dd8d48988d11b941735","name":"Pub","pluralName":"Pubs","shortName":"Pub","icon":{"prefix":"https:\/\/ss1.4sqi.net\/img\/categories_v2\/nightlife\/pub_","suffix":".png"},"primary":"true"}],"verified":"false","restricted":"true","stats":{"checkinsCount":"511","usersCount":"397","tipCount":"5"},"menu":{"type":"Menu","label":"Menu","anchor":"View Menu","url":"https:\/\/foursquare.com\/v\/the-sussex-arms-london\/4bb7695f6edc76b05522321c\/menu","mobileUrl":"https:\/\/foursquare.com\/v\/4bb7695f6edc76b05522321c\/device_menu"},"specials":{"count":"0"},"hereNow":{"count":"0"},"referralId":"v-1392478011"},{"id":"4ac518b7f964a52034a120e3","name":"Westpoint Hotel","location":{"address":"168 Sussex Gardens","lat":"51.51478894519555","lng":"-0.17379135294703202","distance":"88","postalCode":"W2 1TP","cc":"GB","city":"London","state":"Greater London","country":"United Kingdom"},"categories":[{"id":"4bf58dd8d48988d1fa931735","name":"Hotel","pluralName":"Hotels","shortName":"Hotel","icon":{"prefix":"https:\/\/ss1.4sqi.net\/img\/categories_v2\/travel\/hotel_","suffix":".png"},"primary":"true"}],"verified":"false","restricted":"true","stats":{"checkinsCount":"512","usersCount":"271","tipCount":"11"},"specials":{"count":"0"},"hereNow":{"count":"0"},"referralId":"v-1392478011"},{"id":"4bc78ab493bdeee1507f37ae","name":"Cardiff Hotel London","location":{"address":"5-9 Norfolk Square","lat":"51.515125774456045","lng":"-0.17316341400146484","distance":"96","cc":"GB","city":"London","state":"Greater London","country":"United Kingdom"},"categories":[{"id":"4bf58dd8d48988d1f8931735","name":"Bed & Breakfast","pluralName":"Bed & Breakfasts","shortName":"B & B","icon":{"prefix":"https:\/\/ss1.4sqi.net\/img\/categories_v2\/travel\/bedandbreakfast_","suffix":".png"},"primary":"true"}],"verified":"false","restricted":"true","stats":{"checkinsCount":"296","usersCount":"111","tipCount":"5"},"specials":{"count":"0"},"hereNow":{"count":"0"},"referralId":"v-1392478011"},{"id":"4bce09bac564ef3bc88aedf0","name":"ASK Italian","contact":{"phone":"+442077060707","formattedPhone":"+44 20 7706 0707","twitter":"askitalian"},"location":{"address":"41\/43 Spring Street","lat":"51.51447981109897","lng":"-0.17503559934897767","distance":"156","postalCode":"W2 1JA","cc":"GB","city":"Paddington","state":"Greater London","country":"United Kingdom"},"categories":[{"id":"4bf58dd8d48988d110941735","name":"Italian Restaurant","pluralName":"Italian Restaurants","shortName":"Italian","icon":{"prefix":"https:\/\/ss1.4sqi.net\/img\/categories_v2\/food\/italian_","suffix":".png"},"primary":"true"}],"verified":"true","restricted":"true","stats":{"checkinsCount":"765","usersCount":"479","tipCount":"9"},"url":"http:\/\/www.askitalian.co.uk","specials":{"count":"0"},"hereNow":{"count":"0"},"storeId":"","referralId":"v-1392478011"},{"id":"4b731e93f964a520909c2de3","name":"Bonda Cafe","contact":{"phone":"+442074025111","formattedPhone":"+44 20 7402 5111"},"location":{"address":"190 Sussex Garden","lat":"51.51423842416353","lng":"-0.17501880534744968","distance":"153","postalCode":"W2 1TU","cc":"GB","city":"City of Westminster","state":"Greater London","country":"United Kingdom"},"categories":[{"id":"4bf58dd8d48988d156941735","name":"Malaysian Restaurant","pluralName":"Malaysian Restaurants","shortName":"Malaysian","icon":{"prefix":"https:\/\/ss1.4sqi.net\/img\/categories_v2\/food\/default_","suffix":".png"},"primary":"true"}],"verified":"false","restricted":"true","stats":{"checkinsCount":"855","usersCount":"597","tipCount":"30"},"menu":{"type":"Menu","label":"Menu","anchor":"View Menu","url":"https:\/\/foursquare.com\/v\/bonda-cafe\/4b731e93f964a520909c2de3\/menu","mobileUrl":"https:\/\/foursquare.com\/v\/4b731e93f964a520909c2de3\/device_menu"},"specials":{"count":"0"},"hereNow":{"count":"0"},"referralId":"v-1392478011"},{"id":"4bb37314eb3e9521281fcb0a","name":"Barry House Hotel","contact":{"phone":"+442077237340","formattedPhone":"+44 20 7723 7340"},"location":{"address":"12 Sussex Place","lat":"51.51432803","lng":"-0.17277503","distance":"4","postalCode":"W2 2tp","cc":"GB","city":"Paddington","state":"Greater London","country":"United Kingdom"},"categories":[{"id":"4bf58dd8d48988d1f8931735","name":"Bed & Breakfast","pluralName":"Bed & Breakfasts","shortName":"B & B","icon":{"prefix":"https:\/\/ss1.4sqi.net\/img\/categories_v2\/travel\/bedandbreakfast_","suffix":".png"},"primary":"true"}],"verified":"false","restricted":"true","stats":{"checkinsCount":"84","usersCount":"29","tipCount":"2"},"specials":{"count":"0"},"hereNow":{"count":"0"},"referralId":"v-1392478011"},{"id":"4bf4644c98ac0f4761f163a8","name":"Days Inn Hyde Park","location":{"address":"146 Sussex Gardens","lat":"51.515228","lng":"-0.172804","distance":"104","cc":"GB","city":"London","state":"Greater London","country":"United Kingdom"},"categories":[{"id":"4bf58dd8d48988d1fa931735","name":"Hotel","pluralName":"Hotels","shortName":"Hotel","icon":{"prefix":"https:\/\/ss1.4sqi.net\/img\/categories_v2\/travel\/hotel_","suffix":".png"},"primary":"true"}],"verified":"false","restricted":"true","stats":{"checkinsCount":"320","usersCount":"143","tipCount":"4"},"specials":{"count":"0"},"hereNow":{"count":"0"},"referralId":"v-1392478011"},{"id":"4ac518b9f964a52097a120e3","name":"Castleton Hotel","location":{"address":"164-166 Sussex Gardens","lat":"51.5150227","lng":"-0.173454","distance":"93","postalCode":"W2 1UD","cc":"GB","city":"London","state":"Greater London","country":"United Kingdom"},"categories":[{"id":"4bf58dd8d48988d1fa931735","name":"Hotel","pluralName":"Hotels","shortName":"Hotel","icon":{"prefix":"https:\/\/ss1.4sqi.net\/img\/categories_v2\/travel\/hotel_","suffix":".png"},"primary":"true"}],"verified":"false","restricted":"true","stats":{"checkinsCount":"329","usersCount":"157","tipCount":"5"},"specials":{"count":"0"},"hereNow":{"count":"0"},"referralId":"v-1392478011"},{"id":"4bb6555c941ad13a1c431fe3","name":"Hotel Indigo","contact":{"phone":"+442077064444","formattedPhone":"+44 20 7706 4444","twitter":"hotelindigo"},"location":{"address":"London Street 16","lat":"51.515283","lng":"-0.174041","distance":"139","postalCode":"W2 1HL","cc":"GB","city":"London","state":"Greater London","country":"United Kingdom"},"categories":[{"id":"4bf58dd8d48988d1fa931735","name":"Hotel","pluralName":"Hotels","shortName":"Hotel","icon":{"prefix":"https:\/\/ss1.4sqi.net\/img\/categories_v2\/travel\/hotel_","suffix":".png"},"primary":"true"}],"verified":"true","restricted":"true","stats":{"checkinsCount":"1382","usersCount":"501","tipCount":"26"},"url":"http:\/\/www.ichotelsgroup.com\/hotelindigo\/hotels\/us\/en\/london\/lonin\/hoteldetail","specials":{"count":"0"},"hereNow":{"count":"0"},"storeId":"LONIN","referralId":"v-1392478011"},{"id":"4bd892d011dcc928bfe7f633","name":"Noorjahan2 Indian Cuisine","contact":{"phone":"+442074022332","formattedPhone":"+44 20 7402 2332"},"location":{"address":"26 Sussex Place","lat":"51.51359680611144","lng":"-0.1715531942547392","distance":"115","postalCode":"W2 2TH","cc":"GB","city":"Paddington","state":"Greater London","country":"United Kingdom"},"categories":[{"id":"4bf58dd8d48988d10f941735","name":"Indian Restaurant","pluralName":"Indian Restaurants","shortName":"Indian","icon":{"prefix":"https:\/\/ss1.4sqi.net\/img\/categories_v2\/food\/indian_","suffix":".png"},"primary":"true"}],"verified":"false","restricted":"true","stats":{"checkinsCount":"263","usersCount":"208","tipCount":"8"},"url":"http:\/\/www.noorjahan2.com","menu":{"type":"Menu","label":"Menu","anchor":"View Menu","url":"https:\/\/foursquare.com\/v\/noorjahan2-indian-cuisine\/4bd892d011dcc928bfe7f633\/menu","mobileUrl":"https:\/\/foursquare.com\/v\/4bd892d011dcc928bfe7f633\/device_menu"},"specials":{"count":"0"},"hereNow":{"count":"0"},"referralId":"v-1392478011"},{"id":"51406baee4b05b1de8cf76b9","name":"Balmoral House Hotel","location":{"lat":"51.51490341152783","lng":"-0.17295292247865307","distance":"69","cc":"GB","country":"United Kingdom"},"categories":[{"id":"4bf58dd8d48988d1fa931735","name":"Hotel","pluralName":"Hotels","shortName":"Hotel","icon":{"prefix":"https:\/\/ss1.4sqi.net\/img\/categories_v2\/travel\/hotel_","suffix":".png"},"primary":"true"}],"verified":"false","restricted":"true","stats":{"checkinsCount":"66","usersCount":"34","tipCount":"2"},"specials":{"count":"0"},"hereNow":{"count":"0"},"referralId":"v-1392478011"},{"id":"4bfe400bbf6576b04566aeb8","name":"Mimo's Cafe","location":{"address":"19 London Street","lat":"51.515231","lng":"-0.173806","distance":"125","postalCode":"W2","cc":"GB","city":"Paddington","state":"Greater London","country":"United Kingdom"},"categories":[{"id":"4bf58dd8d48988d16d941735","name":"Caf\u00e9","pluralName":"Caf\u00e9s","shortName":"Caf\u00e9","icon":{"prefix":"https:\/\/ss1.4sqi.net\/img\/categories_v2\/food\/cafe_","suffix":".png"},"primary":"true"}],"verified":"false","restricted":"true","stats":{"checkinsCount":"289","usersCount":"203","tipCount":"9"},"specials":{"count":"0"},"hereNow":{"count":"0"},"referralId":"v-1392478011"},{"id":"4bbd10638ec3d13ae8a11b28","name":"Quality Crown Hotel Hyde Park","contact":{"phone":"+442072626699","formattedPhone":"+44 20 7262 6699"},"location":{"address":"8-14 Talbot Sq.","lat":"51.51499361719332","lng":"-0.1745616781429243","distance":"144","postalCode":"W2 ITS","cc":"GB","city":"London","state":"Greater London","country":"United Kingdom"},"categories":[{"id":"4bf58dd8d48988d1fa931735","name":"Hotel","pluralName":"Hotels","shortName":"Hotel","icon":{"prefix":"https:\/\/ss1.4sqi.net\/img\/categories_v2\/travel\/hotel_","suffix":".png"},"primary":"true"}],"verified":"false","restricted":"true","stats":{"checkinsCount":"366","usersCount":"181","tipCount":"8"},"specials":{"count":"0"},"hereNow":{"count":"0"},"referralId":"v-1392478011"},{"id":"52b5f2c3498ea0f99a2b8a4b","name":"Desejo do Brasil - Brazilian Churrascaria","location":{"lat":"51.514808654785156","lng":"-0.17352110147476196","distance":"76","cc":"GB","country":"United Kingdom"},"categories":[{"id":"4bf58dd8d48988d16b941735","name":"Brazilian Restaurant","pluralName":"Brazilian Restaurants","shortName":"Brazilian","icon":{"prefix":"https:\/\/ss1.4sqi.net\/img\/categories_v2\/food\/brazilian_","suffix":".png"},"primary":"true"}],"verified":"false","restricted":"true","stats":{"checkinsCount":"3","usersCount":"3","tipCount":"0"},"reservations":{"url":"http:\/\/www.toptable.co.uk\/single.aspx?rid=100368&ref=9601"},"specials":{"count":"0"},"hereNow":{"count":"0"},"referralId":"v-1392478011"},{"id":"4ac518b7f964a5203da120e3","name":"Rhodes Hotel","location":{"address":"195 Sussex Gardens","lat":"51.51419057559146","lng":"-0.17423120829699237","distance":"99","postalCode":"W2 2RJ","cc":"GB","city":"London","state":"Greater London","country":"United Kingdom"},"categories":[{"id":"4bf58dd8d48988d1fa931735","name":"Hotel","pluralName":"Hotels","shortName":"Hotel","icon":{"prefix":"https:\/\/ss1.4sqi.net\/img\/categories_v2\/travel\/hotel_","suffix":".png"},"primary":"true"}],"verified":"false","restricted":"true","stats":{"checkinsCount":"303","usersCount":"110","tipCount":"7"},"specials":{"count":"0"},"hereNow":{"count":"0"},"referralId":"v-1392478011"},{"id":"4e12296ac65b4a49f313b2c8","name":"Sussex Fish Bar","location":{"address":"20 London Street","lat":"51.51522715939563","lng":"-0.17321942012088082","distance":"108","cc":"GB","city":"London","state":"Greater London","country":"United Kingdom"},"categories":[{"id":"4edd64a0c7ddd24ca188df1a","name":"Fish & Chips Shop","pluralName":"Fish & Chips Shops","shortName":"Fish & Chips","icon":{"prefix":"https:\/\/ss1.4sqi.net\/img\/categories_v2\/food\/fishandchips_","suffix":".png"},"primary":"true"}],"verified":"false","restricted":"true","stats":{"checkinsCount":"125","usersCount":"110","tipCount":"5"},"specials":{"count":"0"},"hereNow":{"count":"0"},"referralId":"v-1392478011"},{"id":"4fb51725e4b093950513c898","name":"Talbot Square","location":{"lat":"51.51480907765276","lng":"-0.17442378416346707","distance":"126","cc":"GB","country":"United Kingdom"},"categories":[{"id":"4bf58dd8d48988d163941735","name":"Park","pluralName":"Parks","shortName":"Park","icon":{"prefix":"https:\/\/ss1.4sqi.net\/img\/categories_v2\/parks_outdoors\/park_","suffix":".png"},"primary":"true"}],"verified":"false","restricted":"true","stats":{"checkinsCount":"227","usersCount":"132","tipCount":"0"},"specials":{"count":"0"},"hereNow":{"count":"0"},"referralId":"v-1392478011"},{"id":"4bcf48560ffdce728b58b2c0","name":"Adare Hotel","location":{"address":"153 Sussex Gardens","lat":"51.514850616455","lng":"-0.172849997878","distance":"62","cc":"GB","city":"London","state":"Greater London","country":"United Kingdom"},"categories":[{"id":"4bf58dd8d48988d1fa931735","name":"Hotel","pluralName":"Hotels","shortName":"Hotel","icon":{"prefix":"https:\/\/ss1.4sqi.net\/img\/categories_v2\/travel\/hotel_","suffix":".png"},"primary":"true"}],"verified":"false","restricted":"true","stats":{"checkinsCount":"58","usersCount":"31","tipCount":"0"},"specials":{"count":"0"},"hereNow":{"count":"0"},"referralId":"v-1392478011"},{"id":"4ac518b7f964a52040a120e3","name":"Nayland Hotel","location":{"address":"132-134 Sussex Gardens","lat":"51.51557246858616","lng":"-0.17255423863531985","distance":"143","postalCode":"W2 1UB","cc":"GB","city":"London","state":"Greater London","country":"United Kingdom"},"categories":[{"id":"4bf58dd8d48988d1fa931735","name":"Hotel","pluralName":"Hotels","shortName":"Hotel","icon":{"prefix":"https:\/\/ss1.4sqi.net\/img\/categories_v2\/travel\/hotel_","suffix":".png"},"primary":"true"}],"verified":"false","restricted":"true","stats":{"checkinsCount":"84","usersCount":"53","tipCount":"3"},"specials":{"count":"0"},"hereNow":{"count":"0"},"referralId":"v-1392478011"},{"id":"4ac518e2f964a52079aa20e3","name":"Cristini","contact":{"phone":"+442077067900","formattedPhone":"+44 20 7706 7900"},"location":{"address":"28 Sussex Place","crossStreet":"off Stanhope terrace and hyde park square","lat":"51.513625","lng":"-0.17165988333333335","distance":"108","postalCode":"W2 2TH","cc":"GB","city":"London","state":"Greater London","country":"United Kingdom"},"categories":[{"id":"4bf58dd8d48988d110941735","name":"Italian Restaurant","pluralName":"Italian Restaurants","shortName":"Italian","icon":{"prefix":"https:\/\/ss1.4sqi.net\/img\/categories_v2\/food\/italian_","suffix":".png"},"primary":"true"}],"verified":"true","restricted":"true","stats":{"checkinsCount":"107","usersCount":"77","tipCount":"10"},"url":"http:\/\/www.cristini.co.uk","reservations":{"url":"http:\/\/www.toptable.co.uk\/single.aspx?rid=13180&ref=9601"},"menu":{"type":"Menu","label":"Menu","anchor":"View Menu","url":"https:\/\/foursquare.com\/v\/cristini\/4ac518e2f964a52079aa20e3\/menu","mobileUrl":"https:\/\/foursquare.com\/v\/4ac518e2f964a52079aa20e3\/device_menu"},"specials":{"count":"0"},"hereNow":{"count":"0"},"venuePage":{"id":"47764277"},"storeId":"","referralId":"v-1392478011"}],"confident":"true"}}