{"meta":{"code":"200"},"response":{"venues":[{"id":"4ac518ebf964a5201cac20e3","name":"Odeon","contact":{"phone":"+442078368606","formattedPhone":"+44 20 7836 8606","twitter":"odeontheaters"},"location":{"address":"135 Shaftesbury Ave","lat":"51.51390727124453","lng":"-0.12799501419067383","distance":"44","postalCode":"WC2H 8AH","cc":"GB","city":"London","state":"Greater London","country":"United Kingdom"},"categories":[{"id":"4bf58dd8d48988d17f941735","name":"Movie Theater","pluralName":"Movie Theaters","shortName":"Movie Theater","icon":{"prefix":"https:\/\/ss1.4sqi.net\/img\/categories_v2\/arts_entertainment\/movietheater_","suffix":".png"},"primary":"true"}],"verified":"false","restricted":"true","stats":{"checkinsCount":"2317","usersCount":"1680","tipCount":"20"},"url":"http:\/\/www.odeon.co.uk","specials":{"count":"0"},"events":{"count":"4","summary":"4 movies"},"hereNow":{"count":"1","groups":[{"type":"others","name":"Other people here","count":"1"}]},"referralId":"v-1392478016"},{"id":"4ac518edf964a520c1ac20e3","name":"Monmouth Coffee Company","contact":{"phone":"+442072323010","formattedPhone":"+44 20 7232 3010"},"location":{"address":"27 Monmouth St","lat":"51.5143371575025","lng":"-0.12698470051018282","distance":"56","postalCode":"WC2H 9EU","cc":"GB","city":"Covent Garden","state":"Greater London","country":"United Kingdom"},"categories":[{"id":"4bf58dd8d48988d1e0931735","name":"Coffee Shop","pluralName":"Coffee Shops","shortName":"Coffee Shop","icon":{"prefix":"https:\/\/ss1.4sqi.net\/img\/categories_v2\/food\/coffeeshop_","suffix":".png"},"primary":"true"}],"verified":"false","restricted":"true","stats":{"checkinsCount":"7705","usersCount":"3158","tipCount":"147"},"url":"http:\/\/www.monmouthcoffee.co.uk","specials":{"count":"0"},"hereNow":{"count":"1","groups":[{"type":"others","name":"Other people here","count":"1"}]},"referralId":"v-1392478016"},{"id":"4ac518bef964a5201fa320e3","name":"The Crown","contact":{"phone":"+442035824810","formattedPhone":"+44 20 3582 4810"},"location":{"address":"43 Monmouth St.","lat":"51.51330969200403","lng":"-0.12726545333862305","distance":"115","postalCode":"WC2H 9DD","cc":"GB","city":"Covent Garden","state":"Greater London","country":"United Kingdom"},"categories":[{"id":"4bf58dd8d48988d11b941735","name":"Pub","pluralName":"Pubs","shortName":"Pub","icon":{"prefix":"https:\/\/ss1.4sqi.net\/img\/categories_v2\/nightlife\/pub_","suffix":".png"},"primary":"true"}],"verified":"false","restricted":"true","stats":{"checkinsCount":"2227","usersCount":"1766","tipCount":"16"},"url":"http:\/\/www.taylor-walker.co.uk","specials":{"count":"0"},"hereNow":{"count":"0"},"referralId":"v-1392478016"},{"id":"4ac7998af964a5205bb820e3","name":"Forbidden Planet","contact":{"phone":"+442074203666","formattedPhone":"+44 20 7420 3666","twitter":"forbiddenplanet"},"location":{"address":"179 Shaftesbury Ave","lat":"51.515082376271316","lng":"-0.12712597846984863","distance":"99","postalCode":"WC2H 8JR","cc":"GB","city":"London","state":"Greater London","country":"United Kingdom"},"categories":[{"id":"4bf58dd8d48988d1fb941735","name":"Hobby Shop","pluralName":"Hobby Shops","shortName":"Hobbies","icon":{"prefix":"https:\/\/ss1.4sqi.net\/img\/categories_v2\/shops\/hobbyshop_","suffix":".png"},"primary":"true"}],"verified":"false","restricted":"true","stats":{"checkinsCount":"7845","usersCount":"4197","tipCount":"85"},"url":"https:\/\/forbiddenplanet.com","specials":{"count":"0"},"hereNow":{"count":"2","groups":[{"type":"others","name":"Other people here","count":"2"}]},"referralId":"v-1392478016"},{"id":"4ac518f3f964a520c6ae20e3","name":"Seven Dials","contact":{"twitter":"7dialswc2"},"location":{"address":"Covent Garden","lat":"51.51377899123422","lng":"-0.12694797135579944","distance":"82","postalCode":"WC2E 8","cc":"GB","city":"Covent Garden","state":"Greater London","country":"United Kingdom"},"categories":[{"id":"4f2a25ac4b909258e854f55f","name":"Neighborhood","pluralName":"Neighborhoods","shortName":"Neighborhood","icon":{"prefix":"https:\/\/ss1.4sqi.net\/img\/categories_v2\/parks_outdoors\/neighborhood_","suffix":".png"},"primary":"true"}],"verified":"true","restricted":"true","stats":{"checkinsCount":"5092","usersCount":"2651","tipCount":"15"},"url":"http:\/\/www.sevendials.co.uk","specials":{"count":"1","items":[{"id":"4f96da99c2ee9386082c8dab","type":"count","message":"Free 10% off exclusive Seven Dials Privilege card when you check in more than twice.","description":"Unlocked on your 2nd check-in","finePrint":"1 card per person. By redeeming, you give permission for us to inform you of offers & promotions. T&Cs will be outlined when you receive your card. Allow up to ten working days to receive your card.","icon":"frequency","title":"Loyalty Special","provider":"foursquare","redemption":"standard"}]},"hereNow":{"count":"0"},"venuePage":{"id":"33788589"},"storeId":"","referralId":"v-1392478016"},{"id":"4bb3a8f0a32876b0690702fe","name":"Thai Square","contact":{"phone":"+442078367600","formattedPhone":"+44 20 7836 7600","twitter":"thaisquaregroup"},"location":{"address":"166-170 Shaftesbury Ave.","crossStreet":"at Monmouth St.","lat":"51.514371494383305","lng":"-0.12749833498249538","distance":"23","postalCode":"WC2H 8JB","cc":"GB","city":"London","state":"Greater London","country":"United Kingdom"},"categories":[{"id":"4bf58dd8d48988d149941735","name":"Thai Restaurant","pluralName":"Thai Restaurants","shortName":"Thai","icon":{"prefix":"https:\/\/ss1.4sqi.net\/img\/categories_v2\/food\/thai_","suffix":".png"},"primary":"true"}],"verified":"false","restricted":"true","stats":{"checkinsCount":"465","usersCount":"407","tipCount":"8"},"url":"http:\/\/thaisquare.net","menu":{"type":"Menu","label":"Menu","anchor":"View Menu","url":"https:\/\/foursquare.com\/v\/thai-square\/4bb3a8f0a32876b0690702fe\/menu","mobileUrl":"https:\/\/foursquare.com\/v\/4bb3a8f0a32876b0690702fe\/device_menu"},"specials":{"count":"0"},"hereNow":{"count":"0"},"referralId":"v-1392478016"},{"id":"512612ade4b0cb72235a0dad","name":"Inventiv Digital & Innovation","contact":{"twitter":"inventivdigital"},"location":{"address":"151 Shaftesbury Avenue","crossStreet":"5th Floor","lat":"51.514483938419524","lng":"-0.12784329199009214","distance":"21","postalCode":"WC2H 8AL","cc":"GB","city":"London","state":"Greater London","country":"United Kingdom"},"categories":[{"id":"4bf58dd8d48988d130941735","name":"Building","pluralName":"Buildings","shortName":"Building","icon":{"prefix":"https:\/\/ss1.4sqi.net\/img\/categories_v2\/building\/default_","suffix":".png"},"primary":"true"}],"verified":"false","restricted":"true","stats":{"checkinsCount":"79","usersCount":"7","tipCount":"0"},"specials":{"count":"0"},"hereNow":{"count":"0"},"referralId":"v-1392478016"},{"id":"4ac518b6f964a52006a120e3","name":"Radisson Blu Edwardian Mercer Street (formerly Mountbatten) Hotel","contact":{"phone":"+44800374411","formattedPhone":"+44 800 374411","twitter":"rbehotels"},"location":{"address":"Seven Dials Covent Garden","lat":"51.51406938183531","lng":"-0.12708330348352315","distance":"55","postalCode":"WC2H 9HD","cc":"GB","city":"London","state":"Greater London","country":"United Kingdom"},"categories":[{"id":"4bf58dd8d48988d1fa931735","name":"Hotel","pluralName":"Hotels","shortName":"Hotel","icon":{"prefix":"https:\/\/ss1.4sqi.net\/img\/categories_v2\/travel\/hotel_","suffix":".png"},"primary":"true"}],"verified":"true","restricted":"true","stats":{"checkinsCount":"1471","usersCount":"676","tipCount":"14"},"url":"http:\/\/www.radissonedwardian.com","specials":{"count":"0"},"hereNow":{"count":"0"},"storeId":"","referralId":"v-1392478016"},{"id":"5188ddc2498efdc2be39f972","name":"Homeslice","contact":{"phone":"+442078364604","formattedPhone":"+44 20 7836 4604","twitter":"homesliceldn"},"location":{"address":"13 Neal's Yard","lat":"51.514531688806834","lng":"-0.12650580581787826","distance":"93","postalCode":"WC2H 9DP","cc":"GB","city":"London","state":"Greater London","country":"United Kingdom"},"categories":[{"id":"4bf58dd8d48988d1ca941735","name":"Pizza Place","pluralName":"Pizza Places","shortName":"Pizza","icon":{"prefix":"https:\/\/ss1.4sqi.net\/img\/categories_v2\/food\/pizza_","suffix":".png"},"primary":"true"}],"verified":"false","restricted":"true","stats":{"checkinsCount":"770","usersCount":"557","tipCount":"37"},"specials":{"count":"0"},"hereNow":{"count":"1","groups":[{"type":"others","name":"Other people here","count":"1"}]},"referralId":"v-1392478016"},{"id":"4acefd5df964a52035d220e3","name":"Yahoo! UK","location":{"address":"125 Shaftesbury Ave","lat":"51.513933978513634","lng":"-0.12841880321502686","distance":"58","postalCode":"WC2H 8AD","cc":"GB","city":"London","state":"Greater London","country":"United Kingdom"},"categories":[{"id":"4bf58dd8d48988d124941735","name":"Office","pluralName":"Offices","shortName":"Office","icon":{"prefix":"https:\/\/ss1.4sqi.net\/img\/categories_v2\/building\/default_","suffix":".png"},"primary":"true"}],"verified":"false","restricted":"true","stats":{"checkinsCount":"2324","usersCount":"501","tipCount":"10"},"specials":{"count":"0"},"hereNow":{"count":"0"},"referralId":"v-1392478016"},{"id":"4ac518e7f964a52055ab20e3","name":"Phoenix Theatre","location":{"address":"110 Charing Cross Rd","lat":"51.51419103517786","lng":"-0.12926101684570312","distance":"101","postalCode":"WC2H 0JP","cc":"GB","city":"London","state":"Greater London","country":"United Kingdom"},"categories":[{"id":"4bf58dd8d48988d137941735","name":"Theater","pluralName":"Theaters","shortName":"Theater","icon":{"prefix":"https:\/\/ss1.4sqi.net\/img\/categories_v2\/arts_entertainment\/performingarts_theater_","suffix":".png"},"primary":"true"}],"verified":"true","restricted":"true","stats":{"checkinsCount":"1681","usersCount":"1356","tipCount":"29"},"specials":{"count":"0"},"hereNow":{"count":"2","groups":[{"type":"others","name":"Other people here","count":"2"}]},"referralId":"v-1392478016"},{"id":"4b544937f964a52080b627e3","name":"Biosector2","location":{"address":"151 Shaftesbury Avenue","lat":"51.514427","lng":"-0.127572","distance":"22","postalCode":"WC2H 8AL","cc":"GB","city":"London","state":"Greater London","country":"United Kingdom"},"verified":"false","restricted":"true","stats":{"checkinsCount":"67","usersCount":"2","tipCount":"1"},"specials":{"count":"0"},"hereNow":{"count":"0"},"referralId":"v-1392478016"},{"id":"4ac518b5f964a520aea020e3","name":"Covent Garden Hotel","location":{"address":"10 Monmouth St","lat":"51.51453","lng":"-0.126903","distance":"67","postalCode":"WC2H 9HB","cc":"GB","city":"St Giles","state":"Greater London","country":"United Kingdom"},"categories":[{"id":"4bf58dd8d48988d1fa931735","name":"Hotel","pluralName":"Hotels","shortName":"Hotel","icon":{"prefix":"https:\/\/ss1.4sqi.net\/img\/categories_v2\/travel\/hotel_","suffix":".png"},"primary":"true"}],"verified":"false","restricted":"true","stats":{"checkinsCount":"1898","usersCount":"1203","tipCount":"18"},"specials":{"count":"0"},"hereNow":{"count":"1","groups":[{"type":"others","name":"Other people here","count":"1"}]},"referralId":"v-1392478016"},{"id":"4cfd310b2d80a143ea8455d8","name":"Kopapa Cafe & Restaurant","contact":{"phone":"+442072406076","formattedPhone":"+44 20 7240 6076","twitter":"kopapacafe"},"location":{"address":"32-34 Monmouth St","lat":"51.51354588697034","lng":"-0.1271595060825348","distance":"93","postalCode":"WC2H 9HA","cc":"GB","city":"Seven Dials","state":"Greater London","country":"United Kingdom"},"categories":[{"id":"4bf58dd8d48988d1c4941735","name":"Restaurant","pluralName":"Restaurants","shortName":"Restaurant","icon":{"prefix":"https:\/\/ss1.4sqi.net\/img\/categories_v2\/food\/default_","suffix":".png"},"primary":"true"}],"verified":"true","restricted":"true","stats":{"checkinsCount":"2294","usersCount":"1708","tipCount":"71"},"url":"http:\/\/www.kopapa.co.uk","reservations":{"url":"http:\/\/www.toptable.co.uk\/single.aspx?rid=57481&ref=9601"},"menu":{"type":"Menu","label":"Menu","anchor":"View Menu","url":"https:\/\/foursquare.com\/v\/kopapa-cafe--restaurant\/4cfd310b2d80a143ea8455d8\/menu","mobileUrl":"https:\/\/foursquare.com\/v\/4cfd310b2d80a143ea8455d8\/device_menu"},"specials":{"count":"2","items":[{"id":"4e52b10a814d5634cb185e24","type":"frequency","message":"Free coffee or tea of your choice.","description":"Unlocked every 5 check-ins","icon":"frequency","title":"Loyalty Special","provider":"foursquare","redemption":"standard"},{"id":"4e52b1d8814d5634cb185ee0","type":"frequency","message":"Free Coffee\/Beer\/Wine or Cocktail from the Kopapa Foursquare drinks list","description":"Unlocked every 10 check-ins","icon":"frequency","title":"Loyalty Special","provider":"foursquare","redemption":"standard"}]},"hereNow":{"count":"1","groups":[{"type":"others","name":"Other people here","count":"1"}]},"venuePage":{"id":"38459376"},"storeId":"","referralId":"v-1392478016"},{"id":"4ac518e9f964a520ceab20e3","name":"Cambridge Theatre","contact":{"phone":"+448444124648","formattedPhone":"+44 844 412 4648","twitter":"officialrug"},"location":{"address":"Seven Dials, 32-34 Earlham St.","crossStreet":"Covent Garden","lat":"51.51365849535242","lng":"-0.12675393168608146","distance":"101","postalCode":"WC2 9HU","cc":"GB","city":"London","state":"Greater London","country":"United Kingdom"},"categories":[{"id":"4bf58dd8d48988d137941735","name":"Theater","pluralName":"Theaters","shortName":"Theater","icon":{"prefix":"https:\/\/ss1.4sqi.net\/img\/categories_v2\/arts_entertainment\/performingarts_theater_","suffix":".png"},"primary":"true"}],"verified":"false","restricted":"true","stats":{"checkinsCount":"2598","usersCount":"2271","tipCount":"24"},"url":"http:\/\/www.matildathemusical.com","specials":{"count":"0"},"hereNow":{"count":"1","groups":[{"type":"others","name":"Other people here","count":"1"}]},"referralId":"v-1392478016"},{"id":"5018e28fe4b08659764f5a72","name":"Pure","contact":{"phone":"+442036388347","formattedPhone":"+44 20 3638 8347","twitter":"puremadeforyou"},"location":{"address":"151 Shaftesbury Ave","lat":"51.51459190388483","lng":"-0.1276482532353384","distance":"35","postalCode":"WC2H 8AL","cc":"GB","city":"Camden","state":"Greater London","country":"United Kingdom"},"categories":[{"id":"4bf58dd8d48988d16d941735","name":"Caf\u00e9","pluralName":"Caf\u00e9s","shortName":"Caf\u00e9","icon":{"prefix":"https:\/\/ss1.4sqi.net\/img\/categories_v2\/food\/cafe_","suffix":".png"},"primary":"true"}],"verified":"false","restricted":"true","stats":{"checkinsCount":"337","usersCount":"150","tipCount":"3"},"specials":{"count":"0"},"hereNow":{"count":"0"},"referralId":"v-1392478016"},{"id":"529622ef11d20a5e59bd09e4","name":"The Ape & Bird","contact":{"phone":"+442078363119","formattedPhone":"+44 20 7836 3119","twitter":"apeandbird"},"location":{"address":"142 Shaftesbury Ave","lat":"51.513399445790895","lng":"-0.12875216850423202","distance":"118","postalCode":"WC2H 8HJ","cc":"GB","city":"London","state":"Greater London","country":"United Kingdom"},"categories":[{"id":"4bf58dd8d48988d155941735","name":"Gastropub","pluralName":"Gastropubs","shortName":"Gastropub","icon":{"prefix":"https:\/\/ss1.4sqi.net\/img\/categories_v2\/food\/gastropub_","suffix":".png"},"primary":"true"}],"verified":"false","restricted":"true","stats":{"checkinsCount":"375","usersCount":"293","tipCount":"7"},"url":"http:\/\/www.apeandbird.com","specials":{"count":"0"},"hereNow":{"count":"0"},"referralId":"v-1392478016"},{"id":"4ee35392a69d89905af0eca5","name":"Hotel Chocolat","location":{"address":"4 Monmouth St","lat":"51.51472113494533","lng":"-0.12691936280558153","distance":"77","postalCode":"WC2H","cc":"GB","city":"Camden","state":"Greater London","country":"United Kingdom"},"categories":[{"id":"4bf58dd8d48988d117951735","name":"Candy Store","pluralName":"Candy Stores","shortName":"Candy Store","icon":{"prefix":"https:\/\/ss1.4sqi.net\/img\/categories_v2\/shops\/candystore_","suffix":".png"},"primary":"true"}],"verified":"false","restricted":"true","stats":{"checkinsCount":"492","usersCount":"382","tipCount":"15"},"specials":{"count":"0"},"hereNow":{"count":"1","groups":[{"type":"others","name":"Other people here","count":"1"}]},"referralId":"v-1392478016"},{"id":"4cd5d348b2a4370420df8044","name":"Nicholson's Pub","location":{"address":"12-13 Great Newport St.","lat":"51.51331181066053","lng":"-0.12853876742029258","distance":"120","postalCode":"WC2H 0","cc":"GB","city":"London","state":"Greater London","country":"United Kingdom"},"categories":[{"id":"4bf58dd8d48988d11b941735","name":"Pub","pluralName":"Pubs","shortName":"Pub","icon":{"prefix":"https:\/\/ss1.4sqi.net\/img\/categories_v2\/nightlife\/pub_","suffix":".png"},"primary":"true"}],"verified":"false","restricted":"true","stats":{"checkinsCount":"1204","usersCount":"1136","tipCount":"14"},"specials":{"count":"0"},"hereNow":{"count":"0"},"referralId":"v-1392478016"},{"id":"4b0cedf6f964a520a34223e3","name":"Caff\u00e8 Nero","contact":{"phone":"+442072408918","formattedPhone":"+44 20 7240 8918"},"location":{"address":"30 Monmouth St","lat":"51.51364353612158","lng":"-0.12698650360107422","distance":"91","postalCode":"WC2H 9HA","cc":"GB","city":"Seven Dials","state":"Greater London","country":"United Kingdom"},"categories":[{"id":"4bf58dd8d48988d1e0931735","name":"Coffee Shop","pluralName":"Coffee Shops","shortName":"Coffee Shop","icon":{"prefix":"https:\/\/ss1.4sqi.net\/img\/categories_v2\/food\/coffeeshop_","suffix":".png"},"primary":"true"}],"verified":"false","restricted":"true","stats":{"checkinsCount":"966","usersCount":"680","tipCount":"13"},"url":"http:\/\/www.caffenero.com","specials":{"count":"0"},"hereNow":{"count":"0"},"referralId":"v-1392478016"},{"id":"4b82904bf964a5207ad830e3","name":"Fopp","contact":{"twitter":"foppofficial"},"location":{"address":"1 Earlham St","crossStreet":"Shaftesbury Ave","lat":"51.5135899371294","lng":"-0.12851724328385342","distance":"92","postalCode":"WC2H 9LL","cc":"GB","city":"Camden","state":"Greater London","country":"United Kingdom"},"categories":[{"id":"4bf58dd8d48988d10d951735","name":"Record Shop","pluralName":"Record Shops","shortName":"Record Shop","icon":{"prefix":"https:\/\/ss1.4sqi.net\/img\/categories_v2\/shops\/record_shop_","suffix":".png"},"primary":"true"}],"verified":"false","restricted":"true","stats":{"checkinsCount":"2078","usersCount":"1001","tipCount":"17"},"specials":{"count":"0"},"hereNow":{"count":"0"},"referralId":"v-1392478016"},{"id":"4ac518f4f964a520fcae20e3","name":"Neal's Yard","contact":{"twitter":"detroitbarldn"},"location":{"address":"Neal's Yard","lat":"51.514364","lng":"-0.126348","distance":"101","postalCode":"WC2H 9PJ","cc":"GB","city":"Covent Garden","state":"Greater London","country":"United Kingdom"},"categories":[{"id":"4bf58dd8d48988d164941735","name":"Plaza","pluralName":"Plazas","shortName":"Plaza","icon":{"prefix":"https:\/\/ss1.4sqi.net\/img\/categories_v2\/parks_outdoors\/plaza_","suffix":".png"},"primary":"true"}],"verified":"false","restricted":"true","stats":{"checkinsCount":"2616","usersCount":"1967","tipCount":"20"},"menu":{"type":"Menu","label":"Menu","anchor":"View Menu","url":"https:\/\/foursquare.com\/v\/neals-yard\/4ac518f4f964a520fcae20e3\/menu","mobileUrl":"https:\/\/foursquare.com\/v\/4ac518f4f964a520fcae20e3\/device_menu"},"specials":{"count":"0"},"hereNow":{"count":"0"},"referralId":"v-1392478016"},{"id":"4f730570e4b05b6a68a07e1d","name":"The Diner","contact":{"phone":"+442035515225","formattedPhone":"+44 20 3551 5225","twitter":"thedinertweets"},"location":{"address":"190 Shaftesbury Ave.","lat":"51.515177","lng":"-0.127091","distance":"110","postalCode":"WC2H 8JL","cc":"GB","city":"St Giles","state":"Greater London","country":"United Kingdom"},"categories":[{"id":"4bf58dd8d48988d14e941735","name":"American Restaurant","pluralName":"American Restaurants","shortName":"American","icon":{"prefix":"https:\/\/ss1.4sqi.net\/img\/categories_v2\/food\/default_","suffix":".png"},"primary":"true"}],"verified":"false","restricted":"true","stats":{"checkinsCount":"1787","usersCount":"990","tipCount":"36"},"url":"http:\/\/www.goodlifediner.com","specials":{"count":"0"},"hereNow":{"count":"0"},"referralId":"v-1392478016"},{"id":"521f6db411d227dcad5a280d","name":"IDA Ireland","location":{"address":"Shaftesbury House","lat":"51.514337","lng":"-0.127963","distance":"12","cc":"GB","city":"London","state":"Greater London","country":"United Kingdom"},"categories":[{"id":"4bf58dd8d48988d124941735","name":"Office","pluralName":"Offices","shortName":"Office","icon":{"prefix":"https:\/\/ss1.4sqi.net\/img\/categories_v2\/building\/default_","suffix":".png"},"primary":"true"}],"verified":"false","restricted":"true","stats":{"checkinsCount":"5","usersCount":"2","tipCount":"0"},"specials":{"count":"0"},"hereNow":{"count":"0"},"referralId":"v-1392478016"},{"id":"4d9214a356a3f04d27e0f141","name":"Enterprise Ireland","contact":{"twitter":"ei_theuk"},"location":{"address":"Shaftesbury House","lat":"51.51437621020098","lng":"-0.12777962925352312","distance":"9","cc":"GB","city":"London","state":"Greater London","country":"United Kingdom"},"categories":[{"id":"4bf58dd8d48988d124941735","name":"Office","pluralName":"Offices","shortName":"Office","icon":{"prefix":"https:\/\/ss1.4sqi.net\/img\/categories_v2\/building\/default_","suffix":".png"},"primary":"true"}],"verified":"false","restricted":"true","stats":{"checkinsCount":"20","usersCount":"15","tipCount":"0"},"url":"http:\/\/www.enterprise-ireland.com","specials":{"count":"0"},"hereNow":{"count":"0"},"referralId":"v-1392478016"},{"id":"4c8f6c3158668cfaa2c8d9ec","name":"Hogarth Worldwide","contact":{"phone":"+442072406400","formattedPhone":"+44 20 7240 6400"},"location":{"address":"164 Shaftesbury Ave.","lat":"51.514098","lng":"-0.127787","distance":"21","postalCode":"WC2H 8HL","cc":"GB","city":"Camden Town","state":"Greater London","country":"United Kingdom"},"categories":[{"id":"4bf58dd8d48988d124941735","name":"Office","pluralName":"Offices","shortName":"Office","icon":{"prefix":"https:\/\/ss1.4sqi.net\/img\/categories_v2\/building\/default_","suffix":".png"},"primary":"true"}],"verified":"false","restricted":"true","stats":{"checkinsCount":"322","usersCount":"51","tipCount":"0"},"specials":{"count":"0"},"hereNow":{"count":"0"},"referralId":"v-1392478016"},{"id":"4ac518dcf964a52023a920e3","name":"Bali Bali","contact":{"phone":"+442078362644","formattedPhone":"+44 20 7836 2644"},"location":{"address":"150 Shaftesbury Ave","lat":"51.51383660954163","lng":"-0.1283456744615515","distance":"62","postalCode":"WC2H 8HL","cc":"GB","city":"London","state":"Greater London","country":"United Kingdom"},"categories":[{"id":"4deefc054765f83613cdba6f","name":"Indonesian Restaurant","pluralName":"Indonesian Restaurants","shortName":"Indonesian","icon":{"prefix":"https:\/\/ss1.4sqi.net\/img\/categories_v2\/food\/default_","suffix":".png"},"primary":"true"}],"verified":"false","restricted":"true","stats":{"checkinsCount":"518","usersCount":"397","tipCount":"17"},"url":"http:\/\/balibalirestaurant.com\u200e","reservations":{"url":"http:\/\/www.toptable.co.uk\/single.aspx?rid=70042&ref=9601"},"menu":{"type":"Menu","label":"Menu","anchor":"View Menu","url":"https:\/\/foursquare.com\/v\/bali-bali\/4ac518dcf964a52023a920e3\/menu","mobileUrl":"https:\/\/foursquare.com\/v\/4ac518dcf964a52023a920e3\/device_menu"},"specials":{"count":"0"},"hereNow":{"count":"0"},"referralId":"v-1392478016"},{"id":"5294afa511d2d919d433b889","name":"Compagnie des Vins Surnaturels","contact":{"phone":"+442077347737","formattedPhone":"+44 20 7734 7737","twitter":"cvs7dials"},"location":{"address":"8-10 Neal's Yard","crossStreet":"Monmouth Street","lat":"51.514471458975386","lng":"-0.12648224830627441","distance":"93","postalCode":"WC2H 9DP","cc":"GB","city":"London","state":"Greater London","country":"United Kingdom"},"categories":[{"id":"4bf58dd8d48988d123941735","name":"Wine Bar","pluralName":"Wine Bars","shortName":"Wine Bar","icon":{"prefix":"https:\/\/ss1.4sqi.net\/img\/categories_v2\/nightlife\/wine_","suffix":".png"},"primary":"true"}],"verified":"true","restricted":"true","stats":{"checkinsCount":"58","usersCount":"54","tipCount":"2"},"url":"http:\/\/facebook.com\/cvs7dials","specials":{"count":"0"},"hereNow":{"count":"1","groups":[{"type":"others","name":"Other people here","count":"1"}]},"venuePage":{"id":"73074858"},"referralId":"v-1392478016"},{"id":"4ac518c2f964a52010a420e3","name":"Souk Medina","contact":{"twitter":"soukmedinabazaa"},"location":{"address":"1a Short's Gardens","lat":"51.51416192091565","lng":"-0.12673847611159644","distance":"75","postalCode":"WC2H 9AT","cc":"GB","city":"London","state":"Greater London","country":"United Kingdom"},"categories":[{"id":"4bf58dd8d48988d1c3941735","name":"Moroccan Restaurant","pluralName":"Moroccan Restaurants","shortName":"Moroccan","icon":{"prefix":"https:\/\/ss1.4sqi.net\/img\/categories_v2\/food\/moroccan_","suffix":".png"},"primary":"true"}],"verified":"false","restricted":"true","stats":{"checkinsCount":"797","usersCount":"715","tipCount":"29"},"url":"http:\/\/www.soukrestaurant.co.uk","reservations":{"url":"http:\/\/www.toptable.co.uk\/single.aspx?rid=18310&ref=9601"},"menu":{"type":"Menu","label":"Menu","anchor":"View Menu","url":"https:\/\/foursquare.com\/v\/souk-medina\/4ac518c2f964a52010a420e3\/menu","mobileUrl":"https:\/\/foursquare.com\/v\/4ac518c2f964a52010a420e3\/device_menu"},"specials":{"count":"0"},"hereNow":{"count":"0"},"referralId":"v-1392478016"},{"id":"4c066eb1517d0f4733f2f515","name":"Pix Pintxos","contact":{"phone":"+442078369779","formattedPhone":"+44 20 7836 9779"},"location":{"address":"63 Neal St.","lat":"51.514788243953475","lng":"-0.12648995080105782","distance":"106","postalCode":"WC2H 9PJ","cc":"GB","city":"Covent Garden","state":"Greater London","country":"United Kingdom"},"categories":[{"id":"4bf58dd8d48988d1db931735","name":"Tapas Restaurant","pluralName":"Tapas Restaurants","shortName":"Tapas","icon":{"prefix":"https:\/\/ss1.4sqi.net\/img\/categories_v2\/food\/tapas_","suffix":".png"},"primary":"true"}],"verified":"false","restricted":"true","stats":{"checkinsCount":"956","usersCount":"730","tipCount":"29"},"menu":{"type":"Menu","label":"Menu","anchor":"View Menu","url":"https:\/\/foursquare.com\/v\/pix-pintxos\/4c066eb1517d0f4733f2f515\/menu","mobileUrl":"https:\/\/foursquare.com\/v\/4c066eb1517d0f4733f2f515\/device_menu"},"specials":{"count":"0"},"hereNow":{"count":"1","groups":[{"type":"others","name":"Other people here","count":"1"}]},"referralId":"v-1392478016"}],"confident":"true"}}