{"meta":{"code":"200"},"response":{"venues":[{"id":"4adb5c6ff964a5206b2621e3","name":"Waterloo Bridge","location":{"address":"Waterloo Bridge","lat":"51.508234960183394","lng":"-0.11647224426269531","distance":"149","postalCode":"WC2R 1LA","cc":"GB","city":"London","state":"Greater London","country":"United Kingdom"},"categories":[{"id":"4bf58dd8d48988d1df941735","name":"Bridge","pluralName":"Bridges","shortName":"Bridge","icon":{"prefix":"https:\/\/ss1.4sqi.net\/img\/categories_v2\/parks_outdoors\/bridge_","suffix":".png"},"primary":"true"}],"verified":"false","restricted":"true","stats":{"checkinsCount":"10780","usersCount":"4658","tipCount":"44"},"specials":{"count":"0"},"hereNow":{"count":"2","groups":[{"type":"others","name":"Other people here","count":"2"}]},"referralId":"v-1392478030"},{"id":"4c9a50badb10b60c99a6916d","name":"RNLI Lifeboat Station Tower Pier","location":{"lat":"51.50978254195389","lng":"-0.11751090411813822","distance":"58","cc":"GB","city":"London","state":"Greater London","country":"United Kingdom"},"categories":[{"id":"4bf58dd8d48988d130941735","name":"Building","pluralName":"Buildings","shortName":"Building","icon":{"prefix":"https:\/\/ss1.4sqi.net\/img\/categories_v2\/building\/default_","suffix":".png"},"primary":"true"}],"verified":"false","restricted":"true","stats":{"checkinsCount":"64","usersCount":"34","tipCount":"1"},"specials":{"count":"0"},"hereNow":{"count":"0"},"referralId":"v-1392478030"},{"id":"52c2c4a811d25278bdf34db1","name":"Isabella Blow Exhibition@ Somerset House","location":{"lat":"51.51062497162708","lng":"-0.11656043784866997","distance":"171","cc":"GB","country":"United Kingdom"},"categories":[{"id":"4bf58dd8d48988d18f941735","name":"Art Museum","pluralName":"Art Museums","shortName":"Art Museum","icon":{"prefix":"https:\/\/ss1.4sqi.net\/img\/categories_v2\/arts_entertainment\/museum_art_","suffix":".png"},"primary":"true"}],"verified":"false","restricted":"true","stats":{"checkinsCount":"57","usersCount":"57","tipCount":"2"},"specials":{"count":"0"},"hereNow":{"count":"1","groups":[{"type":"others","name":"Other people here","count":"1"}]},"referralId":"v-1392478030"},{"id":"4ac518cef964a520fea520e3","name":"Obelisk (Cleopatra's Needle)","location":{"address":"Victoria Embankment","lat":"51.50853545346993","lng":"-0.12032389640808105","distance":"193","postalCode":"WC2N 6PB","cc":"GB","city":"City of Westminster","state":"Greater London","country":"United Kingdom"},"categories":[{"id":"4bf58dd8d48988d12d941735","name":"Monument \/ Landmark","pluralName":"Monuments \/ Landmarks","shortName":"Landmark","icon":{"prefix":"https:\/\/ss1.4sqi.net\/img\/categories_v2\/building\/government_monument_","suffix":".png"},"primary":"true"}],"verified":"false","restricted":"true","stats":{"checkinsCount":"898","usersCount":"519","tipCount":"6"},"specials":{"count":"0"},"hereNow":{"count":"0"},"referralId":"v-1392478030"},{"id":"4c8a71e855f9b713580a4add","name":"Tom's Kitchen at Somerset House","contact":{"phone":"0207845464","formattedPhone":"0207845464","twitter":"tomskitchens"},"location":{"address":"Somerset House","crossStreet":"Strand","lat":"51.510631","lng":"-0.117178","distance":"155","postalCode":"WC2R 1LA","cc":"GB","city":"London","state":"Greater London","country":"United Kingdom"},"categories":[{"id":"4bf58dd8d48988d1c4941735","name":"Restaurant","pluralName":"Restaurants","shortName":"Restaurant","icon":{"prefix":"https:\/\/ss1.4sqi.net\/img\/categories_v2\/food\/default_","suffix":".png"},"primary":"true"}],"verified":"false","restricted":"true","stats":{"checkinsCount":"386","usersCount":"349","tipCount":"9"},"url":"http:\/\/www.somersethouse.org.uk\/plan-your-visit\/eating-and-drinking\/toms-kitchen","menu":{"type":"Menu","label":"Menu","anchor":"View Menu","url":"https:\/\/foursquare.com\/v\/toms-kitchen-at-somerset-house\/4c8a71e855f9b713580a4add\/menu","mobileUrl":"https:\/\/foursquare.com\/v\/4c8a71e855f9b713580a4add\/device_menu"},"specials":{"count":"0"},"hereNow":{"count":"1","groups":[{"type":"others","name":"Other people here","count":"1"}]},"storeId":"","referralId":"v-1392478030"},{"id":"4c0d2d7ed64c0f475350265d","name":"JISC","location":{"lat":"51.510128","lng":"-0.118701","distance":"112","postalCode":"WC2R 1","cc":"GB","city":"London","state":"Greater London","country":"United Kingdom"},"categories":[{"id":"4bf58dd8d48988d124941735","name":"Office","pluralName":"Offices","shortName":"Office","icon":{"prefix":"https:\/\/ss1.4sqi.net\/img\/categories_v2\/building\/default_","suffix":".png"},"primary":"true"}],"verified":"false","restricted":"true","stats":{"checkinsCount":"201","usersCount":"27","tipCount":"0"},"specials":{"count":"0"},"hereNow":{"count":"0"},"referralId":"v-1392478030"},{"id":"4f5213b2e4b03365338a13c2","name":"Bus Stop T Lancaster Place","location":{"address":"Lancaster Place","lat":"51.51043330132167","lng":"-0.11826652278397415","distance":"131","cc":"GB","city":"London","state":"Greater London","country":"United Kingdom"},"categories":[{"id":"4bf58dd8d48988d1fe931735","name":"Bus Station","pluralName":"Bus Stations","shortName":"Bus Station","icon":{"prefix":"https:\/\/ss1.4sqi.net\/img\/categories_v2\/travel\/busstation_","suffix":".png"},"primary":"true"}],"verified":"false","restricted":"true","stats":{"checkinsCount":"97","usersCount":"31","tipCount":"0"},"specials":{"count":"0"},"hereNow":{"count":"0"},"referralId":"v-1392478030"},{"id":"5059f604e4b0fd1a4976cc4a","name":"Hailo","contact":{"twitter":"hailocab"},"location":{"address":"Somerset House, The Strand","lat":"51.510992688642034","lng":"-0.11833573816402933","distance":"193","postalCode":"WC2R 1LA","cc":"GB","city":"London","state":"Greater London","country":"United Kingdom"},"categories":[{"id":"4bf58dd8d48988d125941735","name":"Tech Startup","pluralName":"Tech Startups","shortName":"Tech Startup","icon":{"prefix":"https:\/\/ss1.4sqi.net\/img\/categories_v2\/shops\/technology_","suffix":".png"},"primary":"true"}],"verified":"true","restricted":"true","stats":{"checkinsCount":"246","usersCount":"23","tipCount":"1"},"specials":{"count":"0"},"hereNow":{"count":"0"},"referralId":"v-1392478030"},{"id":"4bc0ff7a74a9a5935522d1f6","name":"Buddah Bar","location":{"address":"8 Victoria embankment","lat":"51.50965849619525","lng":"-0.11869915384735853","distance":"74","cc":"GB","city":"London","state":"Greater London","country":"United Kingdom"},"categories":[{"id":"4bf58dd8d48988d11e941735","name":"Cocktail Bar","pluralName":"Cocktail Bars","shortName":"Cocktail","icon":{"prefix":"https:\/\/ss1.4sqi.net\/img\/categories_v2\/nightlife\/cocktails_","suffix":".png"},"primary":"true"}],"verified":"false","restricted":"true","stats":{"checkinsCount":"37","usersCount":"34","tipCount":"0"},"specials":{"count":"0"},"hereNow":{"count":"0"},"referralId":"v-1392478030"},{"id":"4c4559fddcd61b8db69b7c56","name":"Brettenham House","location":{"address":"Lancaster Pl","lat":"51.510463640110004","lng":"-0.11870199160058062","distance":"144","postalCode":"WC2E 7EN","cc":"GB","city":"London","state":"Greater London","country":"United Kingdom"},"categories":[{"id":"4bf58dd8d48988d124941735","name":"Office","pluralName":"Offices","shortName":"Office","icon":{"prefix":"https:\/\/ss1.4sqi.net\/img\/categories_v2\/building\/default_","suffix":".png"},"primary":"true"}],"verified":"false","restricted":"true","stats":{"checkinsCount":"1440","usersCount":"143","tipCount":"0"},"specials":{"count":"0"},"hereNow":{"count":"0"},"referralId":"v-1392478030"},{"id":"4c113176f1b6a593521f7d27","name":"Tom's Deli","contact":{"phone":"+442078454646","formattedPhone":"+44 20 7845 4646"},"location":{"address":"Somerset House","crossStreet":"150 Strand","lat":"51.51064534329525","lng":"-0.11708899597851574","distance":"158","postalCode":"WC2","cc":"GB","city":"London","state":"Greater London","country":"United Kingdom"},"categories":[{"id":"4bf58dd8d48988d146941735","name":"Deli \/ Bodega","pluralName":"Delis \/ Bodegas","shortName":"Deli \/ Bodega","icon":{"prefix":"https:\/\/ss1.4sqi.net\/img\/categories_v2\/food\/deli_","suffix":".png"},"primary":"true"}],"verified":"false","restricted":"true","stats":{"checkinsCount":"471","usersCount":"355","tipCount":"7"},"url":"http:\/\/www.somersethouse.org.uk\/plan-your-visit\/eating-and-drinking\/toms-deli","reservations":{"url":"http:\/\/www.toptable.co.uk\/single.aspx?rid=48091&ref=9601"},"menu":{"type":"Menu","label":"Menu","anchor":"View Menu","url":"https:\/\/foursquare.com\/v\/toms-deli\/4c113176f1b6a593521f7d27\/menu","mobileUrl":"https:\/\/foursquare.com\/v\/4c113176f1b6a593521f7d27\/device_menu"},"specials":{"count":"0"},"hereNow":{"count":"0"},"storeId":"","referralId":"v-1392478030"},{"id":"523de3ec498ec8d8df133407","name":"Makerversity at Somerset House","contact":{"twitter":"makerversity"},"location":{"lat":"51.510146732328224","lng":"-0.11742900800771346","distance":"98","cc":"GB","country":"United Kingdom"},"categories":[{"id":"4eb1bea83b7b6f98df247e06","name":"Factory","pluralName":"Factories","shortName":"Factory","icon":{"prefix":"https:\/\/ss1.4sqi.net\/img\/categories_v2\/building\/factory_","suffix":".png"},"primary":"true"}],"verified":"false","restricted":"true","stats":{"checkinsCount":"21","usersCount":"18","tipCount":"1"},"specials":{"count":"0"},"hereNow":{"count":"0"},"referralId":"v-1392478030"},{"id":"4b608319f964a520c5ea29e3","name":"Savoy Pier","location":{"lat":"51.50904643902602","lng":"-0.11972376273005995","distance":"135","cc":"GB","country":"United Kingdom"},"categories":[{"id":"4bf58dd8d48988d1ff931735","name":"Convention Center","pluralName":"Convention Centers","shortName":"Convention Center","icon":{"prefix":"https:\/\/ss1.4sqi.net\/img\/categories_v2\/building\/conventioncenter_","suffix":".png"},"primary":"true"}],"verified":"false","restricted":"true","stats":{"checkinsCount":"110","usersCount":"86","tipCount":"0"},"specials":{"count":"0"},"hereNow":{"count":"0"},"referralId":"v-1392478030"},{"id":"4bb8e1f1314e95217de1489d","name":"Silver Sturgeon","location":{"address":"Savoy Pier","lat":"51.508619","lng":"-0.11925101280212402","distance":"125","cc":"GB","city":"London","state":"Greater London","country":"United Kingdom"},"categories":[{"id":"4bf58dd8d48988d12d951735","name":"Boat or Ferry","pluralName":"Boats or Ferries","shortName":"Boat \/ Ferry","icon":{"prefix":"https:\/\/ss1.4sqi.net\/img\/categories_v2\/travel\/boat_","suffix":".png"},"primary":"true"}],"verified":"false","restricted":"true","stats":{"checkinsCount":"68","usersCount":"59","tipCount":"1"},"menu":{"type":"Menu","label":"Menu","anchor":"View Menu","url":"https:\/\/foursquare.com\/v\/silver-sturgeon-london-greater-london\/4bb8e1f1314e95217de1489d\/menu","mobileUrl":"https:\/\/foursquare.com\/v\/4bb8e1f1314e95217de1489d\/device_menu"},"specials":{"count":"0"},"hereNow":{"count":"0"},"referralId":"v-1392478030"},{"id":"51fd103f498e21108d0c8029","name":"The Wellington","location":{"lat":"51.51146487831187","lng":"-0.11881526123507974","distance":"252","cc":"GB","country":"United Kingdom"},"categories":[{"id":"4bf58dd8d48988d155941735","name":"Gastropub","pluralName":"Gastropubs","shortName":"Gastropub","icon":{"prefix":"https:\/\/ss1.4sqi.net\/img\/categories_v2\/food\/gastropub_","suffix":".png"},"primary":"true"}],"verified":"false","restricted":"true","stats":{"checkinsCount":"8","usersCount":"8","tipCount":"0"},"specials":{"count":"0"},"hereNow":{"count":"0"},"referralId":"v-1392478030"},{"id":"4beaeefc415e20a16aa8e5bb","name":"Tom's Terrace","contact":{"phone":"+442078454653","formattedPhone":"+44 20 7845 4653"},"location":{"address":"Somerset House","lat":"51.510511","lng":"-0.117156","distance":"143","postalCode":"WC2R 1LA","cc":"GB","city":"London","state":"Greater London","country":"United Kingdom"},"categories":[{"id":"4bf58dd8d48988d11e941735","name":"Cocktail Bar","pluralName":"Cocktail Bars","shortName":"Cocktail","icon":{"prefix":"https:\/\/ss1.4sqi.net\/img\/categories_v2\/nightlife\/cocktails_","suffix":".png"},"primary":"true"}],"verified":"false","restricted":"true","stats":{"checkinsCount":"520","usersCount":"421","tipCount":"7"},"url":"http:\/\/www.somersethouse.org.uk\/plan-your-visit\/eating-and-drinking\/toms-terrace","specials":{"count":"0"},"hereNow":{"count":"0"},"referralId":"v-1392478030"},{"id":"4ad74390f964a520290921e3","name":"Shell Mex House","location":{"address":"80 Strand","lat":"51.509427021804846","lng":"-0.11890991706312616","distance":"78","postalCode":"WC2R 0RL","cc":"GB","city":"London","state":"Greater London","country":"United Kingdom"},"categories":[{"id":"4bf58dd8d48988d124941735","name":"Office","pluralName":"Offices","shortName":"Office","icon":{"prefix":"https:\/\/ss1.4sqi.net\/img\/categories_v2\/building\/default_","suffix":".png"},"primary":"true"}],"verified":"false","restricted":"true","stats":{"checkinsCount":"9","usersCount":"7","tipCount":"1"},"specials":{"count":"0"},"hereNow":{"count":"0"},"referralId":"v-1392478030"},{"id":"4bfb80c9565f76b0bba305db","name":"The Institution of Engineering and Technology (IET)","contact":{"twitter":"theiet"},"location":{"address":"2 Savoy Pl","lat":"51.50987843644232","lng":"-0.11919804201364036","distance":"116","postalCode":"WC2R 0BL","cc":"GB","city":"London","state":"Greater London","country":"United Kingdom"},"categories":[{"id":"4bf58dd8d48988d1ff931735","name":"Convention Center","pluralName":"Convention Centers","shortName":"Convention Center","icon":{"prefix":"https:\/\/ss1.4sqi.net\/img\/categories_v2\/building\/conventioncenter_","suffix":".png"},"primary":"true"}],"verified":"false","restricted":"true","stats":{"checkinsCount":"692","usersCount":"432","tipCount":"7"},"specials":{"count":"0"},"hereNow":{"count":"0"},"referralId":"v-1392478030"},{"id":"525d3157498e4d747c3d63ea","name":"Duchy Of Lancaster","location":{"lat":"51.510880469694904","lng":"-0.11854037879059229","distance":"184","cc":"GB","country":"United Kingdom"},"categories":[{"id":"4bf58dd8d48988d12a941735","name":"Capitol Building","pluralName":"Capitol Buildings","shortName":"Capitol Building","icon":{"prefix":"https:\/\/ss1.4sqi.net\/img\/categories_v2\/building\/government_capitolbuilding_","suffix":".png"},"primary":"true"}],"verified":"false","restricted":"true","stats":{"checkinsCount":"5","usersCount":"3","tipCount":"0"},"specials":{"count":"0"},"hereNow":{"count":"0"},"referralId":"v-1392478030"},{"id":"510f9ec9582f24f204579c98","name":"PEER 1 Hosting London Office","contact":{"phone":"+448008407490","formattedPhone":"+44 800 840 7490","twitter":"peer1"},"location":{"address":"2-19 Lancaster Place","crossStreet":"Strand","lat":"51.510612141783206","lng":"-0.11885404586791991","distance":"164","postalCode":"WC2E 7EG","cc":"GB","city":"London","state":"Greater London","country":"United Kingdom"},"categories":[{"id":"4bf58dd8d48988d124941735","name":"Office","pluralName":"Offices","shortName":"Office","icon":{"prefix":"https:\/\/ss1.4sqi.net\/img\/categories_v2\/building\/default_","suffix":".png"},"primary":"true"}],"verified":"false","restricted":"true","stats":{"checkinsCount":"31","usersCount":"12","tipCount":"2"},"specials":{"count":"0"},"hereNow":{"count":"0"},"referralId":"v-1392478030"},{"id":"51e97dbd498e4d66c72aa254","name":"Las Iguanas","location":{"lat":"51.5078516367726","lng":"-0.11854157056227815","distance":"167","postalCode":"London","cc":"GB","city":"London","country":"United Kingdom"},"categories":[{"id":"4bf58dd8d48988d16b941735","name":"Brazilian Restaurant","pluralName":"Brazilian Restaurants","shortName":"Brazilian","icon":{"prefix":"https:\/\/ss1.4sqi.net\/img\/categories_v2\/food\/brazilian_","suffix":".png"},"primary":"true"}],"verified":"false","restricted":"true","stats":{"checkinsCount":"4","usersCount":"4","tipCount":"0"},"specials":{"count":"0"},"hereNow":{"count":"0"},"referralId":"v-1392478030"},{"id":"5266df8211d242fa4937783c","name":"Long Bar","location":{"lat":"51.509443","lng":"-0.117242","distance":"42","cc":"GB","country":"United Kingdom"},"categories":[{"id":"4bf58dd8d48988d116941735","name":"Bar","pluralName":"Bars","shortName":"Bar","icon":{"prefix":"https:\/\/ss1.4sqi.net\/img\/categories_v2\/nightlife\/bar_","suffix":".png"},"primary":"true"}],"verified":"false","restricted":"true","stats":{"checkinsCount":"1","usersCount":"1","tipCount":"0"},"specials":{"count":"0"},"hereNow":{"count":"0"},"referralId":"v-1392478030"},{"id":"4b15837cf964a520f6ad23e3","name":"Savoy Place","location":{"address":"Savoy Place","lat":"51.50978634182782","lng":"-0.11933132795864675","distance":"119","postalCode":"WC2R 0BL","cc":"GB","city":"London","state":"Greater London","country":"United Kingdom"},"categories":[{"id":"4bf58dd8d48988d1ff931735","name":"Convention Center","pluralName":"Convention Centers","shortName":"Convention Center","icon":{"prefix":"https:\/\/ss1.4sqi.net\/img\/categories_v2\/building\/conventioncenter_","suffix":".png"},"primary":"true"}],"verified":"false","restricted":"true","stats":{"checkinsCount":"200","usersCount":"155","tipCount":"4"},"specials":{"count":"0"},"hereNow":{"count":"0"},"referralId":"v-1392478030"},{"id":"4caedaa975ebb60c8783b7ad","name":"ECI partners","location":{"address":"Brettenham House, Lancaster Place","lat":"51.51003784495428","lng":"-0.11842558686460372","distance":"93","cc":"GB","city":"London","state":"Greater London","country":"United Kingdom"},"verified":"false","restricted":"true","stats":{"checkinsCount":"10","usersCount":"3","tipCount":"0"},"specials":{"count":"0"},"hereNow":{"count":"0"},"referralId":"v-1392478030"},{"id":"4faa54c5e4b0dc75ba27ec53","name":"Runners Need","location":{"address":"Lancaster Place","lat":"51.51085380394018","lng":"-0.11887153418551015","distance":"189","cc":"GB","city":"London","state":"Greater London","country":"United Kingdom"},"categories":[{"id":"4bf58dd8d48988d1f2941735","name":"Sporting Goods Shop","pluralName":"Sporting Goods Shops","shortName":"Sporting Goods","icon":{"prefix":"https:\/\/ss1.4sqi.net\/img\/categories_v2\/shops\/sports_outdoors_","suffix":".png"},"primary":"true"}],"verified":"false","restricted":"true","stats":{"checkinsCount":"28","usersCount":"25","tipCount":"0"},"specials":{"count":"0"},"hereNow":{"count":"0"},"referralId":"v-1392478030"},{"id":"4cb0c54eaef16dcbc5f8b354","name":"The Swiss Chalet","location":{"address":"12 Temple Place","lat":"51.50885","lng":"-0.11755","distance":"51","cc":"GB","city":"London","state":"Greater London","country":"United Kingdom"},"verified":"false","restricted":"true","stats":{"checkinsCount":"1","usersCount":"1","tipCount":"1"},"specials":{"count":"0"},"hereNow":{"count":"0"},"referralId":"v-1392478030"},{"id":"528129a511d2e5cd10d840e4","name":"Sandbox HQ","contact":{"twitter":"sandbox_network"},"location":{"address":"Somerset House, West Wing","crossStreet":"Strand","lat":"51.510966664076236","lng":"-0.1188771657972629","distance":"201","postalCode":"WC2R 1LA","cc":"GB","city":"London","state":"Greater London","country":"United Kingdom"},"categories":[{"id":"4bf58dd8d48988d124941735","name":"Office","pluralName":"Offices","shortName":"Office","icon":{"prefix":"https:\/\/ss1.4sqi.net\/img\/categories_v2\/building\/default_","suffix":".png"},"primary":"true"}],"verified":"false","restricted":"true","stats":{"checkinsCount":"5","usersCount":"2","tipCount":"0"},"specials":{"count":"0"},"hereNow":{"count":"0"},"referralId":"v-1392478030"},{"id":"4d110b3e71e8a1cd498684bd","name":"The Queen's Chapel Of The Savoy","location":{"address":"Savoy Hill","lat":"51.51054001540134","lng":"-0.11954839873524532","distance":"184","cc":"GB","city":"London","state":"Greater London","country":"United Kingdom"},"categories":[{"id":"4bf58dd8d48988d132941735","name":"Church","pluralName":"Churches","shortName":"Church","icon":{"prefix":"https:\/\/ss1.4sqi.net\/img\/categories_v2\/building\/religious_church_","suffix":".png"},"primary":"true"}],"verified":"false","restricted":"true","stats":{"checkinsCount":"20","usersCount":"14","tipCount":"1"},"specials":{"count":"0"},"hereNow":{"count":"0"},"referralId":"v-1392478030"},{"id":"52e89b8a11d24e40db540edc","name":"PW of Lancaster","location":{"lat":"51.51087951660156","lng":"-0.11807200312614441","distance":"178","cc":"GB","country":"United Kingdom"},"categories":[{"id":"4bf58dd8d48988d174941735","name":"Coworking Space","pluralName":"Coworking Spaces","shortName":"Coworking Space","icon":{"prefix":"https:\/\/ss1.4sqi.net\/img\/categories_v2\/building\/office_coworkingspace_","suffix":".png"},"primary":"true"}],"verified":"false","restricted":"true","stats":{"checkinsCount":"1","usersCount":"1","tipCount":"0"},"specials":{"count":"0"},"hereNow":{"count":"0"},"referralId":"v-1392478030"},{"id":"4ecbb3c59adfd1f5b5350753","name":"Savoy Street Business Centre","location":{"address":"9 Savoy Street","lat":"51.50983879056345","lng":"-0.11777503177147557","distance":"61","cc":"GB","city":"London","state":"Greater London","country":"United Kingdom"},"categories":[{"id":"4bf58dd8d48988d127941735","name":"Conference Room","pluralName":"Conference Rooms","shortName":"Conference room","icon":{"prefix":"https:\/\/ss1.4sqi.net\/img\/categories_v2\/building\/office_conferenceroom_","suffix":".png"},"primary":"true"}],"verified":"false","restricted":"true","stats":{"checkinsCount":"4","usersCount":"3","tipCount":"0"},"specials":{"count":"0"},"hereNow":{"count":"0"},"referralId":"v-1392478030"}],"confident":"true"}}