{"meta":{"code":"200"},"response":{"venues":[{"id":"4ac518c7f964a52078a520e3","name":"KOKO","contact":{"phone":"+448704325527","formattedPhone":"+44 870 432 5527","twitter":"kokolondon"},"location":{"address":"1A Camden High St.","lat":"51.53467942354505","lng":"-0.13835495742020476","distance":"57","postalCode":"NW1 7JE","cc":"GB","city":"Camden Town","state":"Greater London","country":"United Kingdom"},"categories":[{"id":"4bf58dd8d48988d1e5931735","name":"Music Venue","pluralName":"Music Venues","shortName":"Music Venue","icon":{"prefix":"https:\/\/ss1.4sqi.net\/img\/categories_v2\/arts_entertainment\/musicvenue_","suffix":".png"},"primary":"true"}],"verified":"false","restricted":"true","stats":{"checkinsCount":"8198","usersCount":"5661","tipCount":"63"},"url":"http:\/\/www.koko.uk.com","specials":{"count":"0"},"events":{"count":"1","summary":"Housekeeping","items":[{"id":"52eef8a4498e8b397908a78d","name":"Housekeeping","categories":[{"id":"4e0a4b91bd41eda0d6092f89","name":"Concert","pluralName":"Concerts","shortName":"Concert","icon":{"prefix":"https:\/\/ss1.4sqi.net\/img\/categories_v2\/arts_entertainment\/musicvenue_","suffix":".png"},"primary":"true"}],"startAt":"1392505200","endAt":"1392526800","allDay":"false","timeZone":"Europe\/London","text":"","url":"http:\/\/www.songkick.com\/concerts\/19424599-housekeeping-at-koko?utm_source=4436&utm_medium=partner","provider":{"name":"songkick","iconUrl":{"prefix":"https:\/\/playfoursquare.s3.amazonaws.com\/events\/images\/partners\/sk\/","sizes":["20","40"],"name":"\/logo.png"},"urlText":"more info"},"stats":{"checkinsCount":"0","usersCount":"0"}}]},"hereNow":{"count":"1","groups":[{"type":"others","name":"Other people here","count":"1"}]},"referralId":"v-1392477963"},{"id":"4ae0a9dbf964a5206b8121e3","name":"Asakusa","contact":{"phone":"+442073888533","formattedPhone":"+44 20 7388 8533"},"location":{"address":"265 Eversholt St.","lat":"51.53408918912271","lng":"-0.13822666391607744","distance":"36","postalCode":"NW1 1BA","cc":"GB","city":"Camden","state":"Greater London","country":"United Kingdom"},"categories":[{"id":"4bf58dd8d48988d111941735","name":"Japanese Restaurant","pluralName":"Japanese Restaurants","shortName":"Japanese","icon":{"prefix":"https:\/\/ss1.4sqi.net\/img\/categories_v2\/food\/japanese_","suffix":".png"},"primary":"true"}],"verified":"false","restricted":"true","stats":{"checkinsCount":"593","usersCount":"434","tipCount":"28"},"specials":{"count":"0"},"hereNow":{"count":"0"},"referralId":"v-1392477963"},{"id":"4b61bbfdf964a520701f2ae3","name":"Purple Turtle","contact":{"phone":"+442073834976","formattedPhone":"+44 20 7383 4976"},"location":{"address":"65 Crowndale Rd","lat":"51.53466980464441","lng":"-0.13811457735416802","distance":"47","postalCode":"NW1 1TN","cc":"GB","city":"Camden","state":"Greater London","country":"United Kingdom"},"categories":[{"id":"4bf58dd8d48988d1e9931735","name":"Rock Club","pluralName":"Rock Clubs","shortName":"Rock Club","icon":{"prefix":"https:\/\/ss1.4sqi.net\/img\/categories_v2\/arts_entertainment\/musicvenue_rockclub_","suffix":".png"},"primary":"true"}],"verified":"false","restricted":"true","stats":{"checkinsCount":"1324","usersCount":"662","tipCount":"6"},"url":"http:\/\/www.purpleturtlebar.com","specials":{"count":"0"},"hereNow":{"count":"0"},"referralId":"v-1392477963"},{"id":"4bfea3e5ca1920a1a094eb81","name":"The Lyttelton Arms","contact":{"phone":"+442073872749","formattedPhone":"+44 20 7387 2749"},"location":{"address":"1A Camden High St","lat":"51.53421696440184","lng":"-0.13921737670898438","distance":"98","postalCode":"NW1 7JE","cc":"GB","city":"Camden Town","state":"Greater London","country":"United Kingdom"},"categories":[{"id":"4bf58dd8d48988d11b941735","name":"Pub","pluralName":"Pubs","shortName":"Pub","icon":{"prefix":"https:\/\/ss1.4sqi.net\/img\/categories_v2\/nightlife\/pub_","suffix":".png"},"primary":"true"}],"verified":"false","restricted":"true","stats":{"checkinsCount":"1743","usersCount":"991","tipCount":"25"},"url":"http:\/\/www.thelytteltonarmscamden.co.uk","menu":{"type":"Menu","label":"Menu","anchor":"View Menu","url":"https:\/\/foursquare.com\/v\/the-lyttelton-arms\/4bfea3e5ca1920a1a094eb81\/menu","mobileUrl":"https:\/\/foursquare.com\/v\/4bfea3e5ca1920a1a094eb81\/device_menu"},"specials":{"count":"0"},"hereNow":{"count":"0"},"referralId":"v-1392477963"},{"id":"4c18cb42fe5a76b088810215","name":"Natural Cafe","location":{"address":"365 Eversholt Street","lat":"51.53398103600279","lng":"-0.1384497123755017","distance":"56","postalCode":"NW1","cc":"GB","city":"Camden","state":"Greater London","country":"United Kingdom"},"categories":[{"id":"4bf58dd8d48988d16d941735","name":"Caf\u00e9","pluralName":"Caf\u00e9s","shortName":"Caf\u00e9","icon":{"prefix":"https:\/\/ss1.4sqi.net\/img\/categories_v2\/food\/cafe_","suffix":".png"},"primary":"true"}],"verified":"false","restricted":"true","stats":{"checkinsCount":"53","usersCount":"29","tipCount":"3"},"specials":{"count":"0"},"hereNow":{"count":"0"},"referralId":"v-1392477963"},{"id":"4acda839f964a5208bcc20e3","name":"ASOS","contact":{"phone":"+442074831888","formattedPhone":"+44 20 7483 1888","twitter":"asos"},"location":{"address":"Greater London House","crossStreet":"Hampstead Rd.","lat":"51.53355830590612","lng":"-0.13934659800222224","distance":"134","postalCode":"NW1 3","cc":"GB","city":"Camden","state":"Greater London","country":"United Kingdom"},"categories":[{"id":"4bf58dd8d48988d124941735","name":"Office","pluralName":"Offices","shortName":"Office","icon":{"prefix":"https:\/\/ss1.4sqi.net\/img\/categories_v2\/building\/default_","suffix":".png"},"primary":"true"}],"verified":"false","restricted":"true","stats":{"checkinsCount":"1785","usersCount":"338","tipCount":"6"},"url":"http:\/\/www.asos.com","specials":{"count":"0"},"hereNow":{"count":"0"},"referralId":"v-1392477963"},{"id":"4e661fedfa76cd64cfc60adb","name":"Leyas Coffee & Artisan Foods","location":{"address":"20 Camden High St","lat":"51.53519","lng":"-0.138976","distance":"129","postalCode":"NW1 0JH","cc":"GB","city":"Camden","state":"Greater London","country":"United Kingdom"},"categories":[{"id":"4bf58dd8d48988d16d941735","name":"Caf\u00e9","pluralName":"Caf\u00e9s","shortName":"Caf\u00e9","icon":{"prefix":"https:\/\/ss1.4sqi.net\/img\/categories_v2\/food\/cafe_","suffix":".png"},"primary":"true"}],"verified":"false","restricted":"true","stats":{"checkinsCount":"1196","usersCount":"458","tipCount":"30"},"url":"http:\/\/www.leyas.co.uk","menu":{"type":"Menu","label":"Menu","anchor":"View Menu","url":"https:\/\/foursquare.com\/v\/leyas-coffee--artisan-foods\/4e661fedfa76cd64cfc60adb\/menu","mobileUrl":"https:\/\/foursquare.com\/v\/4e661fedfa76cd64cfc60adb\/device_menu"},"specials":{"count":"0"},"hereNow":{"count":"0"},"referralId":"v-1392477963"},{"id":"4bda7e4b3904a5932da5469e","name":"Costa Coffee","contact":{"phone":"+442073834117","formattedPhone":"+44 20 7383 4117"},"location":{"address":"3 Millbrook Pl.","lat":"51.53451980907044","lng":"-0.1386199470541005","distance":"62","postalCode":"NW1 2JA","cc":"GB","city":"Camden Town","state":"Greater London","country":"United Kingdom"},"categories":[{"id":"4bf58dd8d48988d16d941735","name":"Caf\u00e9","pluralName":"Caf\u00e9s","shortName":"Caf\u00e9","icon":{"prefix":"https:\/\/ss1.4sqi.net\/img\/categories_v2\/food\/cafe_","suffix":".png"},"primary":"true"}],"verified":"false","restricted":"true","stats":{"checkinsCount":"736","usersCount":"438","tipCount":"8"},"specials":{"count":"0"},"hereNow":{"count":"0"},"referralId":"v-1392477963"},{"id":"4ac518e4f964a520e5aa20e3","name":"El Parador","location":{"address":"245 Eversholt Street","lat":"51.53358961893774","lng":"-0.13784408569335938","distance":"77","postalCode":"NW1 1BA","cc":"GB","city":"London","state":"Greater London","country":"United Kingdom"},"categories":[{"id":"4bf58dd8d48988d150941735","name":"Spanish Restaurant","pluralName":"Spanish Restaurants","shortName":"Spanish","icon":{"prefix":"https:\/\/ss1.4sqi.net\/img\/categories_v2\/food\/default_","suffix":".png"},"primary":"true"}],"verified":"false","restricted":"true","stats":{"checkinsCount":"333","usersCount":"242","tipCount":"17"},"menu":{"type":"Menu","label":"Menu","anchor":"View Menu","url":"https:\/\/foursquare.com\/v\/el-parador\/4ac518e4f964a520e5aa20e3\/menu","mobileUrl":"https:\/\/foursquare.com\/v\/4ac518e4f964a520e5aa20e3\/device_menu"},"specials":{"count":"0"},"hereNow":{"count":"0"},"referralId":"v-1392477963"},{"id":"4b55af8cf964a520cbeb27e3","name":"Rainey Kelly Campbell Roalfe\/Y&R","location":{"address":"180 Hampstead Rd","crossStreet":"at Greater London House","lat":"51.53369750145616","lng":"-0.1393505511770742","distance":"125","postalCode":"NW1","cc":"GB","city":"Camden","state":"Greater London","country":"United Kingdom"},"categories":[{"id":"4bf58dd8d48988d124941735","name":"Office","pluralName":"Offices","shortName":"Office","icon":{"prefix":"https:\/\/ss1.4sqi.net\/img\/categories_v2\/building\/default_","suffix":".png"},"primary":"true"}],"verified":"false","restricted":"true","stats":{"checkinsCount":"1383","usersCount":"172","tipCount":"1"},"specials":{"count":"0"},"hereNow":{"count":"0"},"referralId":"v-1392477963"},{"id":"5272ad5f11d21f18fbe13eaf","name":"Simmons Camden","contact":{"twitter":"simmonslondon"},"location":{"address":"7 Camden High Street","lat":"51.53471968411621","lng":"-0.13908045985414308","distance":"100","postalCode":"NW1","cc":"GB","city":"Camden","country":"United Kingdom"},"categories":[{"id":"4bf58dd8d48988d11e941735","name":"Cocktail Bar","pluralName":"Cocktail Bars","shortName":"Cocktail","icon":{"prefix":"https:\/\/ss1.4sqi.net\/img\/categories_v2\/nightlife\/cocktails_","suffix":".png"},"primary":"true"}],"verified":"false","restricted":"true","stats":{"checkinsCount":"41","usersCount":"37","tipCount":"3"},"specials":{"count":"0"},"hereNow":{"count":"0"},"referralId":"v-1392477963"},{"id":"4ad9e4abf964a520a81b21e3","name":"Mayling","location":{"address":"261 Eversholt St","lat":"51.534055","lng":"-0.138119","distance":"34","postalCode":"Nw1 1BA","cc":"GB","city":"London","state":"Greater London","country":"United Kingdom"},"verified":"false","restricted":"true","stats":{"checkinsCount":"48","usersCount":"32","tipCount":"2"},"specials":{"count":"0"},"hereNow":{"count":"0"},"referralId":"v-1392477963"},{"id":"5176d5c4e4b0128856403bec","name":"Finn Guild","location":{"address":"1A Mornington Court","crossStreet":"Arlington Road","lat":"51.53440059445104","lng":"-0.13980777893919658","distance":"139","postalCode":"NW1 7RD","cc":"GB","city":"London","state":"Greater London","country":"United Kingdom"},"categories":[{"id":"4f04b08c2fb6e1c99f3db0bd","name":"Travel Agency","pluralName":"Travel Agencies","shortName":"Travel Agency","icon":{"prefix":"https:\/\/ss1.4sqi.net\/img\/categories_v2\/travel\/travelagency_","suffix":".png"},"primary":"true"}],"verified":"false","restricted":"true","stats":{"checkinsCount":"189","usersCount":"6","tipCount":"0"},"specials":{"count":"0"},"hereNow":{"count":"0"},"referralId":"v-1392477963"},{"id":"4b8bbd82f964a52021a932e3","name":"Sainsbury's Local","contact":{"twitter":"sainsburys"},"location":{"address":"10-12 Camden High St.","lat":"51.53488434370209","lng":"-0.13904571533203125","distance":"108","postalCode":"NW1 0JH","cc":"GB","city":"Camden","state":"Greater London","country":"United Kingdom"},"categories":[{"id":"4bf58dd8d48988d118951735","name":"Grocery Store","pluralName":"Grocery Stores","shortName":"Grocery Store","icon":{"prefix":"https:\/\/ss1.4sqi.net\/img\/categories_v2\/shops\/food_grocery_","suffix":".png"},"primary":"true"}],"verified":"false","restricted":"true","stats":{"checkinsCount":"993","usersCount":"248","tipCount":"5"},"specials":{"count":"0"},"hereNow":{"count":"0"},"referralId":"v-1392477963"},{"id":"4c6a7fce2c29d13a10d80d41","name":"K G Shoes","location":{"lat":"51.53422311638459","lng":"-0.13780192831591348","distance":"7","postalCode":"NW11BA","cc":"GB","city":"Camden","state":"Greater London","country":"United Kingdom"},"categories":[{"id":"4bf58dd8d48988d107951735","name":"Shoe Store","pluralName":"Shoe Stores","shortName":"Shoes","icon":{"prefix":"https:\/\/ss1.4sqi.net\/img\/categories_v2\/shops\/apparel_shoestore_","suffix":".png"},"primary":"true"}],"verified":"false","restricted":"true","stats":{"checkinsCount":"5","usersCount":"5","tipCount":"0"},"specials":{"count":"0"},"hereNow":{"count":"0"},"referralId":"v-1392477963"},{"id":"509436a0e4b0baf4e0bfdcd3","name":"Ay Caramba!!","contact":{"phone":"+442073837245","formattedPhone":"+44 20 7383 7245"},"location":{"address":"14-16 Camden High Street","lat":"51.535037971758086","lng":"-0.13898437815068504","distance":"116","postalCode":"NW1 0JH","cc":"GB","city":"London","state":"Greater London","country":"United Kingdom"},"categories":[{"id":"4bf58dd8d48988d1c1941735","name":"Mexican Restaurant","pluralName":"Mexican Restaurants","shortName":"Mexican","icon":{"prefix":"https:\/\/ss1.4sqi.net\/img\/categories_v2\/food\/mexican_","suffix":".png"},"primary":"true"}],"verified":"false","restricted":"true","stats":{"checkinsCount":"263","usersCount":"199","tipCount":"9"},"specials":{"count":"0"},"hereNow":{"count":"0"},"referralId":"v-1392477963"},{"id":"4b61eeebf964a5200b2c2ae3","name":"Working Mens College","location":{"lat":"51.535211342243215","lng":"-0.13607045181915572","distance":"157","cc":"GB","country":"United Kingdom"},"categories":[{"id":"4bf58dd8d48988d13b941735","name":"School","pluralName":"Schools","shortName":"School","icon":{"prefix":"https:\/\/ss1.4sqi.net\/img\/categories_v2\/building\/school_","suffix":".png"},"primary":"true"}],"verified":"false","restricted":"true","stats":{"checkinsCount":"305","usersCount":"44","tipCount":"1"},"specials":{"count":"0"},"hereNow":{"count":"0"},"referralId":"v-1392477963"},{"id":"4e79b4987d8b5741b8a8064e","name":"Mornington Crescent Station Bus Stop A","location":{"lat":"51.5344323761027","lng":"-0.1389597233358431","distance":"81","cc":"GB","country":"United Kingdom"},"categories":[{"id":"4bf58dd8d48988d1fe931735","name":"Bus Station","pluralName":"Bus Stations","shortName":"Bus Station","icon":{"prefix":"https:\/\/ss1.4sqi.net\/img\/categories_v2\/travel\/busstation_","suffix":".png"},"primary":"true"}],"verified":"false","restricted":"true","stats":{"checkinsCount":"343","usersCount":"195","tipCount":"0"},"specials":{"count":"0"},"hereNow":{"count":"0"},"referralId":"v-1392477963"},{"id":"4bb1cfd7f964a52044a43ce3","name":"Crowndale Centre","location":{"address":"214 Eversholt St.","crossStreet":"at Crowndale Rd.","lat":"51.53413791325749","lng":"-0.1381861742367099","distance":"31","postalCode":"NW1 1BD","cc":"GB","city":"Camden","state":"Greater London","country":"United Kingdom"},"categories":[{"id":"4bf58dd8d48988d126941735","name":"Government Building","pluralName":"Government Buildings","shortName":"Government","icon":{"prefix":"https:\/\/ss1.4sqi.net\/img\/categories_v2\/building\/government_","suffix":".png"},"primary":"true"}],"verified":"false","restricted":"true","stats":{"checkinsCount":"78","usersCount":"36","tipCount":"0"},"specials":{"count":"0"},"hereNow":{"count":"0"},"referralId":"v-1392477963"},{"id":"4f04f6d629c22bbefe65003b","name":"Chicken Cottage","location":{"address":"21 Camden High Street","lat":"51.53509790301161","lng":"-0.13904571533203125","distance":"124","postalCode":"NW1 7JE","cc":"GB","city":"London","state":"Greater London","country":"United Kingdom"},"categories":[{"id":"4d4ae6fc7a7b7dea34424761","name":"Fried Chicken Joint","pluralName":"Fried Chicken Joints","shortName":"Fried Chicken","icon":{"prefix":"https:\/\/ss1.4sqi.net\/img\/categories_v2\/food\/friedchicken_","suffix":".png"},"primary":"true"}],"verified":"false","restricted":"true","stats":{"checkinsCount":"87","usersCount":"50","tipCount":"1"},"specials":{"count":"0"},"hereNow":{"count":"0"},"referralId":"v-1392477963"},{"id":"52f131f811d2c17a4e22a356","name":"Mornington Crescent Bus Stop D","location":{"lat":"51.534244537353516","lng":"-0.1391517072916031","distance":"93","cc":"GB","country":"United Kingdom"},"categories":[{"id":"4bf58dd8d48988d1fe931735","name":"Bus Station","pluralName":"Bus Stations","shortName":"Bus Station","icon":{"prefix":"https:\/\/ss1.4sqi.net\/img\/categories_v2\/travel\/busstation_","suffix":".png"},"primary":"true"}],"verified":"false","restricted":"true","stats":{"checkinsCount":"3","usersCount":"1","tipCount":"0"},"specials":{"count":"0"},"hereNow":{"count":"0"},"referralId":"v-1392477963"},{"id":"4b8ba3adf964a52046a532e3","name":"Harrington Square","location":{"address":"Harrington Sq.","lat":"51.533138964328934","lng":"-0.1384286989771906","distance":"135","postalCode":"NW1","cc":"GB","city":"Camden Town","state":"Greater London","country":"United Kingdom"},"categories":[{"id":"4bf58dd8d48988d163941735","name":"Park","pluralName":"Parks","shortName":"Park","icon":{"prefix":"https:\/\/ss1.4sqi.net\/img\/categories_v2\/parks_outdoors\/park_","suffix":".png"},"primary":"true"}],"verified":"false","restricted":"true","stats":{"checkinsCount":"548","usersCount":"129","tipCount":"4"},"specials":{"count":"0"},"hereNow":{"count":"0"},"referralId":"v-1392477963"},{"id":"52970bef498e2a64ea45d347","name":"Blast Radius","contact":{"phone":"+442071706600","formattedPhone":"+44 20 7170 6600"},"location":{"address":"Greater London House","lat":"51.533445936848686","lng":"-0.1393615085700671","distance":"143","postalCode":"NW1 7QP","cc":"GB","city":"London","state":"Greater London","country":"United Kingdom"},"categories":[{"id":"4bf58dd8d48988d174941735","name":"Coworking Space","pluralName":"Coworking Spaces","shortName":"Coworking Space","icon":{"prefix":"https:\/\/ss1.4sqi.net\/img\/categories_v2\/building\/office_coworkingspace_","suffix":".png"},"primary":"true"}],"verified":"false","restricted":"true","stats":{"checkinsCount":"19","usersCount":"1","tipCount":"0"},"specials":{"count":"0"},"hereNow":{"count":"0"},"referralId":"v-1392477963"},{"id":"4dd51cba45ddd70355259862","name":"Camden Cycles","location":{"lat":"51.533868","lng":"-0.137903","distance":"47","cc":"GB","city":"Camden Town","state":"Greater London","country":"United Kingdom"},"categories":[{"id":"4bf58dd8d48988d115951735","name":"Bike Shop","pluralName":"Bike Shops","shortName":"Bike shop","icon":{"prefix":"https:\/\/ss1.4sqi.net\/img\/categories_v2\/shops\/bikeshop_","suffix":".png"},"primary":"true"}],"verified":"false","restricted":"true","stats":{"checkinsCount":"13","usersCount":"11","tipCount":"0"},"specials":{"count":"0"},"hereNow":{"count":"0"},"referralId":"v-1392477963"},{"id":"4b86cf25f964a520dc9e31e3","name":"The Hope & Anchor","location":{"address":"Crowndale Rd","lat":"51.534773","lng":"-0.137515","distance":"57","cc":"GB","city":"Camden Town","state":"Greater London","country":"United Kingdom"},"categories":[{"id":"4bf58dd8d48988d11b941735","name":"Pub","pluralName":"Pubs","shortName":"Pub","icon":{"prefix":"https:\/\/ss1.4sqi.net\/img\/categories_v2\/nightlife\/pub_","suffix":".png"},"primary":"true"}],"verified":"false","restricted":"true","stats":{"checkinsCount":"403","usersCount":"228","tipCount":"3"},"specials":{"count":"0"},"hereNow":{"count":"0"},"referralId":"v-1392477963"},{"id":"4c8f3200d68c6dcb8e5602a2","name":"Camden Dry Cleaners","location":{"address":"27 Camden High St","lat":"51.53518745066697","lng":"-0.13866618675073297","distance":"116","postalCode":"NW1","cc":"GB","city":"Camden","state":"Greater London","country":"United Kingdom"},"categories":[{"id":"4bf58dd8d48988d1fc941735","name":"Laundry Service","pluralName":"Laundry Services","shortName":"Laundry","icon":{"prefix":"https:\/\/ss1.4sqi.net\/img\/categories_v2\/shops\/laundry_","suffix":".png"},"primary":"true"}],"verified":"false","restricted":"true","stats":{"checkinsCount":"33","usersCount":"12","tipCount":"1"},"specials":{"count":"0"},"hereNow":{"count":"0"},"referralId":"v-1392477963"},{"id":"524a6e2111d2e24250d71609","name":"Bus Stop C - Mornington Crescent Station","location":{"lat":"51.53349821368248","lng":"-0.13857430498347384","distance":"102","cc":"GB","country":"United Kingdom"},"categories":[{"id":"4bf58dd8d48988d1fe931735","name":"Bus Station","pluralName":"Bus Stations","shortName":"Bus Station","icon":{"prefix":"https:\/\/ss1.4sqi.net\/img\/categories_v2\/travel\/busstation_","suffix":".png"},"primary":"true"}],"verified":"false","restricted":"true","stats":{"checkinsCount":"2","usersCount":"2","tipCount":"0"},"specials":{"count":"0"},"hereNow":{"count":"0"},"referralId":"v-1392477963"},{"id":"4ecd400f77c8448cd655661c","name":"Al Qalaa","contact":{"phone":"+442073876799","formattedPhone":"+44 20 7387 6799"},"location":{"address":"9 Camden High St","crossStreet":"at Mornington Crescent","lat":"51.53475086862483","lng":"-0.13930320739746094","distance":"115","postalCode":"NW1 7JE","cc":"GB","city":"Camden","state":"Greater London","country":"United Kingdom"},"categories":[{"id":"4bf58dd8d48988d115941735","name":"Middle Eastern Restaurant","pluralName":"Middle Eastern Restaurants","shortName":"Middle Eastern","icon":{"prefix":"https:\/\/ss1.4sqi.net\/img\/categories_v2\/food\/default_","suffix":".png"},"primary":"true"}],"verified":"false","restricted":"true","stats":{"checkinsCount":"93","usersCount":"71","tipCount":"2"},"url":"http:\/\/www.al-qalaa.co.uk","reservations":{"url":"http:\/\/www.toptable.co.uk\/single.aspx?rid=93339&ref=9601"},"menu":{"type":"Menu","label":"Menu","anchor":"View Menu","url":"https:\/\/foursquare.com\/v\/al-qalaa-camden-greater-london\/4ecd400f77c8448cd655661c\/menu","mobileUrl":"https:\/\/foursquare.com\/v\/4ecd400f77c8448cd655661c\/device_menu"},"specials":{"count":"0"},"hereNow":{"count":"0"},"referralId":"v-1392477963"},{"id":"4b97dca9f964a520df1a35e3","name":"superfi","location":{"address":"2-4 Camden High St.","lat":"51.53474072526497","lng":"-0.13876901398233202","distance":"83","postalCode":"Nw1 0jh","cc":"GB","city":"Camden Town","state":"Greater London","country":"United Kingdom"},"categories":[{"id":"4bf58dd8d48988d122951735","name":"Electronics Store","pluralName":"Electronics Stores","shortName":"Electronics","icon":{"prefix":"https:\/\/ss1.4sqi.net\/img\/categories_v2\/shops\/technology_","suffix":".png"},"primary":"true"}],"verified":"false","restricted":"true","stats":{"checkinsCount":"34","usersCount":"24","tipCount":"1"},"specials":{"count":"0"},"hereNow":{"count":"0"},"referralId":"v-1392477963"},{"id":"4eb19c5f77c89bf55f82818e","name":"Nazaks","location":{"address":"23 Camden High St.","lat":"51.53508944191466","lng":"-0.13906505777837333","distance":"124","postalCode":"NW1 7JE","cc":"GB","city":"Camden","state":"Greater London","country":"United Kingdom"},"categories":[{"id":"4bf58dd8d48988d10f941735","name":"Indian Restaurant","pluralName":"Indian Restaurants","shortName":"Indian","icon":{"prefix":"https:\/\/ss1.4sqi.net\/img\/categories_v2\/food\/indian_","suffix":".png"},"primary":"true"}],"verified":"false","restricted":"true","stats":{"checkinsCount":"44","usersCount":"37","tipCount":"1"},"url":"http:\/\/www.nazaks.co.uk","reservations":{"url":"http:\/\/www.toptable.co.uk\/single.aspx?rid=93372&ref=9601"},"menu":{"type":"Menu","label":"Menu","anchor":"View Menu","url":"https:\/\/foursquare.com\/v\/nazaks\/4eb19c5f77c89bf55f82818e\/menu","mobileUrl":"https:\/\/foursquare.com\/v\/4eb19c5f77c89bf55f82818e\/device_menu"},"specials":{"count":"0"},"hereNow":{"count":"0"},"referralId":"v-1392477963"}],"confident":"false"}}