{"meta":{"code":"200"},"response":{"venues":[{"id":"4b54303bf964a52024b427e3","name":"Caff\u00e8 Nero","contact":{"phone":"+442078366874","formattedPhone":"+44 20 7836 6874"},"location":{"address":"83\/84 Long Acre","lat":"51.51416","lng":"-0.122754","distance":"14","postalCode":"WC2E 9NG","cc":"GB","city":"London","state":"Greater London","country":"United Kingdom"},"categories":[{"id":"4bf58dd8d48988d1e0931735","name":"Coffee Shop","pluralName":"Coffee Shops","shortName":"Coffee Shop","icon":{"prefix":"https:\/\/ss1.4sqi.net\/img\/categories_v2\/food\/coffeeshop_","suffix":".png"},"primary":"true"}],"verified":"false","restricted":"true","stats":{"checkinsCount":"1677","usersCount":"1064","tipCount":"16"},"menu":{"type":"Menu","label":"Menu","anchor":"View Menu","url":"https:\/\/foursquare.com\/v\/caff%C3%A8-nero\/4b54303bf964a52024b427e3\/menu","mobileUrl":"https:\/\/foursquare.com\/v\/4b54303bf964a52024b427e3\/device_menu"},"specials":{"count":"0"},"hereNow":{"count":"2","groups":[{"type":"others","name":"Other people here","count":"2"}]},"referralId":"v-1392478016"},{"id":"4dad7a81043718a63e323ca2","name":"Machiavelli","contact":{"phone":"+442072402125","formattedPhone":"+44 20 7240 2125","twitter":"machiavellifood"},"location":{"address":"69 Long Acre","lat":"51.51428416285583","lng":"-0.12262248027337144","distance":"12","postalCode":"WC2E 7JS","cc":"GB","city":"Covent Garden","state":"Greater London","country":"United Kingdom"},"categories":[{"id":"4bf58dd8d48988d16d941735","name":"Caf\u00e9","pluralName":"Caf\u00e9s","shortName":"Caf\u00e9","icon":{"prefix":"https:\/\/ss1.4sqi.net\/img\/categories_v2\/food\/cafe_","suffix":".png"},"primary":"true"}],"verified":"false","restricted":"true","stats":{"checkinsCount":"650","usersCount":"483","tipCount":"20"},"url":"http:\/\/www.machiavellifood.co.uk","menu":{"type":"Menu","label":"Menu","anchor":"View Menu","url":"https:\/\/foursquare.com\/v\/machiavelli\/4dad7a81043718a63e323ca2\/menu","mobileUrl":"https:\/\/foursquare.com\/v\/4dad7a81043718a63e323ca2\/device_menu"},"specials":{"count":"0"},"hereNow":{"count":"1","groups":[{"type":"others","name":"Other people here","count":"1"}]},"referralId":"v-1392478016"},{"id":"4b674815f964a520a3452be3","name":"The Freemasons Arms","contact":{"phone":"+442078363115","formattedPhone":"+44 20 7836 3115","facebook":"8029823489"},"location":{"address":"82 Long Acre","lat":"51.514398014814326","lng":"-0.12253403663635254","distance":"22","postalCode":"WC2E 9NG","cc":"GB","city":"Covent Garden","state":"Greater London","country":"United Kingdom"},"categories":[{"id":"4bf58dd8d48988d11b941735","name":"Pub","pluralName":"Pubs","shortName":"Pub","icon":{"prefix":"https:\/\/ss1.4sqi.net\/img\/categories_v2\/nightlife\/pub_","suffix":".png"},"primary":"true"}],"verified":"true","restricted":"true","stats":{"checkinsCount":"1179","usersCount":"860","tipCount":"10"},"url":"http:\/\/www.freemasonsarmscoventgarden.co.uk","menu":{"type":"Menu","label":"Menu","anchor":"View Menu","url":"https:\/\/foursquare.com\/v\/the-freemasons-arms\/4b674815f964a520a3452be3\/menu","mobileUrl":"https:\/\/foursquare.com\/v\/4b674815f964a520a3452be3\/device_menu"},"specials":{"count":"0"},"hereNow":{"count":"0"},"storeId":"","referralId":"v-1392478016"},{"id":"4ad8b72ef964a520ee1321e3","name":"The Sun Tavern","contact":{"phone":"+442078364520","formattedPhone":"+44 20 7836 4520","twitter":"thesuntavern"},"location":{"address":"66 Long Acre","lat":"51.514057","lng":"-0.122844","distance":"25","postalCode":"WC2E 9JD","cc":"GB","city":"Covent Garden","state":"Greater London","country":"United Kingdom"},"categories":[{"id":"4bf58dd8d48988d11b941735","name":"Pub","pluralName":"Pubs","shortName":"Pub","icon":{"prefix":"https:\/\/ss1.4sqi.net\/img\/categories_v2\/nightlife\/pub_","suffix":".png"},"primary":"true"}],"verified":"true","restricted":"true","stats":{"checkinsCount":"1160","usersCount":"629","tipCount":"9"},"url":"http:\/\/www.mspubs.co.uk","specials":{"count":"0"},"hereNow":{"count":"1","groups":[{"type":"others","name":"Other people here","count":"1"}]},"storeId":"","referralId":"v-1392478016"},{"id":"4cecd7410acea35db173e0ae","name":"90 Long Acre","location":{"address":"90 Long Acre","lat":"51.514257969088334","lng":"-0.12322541606463366","distance":"29","postalCode":"WC2E 9RA","cc":"GB","city":"London","state":"Greater London","country":"United Kingdom"},"categories":[{"id":"4bf58dd8d48988d124941735","name":"Office","pluralName":"Offices","shortName":"Office","icon":{"prefix":"https:\/\/ss1.4sqi.net\/img\/categories_v2\/building\/default_","suffix":".png"},"primary":"true"}],"verified":"false","restricted":"true","stats":{"checkinsCount":"1013","usersCount":"179","tipCount":"1"},"specials":{"count":"0"},"hereNow":{"count":"0"},"referralId":"v-1392478016"},{"id":"4b5b2169f964a5204fe528e3","name":"Lowlander Grand Cafe","contact":{"phone":"+442073797446","formattedPhone":"+44 20 7379 7446","twitter":"lowlanderlondon"},"location":{"address":"36 Drury Ln.","crossStreet":"at Great Queen St.","lat":"51.51481847524566","lng":"-0.12217694370961374","distance":"73","postalCode":"WC2B 5RR","cc":"GB","city":"Covent Garden","state":"Greater London","country":"United Kingdom"},"categories":[{"id":"4bf58dd8d48988d116941735","name":"Bar","pluralName":"Bars","shortName":"Bar","icon":{"prefix":"https:\/\/ss1.4sqi.net\/img\/categories_v2\/nightlife\/bar_","suffix":".png"},"primary":"true"}],"verified":"false","restricted":"true","stats":{"checkinsCount":"2324","usersCount":"1622","tipCount":"42"},"url":"http:\/\/www.lowlander.com","menu":{"type":"Menu","label":"Menu","anchor":"View Menu","url":"https:\/\/foursquare.com\/v\/lowlander-grand-cafe\/4b5b2169f964a5204fe528e3\/menu","mobileUrl":"https:\/\/foursquare.com\/v\/4b5b2169f964a5204fe528e3\/device_menu"},"specials":{"count":"0"},"hereNow":{"count":"0"},"referralId":"v-1392478016"},{"id":"4b9e31c4f964a520ead036e3","name":"Starbucks","contact":{"phone":"+442078367919","formattedPhone":"+44 20 7836 7919","twitter":"starbucksuk"},"location":{"address":"55-56 Long Acre","crossStreet":"Hanover Pl","lat":"51.513592","lng":"-0.12336","distance":"86","postalCode":"WC2E 9JL","cc":"GB","city":"Covent Garden","state":"Greater London","country":"United Kingdom"},"categories":[{"id":"4bf58dd8d48988d1e0931735","name":"Coffee Shop","pluralName":"Coffee Shops","shortName":"Coffee Shop","icon":{"prefix":"https:\/\/ss1.4sqi.net\/img\/categories_v2\/food\/coffeeshop_","suffix":".png"},"primary":"true"}],"verified":"true","restricted":"true","stats":{"checkinsCount":"3177","usersCount":"1759","tipCount":"20"},"url":"http:\/\/starbucks.co.uk","specials":{"count":"0"},"hereNow":{"count":"1","groups":[{"type":"others","name":"Other people here","count":"1"}]},"storeId":"12191","referralId":"v-1392478016"},{"id":"50c1f141e4b08b77f90b926c","name":"Benugo","contact":{"phone":"+442078369773","formattedPhone":"+44 20 7836 9773","twitter":"benugo"},"location":{"address":"63 Long Acre","lat":"51.51378542409354","lng":"-0.12302799138465664","distance":"58","postalCode":"WC2E 9RA","cc":"GB","city":"Covent Garden","state":"Greater London","country":"United Kingdom"},"categories":[{"id":"4bf58dd8d48988d1e0931735","name":"Coffee Shop","pluralName":"Coffee Shops","shortName":"Coffee Shop","icon":{"prefix":"https:\/\/ss1.4sqi.net\/img\/categories_v2\/food\/coffeeshop_","suffix":".png"},"primary":"true"}],"verified":"false","restricted":"true","stats":{"checkinsCount":"627","usersCount":"364","tipCount":"11"},"url":"http:\/\/www.benugocafedeli.com","specials":{"count":"0"},"hereNow":{"count":"0"},"referralId":"v-1392478016"},{"id":"4b6dd632f964a52056942ce3","name":"TfL Bus 19","contact":{"twitter":"tflbusalerts"},"location":{"address":"Moving Target!","lat":"51.513870548723986","lng":"-0.12359619140625","distance":"72","cc":"GB","city":"London","state":"Greater London","country":"United Kingdom"},"categories":[{"id":"4bf58dd8d48988d12b951735","name":"Bus Line","pluralName":"Bus Lines","shortName":"Bus","icon":{"prefix":"https:\/\/ss1.4sqi.net\/img\/categories_v2\/travel\/busstation_","suffix":".png"},"primary":"true"}],"verified":"false","restricted":"true","stats":{"checkinsCount":"1345","usersCount":"295","tipCount":"7"},"url":"http:\/\/tfl.gov.uk","specials":{"count":"0"},"hereNow":{"count":"0"},"referralId":"v-1392478016"},{"id":"52445e51498ecd280d4ae4be","name":"Brompton Junction","contact":{"phone":"+442078365700","formattedPhone":"+44 20 7836 5700"},"location":{"address":"76 Long Arce","lat":"51.51440245324881","lng":"-0.12250854177870973","distance":"23","postalCode":"WC2E9JS","cc":"GB","city":"London","state":"Greater London","country":"United Kingdom"},"categories":[{"id":"4bf58dd8d48988d115951735","name":"Bike Shop","pluralName":"Bike Shops","shortName":"Bike shop","icon":{"prefix":"https:\/\/ss1.4sqi.net\/img\/categories_v2\/shops\/bikeshop_","suffix":".png"},"primary":"true"}],"verified":"false","restricted":"true","stats":{"checkinsCount":"57","usersCount":"53","tipCount":"3"},"specials":{"count":"0"},"hereNow":{"count":"0"},"referralId":"v-1392478016"},{"id":"4b4ddcc0f964a520b0d926e3","name":"Itsu","contact":{"phone":"+442074302696","formattedPhone":"+44 20 7430 2696","twitter":"itsuofficial","facebook":"115164458642981"},"location":{"address":"41-44 Great Queen St","crossStreet":"Drury Ln","lat":"51.514765234435444","lng":"-0.12207269668579102","distance":"73","postalCode":"WC2B 5AD","cc":"GB","city":"London","state":"Greater London","country":"United Kingdom"},"categories":[{"id":"4bf58dd8d48988d1d2941735","name":"Sushi Restaurant","pluralName":"Sushi Restaurants","shortName":"Sushi","icon":{"prefix":"https:\/\/ss1.4sqi.net\/img\/categories_v2\/food\/sushi_","suffix":".png"},"primary":"true"}],"verified":"true","restricted":"true","stats":{"checkinsCount":"1478","usersCount":"773","tipCount":"12"},"url":"http:\/\/www.itsu.com","specials":{"count":"0"},"hereNow":{"count":"0"},"storeId":"","referralId":"v-1392478016"},{"id":"4ac518e9f964a520ccab20e3","name":"New London Theatre","contact":{"phone":"+448444124654","formattedPhone":"+44 844 412 4654","twitter":"warhorselondon"},"location":{"address":"166 Drury Lane","lat":"51.51515248101072","lng":"-0.12256622314453125","distance":"97","postalCode":"WC2B 5PW","cc":"GB","city":"London","state":"Greater London","country":"United Kingdom"},"categories":[{"id":"4bf58dd8d48988d137941735","name":"Theater","pluralName":"Theaters","shortName":"Theater","icon":{"prefix":"https:\/\/ss1.4sqi.net\/img\/categories_v2\/arts_entertainment\/performingarts_theater_","suffix":".png"},"primary":"true"}],"verified":"false","restricted":"true","stats":{"checkinsCount":"1523","usersCount":"1413","tipCount":"17"},"url":"http:\/\/www.warhorseonstage.com","specials":{"count":"0"},"hereNow":{"count":"1","groups":[{"type":"others","name":"Other people here","count":"1"}]},"referralId":"v-1392478016"},{"id":"4ae4991ff964a520259c21e3","name":"Nuffield Health Covent Garden Fitness & Wellbeing Centre","contact":{"phone":"+448451549506","formattedPhone":"+44 845 154 9506","twitter":"nuffieldhealth"},"location":{"address":"9 Endell St","lat":"51.51407257867833","lng":"-0.12378484076425687","distance":"72","postalCode":"WC2H 9SA","cc":"GB","city":"Covent Garden","state":"Greater London","country":"United Kingdom"},"categories":[{"id":"4bf58dd8d48988d176941735","name":"Gym","pluralName":"Gyms","shortName":"Gym","icon":{"prefix":"https:\/\/ss1.4sqi.net\/img\/categories_v2\/building\/gym_","suffix":".png"},"primary":"true"}],"verified":"false","restricted":"true","stats":{"checkinsCount":"979","usersCount":"163","tipCount":"3"},"url":"http:\/\/www.nuffieldhealth.com\/gyms\/covent-garden","specials":{"count":"0"},"hereNow":{"count":"0"},"referralId":"v-1392478016"},{"id":"508c12fae4b0772b58a73128","name":"Philomena's","location":{"address":"40 Great Queens St.","lat":"51.51494197639044","lng":"-0.1219594191857258","distance":"93","postalCode":"WC2B 5AA","cc":"GB","city":"Covent Garden","state":"Greater London","country":"United Kingdom"},"categories":[{"id":"4bf58dd8d48988d11b941735","name":"Pub","pluralName":"Pubs","shortName":"Pub","icon":{"prefix":"https:\/\/ss1.4sqi.net\/img\/categories_v2\/nightlife\/pub_","suffix":".png"},"primary":"true"}],"verified":"false","restricted":"true","stats":{"checkinsCount":"501","usersCount":"294","tipCount":"4"},"specials":{"count":"0"},"hereNow":{"count":"2","groups":[{"type":"others","name":"Other people here","count":"2"}]},"referralId":"v-1392478016"},{"id":"4ba25a20f964a5202bf037e3","name":"Patisserie Valerie","contact":{"phone":"+442072405592","formattedPhone":"+44 20 7240 5592"},"location":{"address":"80 Long Acre","crossStreet":"Covent Garden","lat":"51.51444975957649","lng":"-0.12228190898895264","distance":"40","postalCode":"WC2E 9NG","cc":"GB","city":"London","state":"Greater London","country":"United Kingdom"},"categories":[{"id":"4bf58dd8d48988d16a941735","name":"Bakery","pluralName":"Bakeries","shortName":"Bakery","icon":{"prefix":"https:\/\/ss1.4sqi.net\/img\/categories_v2\/food\/bakery_","suffix":".png"},"primary":"true"}],"verified":"false","restricted":"true","stats":{"checkinsCount":"550","usersCount":"461","tipCount":"9"},"specials":{"count":"0"},"hereNow":{"count":"0"},"referralId":"v-1392478016"},{"id":"4b2e9f75f964a520c7e324e3","name":"Prince Of Wales","contact":{"phone":"+442072409935","formattedPhone":"+44 20 7240 9935"},"location":{"address":"150-151 Drury Ln","crossStreet":"Long Acre","lat":"51.51453822629176","lng":"-0.12189030647277832","distance":"69","postalCode":"WC2B 5TD","cc":"GB","city":"Covent Garden","state":"Greater London","country":"United Kingdom"},"categories":[{"id":"4bf58dd8d48988d11b941735","name":"Pub","pluralName":"Pubs","shortName":"Pub","icon":{"prefix":"https:\/\/ss1.4sqi.net\/img\/categories_v2\/nightlife\/pub_","suffix":".png"},"primary":"true"}],"verified":"false","restricted":"true","stats":{"checkinsCount":"1363","usersCount":"1069","tipCount":"15"},"specials":{"count":"0"},"hereNow":{"count":"0"},"referralId":"v-1392478016"},{"id":"4b9e31f7f964a520f9d036e3","name":"Pret A Manger","contact":{"phone":"+442079325324","formattedPhone":"+44 20 7932 5324","twitter":"pret","facebook":"162638680417951"},"location":{"address":"65 Long Acre","lat":"51.513911554737","lng":"-0.122809147536209","distance":"42","postalCode":"WC2E 9JD","cc":"GB","city":"Covent Garden","state":"Greater London","country":"United Kingdom"},"categories":[{"id":"4bf58dd8d48988d1c5941735","name":"Sandwich Place","pluralName":"Sandwich Places","shortName":"Sandwiches","icon":{"prefix":"https:\/\/ss1.4sqi.net\/img\/categories_v2\/food\/sandwiches_","suffix":".png"},"primary":"true"}],"verified":"true","restricted":"true","stats":{"checkinsCount":"749","usersCount":"387","tipCount":"9"},"url":"http:\/\/www.pret.com","specials":{"count":"0"},"hereNow":{"count":"0"},"storeId":"124","referralId":"v-1392478016"},{"id":"4acdd80df964a52038cd20e3","name":"Kulu Kulu Sushi","contact":{"phone":"+442072405687","formattedPhone":"+44 20 7240 5687"},"location":{"address":"51-53 Shelton St","lat":"51.514317","lng":"-0.12411157142857143","distance":"90","postalCode":"WC2H 9JU","cc":"GB","city":"London","state":"Greater London","country":"United Kingdom"},"categories":[{"id":"4bf58dd8d48988d1d2941735","name":"Sushi Restaurant","pluralName":"Sushi Restaurants","shortName":"Sushi","icon":{"prefix":"https:\/\/ss1.4sqi.net\/img\/categories_v2\/food\/sushi_","suffix":".png"},"primary":"true"}],"verified":"false","restricted":"true","stats":{"checkinsCount":"1520","usersCount":"477","tipCount":"20"},"url":"http:\/\/kulukulu.co.uk","specials":{"count":"0"},"hereNow":{"count":"0"},"referralId":"v-1392478016"},{"id":"4b670eeff964a5208c372be3","name":"The Real Greek","contact":{"phone":"+442072402292","formattedPhone":"+44 20 7240 2292","twitter":"realgreektweet"},"location":{"address":"60-62 Long Acre","lat":"51.513765","lng":"-0.123155","distance":"63","postalCode":"WC2E 9JE","cc":"GB","city":"London","state":"Greater London","country":"United Kingdom"},"categories":[{"id":"4bf58dd8d48988d10e941735","name":"Greek Restaurant","pluralName":"Greek Restaurants","shortName":"Greek","icon":{"prefix":"https:\/\/ss1.4sqi.net\/img\/categories_v2\/food\/greek_","suffix":".png"},"primary":"true"}],"verified":"false","restricted":"true","stats":{"checkinsCount":"650","usersCount":"542","tipCount":"16"},"menu":{"type":"Menu","label":"Menu","anchor":"View Menu","url":"https:\/\/foursquare.com\/v\/the-real-greek\/4b670eeff964a5208c372be3\/menu","mobileUrl":"https:\/\/foursquare.com\/v\/4b670eeff964a5208c372be3\/device_menu"},"specials":{"count":"0"},"hereNow":{"count":"0"},"referralId":"v-1392478016"},{"id":"4c370137c44a9521e1993d52","name":"APCO Worldwide","contact":{"phone":"+442075263600","formattedPhone":"+44 20 7526 3600","twitter":"apcojobs"},"location":{"address":"90 Long Acre","crossStreet":"btw Bow St & Arne St","lat":"51.514286","lng":"-0.123398","distance":"41","postalCode":"WC2E 9RA","cc":"GB","city":"London","state":"Greater London","country":"United Kingdom"},"categories":[{"id":"4bf58dd8d48988d124941735","name":"Office","pluralName":"Offices","shortName":"Office","icon":{"prefix":"https:\/\/ss1.4sqi.net\/img\/categories_v2\/building\/default_","suffix":".png"},"primary":"true"}],"verified":"false","restricted":"true","stats":{"checkinsCount":"344","usersCount":"15","tipCount":"2"},"specials":{"count":"0"},"hereNow":{"count":"0"},"referralId":"v-1392478016"},{"id":"4bd7fa45dc4b9521dd2b7888","name":"Elliot Rhodes","contact":{"phone":"+442073798544","formattedPhone":"+44 20 7379 8544","twitter":"erbelts"},"location":{"address":"79 Long Acre","lat":"51.51423275328803","lng":"-0.1225245059244241","distance":"20","postalCode":"WC2E 9NG","cc":"GB","city":"London","state":"Greater London","country":"United Kingdom"},"categories":[{"id":"4bf58dd8d48988d102951735","name":"Accessories Store","pluralName":"Accessories Stores","shortName":"Accessories","icon":{"prefix":"https:\/\/ss1.4sqi.net\/img\/categories_v2\/shops\/apparel_accessories_","suffix":".png"},"primary":"true"}],"verified":"false","restricted":"true","stats":{"checkinsCount":"46","usersCount":"19","tipCount":"1"},"url":"http:\/\/www.elliotrhodes.com","specials":{"count":"0"},"hereNow":{"count":"0"},"referralId":"v-1392478016"},{"id":"4ac518bff964a52043a320e3","name":"Guanabara","contact":{"phone":"+442072428600","formattedPhone":"+44 20 7242 8600","twitter":"thisisguanabara"},"location":{"address":"Parker St","crossStreet":"Drury Ln","lat":"51.51525967648895","lng":"-0.12227705494269925","distance":"114","postalCode":"WC2B 5PW","cc":"GB","city":"Covent Garden","state":"Greater London","country":"United Kingdom"},"categories":[{"id":"4bf58dd8d48988d11f941735","name":"Nightclub","pluralName":"Nightclubs","shortName":"Nightclub","icon":{"prefix":"https:\/\/ss1.4sqi.net\/img\/categories_v2\/nightlife\/nightclub_","suffix":".png"},"primary":"true"}],"verified":"false","restricted":"true","stats":{"checkinsCount":"1881","usersCount":"1555","tipCount":"33"},"url":"http:\/\/www.guanabara.co.uk","reservations":{"url":"http:\/\/www.toptable.co.uk\/single.aspx?rid=83305&ref=9601"},"menu":{"type":"Menu","label":"Menu","anchor":"View Menu","url":"https:\/\/foursquare.com\/v\/guanabara\/4ac518bff964a52043a320e3\/menu","mobileUrl":"https:\/\/foursquare.com\/v\/4ac518bff964a52043a320e3\/device_menu"},"specials":{"count":"0"},"hereNow":{"count":"0"},"referralId":"v-1392478016"},{"id":"4aea1a29f964a52059b921e3","name":"Zizzi","contact":{"phone":"+442078366101","formattedPhone":"+44 20 7836 6101"},"location":{"address":"20 Bow St.","lat":"51.51353","lng":"-0.122362","distance":"89","postalCode":"WC2E 7AW","cc":"GB","city":"Covent Garden","state":"Greater London","country":"United Kingdom"},"categories":[{"id":"4bf58dd8d48988d110941735","name":"Italian Restaurant","pluralName":"Italian Restaurants","shortName":"Italian","icon":{"prefix":"https:\/\/ss1.4sqi.net\/img\/categories_v2\/food\/italian_","suffix":".png"},"primary":"true"}],"verified":"true","restricted":"true","stats":{"checkinsCount":"549","usersCount":"468","tipCount":"10"},"url":"http:\/\/www.zizzi.co.uk","menu":{"type":"Menu","label":"Menu","anchor":"View Menu","url":"https:\/\/foursquare.com\/v\/zizzi\/4aea1a29f964a52059b921e3\/menu","mobileUrl":"https:\/\/foursquare.com\/v\/4aea1a29f964a52059b921e3\/device_menu"},"specials":{"count":"0"},"hereNow":{"count":"0"},"referralId":"v-1392478016"},{"id":"4bcc0d523740b713be796365","name":"Wallacespace","contact":{"phone":"+442073951265","formattedPhone":"+44 20 7395 1265"},"location":{"address":"2 Dryden St.","crossStreet":"Covent Garden","lat":"51.51489482765006","lng":"-0.12256713423137529","distance":"69","postalCode":"WC2E 9NA","cc":"GB","city":"London","state":"Greater London","country":"United Kingdom"},"categories":[{"id":"4bf58dd8d48988d100941735","name":"Meeting Room","pluralName":"Meeting Rooms","shortName":"Meeting Room","icon":{"prefix":"https:\/\/ss1.4sqi.net\/img\/categories_v2\/building\/conventioncenter_meetingroom_","suffix":".png"},"primary":"true"}],"verified":"false","restricted":"true","stats":{"checkinsCount":"663","usersCount":"473","tipCount":"8"},"url":"http:\/\/www.wallacespace.com","specials":{"count":"0"},"hereNow":{"count":"0"},"referralId":"v-1392478016"},{"id":"4e653257b993678bb7ca6e65","name":"The 10 Cases","contact":{"phone":"+442078366801","formattedPhone":"+44 20 7836 6801","twitter":"10cases"},"location":{"address":"16 Endell St.","lat":"51.514429729352926","lng":"-0.12435123324394226","distance":"108","postalCode":"WC2H 9BD","cc":"GB","city":"London","state":"Greater London","country":"United Kingdom"},"categories":[{"id":"4bf58dd8d48988d14b941735","name":"Winery","pluralName":"Wineries","shortName":"Winery","icon":{"prefix":"https:\/\/ss1.4sqi.net\/img\/categories_v2\/food\/winery_","suffix":".png"},"primary":"true"}],"verified":"true","restricted":"true","stats":{"checkinsCount":"429","usersCount":"315","tipCount":"15"},"url":"http:\/\/www.the10cases.co.uk","reservations":{"url":"http:\/\/www.toptable.co.uk\/single.aspx?rid=73834&ref=9601"},"menu":{"type":"Menu","label":"Menu","anchor":"View Menu","url":"https:\/\/foursquare.com\/v\/the-10-cases\/4e653257b993678bb7ca6e65\/menu","mobileUrl":"https:\/\/foursquare.com\/v\/4e653257b993678bb7ca6e65\/device_menu"},"specials":{"count":"0"},"hereNow":{"count":"1","groups":[{"type":"others","name":"Other people here","count":"1"}]},"storeId":"","referralId":"v-1392478016"},{"id":"4c6a7ce23bad2d7f7773b2ee","name":"Garden Studios","location":{"address":"Betterton Street","lat":"51.5148735250446","lng":"-0.1233830616960973","distance":"76","cc":"GB","city":"Camden Town","state":"Greater London","country":"United Kingdom"},"categories":[{"id":"4bf58dd8d48988d124941735","name":"Office","pluralName":"Offices","shortName":"Office","icon":{"prefix":"https:\/\/ss1.4sqi.net\/img\/categories_v2\/building\/default_","suffix":".png"},"primary":"true"}],"verified":"false","restricted":"true","stats":{"checkinsCount":"405","usersCount":"57","tipCount":"1"},"specials":{"count":"0"},"hereNow":{"count":"0"},"referralId":"v-1392478016"},{"id":"4ac518bff964a52056a320e3","name":"Le Deuxi\u00e8me","contact":{"phone":"+442073790033","formattedPhone":"+44 20 7379 0033"},"location":{"address":"65 Long Acre","lat":"51.514047629548834","lng":"-0.1229994626587506","distance":"30","postalCode":"WC2E 9JD","cc":"GB","city":"Covent Gardem","state":"Greater London","country":"United Kingdom"},"categories":[{"id":"4bf58dd8d48988d123941735","name":"Wine Bar","pluralName":"Wine Bars","shortName":"Wine Bar","icon":{"prefix":"https:\/\/ss1.4sqi.net\/img\/categories_v2\/nightlife\/wine_","suffix":".png"},"primary":"true"}],"verified":"false","restricted":"true","stats":{"checkinsCount":"186","usersCount":"150","tipCount":"6"},"url":"http:\/\/www.ledeuxieme.com","reservations":{"url":"http:\/\/www.toptable.co.uk\/single.aspx?rid=68377&ref=9601"},"menu":{"type":"Menu","label":"Menu","anchor":"View Menu","url":"https:\/\/foursquare.com\/v\/le-deuxi%C3%A8me\/4ac518bff964a52056a320e3\/menu","mobileUrl":"https:\/\/foursquare.com\/v\/4ac518bff964a52056a320e3\/device_menu"},"specials":{"count":"0"},"hereNow":{"count":"0"},"referralId":"v-1392478016"},{"id":"4f29854de4b0be34a34c789e","name":"SugarSin","contact":{"phone":"+442072409994","formattedPhone":"+44 20 7240 9994","twitter":"sugarsin","facebook":"183886814513"},"location":{"address":"70 Long Acre","lat":"51.51436653292765","lng":"-0.12239901575571242","distance":"29","postalCode":"WC2E9JS","cc":"GB","city":"London","state":"Greater London","country":"United Kingdom"},"categories":[{"id":"4bf58dd8d48988d117951735","name":"Candy Store","pluralName":"Candy Stores","shortName":"Candy Store","icon":{"prefix":"https:\/\/ss1.4sqi.net\/img\/categories_v2\/shops\/candystore_","suffix":".png"},"primary":"true"}],"verified":"true","restricted":"true","stats":{"checkinsCount":"133","usersCount":"91","tipCount":"2"},"url":"http:\/\/sugarsin.co.uk","specials":{"count":"0"},"hereNow":{"count":"0"},"storeId":"","referralId":"v-1392478016"},{"id":"4eef5715b634f7544560edbe","name":"Sugar Sin","location":{"lat":"51.51439223468151","lng":"-0.12239917333436466","distance":"30","cc":"GB","city":"London","state":"Greater London","country":"United Kingdom"},"categories":[{"id":"4bf58dd8d48988d117951735","name":"Candy Store","pluralName":"Candy Stores","shortName":"Candy Store","icon":{"prefix":"https:\/\/ss1.4sqi.net\/img\/categories_v2\/shops\/candystore_","suffix":".png"},"primary":"true"}],"verified":"false","restricted":"true","stats":{"checkinsCount":"59","usersCount":"44","tipCount":"5"},"specials":{"count":"0"},"hereNow":{"count":"0"},"referralId":"v-1392478016"},{"id":"51e9c7bf498e0fc0c2f75ee8","name":"The Drury Club","location":{"lat":"51.515143","lng":"-0.12292","distance":"95","cc":"GB","country":"United Kingdom"},"categories":[{"id":"4bf58dd8d48988d1f1931735","name":"General Entertainment","pluralName":"General Entertainment","shortName":"Entertainment","icon":{"prefix":"https:\/\/ss1.4sqi.net\/img\/categories_v2\/arts_entertainment\/default_","suffix":".png"},"primary":"true"}],"verified":"false","restricted":"true","stats":{"checkinsCount":"5","usersCount":"4","tipCount":"1"},"specials":{"count":"0"},"hereNow":{"count":"1","groups":[{"type":"others","name":"Other people here","count":"1"}]},"referralId":"v-1392478016"}],"confident":"true"}}