{"meta":{"code":"200"},"response":{"venues":[{"id":"4b3f71c5f964a520eea625e3","name":"The Albert","contact":{"phone":"+442077221886","formattedPhone":"+44 20 7722 1886"},"location":{"address":"11 Princess Rd","crossStreet":"Kingstown St","lat":"51.53876998425168","lng":"-0.15253215724162006","distance":"60","postalCode":"NW1 8JR","cc":"GB","city":"Primrose Hill","state":"Greater London","country":"United Kingdom"},"categories":[{"id":"4bf58dd8d48988d11b941735","name":"Pub","pluralName":"Pubs","shortName":"Pub","icon":{"prefix":"https:\/\/ss1.4sqi.net\/img\/categories_v2\/nightlife\/pub_","suffix":".png"},"primary":"true"}],"verified":"false","restricted":"true","stats":{"checkinsCount":"708","usersCount":"356","tipCount":"19"},"specials":{"count":"0"},"hereNow":{"count":"0"},"referralId":"v-1392477949"},{"id":"4f4d092ee4b05dbcead4d1df","name":"The Engineer","contact":{"phone":"+442074831890","formattedPhone":"+44 20 7483 1890"},"location":{"address":"65 Gloucester Avenue","lat":"51.54012759850193","lng":"-0.15088771649439442","distance":"162","postalCode":"NW1 8JH","cc":"GB","city":"London","state":"Greater London","country":"United Kingdom"},"categories":[{"id":"4bf58dd8d48988d116941735","name":"Bar","pluralName":"Bars","shortName":"Bar","icon":{"prefix":"https:\/\/ss1.4sqi.net\/img\/categories_v2\/nightlife\/bar_","suffix":".png"},"primary":"true"}],"verified":"false","restricted":"true","stats":{"checkinsCount":"805","usersCount":"516","tipCount":"11"},"specials":{"count":"0"},"hereNow":{"count":"2","groups":[{"type":"others","name":"Other people here","count":"2"}]},"referralId":"v-1392477949"},{"id":"4ad98f28f964a5204b1a21e3","name":"Melrose & Morgan","location":{"address":"Gloucester Avenue","lat":"51.540116","lng":"-0.150832","distance":"164","cc":"GB","city":"London","state":"Greater London","country":"United Kingdom"},"categories":[{"id":"4bf58dd8d48988d146941735","name":"Deli \/ Bodega","pluralName":"Delis \/ Bodegas","shortName":"Deli \/ Bodega","icon":{"prefix":"https:\/\/ss1.4sqi.net\/img\/categories_v2\/food\/deli_","suffix":".png"},"primary":"true"}],"verified":"false","restricted":"true","stats":{"checkinsCount":"550","usersCount":"181","tipCount":"15"},"menu":{"type":"Menu","label":"Menu","anchor":"View Menu","url":"https:\/\/foursquare.com\/v\/melrose--morgan\/4ad98f28f964a5204b1a21e3\/menu","mobileUrl":"https:\/\/foursquare.com\/v\/4ad98f28f964a5204b1a21e3\/device_menu"},"specials":{"count":"0"},"hereNow":{"count":"0"},"referralId":"v-1392477949"},{"id":"4ad3c1d8f964a52029e620e3","name":"Princess of Wales","contact":{"twitter":"princesswales22"},"location":{"address":"22 Chalcot Rd.","crossStreet":"Fitzroy Rd.","lat":"51.54036485829087","lng":"-0.1542146874080912","distance":"154","postalCode":"NW1 8LL","cc":"GB","city":"London","state":"Greater London","country":"United Kingdom"},"categories":[{"id":"4bf58dd8d48988d11b941735","name":"Pub","pluralName":"Pubs","shortName":"Pub","icon":{"prefix":"https:\/\/ss1.4sqi.net\/img\/categories_v2\/nightlife\/pub_","suffix":".png"},"primary":"true"}],"verified":"false","restricted":"true","stats":{"checkinsCount":"904","usersCount":"436","tipCount":"21"},"url":"http:\/\/www.lovetheprincess.com","reservations":{"url":"http:\/\/www.toptable.co.uk\/single.aspx?rid=90564&ref=9601"},"menu":{"type":"Menu","label":"Menu","anchor":"View Menu","url":"https:\/\/foursquare.com\/v\/princess-of-wales\/4ad3c1d8f964a52029e620e3\/menu","mobileUrl":"https:\/\/foursquare.com\/v\/4ad3c1d8f964a52029e620e3\/device_menu"},"specials":{"count":"0"},"hereNow":{"count":"0"},"referralId":"v-1392477949"},{"id":"4bd8496b5cf276b064d89c00","name":"Utopia village","location":{"address":"7 Chalcot Road","lat":"51.54050536086894","lng":"-0.1527035461639678","distance":"135","cc":"GB","city":"Camden Town","state":"Greater London","country":"United Kingdom"},"categories":[{"id":"4bf58dd8d48988d124941735","name":"Office","pluralName":"Offices","shortName":"Office","icon":{"prefix":"https:\/\/ss1.4sqi.net\/img\/categories_v2\/building\/default_","suffix":".png"},"primary":"true"}],"verified":"false","restricted":"true","stats":{"checkinsCount":"627","usersCount":"52","tipCount":"1"},"specials":{"count":"0"},"hereNow":{"count":"0"},"referralId":"v-1392477949"},{"id":"4e7f328d9a52594cdf772fb6","name":"Regent's Park Road Bus Stop","location":{"lat":"51.53850302843083","lng":"-0.1523887893564592","distance":"92","cc":"GB","city":"Camden Town","state":"Greater London","country":"United Kingdom"},"categories":[{"id":"4bf58dd8d48988d1fe931735","name":"Bus Station","pluralName":"Bus Stations","shortName":"Bus Station","icon":{"prefix":"https:\/\/ss1.4sqi.net\/img\/categories_v2\/travel\/busstation_","suffix":".png"},"primary":"true"}],"verified":"false","restricted":"true","stats":{"checkinsCount":"227","usersCount":"24","tipCount":"0"},"specials":{"count":"0"},"hereNow":{"count":"0"},"referralId":"v-1392477949"},{"id":"4c13693482a3c9b64c67fbf8","name":"La Collina","contact":{"twitter":"lacollinar"},"location":{"address":"17 Princess Road","lat":"51.539002","lng":"-0.152289","distance":"47","postalCode":"NW1 8JR","cc":"GB","city":"London","state":"Greater London","country":"United Kingdom"},"categories":[{"id":"4bf58dd8d48988d110941735","name":"Italian Restaurant","pluralName":"Italian Restaurants","shortName":"Italian","icon":{"prefix":"https:\/\/ss1.4sqi.net\/img\/categories_v2\/food\/italian_","suffix":".png"},"primary":"true"}],"verified":"false","restricted":"true","stats":{"checkinsCount":"44","usersCount":"38","tipCount":"2"},"url":"http:\/\/www.lacollinarestaurant.co.uk\/contact.php","reservations":{"url":"http:\/\/www.toptable.co.uk\/single.aspx?rid=78535&ref=9601"},"menu":{"type":"Menu","label":"Menu","anchor":"View Menu","url":"https:\/\/foursquare.com\/v\/la-collina\/4c13693482a3c9b64c67fbf8\/menu","mobileUrl":"https:\/\/foursquare.com\/v\/4c13693482a3c9b64c67fbf8\/device_menu"},"specials":{"count":"0"},"hereNow":{"count":"0"},"referralId":"v-1392477949"},{"id":"4aeaec41f964a520afbc21e3","name":"Lansdowne Pub","contact":{"phone":"+442074830409","formattedPhone":"+44 20 7483 0409","twitter":"lansdownenw1","facebook":"348052201993425"},"location":{"address":"90 Gloucester Ave.","crossStreet":"Dumpton Pl.","lat":"51.54133644569475","lng":"-0.1533399396512666","distance":"230","postalCode":"NW1 8HX","cc":"GB","city":"London","state":"Greater London","country":"United Kingdom"},"categories":[{"id":"4bf58dd8d48988d11b941735","name":"Pub","pluralName":"Pubs","shortName":"Pub","icon":{"prefix":"https:\/\/ss1.4sqi.net\/img\/categories_v2\/nightlife\/pub_","suffix":".png"},"primary":"true"}],"verified":"true","restricted":"true","stats":{"checkinsCount":"1556","usersCount":"712","tipCount":"19"},"menu":{"type":"Menu","label":"Menu","anchor":"View Menu","url":"https:\/\/foursquare.com\/v\/lansdowne-pub\/4aeaec41f964a520afbc21e3\/menu","mobileUrl":"https:\/\/foursquare.com\/v\/4aeaec41f964a520afbc21e3\/device_menu"},"specials":{"count":"0"},"hereNow":{"count":"0"},"venuePage":{"id":"64604952"},"storeId":"","referralId":"v-1392477949"},{"id":"52de8f4b498e7f36c0eac79a","name":"Techtopia","contact":{"twitter":"techtopiauk"},"location":{"address":"Unit 5, 7 Chalcot Road,","lat":"51.540199279785156","lng":"-0.15266619622707367","distance":"101","postalCode":"NW1 8LH","cc":"GB","city":"London","state":"Greater London","country":"United Kingdom"},"categories":[{"id":"4bf58dd8d48988d174941735","name":"Coworking Space","pluralName":"Coworking Spaces","shortName":"Coworking Space","icon":{"prefix":"https:\/\/ss1.4sqi.net\/img\/categories_v2\/building\/office_coworkingspace_","suffix":".png"},"primary":"true"}],"verified":"false","restricted":"true","stats":{"checkinsCount":"4","usersCount":"1","tipCount":"0"},"specials":{"count":"0"},"hereNow":{"count":"0"},"referralId":"v-1392477949"},{"id":"4c2dc8c3987f20a1cff049aa","name":"L'Absinthe","contact":{"phone":"+442074834848","formattedPhone":"+44 20 7483 4848","twitter":"absinthe07jc"},"location":{"address":"40 Chalcot Rd","lat":"51.54029302594858","lng":"-0.15404153078042096","distance":"140","postalCode":"NW1 8LS","cc":"GB","city":"Camden","state":"Greater London","country":"United Kingdom"},"categories":[{"id":"4bf58dd8d48988d10c941735","name":"French Restaurant","pluralName":"French Restaurants","shortName":"French","icon":{"prefix":"https:\/\/ss1.4sqi.net\/img\/categories_v2\/food\/french_","suffix":".png"},"primary":"true"}],"verified":"false","restricted":"true","stats":{"checkinsCount":"298","usersCount":"135","tipCount":"7"},"url":"http:\/\/labsinthe.co.uk","reservations":{"url":"http:\/\/www.toptable.co.uk\/single.aspx?rid=24727&ref=9601"},"menu":{"type":"Menu","label":"Menu","anchor":"View Menu","url":"https:\/\/foursquare.com\/v\/labsinthe-camden-greater-london\/4c2dc8c3987f20a1cff049aa\/menu","mobileUrl":"https:\/\/foursquare.com\/v\/4c2dc8c3987f20a1cff049aa\/device_menu"},"specials":{"count":"0"},"hereNow":{"count":"0"},"referralId":"v-1392477949"},{"id":"4ad45ed3f964a520aae720e3","name":"Primrose Bakery","contact":{"phone":"+442074834222","formattedPhone":"+44 20 7483 4222"},"location":{"address":"69 Gloucester Avenue","lat":"51.540176","lng":"-0.151077","distance":"155","postalCode":"NW1 8LD","cc":"GB","city":"London","state":"Greater London","country":"United Kingdom"},"categories":[{"id":"4bf58dd8d48988d1bc941735","name":"Cupcake Shop","pluralName":"Cupcake Shops","shortName":"Cupcakes","icon":{"prefix":"https:\/\/ss1.4sqi.net\/img\/categories_v2\/food\/cupcakes_","suffix":".png"},"primary":"true"}],"verified":"false","restricted":"true","stats":{"checkinsCount":"417","usersCount":"301","tipCount":"14"},"specials":{"count":"0"},"hereNow":{"count":"0"},"referralId":"v-1392477949"},{"id":"4dfcdec8aeb7594e86218a4f","name":"Regents Canal Footbridge","location":{"lat":"51.53720319271088","lng":"-0.152547","distance":"232","cc":"GB","city":"Camden Town","state":"Greater London","country":"United Kingdom"},"categories":[{"id":"4bf58dd8d48988d1df941735","name":"Bridge","pluralName":"Bridges","shortName":"Bridge","icon":{"prefix":"https:\/\/ss1.4sqi.net\/img\/categories_v2\/parks_outdoors\/bridge_","suffix":".png"},"primary":"true"}],"verified":"false","restricted":"true","stats":{"checkinsCount":"326","usersCount":"259","tipCount":"0"},"specials":{"count":"0"},"hereNow":{"count":"0"},"referralId":"v-1392477949"},{"id":"4e41ba1d1495179c0146f53d","name":"Lock House","location":{"address":"35 Oval Rd.","lat":"51.5400274460045","lng":"-0.14890434667533836","distance":"282","postalCode":"NW1 7BF","cc":"GB","city":"Camden Town","state":"Greater London","country":"United Kingdom"},"categories":[{"id":"4d954b06a243a5684965b473","name":"Residential Building (Apartment \/ Condo)","pluralName":"Residential Buildings (Apartments \/ Condos)","shortName":"Residential","icon":{"prefix":"https:\/\/ss1.4sqi.net\/img\/categories_v2\/building\/apartment_","suffix":".png"},"primary":"true"}],"verified":"false","restricted":"true","stats":{"checkinsCount":"189","usersCount":"34","tipCount":"2"},"specials":{"count":"0"},"hereNow":{"count":"0"},"referralId":"v-1392477949"},{"id":"5134d0bfe4b02029f8cfd838","name":"Michael Nadra Primerose hill","location":{"address":"Gloucester Avenue","lat":"51.54011242897731","lng":"-0.15071089029766443","distance":"171","postalCode":"NW1","cc":"GB","city":"Camden","state":"Greater London","country":"United Kingdom"},"categories":[{"id":"4bf58dd8d48988d110941735","name":"Italian Restaurant","pluralName":"Italian Restaurants","shortName":"Italian","icon":{"prefix":"https:\/\/ss1.4sqi.net\/img\/categories_v2\/food\/italian_","suffix":".png"},"primary":"true"}],"verified":"false","restricted":"true","stats":{"checkinsCount":"21","usersCount":"15","tipCount":"1"},"url":"http:\/\/www.restaurant-michaelnadra.co.uk\/primrose","reservations":{"url":"http:\/\/www.toptable.co.uk\/single.aspx?rid=91650&ref=9601"},"menu":{"type":"Menu","label":"Menu","anchor":"View Menu","url":"https:\/\/foursquare.com\/v\/michael-nadra-primerose-hill\/5134d0bfe4b02029f8cfd838\/menu","mobileUrl":"https:\/\/foursquare.com\/v\/5134d0bfe4b02029f8cfd838\/device_menu"},"specials":{"count":"0"},"hereNow":{"count":"0"},"referralId":"v-1392477949"},{"id":"4c34dffe213c2d7f623c395d","name":"The Queens No 1","contact":{"phone":"+442075863049","formattedPhone":"+44 20 7586 3049"},"location":{"address":"1 Edis Street","crossStreet":"Chalcot Rd","lat":"51.539641","lng":"-0.15245052394152706","distance":"46","postalCode":"NW1 8LG","cc":"GB","city":"Camden Town","state":"Greater London","country":"United Kingdom"},"categories":[{"id":"4bf58dd8d48988d11b941735","name":"Pub","pluralName":"Pubs","shortName":"Pub","icon":{"prefix":"https:\/\/ss1.4sqi.net\/img\/categories_v2\/nightlife\/pub_","suffix":".png"},"primary":"true"}],"verified":"false","restricted":"true","stats":{"checkinsCount":"70","usersCount":"51","tipCount":"2"},"specials":{"count":"0"},"hereNow":{"count":"0"},"referralId":"v-1392477949"},{"id":"4ac518e6f964a52012ab20e3","name":"Cecil Sharp House","location":{"address":"2 Regents Park Rd","lat":"51.53807604676176","lng":"-0.14932009487788064","distance":"276","postalCode":"NW1 7AY","cc":"GB","city":"Camden","state":"Greater London","country":"United Kingdom"},"categories":[{"id":"4bf58dd8d48988d1e5931735","name":"Music Venue","pluralName":"Music Venues","shortName":"Music Venue","icon":{"prefix":"https:\/\/ss1.4sqi.net\/img\/categories_v2\/arts_entertainment\/musicvenue_","suffix":".png"},"primary":"true"}],"verified":"false","restricted":"true","stats":{"checkinsCount":"782","usersCount":"414","tipCount":"10"},"specials":{"count":"0"},"hereNow":{"count":"0"},"referralId":"v-1392477949"},{"id":"4d7292514ab5224b5e53c197","name":"Feng Shang","contact":{"phone":"+442074858137","formattedPhone":"+44 20 7485 8137"},"location":{"address":"Prince Albert Rd.","lat":"51.537283","lng":"-0.15145","distance":"242","postalCode":"NW1 7SS","cc":"GB","city":"Camden Town","state":"Greater London","country":"United Kingdom"},"categories":[{"id":"4bf58dd8d48988d145941735","name":"Chinese Restaurant","pluralName":"Chinese Restaurants","shortName":"Chinese","icon":{"prefix":"https:\/\/ss1.4sqi.net\/img\/categories_v2\/food\/chinese_","suffix":".png"},"primary":"true"}],"verified":"false","restricted":"true","stats":{"checkinsCount":"181","usersCount":"164","tipCount":"8"},"reservations":{"url":"http:\/\/www.toptable.co.uk\/single.aspx?rid=98550&ref=9601"},"menu":{"type":"Menu","label":"Menu","anchor":"View Menu","url":"https:\/\/foursquare.com\/v\/feng-shang\/4d7292514ab5224b5e53c197\/menu","mobileUrl":"https:\/\/foursquare.com\/v\/4d7292514ab5224b5e53c197\/device_menu"},"specials":{"count":"0"},"hereNow":{"count":"0"},"referralId":"v-1392477949"},{"id":"4c2f4ce516adc928ad40bd9c","name":"St Mark's, Regents Park","location":{"lat":"51.53772287086513","lng":"-0.15246736025413854","distance":"175","cc":"GB","country":"United Kingdom"},"categories":[{"id":"4bf58dd8d48988d132941735","name":"Church","pluralName":"Churches","shortName":"Church","icon":{"prefix":"https:\/\/ss1.4sqi.net\/img\/categories_v2\/building\/religious_church_","suffix":".png"},"primary":"true"}],"verified":"false","restricted":"true","stats":{"checkinsCount":"60","usersCount":"50","tipCount":"2"},"specials":{"count":"0"},"hereNow":{"count":"0"},"referralId":"v-1392477949"},{"id":"51f8cddd498e61f88ee861b7","name":"Regent's Park Broadwalk","location":{"lat":"51.53620303692795","lng":"-0.1519295297419898","distance":"348","cc":"GB","country":"United Kingdom"},"categories":[{"id":"4bf58dd8d48988d163941735","name":"Park","pluralName":"Parks","shortName":"Park","icon":{"prefix":"https:\/\/ss1.4sqi.net\/img\/categories_v2\/parks_outdoors\/park_","suffix":".png"},"primary":"true"}],"verified":"false","restricted":"true","stats":{"checkinsCount":"69","usersCount":"60","tipCount":"0"},"specials":{"count":"0"},"hereNow":{"count":"0"},"referralId":"v-1392477949"},{"id":"4ea28c199a527d65171a7b69","name":"Princess News","location":{"lat":"51.539226","lng":"-0.152068","distance":"51","cc":"GB","city":"Camden Town","state":"Greater London","country":"United Kingdom"},"categories":[{"id":"4d954b0ea243a5684a65b473","name":"Convenience Store","pluralName":"Convenience Stores","shortName":"Convenience Stores","icon":{"prefix":"https:\/\/ss1.4sqi.net\/img\/categories_v2\/shops\/conveniencestore_","suffix":".png"},"primary":"true"}],"verified":"false","restricted":"true","stats":{"checkinsCount":"25","usersCount":"13","tipCount":"0"},"specials":{"count":"0"},"hereNow":{"count":"0"},"referralId":"v-1392477949"},{"id":"526fec1511d2173b85956dce","name":"Socialite","contact":{"twitter":"getsocialite"},"location":{"address":"Unit 5 Utopia Village","crossStreet":"7 Charcot Road","lat":"51.540178","lng":"-0.152776","distance":"98","postalCode":"NW1 8LH","cc":"GB","city":"London","state":"Greater London","country":"United Kingdom"},"categories":[{"id":"4bf58dd8d48988d125941735","name":"Tech Startup","pluralName":"Tech Startups","shortName":"Tech Startup","icon":{"prefix":"https:\/\/ss1.4sqi.net\/img\/categories_v2\/shops\/technology_","suffix":".png"},"primary":"true"}],"verified":"false","restricted":"true","stats":{"checkinsCount":"6","usersCount":"2","tipCount":"0"},"specials":{"count":"0"},"hereNow":{"count":"0"},"referralId":"v-1392477949"},{"id":"4cf697c81801a14356aaead4","name":"Primrose Hill Community Association","contact":{"phone":"+442075868327","formattedPhone":"+44 20 7586 8327"},"location":{"address":"29 Hopkinsons Pl., Fitzroy Rd.","lat":"51.54003455032263","lng":"-0.15543794422492754","distance":"200","postalCode":"NW1 8TN","cc":"GB","city":"Primrose Hill","state":"Greater London","country":"United Kingdom"},"categories":[{"id":"50328a8e91d4c4b30a586d6c","name":"Non-Profit","pluralName":"Non-Profits","shortName":"Non-Profit","icon":{"prefix":"https:\/\/ss1.4sqi.net\/img\/categories_v2\/building\/default_","suffix":".png"},"primary":"true"}],"verified":"false","restricted":"true","stats":{"checkinsCount":"29","usersCount":"18","tipCount":"0"},"specials":{"count":"0"},"hereNow":{"count":"0"},"referralId":"v-1392477949"},{"id":"4d89f7a6f607a093d7d6f486","name":"Primrose Hill Primary School","contact":{"phone":"+442077228500","formattedPhone":"+44 20 7722 8500"},"location":{"address":"Princess Rd.","lat":"51.53924293297714","lng":"-0.151736076835392","distance":"74","postalCode":"NW1 8JL","cc":"GB","city":"Primrose Hill","state":"Greater London","country":"United Kingdom"},"categories":[{"id":"4bf58dd8d48988d1ab941735","name":"Student Center","pluralName":"Student Centers","shortName":"Student Center","icon":{"prefix":"https:\/\/ss1.4sqi.net\/img\/categories_v2\/education\/studentcenter_","suffix":".png"},"primary":"true"}],"verified":"false","restricted":"true","stats":{"checkinsCount":"67","usersCount":"12","tipCount":"0"},"specials":{"count":"0"},"hereNow":{"count":"0"},"referralId":"v-1392477949"},{"id":"5225cb40498e38315fef965b","name":"s&l new hq","location":{"lat":"51.53937530517578","lng":"-0.14962230622768402","distance":"220","cc":"GB","country":"United Kingdom"},"categories":[{"id":"4bf58dd8d48988d124941735","name":"Office","pluralName":"Offices","shortName":"Office","icon":{"prefix":"https:\/\/ss1.4sqi.net\/img\/categories_v2\/building\/default_","suffix":".png"},"primary":"true"}],"verified":"false","restricted":"true","stats":{"checkinsCount":"23","usersCount":"3","tipCount":"0"},"specials":{"count":"0"},"hereNow":{"count":"0"},"referralId":"v-1392477949"},{"id":"5055c14ee4b0e932c94fbed8","name":"Michael Nadra","contact":{"phone":"+442077222800","formattedPhone":"+44 20 7722 2800","twitter":"michaelnadra"},"location":{"address":"42 Gloucester Avenue","lat":"51.540005193884156","lng":"-0.1500707785783379","distance":"205","postalCode":"NW1 8JD","cc":"GB","city":"London","state":"Greater London","country":"United Kingdom"},"categories":[{"id":"4bf58dd8d48988d1c4941735","name":"Restaurant","pluralName":"Restaurants","shortName":"Restaurant","icon":{"prefix":"https:\/\/ss1.4sqi.net\/img\/categories_v2\/food\/default_","suffix":".png"},"primary":"true"}],"verified":"false","restricted":"true","stats":{"checkinsCount":"37","usersCount":"29","tipCount":"1"},"specials":{"count":"0"},"hereNow":{"count":"0"},"referralId":"v-1392477949"},{"id":"4e709acae4cd5c86940d0ef9","name":"Global Ocean Marine Conservation Charity","location":{"lat":"51.54006","lng":"-0.153055","distance":"87","cc":"GB","city":"Camden Town","state":"Greater London","country":"United Kingdom"},"categories":[{"id":"4bf58dd8d48988d162941735","name":"Other Great Outdoors","pluralName":"Other Great Outdoors","shortName":"Other Outdoors","icon":{"prefix":"https:\/\/ss1.4sqi.net\/img\/categories_v2\/parks_outdoors\/outdoors_","suffix":".png"},"primary":"true"}],"verified":"false","restricted":"true","stats":{"checkinsCount":"8","usersCount":"2","tipCount":"0"},"specials":{"count":"0"},"hereNow":{"count":"0"},"referralId":"v-1392477949"},{"id":"51bc9d0e498e24fd0668f826","name":"Chalcot Square","location":{"lat":"51.54104576692122","lng":"-0.15569635516065417","distance":"279","cc":"GB","country":"United Kingdom"},"categories":[{"id":"4bf58dd8d48988d163941735","name":"Park","pluralName":"Parks","shortName":"Park","icon":{"prefix":"https:\/\/ss1.4sqi.net\/img\/categories_v2\/parks_outdoors\/park_","suffix":".png"},"primary":"true"}],"verified":"false","restricted":"true","stats":{"checkinsCount":"11","usersCount":"5","tipCount":"0"},"specials":{"count":"0"},"hereNow":{"count":"0"},"referralId":"v-1392477949"},{"id":"51b01f79454ae61e4a22f213","name":"Paul Lee & Company","contact":{"phone":"+442077227780","formattedPhone":"+44 20 7722 7780","twitter":"paulleelettings"},"location":{"address":"49 Chalcot Road","lat":"51.539996144603954","lng":"-0.15367984771728513","distance":"99","postalCode":"NW1 8LS","cc":"GB","city":"Primrose Hill","state":"Greater London","country":"United Kingdom"},"categories":[{"id":"5032885091d4c4b30a586d66","name":"Real Estate Office","pluralName":"Real Estate Offices","shortName":"Real Estate","icon":{"prefix":"https:\/\/ss1.4sqi.net\/img\/categories_v2\/shops\/default_","suffix":".png"},"primary":"true"}],"verified":"false","restricted":"true","stats":{"checkinsCount":"0","usersCount":"0","tipCount":"0"},"specials":{"count":"0"},"hereNow":{"count":"0"},"referralId":"v-1392477949"},{"id":"4c36da5d93db0f47bdc91e92","name":"Bodydoctor","location":{"address":"Egbert Place","crossStreet":"Chalcot Road","lat":"51.53835654258728","lng":"-0.15257477760314941","distance":"104","postalCode":"NW1","cc":"GB","city":"Camden Town","state":"Greater London","country":"United Kingdom"},"verified":"false","restricted":"true","stats":{"checkinsCount":"5","usersCount":"2","tipCount":"0"},"specials":{"count":"0"},"hereNow":{"count":"0"},"referralId":"v-1392477949"},{"id":"4cd4b4c5122ba143966d27a1","name":"Ibn Battuta","location":{"address":"Camden","lat":"51.53908","lng":"-0.15129","distance":"107","postalCode":"NW1","cc":"GB","city":"London","state":"Greater London","country":"United Kingdom"},"verified":"false","restricted":"true","stats":{"checkinsCount":"1","usersCount":"1","tipCount":"0"},"specials":{"count":"0"},"hereNow":{"count":"0"},"referralId":"v-1392477949"}],"confident":"true"}}