{"meta":{"code":"200"},"response":{"venues":[{"id":"4ac51183f964a52048a020e3","name":"ZSL London Zoo","contact":{"phone":"+448442251826","formattedPhone":"+44 844 225 1826","twitter":"zsllondonzoo"},"location":{"address":"Outer Circle","crossStreet":"Regent's Park","lat":"51.535645144168825","lng":"-0.15573978424072266","distance":"569","postalCode":"NW1 4RY","cc":"GB","city":"London","state":"Greater London","country":"United Kingdom"},"categories":[{"id":"4bf58dd8d48988d17b941735","name":"Zoo","pluralName":"Zoos","shortName":"Zoo","icon":{"prefix":"https:\/\/ss1.4sqi.net\/img\/categories_v2\/arts_entertainment\/zoo_","suffix":".png"},"primary":"true"}],"verified":"true","restricted":"true","stats":{"checkinsCount":"8416","usersCount":"6701","tipCount":"97"},"url":"http:\/\/www.zsl.org\/zsl-london-zoo","menu":{"type":"Menu","label":"Menu","anchor":"View Menu","url":"https:\/\/foursquare.com\/v\/zsl-london-zoo\/4ac51183f964a52048a020e3\/menu","mobileUrl":"https:\/\/foursquare.com\/v\/4ac51183f964a52048a020e3\/device_menu"},"specials":{"count":"0"},"hereNow":{"count":"2","groups":[{"type":"others","name":"Other people here","count":"2"}]},"storeId":"","referralId":"v-1392477962"},{"id":"4fcf69e1e4b05190be2f18f8","name":"Regents Park Terrace","location":{"lat":"51.534807777474434","lng":"-0.1472012332191671","distance":"71","cc":"GB","country":"United Kingdom"},"categories":[{"id":"4f2a25ac4b909258e854f55f","name":"Neighborhood","pluralName":"Neighborhoods","shortName":"Neighborhood","icon":{"prefix":"https:\/\/ss1.4sqi.net\/img\/categories_v2\/parks_outdoors\/neighborhood_","suffix":".png"},"primary":"true"}],"verified":"false","restricted":"true","stats":{"checkinsCount":"133","usersCount":"81","tipCount":"0"},"specials":{"count":"0"},"hereNow":{"count":"0"},"referralId":"v-1392477962"},{"id":"4ae60730f964a5202ea421e3","name":"York & Albany","contact":{"phone":"+442073883344","formattedPhone":"+44 20 7388 3344"},"location":{"address":"127-129 Parkway","lat":"51.536098948918685","lng":"-0.1463627815246582","distance":"224","postalCode":"NW1 7PS","cc":"GB","city":"London","state":"Greater London","country":"United Kingdom"},"categories":[{"id":"4bf58dd8d48988d1fa931735","name":"Hotel","pluralName":"Hotels","shortName":"Hotel","icon":{"prefix":"https:\/\/ss1.4sqi.net\/img\/categories_v2\/travel\/hotel_","suffix":".png"},"primary":"true"}],"verified":"true","restricted":"true","stats":{"checkinsCount":"1479","usersCount":"1001","tipCount":"26"},"url":"http:\/\/www.gordonramsay.com\/yorkandalbany\/","reservations":{"url":"http:\/\/www.toptable.co.uk\/single.aspx?rid=80224&ref=9601"},"menu":{"type":"Menu","label":"Menu","anchor":"View Menu","url":"https:\/\/foursquare.com\/v\/york--albany\/4ae60730f964a5202ea421e3\/menu","mobileUrl":"https:\/\/foursquare.com\/v\/4ae60730f964a5202ea421e3\/device_menu"},"specials":{"count":"0"},"hereNow":{"count":"0"},"storeId":"","referralId":"v-1392477962"},{"id":"4dc03c2b81545e1cc7e006c2","name":"Gloucester Gate","location":{"address":"Regent's Park","lat":"51.53493624706267","lng":"-0.14852284156270776","distance":"87","cc":"GB","city":"Camden Town","state":"Greater London","country":"United Kingdom"},"categories":[{"id":"4bf58dd8d48988d163941735","name":"Park","pluralName":"Parks","shortName":"Park","icon":{"prefix":"https:\/\/ss1.4sqi.net\/img\/categories_v2\/parks_outdoors\/park_","suffix":".png"},"primary":"true"}],"verified":"false","restricted":"true","stats":{"checkinsCount":"353","usersCount":"184","tipCount":"0"},"specials":{"count":"0"},"hereNow":{"count":"0"},"referralId":"v-1392477962"},{"id":"4c4c8424bad7a5932fac60ad","name":"Yumchaa","contact":{"phone":"+442072099641","formattedPhone":"+44 20 7209 9641","twitter":"yumchaatea"},"location":{"address":"35-37 Parkway","crossStreet":"Arlington Rd","lat":"51.53823088164022","lng":"-0.14409393901286266","distance":"508","postalCode":"NW1 7PN","cc":"GB","city":"Camden Town","state":"Greater London","country":"United Kingdom"},"categories":[{"id":"4bf58dd8d48988d1dc931735","name":"Tea Room","pluralName":"Tea Rooms","shortName":"Tea Room","icon":{"prefix":"https:\/\/ss1.4sqi.net\/img\/categories_v2\/food\/tearoom_","suffix":".png"},"primary":"true"}],"verified":"true","restricted":"true","stats":{"checkinsCount":"1530","usersCount":"691","tipCount":"26"},"url":"http:\/\/www.yumchaa.com","specials":{"count":"0"},"hereNow":{"count":"1","groups":[{"type":"others","name":"Other people here","count":"1"}]},"storeId":"","referralId":"v-1392477962"},{"id":"4acf8d4bf964a52074d420e3","name":"Fitness First","contact":{"phone":"+448445712833","formattedPhone":"+44 844 571 2833"},"location":{"address":"128 Albert St.","lat":"51.53788632037995","lng":"-0.14466750413006899","distance":"455","postalCode":"NW1 7NE","cc":"GB","city":"Camden Town","state":"Greater London","country":"United Kingdom"},"categories":[{"id":"4bf58dd8d48988d176941735","name":"Gym","pluralName":"Gyms","shortName":"Gym","icon":{"prefix":"https:\/\/ss1.4sqi.net\/img\/categories_v2\/building\/gym_","suffix":".png"},"primary":"true"}],"verified":"true","restricted":"true","stats":{"checkinsCount":"1901","usersCount":"133","tipCount":"6"},"specials":{"count":"0"},"hereNow":{"count":"1","groups":[{"type":"others","name":"Other people here","count":"1"}]},"referralId":"v-1392477962"},{"id":"4e89b9cf9adf3c00aedc03e8","name":"Penguin Beach","contact":{"phone":"+448442251826","formattedPhone":"+44 844 225 1826","twitter":"zsllondonzoo"},"location":{"address":"at ZSL London Zoo","crossStreet":"Regent's Park","lat":"51.53573857492835","lng":"-0.1525425910949707","distance":"365","postalCode":"NW1 4RY","cc":"GB","city":"London","state":"Greater London","country":"United Kingdom"},"categories":[{"id":"4bf58dd8d48988d17b941735","name":"Zoo","pluralName":"Zoos","shortName":"Zoo","icon":{"prefix":"https:\/\/ss1.4sqi.net\/img\/categories_v2\/arts_entertainment\/zoo_","suffix":".png"},"primary":"true"}],"verified":"true","restricted":"true","stats":{"checkinsCount":"712","usersCount":"615","tipCount":"5"},"url":"http:\/\/www.zsl.org\/zsl-london-zoo\/","specials":{"count":"0"},"hereNow":{"count":"1","groups":[{"type":"others","name":"Other people here","count":"1"}]},"storeId":"","referralId":"v-1392477962"},{"id":"4b656205f964a52006ef2ae3","name":"The Danish Church","location":{"address":"4 St Katharine's Precinct","lat":"51.53376","lng":"-0.14656126499176025","distance":"104","postalCode":"NW1 4HH","cc":"GB","city":"London","state":"Greater London","country":"United Kingdom"},"categories":[{"id":"4bf58dd8d48988d132941735","name":"Church","pluralName":"Churches","shortName":"Church","icon":{"prefix":"https:\/\/ss1.4sqi.net\/img\/categories_v2\/building\/religious_church_","suffix":".png"},"primary":"true"}],"verified":"false","restricted":"true","stats":{"checkinsCount":"36","usersCount":"30","tipCount":"2"},"specials":{"count":"0"},"hereNow":{"count":"0"},"referralId":"v-1392477962"},{"id":"4b740ca9f964a52071c52de3","name":"Whole Foods Market","contact":{"phone":"+442074287575","formattedPhone":"+44 20 7428 7575"},"location":{"address":"49 Parkway","lat":"51.538013","lng":"-0.144575","distance":"470","postalCode":"NW1 7PN","cc":"GB","city":"Camden Town","state":"Greater London","country":"United Kingdom"},"categories":[{"id":"4bf58dd8d48988d118951735","name":"Grocery Store","pluralName":"Grocery Stores","shortName":"Grocery Store","icon":{"prefix":"https:\/\/ss1.4sqi.net\/img\/categories_v2\/shops\/food_grocery_","suffix":".png"},"primary":"true"}],"verified":"true","restricted":"true","stats":{"checkinsCount":"1393","usersCount":"545","tipCount":"12"},"url":"http:\/\/www.wholefoodsmarket.com","specials":{"count":"0"},"hereNow":{"count":"0"},"storeId":"CMD","referralId":"v-1392477962"},{"id":"514b6790e4b013dccc7af5cf","name":"York & Albany. (Gordon Ramsay)","location":{"address":"127-129 PARWAY","lat":"51.536111","lng":"-0.146523","distance":"221","cc":"GB","city":"London","state":"Greater London","country":"United Kingdom"},"categories":[{"id":"4bf58dd8d48988d109941735","name":"Eastern European Restaurant","pluralName":"Eastern European Restaurants","shortName":"Eastern European","icon":{"prefix":"https:\/\/ss1.4sqi.net\/img\/categories_v2\/food\/default_","suffix":".png"},"primary":"true"}],"verified":"false","restricted":"true","stats":{"checkinsCount":"138","usersCount":"114","tipCount":"6"},"specials":{"count":"0"},"hereNow":{"count":"0"},"referralId":"v-1392477962"},{"id":"4ad64b39f964a5205e0621e3","name":"Edinboro Castle","contact":{"phone":"+442072559651","formattedPhone":"+44 20 7255 9651"},"location":{"address":"57 Mornington Terrace","crossStreet":"at Delancy St","lat":"51.536311","lng":"-0.145003","distance":"297","postalCode":"NW1 7RU","cc":"GB","city":"London","state":"Greater London","country":"United Kingdom"},"categories":[{"id":"4bf58dd8d48988d11b941735","name":"Pub","pluralName":"Pubs","shortName":"Pub","icon":{"prefix":"https:\/\/ss1.4sqi.net\/img\/categories_v2\/nightlife\/pub_","suffix":".png"},"primary":"true"}],"verified":"false","restricted":"true","stats":{"checkinsCount":"3351","usersCount":"1927","tipCount":"39"},"url":"http:\/\/www.edinborocastlepub.co.uk","menu":{"type":"Menu","label":"Menu","anchor":"View Menu","url":"https:\/\/foursquare.com\/v\/edinboro-castle\/4ad64b39f964a5205e0621e3\/menu","mobileUrl":"https:\/\/foursquare.com\/v\/4ad64b39f964a5205e0621e3\/device_menu"},"specials":{"count":"0"},"hereNow":{"count":"0"},"referralId":"v-1392477962"},{"id":"4b6c2ba2f964a52078272ce3","name":"The Blues Kitchen","contact":{"phone":"+442073875277","formattedPhone":"+44 20 7387 5277","twitter":"theblueskitchen"},"location":{"address":"111-113 Camden High St.","lat":"51.53702322842432","lng":"-0.14121294021606445","distance":"548","postalCode":"NW1 7JN","cc":"GB","city":"Camden Town","state":"Greater London","country":"United Kingdom"},"categories":[{"id":"4bf58dd8d48988d121941735","name":"Lounge","pluralName":"Lounges","shortName":"Lounge","icon":{"prefix":"https:\/\/ss1.4sqi.net\/img\/categories_v2\/nightlife\/lounge_","suffix":".png"},"primary":"true"}],"verified":"false","restricted":"true","stats":{"checkinsCount":"3812","usersCount":"2695","tipCount":"73"},"url":"http:\/\/www.theblueskitchen.com","reservations":{"url":"http:\/\/www.toptable.co.uk\/single.aspx?rid=49255&ref=9601"},"menu":{"type":"Menu","label":"Menu","anchor":"View Menu","url":"https:\/\/foursquare.com\/v\/the-blues-kitchen\/4b6c2ba2f964a52078272ce3\/menu","mobileUrl":"https:\/\/foursquare.com\/v\/4b6c2ba2f964a52078272ce3\/device_menu"},"specials":{"count":"0"},"hereNow":{"count":"0"},"referralId":"v-1392477962"},{"id":"4acdaa40f964a52095cc20e3","name":"Mornington Crescent","location":{"address":"Hampstead Rd.","crossStreet":"Camden High St.","lat":"51.533576","lng":"-0.140591","distance":"505","postalCode":"NW1","cc":"GB","city":"Camden","state":"Greater London","country":"United Kingdom"},"categories":[{"id":"4f2a25ac4b909258e854f55f","name":"Neighborhood","pluralName":"Neighborhoods","shortName":"Neighborhood","icon":{"prefix":"https:\/\/ss1.4sqi.net\/img\/categories_v2\/parks_outdoors\/neighborhood_","suffix":".png"},"primary":"true"}],"verified":"false","restricted":"true","stats":{"checkinsCount":"2337","usersCount":"362","tipCount":"8"},"specials":{"count":"0"},"hereNow":{"count":"0"},"referralId":"v-1392477962"},{"id":"4c3cf0397d002d7f2d25af18","name":"Regents Park Barracks","location":{"lat":"51.5323555266526","lng":"-0.14532538048943536","distance":"275","cc":"GB","country":"United Kingdom"},"categories":[{"id":"4e52adeebd41615f56317744","name":"Military Base","pluralName":"Military Bases","shortName":"Military Base","icon":{"prefix":"https:\/\/ss1.4sqi.net\/img\/categories_v2\/building\/militarybase_","suffix":".png"},"primary":"true"}],"verified":"false","restricted":"true","stats":{"checkinsCount":"427","usersCount":"92","tipCount":"1"},"specials":{"count":"0"},"hereNow":{"count":"0"},"referralId":"v-1392477962"},{"id":"4b635acaf964a52011742ae3","name":"McDonald's","contact":{"phone":"+442072677570","formattedPhone":"+44 20 7267 7570"},"location":{"address":"112 Camden High St.","lat":"51.53757692517905","lng":"-0.1415092448606975","distance":"569","postalCode":"NW1 0LU","cc":"GB","city":"Camden","state":"Greater London","country":"United Kingdom"},"categories":[{"id":"4bf58dd8d48988d16e941735","name":"Fast Food Restaurant","pluralName":"Fast Food Restaurants","shortName":"Fast Food","icon":{"prefix":"https:\/\/ss1.4sqi.net\/img\/categories_v2\/food\/fastfood_","suffix":".png"},"primary":"true"}],"verified":"false","restricted":"true","stats":{"checkinsCount":"976","usersCount":"642","tipCount":"11"},"specials":{"count":"0"},"hereNow":{"count":"1","groups":[{"type":"others","name":"Other people here","count":"1"}]},"referralId":"v-1392477962"},{"id":"4ae45c61f964a520239a21e3","name":"The Earl of Camden","location":{"address":"55 parkway","lat":"51.53774061654683","lng":"-0.1448822021484375","distance":"434","cc":"GB","city":"London","state":"Greater London","country":"United Kingdom"},"categories":[{"id":"4bf58dd8d48988d11b941735","name":"Pub","pluralName":"Pubs","shortName":"Pub","icon":{"prefix":"https:\/\/ss1.4sqi.net\/img\/categories_v2\/nightlife\/pub_","suffix":".png"},"primary":"true"}],"verified":"false","restricted":"true","stats":{"checkinsCount":"1816","usersCount":"1232","tipCount":"27"},"menu":{"type":"Menu","label":"Menu","anchor":"View Menu","url":"https:\/\/foursquare.com\/v\/the-earl-of-camden-london-uk\/4ae45c61f964a520239a21e3\/menu","mobileUrl":"https:\/\/foursquare.com\/v\/4ae45c61f964a520239a21e3\/device_menu"},"specials":{"count":"0"},"hereNow":{"count":"0"},"referralId":"v-1392477962"},{"id":"52d14c4b498ef56438a98c3b","name":"Tfl Barclays Cycle Hire","location":{"lat":"51.535754","lng":"-0.148621","distance":"172","cc":"GB","country":"United Kingdom"},"categories":[{"id":"4bf58dd8d48988d162941735","name":"Other Great Outdoors","pluralName":"Other Great Outdoors","shortName":"Other Outdoors","icon":{"prefix":"https:\/\/ss1.4sqi.net\/img\/categories_v2\/parks_outdoors\/outdoors_","suffix":".png"},"primary":"true"}],"verified":"false","restricted":"true","stats":{"checkinsCount":"2","usersCount":"1","tipCount":"0"},"specials":{"count":"0"},"hereNow":{"count":"0"},"referralId":"v-1392477962"},{"id":"4ac518e6f964a52013ab20e3","name":"Green Note","contact":{"phone":"+442074859899","formattedPhone":"+44 20 7485 9899","twitter":"greennote"},"location":{"address":"106 Parkway","crossStreet":"near Delancey St.","lat":"51.537184","lng":"-0.145849","distance":"349","postalCode":"NW1 7AN","cc":"GB","city":"Camden","state":"Greater London","country":"United Kingdom"},"categories":[{"id":"4bf58dd8d48988d1d3941735","name":"Vegetarian \/ Vegan Restaurant","pluralName":"Vegetarian \/ Vegan Restaurants","shortName":"Vegetarian \/ Vegan","icon":{"prefix":"https:\/\/ss1.4sqi.net\/img\/categories_v2\/food\/vegetarian_","suffix":".png"},"primary":"true"}],"verified":"false","restricted":"true","stats":{"checkinsCount":"305","usersCount":"240","tipCount":"4"},"url":"http:\/\/www.greennote.co.uk","specials":{"count":"0"},"events":{"count":"1","summary":".the Valentine's Greek Twister","items":[{"id":"52d73e39498e3fe3a4113795","name":".the Valentine's Greek Twister","categories":[{"id":"4e0a4b91bd41eda0d6092f89","name":"Concert","pluralName":"Concerts","shortName":"Concert","icon":{"prefix":"https:\/\/ss1.4sqi.net\/img\/categories_v2\/arts_entertainment\/musicvenue_","suffix":".png"},"primary":"true"}],"allDay":"true","date":"1392440400","timeZone":"Europe\/London","text":"","url":"http:\/\/www.songkick.com\/concerts\/19210784-valentines-greek-twister-at-green-note?utm_source=4436&utm_medium=partner","provider":{"name":"songkick","iconUrl":{"prefix":"https:\/\/playfoursquare.s3.amazonaws.com\/events\/images\/partners\/sk\/","sizes":["20","40"],"name":"\/logo.png"},"urlText":"more info"},"stats":{"checkinsCount":"0","usersCount":"0"}}]},"hereNow":{"count":"0"},"referralId":"v-1392477962"},{"id":"4b2280f5f964a520ea4724e3","name":"Greater London House","location":{"address":"Hampstead Rd.","crossStreet":"at Mornington Cr.","lat":"51.533549575316705","lng":"-0.13968944549560547","distance":"567","postalCode":"NW1 7EJ","cc":"GB","city":"Camden","state":"Greater London","country":"United Kingdom"},"categories":[{"id":"4bf58dd8d48988d124941735","name":"Office","pluralName":"Offices","shortName":"Office","icon":{"prefix":"https:\/\/ss1.4sqi.net\/img\/categories_v2\/building\/default_","suffix":".png"},"primary":"true"}],"verified":"false","restricted":"true","stats":{"checkinsCount":"1593","usersCount":"301","tipCount":"4"},"specials":{"count":"0"},"hereNow":{"count":"0"},"referralId":"v-1392477962"},{"id":"507cf704e4b0277b93edb8e7","name":"The Coffee Jar","location":{"address":"83 Parkway","lat":"51.5373602354157","lng":"-0.14537572860717773","distance":"380","postalCode":"NW1 7PP","cc":"GB","city":"London","state":"Greater London","country":"United Kingdom"},"categories":[{"id":"4bf58dd8d48988d1e0931735","name":"Coffee Shop","pluralName":"Coffee Shops","shortName":"Coffee Shop","icon":{"prefix":"https:\/\/ss1.4sqi.net\/img\/categories_v2\/food\/coffeeshop_","suffix":".png"},"primary":"true"}],"verified":"false","restricted":"true","stats":{"checkinsCount":"279","usersCount":"106","tipCount":"12"},"specials":{"count":"0"},"hereNow":{"count":"0"},"referralId":"v-1392477962"},{"id":"4ac518c9f964a520a9a520e3","name":"Dublin Castle","contact":{"phone":"+442074851773","formattedPhone":"+44 20 7485 1773"},"location":{"address":"94 Parkway","lat":"51.53743851323713","lng":"-0.14552110368917315","distance":"384","postalCode":"NW1 7AN","cc":"GB","city":"London","state":"Greater London","country":"United Kingdom"},"categories":[{"id":"4bf58dd8d48988d1e5931735","name":"Music Venue","pluralName":"Music Venues","shortName":"Music Venue","icon":{"prefix":"https:\/\/ss1.4sqi.net\/img\/categories_v2\/arts_entertainment\/musicvenue_","suffix":".png"},"primary":"true"}],"verified":"false","restricted":"true","stats":{"checkinsCount":"1559","usersCount":"1027","tipCount":"19"},"specials":{"count":"0"},"events":{"count":"1","summary":"Lem & the White Fire","items":[{"id":"52c4c88f498ec229bc9e015e","name":"Lem & the White Fire","categories":[{"id":"4e0a4b91bd41eda0d6092f89","name":"Concert","pluralName":"Concerts","shortName":"Concert","icon":{"prefix":"https:\/\/ss1.4sqi.net\/img\/categories_v2\/arts_entertainment\/musicvenue_","suffix":".png"},"primary":"true"}],"allDay":"true","date":"1392440400","timeZone":"Europe\/London","text":"","url":"http:\/\/www.songkick.com\/concerts\/19072259-lem-and-the-white-fire-at-dublin-castle?utm_source=4436&utm_medium=partner","provider":{"name":"songkick","iconUrl":{"prefix":"https:\/\/playfoursquare.s3.amazonaws.com\/events\/images\/partners\/sk\/","sizes":["20","40"],"name":"\/logo.png"},"urlText":"more info"},"stats":{"checkinsCount":"0","usersCount":"0"}}]},"hereNow":{"count":"0"},"referralId":"v-1392477962"},{"id":"4ad8c4b1f964a5207c1421e3","name":"The Spread Eagle","contact":{"phone":"+442072671410","formattedPhone":"+44 20 7267 1410","twitter":"spreadeaglenw1"},"location":{"address":"141 Albert St.","crossStreet":"Parkway","lat":"51.537743","lng":"-0.144732","distance":"439","postalCode":"NW1 7NB","cc":"GB","city":"Camden","state":"Greater London","country":"United Kingdom"},"categories":[{"id":"4bf58dd8d48988d11b941735","name":"Pub","pluralName":"Pubs","shortName":"Pub","icon":{"prefix":"https:\/\/ss1.4sqi.net\/img\/categories_v2\/nightlife\/pub_","suffix":".png"},"primary":"true"}],"verified":"true","restricted":"true","stats":{"checkinsCount":"1256","usersCount":"789","tipCount":"15"},"specials":{"count":"0"},"hereNow":{"count":"0"},"storeId":"","referralId":"v-1392477962"},{"id":"51f8cddd498e61f88ee861b7","name":"Regent's Park Broadwalk","location":{"lat":"51.53620303692795","lng":"-0.1519295297419898","distance":"356","cc":"GB","country":"United Kingdom"},"categories":[{"id":"4bf58dd8d48988d163941735","name":"Park","pluralName":"Parks","shortName":"Park","icon":{"prefix":"https:\/\/ss1.4sqi.net\/img\/categories_v2\/parks_outdoors\/park_","suffix":".png"},"primary":"true"}],"verified":"false","restricted":"true","stats":{"checkinsCount":"69","usersCount":"60","tipCount":"0"},"specials":{"count":"0"},"hereNow":{"count":"0"},"referralId":"v-1392477962"},{"id":"4b65bbf9f964a52072fc2ae3","name":"Marks & Spencer","contact":{"phone":"+442072676055","formattedPhone":"+44 20 7267 6055"},"location":{"address":"143-149 Camden High St.","lat":"51.53799256888557","lng":"-0.1418857264387377","distance":"581","postalCode":"NW1 7JX","cc":"GB","city":"Camden","state":"Greater London","country":"United Kingdom"},"categories":[{"id":"4bf58dd8d48988d118951735","name":"Grocery Store","pluralName":"Grocery Stores","shortName":"Grocery Store","icon":{"prefix":"https:\/\/ss1.4sqi.net\/img\/categories_v2\/shops\/food_grocery_","suffix":".png"},"primary":"true"}],"verified":"true","restricted":"true","stats":{"checkinsCount":"1802","usersCount":"388","tipCount":"4"},"specials":{"count":"0"},"hereNow":{"count":"0"},"storeId":"Camden Town","referralId":"v-1392477962"},{"id":"4bb45f2d9af3b7135e328c28","name":"Wonga.com","location":{"lat":"51.53687015802576","lng":"-0.14800782090588185","distance":"287","cc":"GB","country":"United Kingdom"},"categories":[{"id":"4bf58dd8d48988d125941735","name":"Tech Startup","pluralName":"Tech Startups","shortName":"Tech Startup","icon":{"prefix":"https:\/\/ss1.4sqi.net\/img\/categories_v2\/shops\/technology_","suffix":".png"},"primary":"true"}],"verified":"false","restricted":"true","stats":{"checkinsCount":"823","usersCount":"44","tipCount":"0"},"specials":{"count":"0"},"hereNow":{"count":"0"},"referralId":"v-1392477962"},{"id":"4ac518baf964a520f8a120e3","name":"Black Cap","contact":{"phone":"+442074850538","formattedPhone":"+44 20 7485 0538","twitter":"blackcap_camden"},"location":{"address":"171 Camden High St","lat":"51.53847473415317","lng":"-0.14243399843681995","distance":"596","postalCode":"NW1 7JY","cc":"GB","city":"Camden Town","state":"Greater London","country":"United Kingdom"},"categories":[{"id":"4bf58dd8d48988d1d8941735","name":"Gay Bar","pluralName":"Gay Bars","shortName":"Gay Bar","icon":{"prefix":"https:\/\/ss1.4sqi.net\/img\/categories_v2\/nightlife\/gaybar_","suffix":".png"},"primary":"true"}],"verified":"false","restricted":"true","stats":{"checkinsCount":"1238","usersCount":"680","tipCount":"12"},"url":"http:\/\/www.theblackcap.com","menu":{"type":"Menu","label":"Menu","anchor":"View Menu","url":"https:\/\/foursquare.com\/v\/black-cap\/4ac518baf964a520f8a120e3\/menu","mobileUrl":"https:\/\/foursquare.com\/v\/4ac518baf964a520f8a120e3\/device_menu"},"specials":{"count":"0"},"hereNow":{"count":"0"},"referralId":"v-1392477962"},{"id":"4ca48b79b0ff8cfa1881c05e","name":"BentoRamen","contact":{"phone":"+442074859933","formattedPhone":"+44 20 7485 9933"},"location":{"address":"29-31 Parkway","lat":"51.53838012861115","lng":"-0.14401448018438742","distance":"525","postalCode":"NW1 7PN","cc":"GB","city":"Camden","state":"Greater London","country":"United Kingdom"},"categories":[{"id":"4bf58dd8d48988d1d1941735","name":"Ramen \/ Noodle House","pluralName":"Ramen \/ Noodle House","shortName":"Ramen \/ Noodles","icon":{"prefix":"https:\/\/ss1.4sqi.net\/img\/categories_v2\/food\/ramen_","suffix":".png"},"primary":"true"}],"verified":"false","restricted":"true","stats":{"checkinsCount":"707","usersCount":"398","tipCount":"20"},"menu":{"type":"Menu","label":"Menu","anchor":"View Menu","url":"https:\/\/foursquare.com\/v\/bentoramen\/4ca48b79b0ff8cfa1881c05e\/menu","mobileUrl":"https:\/\/foursquare.com\/v\/4ca48b79b0ff8cfa1881c05e\/device_menu"},"specials":{"count":"0"},"hereNow":{"count":"0"},"referralId":"v-1392477962"},{"id":"4b4374c2f964a520c0e025e3","name":"Sheephaven Bay","contact":{"phone":"+442073801323","formattedPhone":"+44 20 7380 1323"},"location":{"address":"2 Mornington St.","crossStreet":"at Arlington Rd.","lat":"51.535081","lng":"-0.1416374","distance":"435","postalCode":"NW1 7QD","cc":"GB","city":"Camden","state":"Greater London","country":"United Kingdom"},"categories":[{"id":"4bf58dd8d48988d11b941735","name":"Pub","pluralName":"Pubs","shortName":"Pub","icon":{"prefix":"https:\/\/ss1.4sqi.net\/img\/categories_v2\/nightlife\/pub_","suffix":".png"},"primary":"true"}],"verified":"false","restricted":"true","stats":{"checkinsCount":"530","usersCount":"215","tipCount":"7"},"specials":{"count":"0"},"hereNow":{"count":"0"},"referralId":"v-1392477962"},{"id":"4bbc43ee51b89c74fc3d872a","name":"EAT.","contact":{"phone":"+442076368378","formattedPhone":"+44 20 7636 8378","twitter":"eat_news"},"location":{"address":"185 Camden High St.","crossStreet":"at Parkway","lat":"51.538568101360575","lng":"-0.1426076889038086","distance":"596","postalCode":"NW1 7JY","cc":"GB","city":"Camden","state":"Greater London","country":"United Kingdom"},"categories":[{"id":"4bf58dd8d48988d1c5941735","name":"Sandwich Place","pluralName":"Sandwich Places","shortName":"Sandwiches","icon":{"prefix":"https:\/\/ss1.4sqi.net\/img\/categories_v2\/food\/sandwiches_","suffix":".png"},"primary":"true"}],"verified":"true","restricted":"true","stats":{"checkinsCount":"734","usersCount":"296","tipCount":"2"},"url":"http:\/\/www.eat.co.uk","specials":{"count":"0"},"hereNow":{"count":"0"},"storeId":"EAT - Camden","referralId":"v-1392477962"},{"id":"52592595498ece2251ec7a5f","name":"Falla and Mocaer Caf\u00e8","location":{"lat":"51.537576","lng":"-0.145237","distance":"406","cc":"GB","country":"United Kingdom"},"categories":[{"id":"4bf58dd8d48988d16d941735","name":"Caf\u00e9","pluralName":"Caf\u00e9s","shortName":"Caf\u00e9","icon":{"prefix":"https:\/\/ss1.4sqi.net\/img\/categories_v2\/food\/cafe_","suffix":".png"},"primary":"true"}],"verified":"false","restricted":"true","stats":{"checkinsCount":"21","usersCount":"17","tipCount":"2"},"specials":{"count":"0"},"hereNow":{"count":"0"},"referralId":"v-1392477962"}],"confident":"false"}}