{"meta":{"code":"200"},"response":{"venues":[{"id":"4addf279f964a520a16621e3","name":"Patisserie Valerie","contact":{"phone":"+442072474906","formattedPhone":"+44 20 7247 4906"},"location":{"address":"37 Brushfield St","lat":"51.51908485027928","lng":"-0.07782161235809326","distance":"22","postalCode":"E1 6AA","cc":"GB","city":"Spitalfields","state":"Greater London","country":"United Kingdom"},"categories":[{"id":"4bf58dd8d48988d16a941735","name":"Bakery","pluralName":"Bakeries","shortName":"Bakery","icon":{"prefix":"https:\/\/ss1.4sqi.net\/img\/categories_v2\/food\/bakery_","suffix":".png"},"primary":"true"}],"verified":"false","restricted":"true","stats":{"checkinsCount":"1793","usersCount":"1336","tipCount":"37"},"specials":{"count":"0"},"hereNow":{"count":"1","groups":[{"type":"others","name":"Other people here","count":"1"}]},"referralId":"v-1392478008"},{"id":"4ace6b37f964a52076d020e3","name":"Spitalfields","contact":{"twitter":"spitalfieldse1"},"location":{"address":"Crispin Place","lat":"51.51961225598922","lng":"-0.0764322280883789","distance":"101","postalCode":"E1 6AA","cc":"GB","city":"Spitalfields","state":"Greater London","country":"United Kingdom"},"categories":[{"id":"4f2a25ac4b909258e854f55f","name":"Neighborhood","pluralName":"Neighborhoods","shortName":"Neighborhood","icon":{"prefix":"https:\/\/ss1.4sqi.net\/img\/categories_v2\/parks_outdoors\/neighborhood_","suffix":".png"},"primary":"true"}],"verified":"true","restricted":"true","stats":{"checkinsCount":"6178","usersCount":"3199","tipCount":"38"},"url":"http:\/\/www.spitalfields.co.uk","specials":{"count":"0"},"hereNow":{"count":"0"},"venuePage":{"id":"72939343"},"storeId":"","referralId":"v-1392478008"},{"id":"4bbdb292f57ba5934051aeb9","name":"Spitalfields Arts Market","contact":{"twitter":"spitalfieldse1"},"location":{"address":"Market St.","crossStreet":"Brushfield St.","lat":"51.51958555204942","lng":"-0.076904296875","distance":"70","postalCode":"E1 6AA","cc":"GB","city":"Spitalfields","state":"Greater London","country":"United Kingdom"},"categories":[{"id":"4bf58dd8d48988d1e2931735","name":"Art Gallery","pluralName":"Art Galleries","shortName":"Art Gallery","icon":{"prefix":"https:\/\/ss1.4sqi.net\/img\/categories_v2\/arts_entertainment\/artgallery_","suffix":".png"},"primary":"true"}],"verified":"false","restricted":"true","stats":{"checkinsCount":"1262","usersCount":"1022","tipCount":"9"},"specials":{"count":"0"},"hereNow":{"count":"1","groups":[{"type":"others","name":"Other people here","count":"1"}]},"referralId":"v-1392478008"},{"id":"4d9722a3a2c65481086dd053","name":"Costa Coffee","location":{"address":"Units 4 and 5, 250 Bishopsgate","crossStreet":"Spitalfields","lat":"51.51920932517093","lng":"-0.07791539467767437","distance":"11","postalCode":"EC2M 4AA","cc":"GB","city":"London","state":"Greater London","country":"United Kingdom"},"categories":[{"id":"4bf58dd8d48988d1e0931735","name":"Coffee Shop","pluralName":"Coffee Shops","shortName":"Coffee Shop","icon":{"prefix":"https:\/\/ss1.4sqi.net\/img\/categories_v2\/food\/coffeeshop_","suffix":".png"},"primary":"true"}],"verified":"false","restricted":"true","stats":{"checkinsCount":"722","usersCount":"376","tipCount":"4"},"specials":{"count":"0"},"hereNow":{"count":"0"},"referralId":"v-1392478008"},{"id":"4b4736b7f964a520ee2c26e3","name":"Kathmandu","location":{"address":"Spitalfields","lat":"51.51923839940733","lng":"-0.07771968841552734","distance":"8","cc":"GB","city":"London","state":"Greater London","country":"United Kingdom"},"categories":[{"id":"4bf58dd8d48988d1f2941735","name":"Sporting Goods Shop","pluralName":"Sporting Goods Shops","shortName":"Sporting Goods","icon":{"prefix":"https:\/\/ss1.4sqi.net\/img\/categories_v2\/shops\/sports_outdoors_","suffix":".png"},"primary":"true"}],"verified":"false","restricted":"true","stats":{"checkinsCount":"30","usersCount":"27","tipCount":"1"},"specials":{"count":"0"},"hereNow":{"count":"1","groups":[{"type":"others","name":"Other people here","count":"1"}]},"referralId":"v-1392478008"},{"id":"4d5d0b9a9ac9a093e2bd7694","name":"Bishops Square","location":{"address":"10 Bishops Sq.","lat":"51.51961495398883","lng":"-0.07801267757499958","distance":"39","postalCode":"E1 6EG","cc":"GB","city":"Spitalfields","state":"Greater London","country":"United Kingdom"},"categories":[{"id":"4bf58dd8d48988d124941735","name":"Office","pluralName":"Offices","shortName":"Office","icon":{"prefix":"https:\/\/ss1.4sqi.net\/img\/categories_v2\/building\/default_","suffix":".png"},"primary":"true"}],"verified":"false","restricted":"true","stats":{"checkinsCount":"1026","usersCount":"305","tipCount":"1"},"specials":{"count":"0"},"hereNow":{"count":"1","groups":[{"type":"others","name":"Other people here","count":"1"}]},"referralId":"v-1392478008"},{"id":"4e01ea4788776240d3f64f64","name":"The Goat In The Square","location":{"address":"Spital Square","lat":"51.51916350131367","lng":"-0.07807574927416064","distance":"23","postalCode":"E1","cc":"GB","city":"Poplar","state":"Greater London","country":"United Kingdom"},"categories":[{"id":"52e81612bcbc57f1066b79ed","name":"Outdoor Sculpture","pluralName":"Outdoor Sculptures","shortName":"Outdoor Sculpture","icon":{"prefix":"https:\/\/ss1.4sqi.net\/img\/categories_v2\/parks_outdoors\/sculpture_","suffix":".png"},"primary":"true"}],"verified":"false","restricted":"true","stats":{"checkinsCount":"1182","usersCount":"423","tipCount":"4"},"specials":{"count":"0"},"hereNow":{"count":"0"},"referralId":"v-1392478008"},{"id":"4ad3149bf964a5200ee320e3","name":"Starbucks","contact":{"twitter":"starbucksuk"},"location":{"address":"8-10 Brushfield Street,","crossStreet":"At Bishopsgate","lat":"51.51887121584861","lng":"-0.0784599781036377","distance":"65","postalCode":"E1 6AN","cc":"GB","city":"London","state":"Greater London","country":"United Kingdom"},"categories":[{"id":"4bf58dd8d48988d1e0931735","name":"Coffee Shop","pluralName":"Coffee Shops","shortName":"Coffee Shop","icon":{"prefix":"https:\/\/ss1.4sqi.net\/img\/categories_v2\/food\/coffeeshop_","suffix":".png"},"primary":"true"}],"verified":"true","restricted":"true","stats":{"checkinsCount":"2837","usersCount":"1370","tipCount":"24"},"url":"http:\/\/starbucks.co.uk","specials":{"count":"0"},"hereNow":{"count":"0"},"storeId":"12212","referralId":"v-1392478008"},{"id":"4dff37b03151de6d93128e52","name":"Pret A Manger","contact":{"phone":"+442079325442","formattedPhone":"+44 20 7932 5442","twitter":"pret","facebook":"162638680417951"},"location":{"address":"Ground Floor, 280 Bishops Square","lat":"51.51965231186954","lng":"-0.07770895957946777","distance":"40","postalCode":"EC2M 4RB","cc":"GB","city":"Spitalfields","state":"Greater London","country":"United Kingdom"},"categories":[{"id":"4bf58dd8d48988d1c5941735","name":"Sandwich Place","pluralName":"Sandwich Places","shortName":"Sandwiches","icon":{"prefix":"https:\/\/ss1.4sqi.net\/img\/categories_v2\/food\/sandwiches_","suffix":".png"},"primary":"true"}],"verified":"true","restricted":"true","stats":{"checkinsCount":"641","usersCount":"245","tipCount":"3"},"url":"http:\/\/www.pret.com","specials":{"count":"0"},"hereNow":{"count":"0"},"storeId":"239","referralId":"v-1392478008"},{"id":"519b5f9d498e20ec73236457","name":"Peloton & Co","contact":{"phone":"+442071835530","formattedPhone":"+44 20 7183 5530","twitter":"peletonco"},"location":{"address":"4 Market St","crossStreet":"Old Spitalfields Market","lat":"51.51918917666649","lng":"-0.07726095896487475","distance":"39","postalCode":"E1 6DT","cc":"GB","city":"Spitalfields","state":"Greater London","country":"United Kingdom"},"categories":[{"id":"4bf58dd8d48988d1e0931735","name":"Coffee Shop","pluralName":"Coffee Shops","shortName":"Coffee Shop","icon":{"prefix":"https:\/\/ss1.4sqi.net\/img\/categories_v2\/food\/coffeeshop_","suffix":".png"},"primary":"true"}],"verified":"false","restricted":"true","stats":{"checkinsCount":"161","usersCount":"121","tipCount":"8"},"url":"http:\/\/www.pelotonco.cc","specials":{"count":"0"},"hereNow":{"count":"1","groups":[{"type":"others","name":"Other people here","count":"1"}]},"referralId":"v-1392478008"},{"id":"4d121df312916dcbd766d38a","name":"EAT.","contact":{"phone":"+442076368369","formattedPhone":"+44 20 7636 8369","twitter":"eat_news"},"location":{"address":"34 Brushfield Street","lat":"51.51923102279833","lng":"-0.0776512321577526","distance":"12","postalCode":"E1 6AT","cc":"GB","city":"London","state":"Greater London","country":"United Kingdom"},"categories":[{"id":"4bf58dd8d48988d1c5941735","name":"Sandwich Place","pluralName":"Sandwich Places","shortName":"Sandwiches","icon":{"prefix":"https:\/\/ss1.4sqi.net\/img\/categories_v2\/food\/sandwiches_","suffix":".png"},"primary":"true"}],"verified":"true","restricted":"true","stats":{"checkinsCount":"216","usersCount":"85","tipCount":"3"},"url":"http:\/\/www.eat.co.uk","specials":{"count":"0"},"hereNow":{"count":"0"},"storeId":"EAT - Brushfiled","referralId":"v-1392478008"},{"id":"4ace0e07f964a52018ce20e3","name":"Pilpel Falafel","contact":{"phone":"+442072470146","formattedPhone":"+44 20 7247 0146"},"location":{"address":"38 Brushfield St.","lat":"51.518944652797195","lng":"-0.078277587890625","distance":"50","postalCode":"E1 6AT","cc":"GB","city":"London","state":"Greater London","country":"United Kingdom"},"categories":[{"id":"4bf58dd8d48988d10b941735","name":"Falafel Restaurant","pluralName":"Falafel Restaurants","shortName":"Falafel","icon":{"prefix":"https:\/\/ss1.4sqi.net\/img\/categories_v2\/food\/falafel_","suffix":".png"},"primary":"true"}],"verified":"false","restricted":"true","stats":{"checkinsCount":"1165","usersCount":"410","tipCount":"21"},"specials":{"count":"0"},"hereNow":{"count":"0"},"referralId":"v-1392478008"},{"id":"50a56069d86c0f29e75dd16f","name":"Chilango","contact":{"twitter":"chilango_uk"},"location":{"address":"32 Brushfield St","lat":"51.518958004956936","lng":"-0.07732272148132324","distance":"49","postalCode":"E1 6AT","cc":"GB","city":"Spitalfields","state":"Greater London","country":"United Kingdom"},"categories":[{"id":"4bf58dd8d48988d1c1941735","name":"Mexican Restaurant","pluralName":"Mexican Restaurants","shortName":"Mexican","icon":{"prefix":"https:\/\/ss1.4sqi.net\/img\/categories_v2\/food\/mexican_","suffix":".png"},"primary":"true"}],"verified":"false","restricted":"true","stats":{"checkinsCount":"542","usersCount":"215","tipCount":"2"},"specials":{"count":"0"},"hereNow":{"count":"0"},"referralId":"v-1392478008"},{"id":"4df9e42b814dd54fabe8c42c","name":"Bishopsgate Kitchen","location":{"address":"Brushfield Street","crossStreet":"Bishopsgate Street","lat":"51.51889124411907","lng":"-0.07859945297241211","distance":"70","postalCode":"E1 6AN","cc":"GB","city":"London","state":"Greater London","country":"United Kingdom"},"categories":[{"id":"4bf58dd8d48988d1c4941735","name":"Restaurant","pluralName":"Restaurants","shortName":"Restaurant","icon":{"prefix":"https:\/\/ss1.4sqi.net\/img\/categories_v2\/food\/default_","suffix":".png"},"primary":"true"}],"verified":"false","restricted":"true","stats":{"checkinsCount":"767","usersCount":"587","tipCount":"16"},"menu":{"type":"Menu","label":"Menu","anchor":"View Menu","url":"https:\/\/foursquare.com\/v\/bishopsgate-kitchen\/4df9e42b814dd54fabe8c42c\/menu","mobileUrl":"https:\/\/foursquare.com\/v\/4df9e42b814dd54fabe8c42c\/device_menu"},"specials":{"count":"0"},"hereNow":{"count":"0"},"referralId":"v-1392478008"},{"id":"4ff42e1be4b0cdc6b6f91635","name":"Pho","contact":{"phone":"+442073776436","formattedPhone":"+44 20 7377 6436"},"location":{"address":"48 Brushfield St.","lat":"51.519287093564614","lng":"-0.07665890867662586","distance":"79","postalCode":"E1 6AG","cc":"GB","city":"London","state":"Greater London","country":"United Kingdom"},"categories":[{"id":"4bf58dd8d48988d14a941735","name":"Vietnamese Restaurant","pluralName":"Vietnamese Restaurants","shortName":"Vietnamese","icon":{"prefix":"https:\/\/ss1.4sqi.net\/img\/categories_v2\/food\/default_","suffix":".png"},"primary":"true"}],"verified":"false","restricted":"true","stats":{"checkinsCount":"780","usersCount":"528","tipCount":"18"},"specials":{"count":"0"},"hereNow":{"count":"1","groups":[{"type":"others","name":"Other people here","count":"1"}]},"referralId":"v-1392478008"},{"id":"4c16974ba81db71341b185e7","name":"Royal Bank of Scotland","location":{"address":"250 Bishopsgate","lat":"51.51921903890383","lng":"-0.07886089332143383","distance":"73","postalCode":"EC2M 4AA","cc":"GB","city":"London","state":"Greater London","country":"United Kingdom"},"categories":[{"id":"4bf58dd8d48988d124941735","name":"Office","pluralName":"Offices","shortName":"Office","icon":{"prefix":"https:\/\/ss1.4sqi.net\/img\/categories_v2\/building\/default_","suffix":".png"},"primary":"true"}],"verified":"false","restricted":"true","stats":{"checkinsCount":"1558","usersCount":"276","tipCount":"2"},"specials":{"count":"0"},"hereNow":{"count":"0"},"referralId":"v-1392478008"},{"id":"4b6dfa98f964a520c5a02ce3","name":"Be At One","contact":{"phone":"+442073771238","formattedPhone":"+44 20 7377 1238","twitter":"beatonebar"},"location":{"address":"16-18 Brushfield St","crossStreet":"at Fort St","lat":"51.51887789193975","lng":"-0.07825613021850586","distance":"55","postalCode":"E1 6AN","cc":"GB","city":"London","state":"Greater London","country":"United Kingdom"},"categories":[{"id":"4bf58dd8d48988d11e941735","name":"Cocktail Bar","pluralName":"Cocktail Bars","shortName":"Cocktail","icon":{"prefix":"https:\/\/ss1.4sqi.net\/img\/categories_v2\/nightlife\/cocktails_","suffix":".png"},"primary":"true"}],"verified":"false","restricted":"true","stats":{"checkinsCount":"1116","usersCount":"782","tipCount":"24"},"url":"http:\/\/www.beatone.co.uk\/bars\/be-at-one-spitalfields","specials":{"count":"0"},"hereNow":{"count":"0"},"referralId":"v-1392478008"},{"id":"5072046e19a99ceb31adf62a","name":"Byron","contact":{"phone":"+442073771222","formattedPhone":"+44 20 7377 1222","twitter":"byronhamburgers"},"location":{"address":"3-6 Steward St","lat":"51.51880445488354","lng":"-0.07749438285827637","distance":"58","postalCode":"E1 6FQ","cc":"GB","city":"Spitalfields","state":"Greater London","country":"United Kingdom"},"categories":[{"id":"4bf58dd8d48988d16c941735","name":"Burger Joint","pluralName":"Burger Joints","shortName":"Burgers","icon":{"prefix":"https:\/\/ss1.4sqi.net\/img\/categories_v2\/food\/burger_","suffix":".png"},"primary":"true"}],"verified":"true","restricted":"true","stats":{"checkinsCount":"697","usersCount":"449","tipCount":"5"},"specials":{"count":"0"},"hereNow":{"count":"0"},"storeId":"","referralId":"v-1392478008"},{"id":"4cd147f17b6854817f03c6f8","name":"I Goat","contact":{"twitter":"spitalfieldse1"},"location":{"address":"Brushfield Street","lat":"51.519237","lng":"-0.077981","distance":"13","postalCode":"E1 6AA","cc":"GB","city":"London","state":"Greater London","country":"United Kingdom"},"categories":[{"id":"4bf58dd8d48988d1e2931735","name":"Art Gallery","pluralName":"Art Galleries","shortName":"Art Gallery","icon":{"prefix":"https:\/\/ss1.4sqi.net\/img\/categories_v2\/arts_entertainment\/artgallery_","suffix":".png"},"primary":"true"}],"verified":"false","restricted":"true","stats":{"checkinsCount":"33","usersCount":"12","tipCount":"0"},"specials":{"count":"0"},"hereNow":{"count":"0"},"referralId":"v-1392478008"},{"id":"4b8fd3f5f964a5204c6433e3","name":"Allen & Overy","location":{"address":"One Bishops Square","lat":"51.51962560795322","lng":"-0.0774836540222168","distance":"43","cc":"GB","city":"London","state":"Greater London","country":"United Kingdom"},"categories":[{"id":"4bf58dd8d48988d174941735","name":"Coworking Space","pluralName":"Coworking Spaces","shortName":"Coworking Space","icon":{"prefix":"https:\/\/ss1.4sqi.net\/img\/categories_v2\/building\/office_coworkingspace_","suffix":".png"},"primary":"true"}],"verified":"false","restricted":"true","stats":{"checkinsCount":"431","usersCount":"210","tipCount":"1"},"specials":{"count":"0"},"hereNow":{"count":"0"},"referralId":"v-1392478008"},{"id":"4af82b42f964a520360b22e3","name":"Poncho 8","contact":{"phone":"+442072472008","formattedPhone":"+44 20 7247 2008","twitter":"ponchono8"},"location":{"address":"5 Steward St","lat":"51.51885118756938","lng":"-0.07750511169433594","distance":"52","postalCode":"E1 6FQ","cc":"GB","city":"London","state":"Greater London","country":"United Kingdom"},"categories":[{"id":"4bf58dd8d48988d153941735","name":"Burrito Place","pluralName":"Burrito Places","shortName":"Burritos","icon":{"prefix":"https:\/\/ss1.4sqi.net\/img\/categories_v2\/food\/burrito_","suffix":".png"},"primary":"true"}],"verified":"true","restricted":"true","stats":{"checkinsCount":"1060","usersCount":"381","tipCount":"26"},"url":"http:\/\/www.poncho8.com\/locations\/spitalfields\/","specials":{"count":"0"},"hereNow":{"count":"0"},"storeId":"","referralId":"v-1392478008"},{"id":"4b0a56eaf964a520592323e3","name":"Pret A Manger","contact":{"phone":"+442079325272","formattedPhone":"+44 20 7932 5272","twitter":"pret","facebook":"162638680417951"},"location":{"address":"192 Bishopsgate","lat":"51.51931236348516","lng":"-0.0779790545857782","distance":"12","postalCode":"EC2M 4NR","cc":"GB","city":"London","state":"Greater London","country":"United Kingdom"},"categories":[{"id":"4bf58dd8d48988d1c5941735","name":"Sandwich Place","pluralName":"Sandwich Places","shortName":"Sandwiches","icon":{"prefix":"https:\/\/ss1.4sqi.net\/img\/categories_v2\/food\/sandwiches_","suffix":".png"},"primary":"true"}],"verified":"true","restricted":"true","stats":{"checkinsCount":"275","usersCount":"161","tipCount":"4"},"url":"http:\/\/www.pret.com","specials":{"count":"0"},"hereNow":{"count":"0"},"storeId":"72","referralId":"v-1392478008"},{"id":"4c9ca3fc7c096dcb7229c3d1","name":"The Williams Ale & Cider House","contact":{"phone":"+442072475163","formattedPhone":"+44 20 7247 5163"},"location":{"address":"22 Artillery Lane","lat":"51.518551931240964","lng":"-0.0785042165468145","distance":"95","postalCode":"E1 7LS","cc":"GB","city":"London","state":"Greater London","country":"United Kingdom"},"categories":[{"id":"4bf58dd8d48988d11b941735","name":"Pub","pluralName":"Pubs","shortName":"Pub","icon":{"prefix":"https:\/\/ss1.4sqi.net\/img\/categories_v2\/nightlife\/pub_","suffix":".png"},"primary":"true"}],"verified":"true","restricted":"true","stats":{"checkinsCount":"322","usersCount":"225","tipCount":"4"},"reservations":{"url":"http:\/\/www.toptable.co.uk\/single.aspx?rid=100224&ref=9601"},"specials":{"count":"0"},"hereNow":{"count":"0"},"storeId":"","referralId":"v-1392478008"},{"id":"4bf3e53598ac0f472b5063a8","name":"Cycle Surgery","location":{"address":"Strype St","crossStreet":"Cobb St","lat":"51.51914785510472","lng":"-0.07751969385335339","distance":"25","postalCode":"E1","cc":"GB","city":"London","state":"Greater London","country":"United Kingdom"},"categories":[{"id":"4bf58dd8d48988d115951735","name":"Bike Shop","pluralName":"Bike Shops","shortName":"Bike shop","icon":{"prefix":"https:\/\/ss1.4sqi.net\/img\/categories_v2\/shops\/bikeshop_","suffix":".png"},"primary":"true"}],"verified":"false","restricted":"true","stats":{"checkinsCount":"185","usersCount":"133","tipCount":"7"},"specials":{"count":"0"},"hereNow":{"count":"0"},"referralId":"v-1392478008"},{"id":"4ba9011ff964a520a6023ae3","name":"Evans Cycles","contact":{"phone":"+442074260391","formattedPhone":"+44 20 7426 0391"},"location":{"address":"The Cavern, 1 Market St.","lat":"51.519209977722355","lng":"-0.07727254788885635","distance":"37","postalCode":"E1 6AA","cc":"GB","city":"Hackney","state":"Greater London","country":"United Kingdom"},"categories":[{"id":"4bf58dd8d48988d115951735","name":"Bike Shop","pluralName":"Bike Shops","shortName":"Bike shop","icon":{"prefix":"https:\/\/ss1.4sqi.net\/img\/categories_v2\/shops\/bikeshop_","suffix":".png"},"primary":"true"}],"verified":"true","restricted":"true","stats":{"checkinsCount":"325","usersCount":"205","tipCount":"4"},"url":"http:\/\/www.evanscycles.com","specials":{"count":"0"},"hereNow":{"count":"0"},"referralId":"v-1392478008"},{"id":"4f9d647fe4b0e868c36e4d06","name":"GO Pizza","location":{"address":"36 Brushfield Street","lat":"51.5192764322461","lng":"-0.07715190195972149","distance":"45","postalCode":"E1 6AT","cc":"GB","city":"Spitalfields","state":"Greater London","country":"United Kingdom"},"categories":[{"id":"4bf58dd8d48988d1ca941735","name":"Pizza Place","pluralName":"Pizza Places","shortName":"Pizza","icon":{"prefix":"https:\/\/ss1.4sqi.net\/img\/categories_v2\/food\/pizza_","suffix":".png"},"primary":"true"}],"verified":"false","restricted":"true","stats":{"checkinsCount":"158","usersCount":"75","tipCount":"2"},"specials":{"count":"0"},"hereNow":{"count":"0"},"referralId":"v-1392478008"},{"id":"4d89b5721508a143597d131e","name":"The English Restaurant","contact":{"phone":"+442072474110","formattedPhone":"+44 20 7247 4110","twitter":"englishrest"},"location":{"address":"50-52 Brushfield St","crossStreet":"btwn Commercial St & Bishopsgate","lat":"51.519038117833205","lng":"-0.07651805877685547","distance":"93","postalCode":"E1 6AG","cc":"GB","city":"Shoreditch","state":"Greater London","country":"United Kingdom"},"categories":[{"id":"4bf58dd8d48988d1c4941735","name":"Restaurant","pluralName":"Restaurants","shortName":"Restaurant","icon":{"prefix":"https:\/\/ss1.4sqi.net\/img\/categories_v2\/food\/default_","suffix":".png"},"primary":"true"}],"verified":"false","restricted":"true","stats":{"checkinsCount":"470","usersCount":"368","tipCount":"12"},"url":"http:\/\/www.theenglishrestaurant.com","reservations":{"url":"http:\/\/www.toptable.co.uk\/single.aspx?rid=89314&ref=9601"},"menu":{"type":"Menu","label":"Menu","anchor":"View Menu","url":"https:\/\/foursquare.com\/v\/the-english-restaurant\/4d89b5721508a143597d131e\/menu","mobileUrl":"https:\/\/foursquare.com\/v\/4d89b5721508a143597d131e\/device_menu"},"specials":{"count":"0"},"hereNow":{"count":"0"},"referralId":"v-1392478008"},{"id":"51bb4640498e930359a3b11a","name":"Costa","location":{"lat":"51.51912230832498","lng":"-0.07743876816937674","distance":"31","cc":"GB","country":"United Kingdom"},"categories":[{"id":"4bf58dd8d48988d1f9941735","name":"Food & Drink Shop","pluralName":"Food & Drink Shops","shortName":"Food & Drink","icon":{"prefix":"https:\/\/ss1.4sqi.net\/img\/categories_v2\/shops\/foodanddrink_","suffix":".png"},"primary":"true"}],"verified":"false","restricted":"true","stats":{"checkinsCount":"11","usersCount":"9","tipCount":"0"},"specials":{"count":"0"},"hereNow":{"count":"0"},"referralId":"v-1392478008"},{"id":"4e5b767a483b865169f84c7a","name":"Pierre Marcolini","location":{"lat":"51.519221","lng":"-0.077177","distance":"44","cc":"GB","city":"London","state":"Greater London","country":"United Kingdom"},"categories":[{"id":"4d4b7105d754a06374d81259","name":"Food","pluralName":"Food","shortName":"Food","icon":{"prefix":"https:\/\/ss1.4sqi.net\/img\/categories_v2\/food\/default_","suffix":".png"},"primary":"true"}],"verified":"false","restricted":"true","stats":{"checkinsCount":"51","usersCount":"47","tipCount":"3"},"specials":{"count":"0"},"hereNow":{"count":"0"},"referralId":"v-1392478008"},{"id":"4c6697019cb82d7ff0eb90d2","name":"A. Gold","contact":{"phone":"+442072472487","formattedPhone":"+44 20 7247 2487","twitter":"agoldshop"},"location":{"address":"42 Brushfield St","lat":"51.51918421611633","lng":"-0.07676830381226159","distance":"72","postalCode":"E1 6AG","cc":"GB","city":"London","state":"Greater London","country":"United Kingdom"},"categories":[{"id":"4bf58dd8d48988d146941735","name":"Deli \/ Bodega","pluralName":"Delis \/ Bodegas","shortName":"Deli \/ Bodega","icon":{"prefix":"https:\/\/ss1.4sqi.net\/img\/categories_v2\/food\/deli_","suffix":".png"},"primary":"true"}],"verified":"false","restricted":"true","stats":{"checkinsCount":"292","usersCount":"135","tipCount":"11"},"url":"http:\/\/www.agoldshop.com","specials":{"count":"0"},"hereNow":{"count":"0"},"referralId":"v-1392478008"}],"confident":"true"}}