{"meta":{"code":"200"},"response":{"venues":[{"id":"4b61ca09f964a520f0222ae3","name":"Marks & Spencer - Head Office","location":{"address":"Waterside House, 5 Merchant Square","crossStreet":"North Wharf Road","lat":"51.51896652722161","lng":"-0.17304148409210318","distance":"39","postalCode":"W2 1NW","cc":"GB","city":"London","state":"Greater London","country":"United Kingdom"},"categories":[{"id":"4bf58dd8d48988d124941735","name":"Office","pluralName":"Offices","shortName":"Office","icon":{"prefix":"https:\/\/ss1.4sqi.net\/img\/categories_v2\/building\/default_","suffix":".png"},"primary":"true"}],"verified":"false","restricted":"true","stats":{"checkinsCount":"3594","usersCount":"352","tipCount":"9"},"specials":{"count":"0"},"hereNow":{"count":"0"},"referralId":"v-1392477998"},{"id":"4ed0c8f8b634dd2991f29d12","name":"M&S Merchant Square Restaurant","location":{"address":"Five Merchant Square","crossStreet":"North Wharf Road","lat":"51.519104878455764","lng":"-0.17376422882080078","distance":"69","cc":"GB","city":"Paddington","state":"Greater London","country":"United Kingdom"},"categories":[{"id":"4bf58dd8d48988d1c4941735","name":"Restaurant","pluralName":"Restaurants","shortName":"Restaurant","icon":{"prefix":"https:\/\/ss1.4sqi.net\/img\/categories_v2\/food\/default_","suffix":".png"},"primary":"true"}],"verified":"false","restricted":"true","stats":{"checkinsCount":"420","usersCount":"40","tipCount":"5"},"specials":{"count":"0"},"hereNow":{"count":"0"},"referralId":"v-1392477998"},{"id":"4cb186501463a1431f47a6a9","name":"Paddington Basin","location":{"address":"N Wharf Road","lat":"51.51843726782632","lng":"-0.17385005950927734","distance":"119","postalCode":"W2 1LF","cc":"GB","city":"London","state":"Greater London","country":"United Kingdom"},"categories":[{"id":"4bf58dd8d48988d1e0941735","name":"Harbor \/ Marina","pluralName":"Harbors \/ Marinas","shortName":"Harbor \/ Marina","icon":{"prefix":"https:\/\/ss1.4sqi.net\/img\/categories_v2\/parks_outdoors\/harbor_","suffix":".png"},"primary":"true"}],"verified":"false","restricted":"true","stats":{"checkinsCount":"1266","usersCount":"256","tipCount":"5"},"specials":{"count":"0"},"hereNow":{"count":"0"},"referralId":"v-1392477998"},{"id":"4ac518b6f964a520e5a020e3","name":"Hilton London Metropole","contact":{"phone":"+442074024141","formattedPhone":"+44 20 7402 4141","twitter":"hiltonhotels"},"location":{"address":"225 Edgware Rd","lat":"51.51946159142929","lng":"-0.17009489781858367","distance":"188","postalCode":"W2 1JU","cc":"GB","city":"London","state":"Greater London","country":"United Kingdom"},"categories":[{"id":"4bf58dd8d48988d1fa931735","name":"Hotel","pluralName":"Hotels","shortName":"Hotel","icon":{"prefix":"https:\/\/ss1.4sqi.net\/img\/categories_v2\/travel\/hotel_","suffix":".png"},"primary":"true"}],"verified":"true","restricted":"true","stats":{"checkinsCount":"9699","usersCount":"4246","tipCount":"81"},"url":"http:\/\/www.hiltonlondonmet.com","specials":{"count":"0"},"hereNow":{"count":"1","groups":[{"type":"others","name":"Other people here","count":"1"}]},"storeId":"LONMETW","referralId":"v-1392477998"},{"id":"4dcef239b0fb25f6e3519724","name":"Grand Union Paddington","contact":{"phone":"+442077235106","formattedPhone":"+44 20 7723 5106","twitter":"grandunionbars"},"location":{"address":"Unit 1 West End Quay","lat":"51.51861084753139","lng":"-0.17131805419921875","distance":"127","postalCode":"W2 1JX","cc":"GB","city":"Paddington","state":"Greater London","country":"United Kingdom"},"categories":[{"id":"4bf58dd8d48988d116941735","name":"Bar","pluralName":"Bars","shortName":"Bar","icon":{"prefix":"https:\/\/ss1.4sqi.net\/img\/categories_v2\/nightlife\/bar_","suffix":".png"},"primary":"true"}],"verified":"true","restricted":"true","stats":{"checkinsCount":"1406","usersCount":"494","tipCount":"10"},"url":"http:\/\/www.grandunionbars.com","specials":{"count":"0"},"hereNow":{"count":"0"},"storeId":"PADDINGTON","referralId":"v-1392477998"},{"id":"4b4edb89f964a5206ff626e3","name":"St. Mary's Hospital","contact":{"phone":"+442078866407","formattedPhone":"+44 20 7886 6407","twitter":"imperialnhs"},"location":{"address":"Praed St.","lat":"51.51762666615402","lng":"-0.17455033427654146","distance":"221","postalCode":"W2 1NY","cc":"GB","city":"Paddington","state":"Greater London","country":"United Kingdom"},"categories":[{"id":"4bf58dd8d48988d196941735","name":"Hospital","pluralName":"Hospitals","shortName":"Hospital","icon":{"prefix":"https:\/\/ss1.4sqi.net\/img\/categories_v2\/building\/medical_hospital_","suffix":".png"},"primary":"true"}],"verified":"false","restricted":"true","stats":{"checkinsCount":"2615","usersCount":"1004","tipCount":"26"},"url":"http:\/\/www.imperial.nhs.uk\/stmarys\/","specials":{"count":"0"},"hereNow":{"count":"0"},"referralId":"v-1392477998"},{"id":"4c85e295d34ca143a7374b80","name":"Paddington Green","location":{"lat":"51.52090468294889","lng":"-0.17397369735128476","distance":"197","cc":"GB","country":"United Kingdom"},"categories":[{"id":"4bf58dd8d48988d164941735","name":"Plaza","pluralName":"Plazas","shortName":"Plaza","icon":{"prefix":"https:\/\/ss1.4sqi.net\/img\/categories_v2\/parks_outdoors\/plaza_","suffix":".png"},"primary":"true"}],"verified":"false","restricted":"true","stats":{"checkinsCount":"478","usersCount":"221","tipCount":"1"},"specials":{"count":"0"},"hereNow":{"count":"0"},"referralId":"v-1392477998"},{"id":"4cf8d6c6e8e254818984d962","name":"City of Westminster College","contact":{"phone":"+442077238826","formattedPhone":"+44 20 7723 8826","twitter":"citywestcollege"},"location":{"address":"Paddington Green Campus","crossStreet":"25 Paddington Green","lat":"51.52080056545836","lng":"-0.17336726188659668","distance":"172","postalCode":"W2 1LG","cc":"GB","city":"Paddington","state":"Greater London","country":"United Kingdom"},"categories":[{"id":"4bf58dd8d48988d1a8941735","name":"General College & University","pluralName":"General Colleges & Universities","shortName":"Education","icon":{"prefix":"https:\/\/ss1.4sqi.net\/img\/categories_v2\/education\/other_","suffix":".png"},"primary":"true"}],"verified":"false","restricted":"true","stats":{"checkinsCount":"1049","usersCount":"229","tipCount":"2"},"url":"http:\/\/www.cwc.ac.uk","specials":{"count":"0"},"hereNow":{"count":"0"},"referralId":"v-1392477998"},{"id":"4e173ddc2271b0e971f022dd","name":"Merchant Square East","location":{"address":"Paddington Basin","lat":"51.5191615946394","lng":"-0.17124951509597502","distance":"108","postalCode":"W2 2","cc":"GB","city":"Paddington","state":"Greater London","country":"United Kingdom"},"categories":[{"id":"4d954b06a243a5684965b473","name":"Residential Building (Apartment \/ Condo)","pluralName":"Residential Buildings (Apartments \/ Condos)","shortName":"Residential","icon":{"prefix":"https:\/\/ss1.4sqi.net\/img\/categories_v2\/building\/apartment_","suffix":".png"},"primary":"true"}],"verified":"false","restricted":"true","stats":{"checkinsCount":"465","usersCount":"58","tipCount":"0"},"specials":{"count":"0"},"hereNow":{"count":"0"},"referralId":"v-1392477998"},{"id":"4bbb21d3b35776b00292cb01","name":"The Green Man","contact":{"phone":"+442077237980","formattedPhone":"+44 20 7723 7980","twitter":"greenmanbpi","facebook":"162056126562"},"location":{"address":"308 Edgware Rd","lat":"51.520210147701796","lng":"-0.17057461370586388","distance":"185","postalCode":"W2 1DY","cc":"GB","city":"London","state":"Greater London","country":"United Kingdom"},"categories":[{"id":"4bf58dd8d48988d11b941735","name":"Pub","pluralName":"Pubs","shortName":"Pub","icon":{"prefix":"https:\/\/ss1.4sqi.net\/img\/categories_v2\/nightlife\/pub_","suffix":".png"},"primary":"true"}],"verified":"true","restricted":"true","stats":{"checkinsCount":"850","usersCount":"476","tipCount":"12"},"url":"http:\/\/www.greenmanpaddington.com","menu":{"type":"Menu","label":"Menu","anchor":"View Menu","url":"https:\/\/foursquare.com\/v\/the-green-man\/4bbb21d3b35776b00292cb01\/menu","mobileUrl":"https:\/\/foursquare.com\/v\/4bbb21d3b35776b00292cb01\/device_menu"},"specials":{"count":"0"},"hereNow":{"count":"0"},"venuePage":{"id":"57957328"},"referralId":"v-1392477998"},{"id":"4da4a9b39aa4721e01ba3c1a","name":"Balmoral Apartments","location":{"lat":"51.5189931576796","lng":"-0.17049445357569512","distance":"163","cc":"GB","city":"Paddington","state":"Greater London","country":"United Kingdom"},"categories":[{"id":"4d954b06a243a5684965b473","name":"Residential Building (Apartment \/ Condo)","pluralName":"Residential Buildings (Apartments \/ Condos)","shortName":"Residential","icon":{"prefix":"https:\/\/ss1.4sqi.net\/img\/categories_v2\/building\/apartment_","suffix":".png"},"primary":"true"}],"verified":"false","restricted":"true","stats":{"checkinsCount":"273","usersCount":"65","tipCount":"1"},"specials":{"count":"0"},"hereNow":{"count":"1","groups":[{"type":"others","name":"Other people here","count":"1"}]},"referralId":"v-1392477998"},{"id":"4c5285d19426c92807e98675","name":"Westway Flyover","location":{"lat":"51.520009353786044","lng":"-0.1706922277363271","distance":"166","cc":"GB","country":"United Kingdom"},"categories":[{"id":"4bf58dd8d48988d1df941735","name":"Bridge","pluralName":"Bridges","shortName":"Bridge","icon":{"prefix":"https:\/\/ss1.4sqi.net\/img\/categories_v2\/parks_outdoors\/bridge_","suffix":".png"},"primary":"true"}],"verified":"false","restricted":"true","stats":{"checkinsCount":"509","usersCount":"214","tipCount":"3"},"specials":{"count":"0"},"hereNow":{"count":"0"},"referralId":"v-1392477998"},{"id":"4c84f29547cc224bc34c9c9f","name":"Tesco Express","contact":{"phone":"+448450269156","formattedPhone":"+44 845 026 9156","twitter":"uktescooffers"},"location":{"address":"West End Quay","lat":"51.518410563197584","lng":"-0.17088890075683594","distance":"164","postalCode":"W2 1EE","cc":"GB","city":"London","state":"Greater London","country":"United Kingdom"},"categories":[{"id":"4bf58dd8d48988d118951735","name":"Grocery Store","pluralName":"Grocery Stores","shortName":"Grocery Store","icon":{"prefix":"https:\/\/ss1.4sqi.net\/img\/categories_v2\/shops\/food_grocery_","suffix":".png"},"primary":"true"}],"verified":"true","restricted":"true","stats":{"checkinsCount":"1170","usersCount":"345","tipCount":"2"},"url":"http:\/\/www.tesco.com","specials":{"count":"0"},"hereNow":{"count":"0"},"storeId":"3276","referralId":"v-1392477998"},{"id":"4fe4c302e4b03df94cd572c3","name":"Tune Hotel Paddington","contact":{"phone":"+442072583140","formattedPhone":"+44 20 7258 3140","facebook":"137480889596821"},"location":{"address":"41-47 Praed Street","lat":"51.51827381663063","lng":"-0.17097881295184086","distance":"169","postalCode":"W2 1NR","cc":"GB","city":"London","state":"Greater London","country":"United Kingdom"},"categories":[{"id":"4bf58dd8d48988d1fa931735","name":"Hotel","pluralName":"Hotels","shortName":"Hotel","icon":{"prefix":"https:\/\/ss1.4sqi.net\/img\/categories_v2\/travel\/hotel_","suffix":".png"},"primary":"true"}],"verified":"true","restricted":"true","stats":{"checkinsCount":"745","usersCount":"315","tipCount":"13"},"specials":{"count":"0"},"hereNow":{"count":"0"},"storeId":"","referralId":"v-1392477998"},{"id":"4db2fbd71e7248d13581bf6b","name":"Merchant Square","location":{"lat":"51.518768303626395","lng":"-0.1723966325855393","distance":"64","cc":"GB","city":"Paddington","state":"Greater London","country":"United Kingdom"},"categories":[{"id":"4d954b06a243a5684965b473","name":"Residential Building (Apartment \/ Condo)","pluralName":"Residential Buildings (Apartments \/ Condos)","shortName":"Residential","icon":{"prefix":"https:\/\/ss1.4sqi.net\/img\/categories_v2\/building\/apartment_","suffix":".png"},"primary":"true"}],"verified":"false","restricted":"true","stats":{"checkinsCount":"713","usersCount":"142","tipCount":"0"},"specials":{"count":"0"},"hereNow":{"count":"0"},"referralId":"v-1392477998"},{"id":"4bfbe6aed2b720a1178f336a","name":"Post office","location":{"address":"Praed Street","crossStreet":"Paddington","lat":"51.51869028875843","lng":"-0.17083158181902364","distance":"151","cc":"GB","city":"London","state":"Greater London","country":"United Kingdom"},"categories":[{"id":"4bf58dd8d48988d172941735","name":"Post Office","pluralName":"Post Offices","shortName":"Post Office","icon":{"prefix":"https:\/\/ss1.4sqi.net\/img\/categories_v2\/building\/postoffice_","suffix":".png"},"primary":"true"}],"verified":"false","restricted":"true","stats":{"checkinsCount":"474","usersCount":"201","tipCount":"5"},"specials":{"count":"0"},"hereNow":{"count":"0"},"referralId":"v-1392477998"},{"id":"520abc6e11d20f85bd1f39c2","name":"Munkenbeck Building","location":{"address":"Hermitage Street","lat":"51.51896519068966","lng":"-0.17573183948750085","distance":"206","postalCode":"W2 1PW","cc":"GB","city":"London","state":"Greater London","country":"United Kingdom"},"categories":[{"id":"4d954b06a243a5684965b473","name":"Residential Building (Apartment \/ Condo)","pluralName":"Residential Buildings (Apartments \/ Condos)","shortName":"Residential","icon":{"prefix":"https:\/\/ss1.4sqi.net\/img\/categories_v2\/building\/apartment_","suffix":".png"},"primary":"true"}],"verified":"false","restricted":"true","stats":{"checkinsCount":"145","usersCount":"12","tipCount":"0"},"specials":{"count":"0"},"hereNow":{"count":"0"},"referralId":"v-1392477998"},{"id":"51a97360c640178c2c6066f7","name":"See Sushi","location":{"address":"4d Praed St.","lat":"51.51879760808683","lng":"-0.1710108584225913","distance":"135","postalCode":"W2 1JX","cc":"GB","city":"London","state":"Greater London","country":"United Kingdom"},"categories":[{"id":"4bf58dd8d48988d1d2941735","name":"Sushi Restaurant","pluralName":"Sushi Restaurants","shortName":"Sushi","icon":{"prefix":"https:\/\/ss1.4sqi.net\/img\/categories_v2\/food\/sushi_","suffix":".png"},"primary":"true"}],"verified":"false","restricted":"true","stats":{"checkinsCount":"45","usersCount":"38","tipCount":"1"},"url":"http:\/\/www.seesushi.com","menu":{"type":"Menu","label":"Menu","anchor":"View Menu","url":"https:\/\/foursquare.com\/v\/see-sushi-london-greater-london\/51a97360c640178c2c6066f7\/menu","mobileUrl":"https:\/\/foursquare.com\/v\/51a97360c640178c2c6066f7\/device_menu"},"specials":{"count":"0"},"hereNow":{"count":"0"},"referralId":"v-1392477998"},{"id":"4cc931fc786e468842939209","name":"Paddington Green Apartments","location":{"address":"18 Paddington Grn.","lat":"51.52077079117546","lng":"-0.17345485521674767","distance":"171","postalCode":"W2 1LG","cc":"GB","city":"London","state":"Greater London","country":"United Kingdom"},"categories":[{"id":"4bf58dd8d48988d1fa931735","name":"Hotel","pluralName":"Hotels","shortName":"Hotel","icon":{"prefix":"https:\/\/ss1.4sqi.net\/img\/categories_v2\/travel\/hotel_","suffix":".png"},"primary":"true"}],"verified":"false","restricted":"true","stats":{"checkinsCount":"29","usersCount":"14","tipCount":"0"},"specials":{"count":"0"},"hereNow":{"count":"0"},"referralId":"v-1392477998"},{"id":"5012d5fbe4b0b960177d209b","name":"HP Total Care Center London","contact":{"phone":"+442072628131","formattedPhone":"+44 20 7262 8131"},"location":{"address":"4 Merchant Square, Paddington Basin, Paddington","crossStreet":"Praed Street","lat":"51.51893177220623","lng":"-0.17123384353747884","distance":"115","postalCode":"W2 1AN","cc":"GB","city":"London","state":"Greater London","country":"United Kingdom"},"categories":[{"id":"4bf58dd8d48988d122951735","name":"Electronics Store","pluralName":"Electronics Stores","shortName":"Electronics","icon":{"prefix":"https:\/\/ss1.4sqi.net\/img\/categories_v2\/shops\/technology_","suffix":".png"},"primary":"true"}],"verified":"false","restricted":"true","stats":{"checkinsCount":"61","usersCount":"20","tipCount":"1"},"specials":{"count":"0"},"hereNow":{"count":"0"},"referralId":"v-1392477998"},{"id":"4ffe9d67e4b0a30e74da3665","name":"Priory Meadow Shopping Centre Queens Road Hastings","location":{"address":"QUEENS Road","lat":"51.51922607421875","lng":"-0.17312857508659363","distance":"23","cc":"GB","city":"Hastings","state":"East Sussex","country":"United Kingdom"},"categories":[{"id":"4bf58dd8d48988d1fd941735","name":"Mall","pluralName":"Malls","shortName":"Mall","icon":{"prefix":"https:\/\/ss1.4sqi.net\/img\/categories_v2\/shops\/mall_","suffix":".png"},"primary":"true"}],"verified":"false","restricted":"true","stats":{"checkinsCount":"1","usersCount":"1","tipCount":"0"},"specials":{"count":"0"},"hereNow":{"count":"0"},"referralId":"v-1392477998"},{"id":"4bc5b3124a9aa59389c2067b","name":"See Japanese Fusion Restaurant","contact":{"phone":"+442077247358","formattedPhone":"+44 20 7724 7358"},"location":{"address":"4d Praed St","lat":"51.51882281415872","lng":"-0.17148703336715698","distance":"104","postalCode":"W2 1JX","cc":"GB","city":"Paddington","state":"Greater London","country":"United Kingdom"},"categories":[{"id":"4bf58dd8d48988d111941735","name":"Japanese Restaurant","pluralName":"Japanese Restaurants","shortName":"Japanese","icon":{"prefix":"https:\/\/ss1.4sqi.net\/img\/categories_v2\/food\/japanese_","suffix":".png"},"primary":"true"}],"verified":"false","restricted":"true","stats":{"checkinsCount":"323","usersCount":"150","tipCount":"5"},"specials":{"count":"0"},"hereNow":{"count":"0"},"referralId":"v-1392477998"},{"id":"4cd1eb977b685481d7d5c9f8","name":"Peninsula Apartments","location":{"address":"4 praed st","lat":"51.51853611701797","lng":"-0.17128920411153215","distance":"134","cc":"GB","city":"Paddington","state":"Greater London","country":"United Kingdom"},"categories":[{"id":"4d954b06a243a5684965b473","name":"Residential Building (Apartment \/ Condo)","pluralName":"Residential Buildings (Apartments \/ Condos)","shortName":"Residential","icon":{"prefix":"https:\/\/ss1.4sqi.net\/img\/categories_v2\/building\/apartment_","suffix":".png"},"primary":"true"}],"verified":"false","restricted":"true","stats":{"checkinsCount":"776","usersCount":"103","tipCount":"1"},"specials":{"count":"0"},"hereNow":{"count":"0"},"referralId":"v-1392477998"},{"id":"4d9da76f7865a09351faeb7a","name":"Paddington Quays","location":{"lat":"51.51896511051785","lng":"-0.17087939366865645","distance":"138","cc":"GB","country":"United Kingdom"},"categories":[{"id":"4bf58dd8d48988d1e0941735","name":"Harbor \/ Marina","pluralName":"Harbors \/ Marinas","shortName":"Harbor \/ Marina","icon":{"prefix":"https:\/\/ss1.4sqi.net\/img\/categories_v2\/parks_outdoors\/harbor_","suffix":".png"},"primary":"true"}],"verified":"false","restricted":"true","stats":{"checkinsCount":"172","usersCount":"59","tipCount":"0"},"specials":{"count":"0"},"hereNow":{"count":"0"},"referralId":"v-1392477998"},{"id":"4b9e159df964a520c3c936e3","name":"Paddington Green Police Station","location":{"address":"2 Harrow Road","lat":"51.52000373454778","lng":"-0.17063854136581985","distance":"169","postalCode":"W2 1XJ","cc":"GB","city":"London","state":"Greater London","country":"United Kingdom"},"categories":[{"id":"4bf58dd8d48988d12e941735","name":"Police Station","pluralName":"Police Stations","shortName":"Police Station","icon":{"prefix":"https:\/\/ss1.4sqi.net\/img\/categories_v2\/building\/government_policestation_","suffix":".png"},"primary":"true"}],"verified":"false","restricted":"true","stats":{"checkinsCount":"187","usersCount":"108","tipCount":"2"},"specials":{"count":"0"},"hereNow":{"count":"0"},"referralId":"v-1392477998"},{"id":"504895e6e4b0d6e661d845e4","name":"Fantasia Palace","location":{"address":"S Wharf Rd","crossStreet":"Praed St","lat":"51.518401","lng":"-0.17123","distance":"147","postalCode":"W2","cc":"GB","city":"London","state":"Greater London","country":"United Kingdom"},"categories":[{"id":"4bf58dd8d48988d10e941735","name":"Greek Restaurant","pluralName":"Greek Restaurants","shortName":"Greek","icon":{"prefix":"https:\/\/ss1.4sqi.net\/img\/categories_v2\/food\/greek_","suffix":".png"},"primary":"true"}],"verified":"false","restricted":"true","stats":{"checkinsCount":"73","usersCount":"50","tipCount":"1"},"url":"http:\/\/www.fantasiapalace.co.uk","reservations":{"url":"http:\/\/www.toptable.co.uk\/single.aspx?rid=94518&ref=9601"},"menu":{"type":"Menu","label":"Menu","anchor":"View Menu","url":"https:\/\/foursquare.com\/v\/fantasia-palace\/504895e6e4b0d6e661d845e4\/menu","mobileUrl":"https:\/\/foursquare.com\/v\/504895e6e4b0d6e661d845e4\/device_menu"},"specials":{"count":"0"},"hereNow":{"count":"0"},"referralId":"v-1392477998"},{"id":"4c229ead11de20a1eb3385ce","name":"SixOne6","location":{"address":"Praed Street","crossStreet":"Sale place","lat":"51.519051","lng":"-0.172609","distance":"29","postalCode":"W2 1AL","cc":"GB","city":"Paddington","state":"Greater London","country":"United Kingdom"},"verified":"false","restricted":"true","stats":{"checkinsCount":"5","usersCount":"3","tipCount":"0"},"specials":{"count":"0"},"hereNow":{"count":"0"},"referralId":"v-1392477998"},{"id":"4cdc530ed5495481dbf840b2","name":"Taylor Walker","location":{"lat":"51.516996","lng":"-0.173013","distance":"255","cc":"GB","country":"United Kingdom"},"categories":[{"id":"4bf58dd8d48988d11b941735","name":"Pub","pluralName":"Pubs","shortName":"Pub","icon":{"prefix":"https:\/\/ss1.4sqi.net\/img\/categories_v2\/nightlife\/pub_","suffix":".png"},"primary":"true"}],"verified":"false","restricted":"true","stats":{"checkinsCount":"299","usersCount":"266","tipCount":"4"},"specials":{"count":"0"},"hereNow":{"count":"0"},"referralId":"v-1392477998"},{"id":"4aef3425f964a5208bd621e3","name":"The Fountains Abbey","contact":{"phone":"+442077232364","formattedPhone":"+44 20 7723 2364"},"location":{"address":"109 Praed St.","lat":"51.517013514279746","lng":"-0.17307505997944175","distance":"254","postalCode":"W2 1RL","cc":"GB","city":"London","state":"Greater London","country":"United Kingdom"},"categories":[{"id":"4bf58dd8d48988d11b941735","name":"Pub","pluralName":"Pubs","shortName":"Pub","icon":{"prefix":"https:\/\/ss1.4sqi.net\/img\/categories_v2\/nightlife\/pub_","suffix":".png"},"primary":"true"}],"verified":"false","restricted":"true","stats":{"checkinsCount":"812","usersCount":"622","tipCount":"14"},"specials":{"count":"0"},"hereNow":{"count":"0"},"referralId":"v-1392477998"},{"id":"4dfa207ae4cd56a64984f8b2","name":"3rd Floor, Waterside House","location":{"address":"35 North Wharf Rd","lat":"51.519395","lng":"-0.173195","distance":"29","postalCode":"W2 1","cc":"GB","city":"Paddington","state":"Greater London","country":"United Kingdom"},"categories":[{"id":"4bf58dd8d48988d124941735","name":"Office","pluralName":"Offices","shortName":"Office","icon":{"prefix":"https:\/\/ss1.4sqi.net\/img\/categories_v2\/building\/default_","suffix":".png"},"primary":"true"}],"verified":"false","restricted":"true","stats":{"checkinsCount":"47","usersCount":"11","tipCount":"0"},"specials":{"count":"0"},"hereNow":{"count":"0"},"referralId":"v-1392477998"}],"confident":"true"}}