{"meta":{"code":"200"},"response":{"venues":[{"id":"50d4bcd0e4b08c309dc5596d","name":"Gogi","contact":{"phone":"+442077243018","formattedPhone":"+44 20 7724 3018"},"location":{"address":"451 Edgware Rd","lat":"51.524361","lng":"-0.176756","distance":"72","postalCode":"W2 1TH","cc":"GB","city":"London","state":"Greater London","country":"United Kingdom"},"categories":[{"id":"4bf58dd8d48988d113941735","name":"Korean Restaurant","pluralName":"Korean Restaurants","shortName":"Korean","icon":{"prefix":"https:\/\/ss1.4sqi.net\/img\/categories_v2\/food\/korean_","suffix":".png"},"primary":"true"}],"verified":"false","restricted":"true","stats":{"checkinsCount":"108","usersCount":"77","tipCount":"3"},"url":"http:\/\/www.gogi-restaurant.com","reservations":{"url":"http:\/\/www.toptable.co.uk\/single.aspx?rid=99873&ref=9601"},"specials":{"count":"0"},"hereNow":{"count":"0"},"referralId":"v-1392477985"},{"id":"4c274c0bf1272d7f4eed87c5","name":"Cafe Laville","contact":{"phone":"+442077062620","formattedPhone":"+44 20 7706 2620"},"location":{"address":"453 Edgware Road","lat":"51.52449243024457","lng":"-0.1770329010439367","distance":"57","postalCode":"W2 1TH","cc":"GB","city":"Paddington","state":"Greater London","country":"United Kingdom"},"categories":[{"id":"4bf58dd8d48988d16d941735","name":"Caf\u00e9","pluralName":"Caf\u00e9s","shortName":"Caf\u00e9","icon":{"prefix":"https:\/\/ss1.4sqi.net\/img\/categories_v2\/food\/cafe_","suffix":".png"},"primary":"true"}],"verified":"false","restricted":"true","stats":{"checkinsCount":"435","usersCount":"346","tipCount":"16"},"menu":{"type":"Menu","label":"Menu","anchor":"View Menu","url":"https:\/\/foursquare.com\/v\/cafe-laville\/4c274c0bf1272d7f4eed87c5\/menu","mobileUrl":"https:\/\/foursquare.com\/v\/4c274c0bf1272d7f4eed87c5\/device_menu"},"specials":{"count":"0"},"hereNow":{"count":"0"},"referralId":"v-1392477985"},{"id":"4ac518d6f964a52046a820e3","name":"Raouls","location":{"address":"13 Clifton Road","lat":"51.52561340530829","lng":"-0.17918447542912347","distance":"175","postalCode":"W9 1SZ","cc":"GB","city":"London","state":"Greater London","country":"United Kingdom"},"categories":[{"id":"4bf58dd8d48988d146941735","name":"Deli \/ Bodega","pluralName":"Delis \/ Bodegas","shortName":"Deli \/ Bodega","icon":{"prefix":"https:\/\/ss1.4sqi.net\/img\/categories_v2\/food\/deli_","suffix":".png"},"primary":"true"}],"verified":"false","restricted":"true","stats":{"checkinsCount":"1090","usersCount":"522","tipCount":"27"},"menu":{"type":"Menu","label":"Menu","anchor":"View Menu","url":"https:\/\/foursquare.com\/v\/raouls\/4ac518d6f964a52046a820e3\/menu","mobileUrl":"https:\/\/foursquare.com\/v\/4ac518d6f964a52046a820e3\/device_menu"},"specials":{"count":"0"},"hereNow":{"count":"0"},"referralId":"v-1392477985"},{"id":"4b1413d5f964a520e79c23e3","name":"Baker & Spice (Maida Vale)","contact":{"phone":"+442072892499","formattedPhone":"+44 20 7289 2499"},"location":{"address":"20 Clifton Rd","lat":"51.525534","lng":"-0.179505","distance":"181","postalCode":"W9 1ST","cc":"GB","city":"London","state":"Greater London","country":"United Kingdom"},"categories":[{"id":"4bf58dd8d48988d16a941735","name":"Bakery","pluralName":"Bakeries","shortName":"Bakery","icon":{"prefix":"https:\/\/ss1.4sqi.net\/img\/categories_v2\/food\/bakery_","suffix":".png"},"primary":"true"}],"verified":"false","restricted":"true","stats":{"checkinsCount":"525","usersCount":"312","tipCount":"25"},"menu":{"type":"Menu","label":"Menu","anchor":"View Menu","url":"https:\/\/foursquare.com\/v\/baker-spice-maida-vale-london-uk\/4b1413d5f964a520e79c23e3\/menu","mobileUrl":"https:\/\/foursquare.com\/v\/4b1413d5f964a520e79c23e3\/device_menu"},"specials":{"count":"0"},"hereNow":{"count":"0"},"referralId":"v-1392477985"},{"id":"4ca2298fa73cb60c82ea0d78","name":"Little Venice Sports Centre","location":{"address":"Crompton Road","lat":"51.52352233712155","lng":"-0.17682576864651176","distance":"108","cc":"GB","city":"London","state":"Greater London","country":"United Kingdom"},"categories":[{"id":"4bf58dd8d48988d175941735","name":"Gym \/ Fitness Center","pluralName":"Gyms or Fitness Centers","shortName":"Gym \/ Fitness","icon":{"prefix":"https:\/\/ss1.4sqi.net\/img\/categories_v2\/building\/gym_","suffix":".png"},"primary":"true"}],"verified":"false","restricted":"true","stats":{"checkinsCount":"306","usersCount":"74","tipCount":"2"},"specials":{"count":"0"},"hereNow":{"count":"0"},"referralId":"v-1392477985"},{"id":"4afb0b96f964a5209b1a22e3","name":"Tesco Express","contact":{"phone":"+448450269291","formattedPhone":"+44 845 026 9291","twitter":"uktescooffers"},"location":{"address":"21-29 Clifton Road","lat":"51.525378","lng":"-0.17970263957977295","distance":"178","postalCode":"W9 1SY","cc":"GB","city":"London","state":"Greater London","country":"United Kingdom"},"categories":[{"id":"4bf58dd8d48988d118951735","name":"Grocery Store","pluralName":"Grocery Stores","shortName":"Grocery Store","icon":{"prefix":"https:\/\/ss1.4sqi.net\/img\/categories_v2\/shops\/food_grocery_","suffix":".png"},"primary":"true"}],"verified":"true","restricted":"true","stats":{"checkinsCount":"421","usersCount":"184","tipCount":"2"},"url":"http:\/\/www.tesco.com","specials":{"count":"0"},"hereNow":{"count":"0"},"storeId":"2717","referralId":"v-1392477985"},{"id":"513f199ee4b05551e578faca","name":"d1","location":{"lat":"51.52499008178711","lng":"-0.1761711984872818","distance":"137","cc":"GB","country":"United Kingdom"},"categories":[{"id":"4bf58dd8d48988d1e0931735","name":"Coffee Shop","pluralName":"Coffee Shops","shortName":"Coffee Shop","icon":{"prefix":"https:\/\/ss1.4sqi.net\/img\/categories_v2\/food\/coffeeshop_","suffix":".png"},"primary":"true"}],"verified":"false","restricted":"true","stats":{"checkinsCount":"49","usersCount":"36","tipCount":"3"},"specials":{"count":"0"},"hereNow":{"count":"0"},"referralId":"v-1392477985"},{"id":"51fa0612498e84897e2033a0","name":"MICHAEL ASHTON BEAUTY - HQ","location":{"lat":"51.52504056850559","lng":"-0.17775996518257778","distance":"83","cc":"GB","country":"United Kingdom"},"categories":[{"id":"4bf58dd8d48988d130941735","name":"Building","pluralName":"Buildings","shortName":"Building","icon":{"prefix":"https:\/\/ss1.4sqi.net\/img\/categories_v2\/building\/default_","suffix":".png"},"primary":"true"}],"verified":"false","restricted":"true","stats":{"checkinsCount":"121","usersCount":"4","tipCount":"0"},"url":"http:\/\/www.michaelashtonbeauty.com","specials":{"count":"0"},"hereNow":{"count":"0"},"referralId":"v-1392477985"},{"id":"50ab6c61e4b04d7b16ec0fb4","name":"Molly's Cafe At Little Venice","location":{"address":"28 Clifton Road","lat":"51.525499702136294","lng":"-0.1794642306206741","distance":"177","cc":"GB","city":"London","state":"Greater London","country":"United Kingdom"},"categories":[{"id":"4bf58dd8d48988d16d941735","name":"Caf\u00e9","pluralName":"Caf\u00e9s","shortName":"Caf\u00e9","icon":{"prefix":"https:\/\/ss1.4sqi.net\/img\/categories_v2\/food\/cafe_","suffix":".png"},"primary":"true"}],"verified":"false","restricted":"true","stats":{"checkinsCount":"66","usersCount":"46","tipCount":"3"},"specials":{"count":"0"},"hereNow":{"count":"1","groups":[{"type":"others","name":"Other people here","count":"1"}]},"referralId":"v-1392477985"},{"id":"4ef9dc3577c8e88f49cef87f","name":"Caff\u00e8 Nero","location":{"address":"18 Clifton Rd.","lat":"51.52559789805092","lng":"-0.17952838354412476","distance":"188","postalCode":"W9 1SS","cc":"GB","city":"London","state":"Greater London","country":"United Kingdom"},"categories":[{"id":"4bf58dd8d48988d1e0931735","name":"Coffee Shop","pluralName":"Coffee Shops","shortName":"Coffee Shop","icon":{"prefix":"https:\/\/ss1.4sqi.net\/img\/categories_v2\/food\/coffeeshop_","suffix":".png"},"primary":"true"}],"verified":"false","restricted":"true","stats":{"checkinsCount":"299","usersCount":"123","tipCount":"6"},"specials":{"count":"0"},"hereNow":{"count":"0"},"referralId":"v-1392477985"},{"id":"4b75b74af964a520401f2ee3","name":"Maguro","location":{"crossStreet":"Clifton Road","lat":"51.525435","lng":"-0.179021","distance":"152","cc":"GB","city":"London","state":"Greater London","country":"United Kingdom"},"categories":[{"id":"4bf58dd8d48988d111941735","name":"Japanese Restaurant","pluralName":"Japanese Restaurants","shortName":"Japanese","icon":{"prefix":"https:\/\/ss1.4sqi.net\/img\/categories_v2\/food\/japanese_","suffix":".png"},"primary":"true"}],"verified":"false","restricted":"true","stats":{"checkinsCount":"232","usersCount":"146","tipCount":"11"},"specials":{"count":"0"},"hereNow":{"count":"0"},"referralId":"v-1392477985"},{"id":"505db793e4b0c677838046bd","name":"Clifton Road","location":{"lat":"51.525451","lng":"-0.179704","distance":"184","cc":"GB","country":"United Kingdom"},"categories":[{"id":"4f2a25ac4b909258e854f55f","name":"Neighborhood","pluralName":"Neighborhoods","shortName":"Neighborhood","icon":{"prefix":"https:\/\/ss1.4sqi.net\/img\/categories_v2\/parks_outdoors\/neighborhood_","suffix":".png"},"primary":"true"}],"verified":"false","restricted":"true","stats":{"checkinsCount":"92","usersCount":"26","tipCount":"0"},"specials":{"count":"0"},"hereNow":{"count":"0"},"referralId":"v-1392477985"},{"id":"510d3047e4b0c5028b0b717a","name":"Clifton Greens","location":{"lat":"51.52564442846665","lng":"-0.17936292320186312","distance":"185","cc":"GB","country":"United Kingdom"},"categories":[{"id":"4bf58dd8d48988d1fa941735","name":"Farmers Market","pluralName":"Farmers Markets","shortName":"Farmer's Market","icon":{"prefix":"https:\/\/ss1.4sqi.net\/img\/categories_v2\/shops\/food_farmersmarket_","suffix":".png"},"primary":"true"}],"verified":"false","restricted":"true","stats":{"checkinsCount":"123","usersCount":"40","tipCount":"0"},"specials":{"count":"0"},"hereNow":{"count":"0"},"referralId":"v-1392477985"},{"id":"4ddbe30d636541fbad3befe7","name":"LV Lounge","contact":{"phone":"+442072864838","formattedPhone":"+44 20 7286 4838"},"location":{"address":"4 Clarendon Terrace","lat":"51.5253939182376","lng":"-0.17828617238493788","distance":"127","postalCode":"W9 1BZ","cc":"GB","city":"London","state":"Greater London","country":"United Kingdom"},"categories":[{"id":"4bf58dd8d48988d123941735","name":"Wine Bar","pluralName":"Wine Bars","shortName":"Wine Bar","icon":{"prefix":"https:\/\/ss1.4sqi.net\/img\/categories_v2\/nightlife\/wine_","suffix":".png"},"primary":"true"}],"verified":"false","restricted":"true","stats":{"checkinsCount":"104","usersCount":"35","tipCount":"3"},"specials":{"count":"0"},"hereNow":{"count":"0"},"referralId":"v-1392477985"},{"id":"4bd2c131462cb713c9ecdc07","name":"Caf\u00e9 Rouge","contact":{"phone":"+442072862266","formattedPhone":"+44 20 7286 2266","twitter":"caferougetweet","facebook":"207511922592337"},"location":{"address":"30 Clifton Road, Maida Vale","lat":"51.525438","lng":"-0.179833","distance":"190","postalCode":"W9 1ST","cc":"GB","city":"London","state":"Greater London","country":"United Kingdom"},"categories":[{"id":"4bf58dd8d48988d16d941735","name":"Caf\u00e9","pluralName":"Caf\u00e9s","shortName":"Caf\u00e9","icon":{"prefix":"https:\/\/ss1.4sqi.net\/img\/categories_v2\/food\/cafe_","suffix":".png"},"primary":"true"}],"verified":"true","restricted":"true","stats":{"checkinsCount":"204","usersCount":"151","tipCount":"8"},"url":"http:\/\/www.caferouge.co.uk\/french-restaurant\/maida-vale","specials":{"count":"0"},"hereNow":{"count":"0"},"storeId":"1110466","referralId":"v-1392477985"},{"id":"51768a68e4b0ddc25a202f2e","name":"Raoul's Deli","location":{"address":"8 Clifton Road","lat":"51.52561299322759","lng":"-0.17891506563811652","distance":"166","postalCode":"W9 1SZ","cc":"GB","city":"London","state":"Greater London","country":"United Kingdom"},"categories":[{"id":"4bf58dd8d48988d1f5941735","name":"Gourmet Shop","pluralName":"Gourmet Shops","shortName":"Gourmet","icon":{"prefix":"https:\/\/ss1.4sqi.net\/img\/categories_v2\/shops\/food_gourmet_","suffix":".png"},"primary":"true"}],"verified":"false","restricted":"true","stats":{"checkinsCount":"12","usersCount":"10","tipCount":"0"},"specials":{"count":"0"},"hereNow":{"count":"0"},"referralId":"v-1392477985"},{"id":"4c0790398a81c9b6d95a2790","name":"Peter's Barber Shop","location":{"address":"Edgeware Rd.","lat":"51.523386","lng":"-0.175196","distance":"206","cc":"GB","city":"London","state":"Greater London","country":"United Kingdom"},"categories":[{"id":"4bf58dd8d48988d130941735","name":"Building","pluralName":"Buildings","shortName":"Building","icon":{"prefix":"https:\/\/ss1.4sqi.net\/img\/categories_v2\/building\/default_","suffix":".png"},"primary":"true"}],"verified":"false","restricted":"true","stats":{"checkinsCount":"71","usersCount":"14","tipCount":"2"},"specials":{"count":"0"},"hereNow":{"count":"0"},"referralId":"v-1392477985"},{"id":"511f54a4e4b0293c6f8ca1d2","name":"Clifton Court","location":{"address":"Northwick Terrace","lat":"51.52596601985687","lng":"-0.17687439896464419","distance":"197","cc":"GB","country":"United Kingdom"},"categories":[{"id":"4d954b06a243a5684965b473","name":"Residential Building (Apartment \/ Condo)","pluralName":"Residential Buildings (Apartments \/ Condos)","shortName":"Residential","icon":{"prefix":"https:\/\/ss1.4sqi.net\/img\/categories_v2\/building\/apartment_","suffix":".png"},"primary":"true"}],"verified":"false","restricted":"true","stats":{"checkinsCount":"79","usersCount":"15","tipCount":"0"},"specials":{"count":"0"},"hereNow":{"count":"0"},"referralId":"v-1392477985"},{"id":"4ac518e4f964a520d2aa20e3","name":"Hsing Chinese Cuisine","location":{"address":"451 Edgeware Road","lat":"51.52447202418685","lng":"-0.17720022240697084","distance":"46","postalCode":"W2 1TH","cc":"GB","city":"London","state":"Greater London","country":"United Kingdom"},"categories":[{"id":"4bf58dd8d48988d145941735","name":"Chinese Restaurant","pluralName":"Chinese Restaurants","shortName":"Chinese","icon":{"prefix":"https:\/\/ss1.4sqi.net\/img\/categories_v2\/food\/chinese_","suffix":".png"},"primary":"true"}],"verified":"false","restricted":"true","stats":{"checkinsCount":"30","usersCount":"20","tipCount":"2"},"specials":{"count":"0"},"hereNow":{"count":"0"},"referralId":"v-1392477985"},{"id":"4ba3fdd9f964a5202a7538e3","name":"Windsor Castle","location":{"address":"4 Lanark Place","lat":"51.52548674211006","lng":"-0.17882823944091797","distance":"151","cc":"GB","city":"Paddington","state":"Greater London","country":"United Kingdom"},"categories":[{"id":"4bf58dd8d48988d11b941735","name":"Pub","pluralName":"Pubs","shortName":"Pub","icon":{"prefix":"https:\/\/ss1.4sqi.net\/img\/categories_v2\/nightlife\/pub_","suffix":".png"},"primary":"true"}],"verified":"false","restricted":"true","stats":{"checkinsCount":"81","usersCount":"53","tipCount":"3"},"specials":{"count":"0"},"hereNow":{"count":"0"},"referralId":"v-1392477985"},{"id":"526ca70111d22cac10a640b0","name":"Miraviva Travel","contact":{"phone":"+442071861111","formattedPhone":"+44 20 7186 1111","twitter":"miravivatravel"},"location":{"address":"14 Clarendon Gardens","lat":"51.524390049234626","lng":"-0.18014802740676536","distance":"162","postalCode":"W9 1AY","cc":"GB","city":"London","state":"Greater London","country":"United Kingdom"},"categories":[{"id":"4f04b08c2fb6e1c99f3db0bd","name":"Travel Agency","pluralName":"Travel Agencies","shortName":"Travel Agency","icon":{"prefix":"https:\/\/ss1.4sqi.net\/img\/categories_v2\/travel\/travelagency_","suffix":".png"},"primary":"true"}],"verified":"false","restricted":"true","stats":{"checkinsCount":"3","usersCount":"1","tipCount":"0"},"url":"http:\/\/www.miravivatravel.com","specials":{"count":"0"},"hereNow":{"count":"0"},"referralId":"v-1392477985"},{"id":"52ceffaa498e800c8e7207a4","name":"Bombay Takeaway Club","contact":{"phone":"+442072667675","formattedPhone":"+44 20 7266 7675"},"location":{"address":"47 Maida Vale","crossStreet":"Clifton Rd.","lat":"51.52594732318736","lng":"-0.17868876457214355","distance":"194","postalCode":"W2 1SH","cc":"GB","city":"London","state":"Greater London","country":"United Kingdom"},"categories":[{"id":"4bf58dd8d48988d10f941735","name":"Indian Restaurant","pluralName":"Indian Restaurants","shortName":"Indian","icon":{"prefix":"https:\/\/ss1.4sqi.net\/img\/categories_v2\/food\/indian_","suffix":".png"},"primary":"true"}],"verified":"false","restricted":"true","stats":{"checkinsCount":"2","usersCount":"2","tipCount":"0"},"specials":{"count":"0"},"hereNow":{"count":"0"},"referralId":"v-1392477985"},{"id":"4eabfb27be7b42d00148a328","name":"The Parish Of Little Venice","location":{"lat":"51.52375060761085","lng":"-0.17849765152803285","distance":"76","cc":"GB","city":"Paddington","state":"Greater London","country":"United Kingdom"},"categories":[{"id":"4deefb944765f83613cdba6e","name":"Historic Site","pluralName":"Historic Sites","shortName":"Historic Site","icon":{"prefix":"https:\/\/ss1.4sqi.net\/img\/categories_v2\/arts_entertainment\/historicsite_","suffix":".png"},"primary":"true"}],"verified":"false","restricted":"true","stats":{"checkinsCount":"13","usersCount":"10","tipCount":"0"},"specials":{"count":"0"},"hereNow":{"count":"0"},"referralId":"v-1392477985"},{"id":"4dd69c77ae60680f14f1fa8b","name":"Sheepdrove Organic Farm","location":{"lat":"51.52574668001737","lng":"-0.17917359960610862","distance":"187","cc":"GB","city":"Paddington","state":"Greater London","country":"United Kingdom"},"categories":[{"id":"4d4b7105d754a06374d81259","name":"Food","pluralName":"Food","shortName":"Food","icon":{"prefix":"https:\/\/ss1.4sqi.net\/img\/categories_v2\/food\/default_","suffix":".png"},"primary":"true"}],"verified":"false","restricted":"true","stats":{"checkinsCount":"41","usersCount":"23","tipCount":"0"},"specials":{"count":"0"},"hereNow":{"count":"0"},"referralId":"v-1392477985"},{"id":"4ec6a71393ad41338bd42c77","name":"The Eagle","location":{"lat":"51.525592781545136","lng":"-0.17925286149690567","distance":"176","cc":"GB","city":"Paddington","state":"Greater London","country":"United Kingdom"},"categories":[{"id":"4bf58dd8d48988d11b941735","name":"Pub","pluralName":"Pubs","shortName":"Pub","icon":{"prefix":"https:\/\/ss1.4sqi.net\/img\/categories_v2\/nightlife\/pub_","suffix":".png"},"primary":"true"}],"verified":"false","restricted":"true","stats":{"checkinsCount":"82","usersCount":"67","tipCount":"1"},"specials":{"count":"0"},"hereNow":{"count":"0"},"referralId":"v-1392477985"},{"id":"4bbe9acdba9776b0be0bfec8","name":"St. Johns Wood Ambulance Station","contact":{"phone":"+442077832000","formattedPhone":"+44 20 7783 2000","twitter":"ldn_ambulance"},"location":{"address":"Lyons Pl","lat":"51.524426","lng":"-0.1767","distance":"77","postalCode":"NW8 8NL","cc":"GB","city":"London","country":"United Kingdom"},"categories":[{"id":"4bf58dd8d48988d104941735","name":"Medical Center","pluralName":"Medical Centers","shortName":"Medical","icon":{"prefix":"https:\/\/ss1.4sqi.net\/img\/categories_v2\/building\/medical_","suffix":".png"},"primary":"true"}],"verified":"false","restricted":"true","stats":{"checkinsCount":"20","usersCount":"11","tipCount":"0"},"url":"http:\/\/www.londonambulance.nhs.uk","specials":{"count":"0"},"hereNow":{"count":"0"},"referralId":"v-1392477985"},{"id":"5052f06ce4b04df23342ed16","name":"yvonne martin beauty clinic","location":{"lat":"51.525365","lng":"-0.178297","distance":"124","cc":"GB","country":"United Kingdom"},"categories":[{"id":"4bf58dd8d48988d1ed941735","name":"Spa","pluralName":"Spas","shortName":"Spa","icon":{"prefix":"https:\/\/ss1.4sqi.net\/img\/categories_v2\/shops\/spa_","suffix":".png"},"primary":"true"}],"verified":"false","restricted":"true","stats":{"checkinsCount":"5","usersCount":"3","tipCount":"0"},"specials":{"count":"0"},"hereNow":{"count":"0"},"referralId":"v-1392477985"},{"id":"517acccfe4b02c49526ab454","name":"Mesopotamia","location":{"lat":"51.524513553676115","lng":"-0.17657184960668026","distance":"88","cc":"GB","country":"United Kingdom"},"categories":[{"id":"4bf58dd8d48988d119941735","name":"Hookah Bar","pluralName":"Hookah Bars","shortName":"Hookah Bar","icon":{"prefix":"https:\/\/ss1.4sqi.net\/img\/categories_v2\/nightlife\/hookahbar_","suffix":".png"},"primary":"true"}],"verified":"false","restricted":"true","stats":{"checkinsCount":"6","usersCount":"6","tipCount":"0"},"specials":{"count":"0"},"hereNow":{"count":"0"},"referralId":"v-1392477985"},{"id":"4be9228bee96c928c2d5febf","name":"Mercury Dry Cleaners","location":{"address":"502 Edgware Road","lat":"51.524338","lng":"-0.176493","distance":"90","cc":"GB","city":"City of Westminster","state":"Greater London","country":"United Kingdom"},"verified":"false","restricted":"true","stats":{"checkinsCount":"3","usersCount":"2","tipCount":"0"},"specials":{"count":"0"},"hereNow":{"count":"0"},"referralId":"v-1392477985"},{"id":"4f194f8fe4b026aa4da0326c","name":"Inspire Dental, 500 Edgeware Road","location":{"address":"500 Edgware Road","lat":"51.52433421068386","lng":"-0.17630086352945742","distance":"104","cc":"GB","country":"United Kingdom"},"categories":[{"id":"4bf58dd8d48988d178941735","name":"Dentist's Office","pluralName":"Dentist's Offices","shortName":"Dentist's Office","icon":{"prefix":"https:\/\/ss1.4sqi.net\/img\/categories_v2\/building\/medical_dentist_","suffix":".png"},"primary":"true"}],"verified":"false","restricted":"true","stats":{"checkinsCount":"13","usersCount":"6","tipCount":"0"},"specials":{"count":"0"},"hereNow":{"count":"0"},"referralId":"v-1392477985"}],"confident":"false"}}