{"meta":{"code":"200"},"response":{"venues":[{"id":"4c5979c4f346c928e5964cca","name":"Towergate Insurance","contact":{"twitter":"towergate"},"location":{"address":"40 Mitre Street","lat":"51.51380899268613","lng":"-0.07797466668112868","distance":"54","postalCode":"EC3A 5BZ","cc":"GB","city":"London","state":"Greater London","country":"United Kingdom"},"categories":[{"id":"4bf58dd8d48988d124941735","name":"Office","pluralName":"Offices","shortName":"Office","icon":{"prefix":"https:\/\/ss1.4sqi.net\/img\/categories_v2\/building\/default_","suffix":".png"},"primary":"true"}],"verified":"true","restricted":"true","stats":{"checkinsCount":"748","usersCount":"53","tipCount":"0"},"url":"http:\/\/www.towergateinsurance.co.uk","specials":{"count":"0"},"hereNow":{"count":"0"},"storeId":"","referralId":"v-1392478024"},{"id":"51534cbae4b00614d7ce961b","name":"The Alice","location":{"address":"135-137 Houndsditch","crossStreet":"at Stoney Ln","lat":"51.51484379999999","lng":"-0.07789019999999999","distance":"62","postalCode":"EC3A 7BX","cc":"GB","city":"London","state":"Greater London","country":"United Kingdom"},"categories":[{"id":"4bf58dd8d48988d116941735","name":"Bar","pluralName":"Bars","shortName":"Bar","icon":{"prefix":"https:\/\/ss1.4sqi.net\/img\/categories_v2\/nightlife\/bar_","suffix":".png"},"primary":"true"}],"verified":"false","restricted":"true","stats":{"checkinsCount":"206","usersCount":"116","tipCount":"4"},"specials":{"count":"0"},"hereNow":{"count":"0"},"referralId":"v-1392478024"},{"id":"4f70a772e4b0f375fc669005","name":"The Association","contact":{"phone":"+442072831155","formattedPhone":"+44 20 7283 1155","twitter":"associationec3"},"location":{"address":"10\/12 Creechurch Ln.","crossStreet":"at Mitre St.","lat":"51.513744","lng":"-0.079082","distance":"107","postalCode":"EC3A 5AY","cc":"GB","city":"London","state":"Greater London","country":"United Kingdom"},"categories":[{"id":"4bf58dd8d48988d1e0931735","name":"Coffee Shop","pluralName":"Coffee Shops","shortName":"Coffee Shop","icon":{"prefix":"https:\/\/ss1.4sqi.net\/img\/categories_v2\/food\/coffeeshop_","suffix":".png"},"primary":"true"}],"verified":"false","restricted":"true","stats":{"checkinsCount":"708","usersCount":"216","tipCount":"13"},"url":"http:\/\/www.associationcoffee.com","menu":{"type":"Menu","label":"Menu","anchor":"View Menu","url":"https:\/\/foursquare.com\/v\/the-association\/4f70a772e4b0f375fc669005\/menu","mobileUrl":"https:\/\/foursquare.com\/v\/4f70a772e4b0f375fc669005\/device_menu"},"specials":{"count":"0"},"hereNow":{"count":"0"},"referralId":"v-1392478024"},{"id":"51027826e4b055abb02ef3c7","name":"Vital Ingredient","location":{"crossStreet":"Hounsditch","lat":"51.514691743819654","lng":"-0.07755134447042901","distance":"48","cc":"GB","country":"United Kingdom"},"categories":[{"id":"4bf58dd8d48988d1d1941735","name":"Ramen \/ Noodle House","pluralName":"Ramen \/ Noodle House","shortName":"Ramen \/ Noodles","icon":{"prefix":"https:\/\/ss1.4sqi.net\/img\/categories_v2\/food\/ramen_","suffix":".png"},"primary":"true"}],"verified":"false","restricted":"true","stats":{"checkinsCount":"102","usersCount":"31","tipCount":"0"},"specials":{"count":"0"},"hereNow":{"count":"0"},"referralId":"v-1392478024"},{"id":"4bb0ed77f964a520f96a3ce3","name":"The White Horse","contact":{"phone":"+442076238468","formattedPhone":"+44 20 7623 8468"},"location":{"address":"31 Houndsditch","lat":"51.514851025842454","lng":"-0.07792028154060875","distance":"63","postalCode":"EC3A 7DB","cc":"GB","city":"London","state":"Greater London","country":"United Kingdom"},"categories":[{"id":"4bf58dd8d48988d11b941735","name":"Pub","pluralName":"Pubs","shortName":"Pub","icon":{"prefix":"https:\/\/ss1.4sqi.net\/img\/categories_v2\/nightlife\/pub_","suffix":".png"},"primary":"true"}],"verified":"false","restricted":"true","stats":{"checkinsCount":"391","usersCount":"123","tipCount":"5"},"specials":{"count":"0"},"hereNow":{"count":"0"},"referralId":"v-1392478024"},{"id":"50a5ffb3e4b0060f453b1209","name":"Capita Employee Benefits","location":{"address":"1 Aldgate","lat":"51.51346537570179","lng":"-0.07719371548919043","distance":"100","postalCode":"EC3N 1LP","cc":"GB","city":"London","state":"Greater London","country":"United Kingdom"},"categories":[{"id":"4bf58dd8d48988d124941735","name":"Office","pluralName":"Offices","shortName":"Office","icon":{"prefix":"https:\/\/ss1.4sqi.net\/img\/categories_v2\/building\/default_","suffix":".png"},"primary":"true"}],"verified":"false","restricted":"true","stats":{"checkinsCount":"215","usersCount":"9","tipCount":"0"},"specials":{"count":"0"},"hereNow":{"count":"0"},"referralId":"v-1392478024"},{"id":"4b72aaa0f964a520e1822de3","name":"Cafe Cotto","contact":{"phone":"+442076261177","formattedPhone":"+44 20 7626 1177"},"location":{"address":"12 Mitre St","lat":"51.514007","lng":"-0.078993","distance":"88","postalCode":"EC3A 5HN","cc":"GB","city":"London","state":"Greater London","country":"United Kingdom"},"categories":[{"id":"4bf58dd8d48988d16d941735","name":"Caf\u00e9","pluralName":"Caf\u00e9s","shortName":"Caf\u00e9","icon":{"prefix":"https:\/\/ss1.4sqi.net\/img\/categories_v2\/food\/cafe_","suffix":".png"},"primary":"true"}],"verified":"false","restricted":"true","stats":{"checkinsCount":"55","usersCount":"11","tipCount":"2"},"specials":{"count":"0"},"hereNow":{"count":"0"},"referralId":"v-1392478024"},{"id":"4f575dd7e4b05abedfc29890","name":"Tesco Express","contact":{"phone":"+448456102739","formattedPhone":"+44 845 610 2739","twitter":"uktesco"},"location":{"address":"142 Houndsditch","crossStreet":"at St Botolph St.","lat":"51.514256704762914","lng":"-0.07682322179880852","distance":"67","postalCode":"EC3A 7DH","cc":"GB","city":"London","state":"Greater London","country":"United Kingdom"},"categories":[{"id":"4bf58dd8d48988d118951735","name":"Grocery Store","pluralName":"Grocery Stores","shortName":"Grocery Store","icon":{"prefix":"https:\/\/ss1.4sqi.net\/img\/categories_v2\/shops\/food_grocery_","suffix":".png"},"primary":"true"}],"verified":"false","restricted":"true","stats":{"checkinsCount":"115","usersCount":"39","tipCount":"0"},"url":"http:\/\/www.tesco.com","specials":{"count":"0"},"hereNow":{"count":"0"},"referralId":"v-1392478024"},{"id":"4cb215b2aef16dcbf1a6be54","name":"Mitre Square","location":{"address":"Mitre Square","lat":"51.51392396328955","lng":"-0.0780630111694336","distance":"44","cc":"GB","city":"London","state":"Greater London","country":"United Kingdom"},"categories":[{"id":"4bf58dd8d48988d162941735","name":"Other Great Outdoors","pluralName":"Other Great Outdoors","shortName":"Other Outdoors","icon":{"prefix":"https:\/\/ss1.4sqi.net\/img\/categories_v2\/parks_outdoors\/outdoors_","suffix":".png"},"primary":"true"}],"verified":"false","restricted":"true","stats":{"checkinsCount":"144","usersCount":"81","tipCount":"2"},"specials":{"count":"0"},"hereNow":{"count":"0"},"referralId":"v-1392478024"},{"id":"4d5d84f79ac9a093333b7c94","name":"Fora","contact":{"phone":"+442076262222","formattedPhone":"+44 20 7626 2222"},"location":{"address":"34-36 Houndsditch","lat":"51.514992241447835","lng":"-0.07844924926757812","distance":"90","postalCode":"EC3A 7DB","cc":"GB","city":"London","state":"Greater London","country":"United Kingdom"},"categories":[{"id":"4bf58dd8d48988d1c0941735","name":"Mediterranean Restaurant","pluralName":"Mediterranean Restaurants","shortName":"Mediterranean","icon":{"prefix":"https:\/\/ss1.4sqi.net\/img\/categories_v2\/food\/mediterranean_","suffix":".png"},"primary":"true"}],"verified":"false","restricted":"true","stats":{"checkinsCount":"195","usersCount":"133","tipCount":"7"},"url":"http:\/\/www.forarestaurants.co.uk","reservations":{"url":"http:\/\/www.toptable.co.uk\/single.aspx?rid=56992&ref=9601"},"menu":{"type":"Menu","label":"Menu","anchor":"View Menu","url":"https:\/\/foursquare.com\/v\/fora-city-of-london-greater-london\/4d5d84f79ac9a093333b7c94\/menu","mobileUrl":"https:\/\/foursquare.com\/v\/4d5d84f79ac9a093333b7c94\/device_menu"},"specials":{"count":"0"},"hereNow":{"count":"0"},"referralId":"v-1392478024"},{"id":"4c5683c0744a0f4768e3c6cb","name":"Pret A Manger","contact":{"phone":"+442079325448","formattedPhone":"+44 20 7932 5448","twitter":"pret","facebook":"162638680417951"},"location":{"address":"133 Houndsditch","lat":"51.5150952383","lng":"-0.0780909416527","distance":"91","postalCode":"EC3A 7BX","cc":"GB","city":"London","state":"Greater London","country":"United Kingdom"},"categories":[{"id":"4bf58dd8d48988d1c5941735","name":"Sandwich Place","pluralName":"Sandwich Places","shortName":"Sandwiches","icon":{"prefix":"https:\/\/ss1.4sqi.net\/img\/categories_v2\/food\/sandwiches_","suffix":".png"},"primary":"true"}],"verified":"true","restricted":"true","stats":{"checkinsCount":"507","usersCount":"132","tipCount":"1"},"url":"http:\/\/www.pret.com","specials":{"count":"0"},"hereNow":{"count":"0"},"storeId":"279","referralId":"v-1392478024"},{"id":"4b4d805cf964a52031d326e3","name":"London Metropolitan University","contact":{"phone":"+442074230000","formattedPhone":"+44 20 7423 0000","twitter":"londonmetuni"},"location":{"address":"31 Jewry St.","lat":"51.51301590715673","lng":"-0.0764322280883789","distance":"170","postalCode":"EC3N 2EY","cc":"GB","city":"London","state":"Greater London","country":"United Kingdom"},"categories":[{"id":"4bf58dd8d48988d1ae941735","name":"University","pluralName":"Universities","shortName":"University","icon":{"prefix":"https:\/\/ss1.4sqi.net\/img\/categories_v2\/education\/default_","suffix":".png"},"primary":"true"}],"verified":"false","restricted":"true","stats":{"checkinsCount":"615","usersCount":"144","tipCount":"1"},"url":"http:\/\/www.londonmet.ac.uk","specials":{"count":"0"},"hereNow":{"count":"0"},"referralId":"v-1392478024"},{"id":"4ce2809300166ea831f34688","name":"Trident Bar & Restaurant","location":{"lat":"51.51386012248278","lng":"-0.07841790068765742","distance":"63","cc":"GB","country":"United Kingdom"},"categories":[{"id":"4bf58dd8d48988d155941735","name":"Gastropub","pluralName":"Gastropubs","shortName":"Gastropub","icon":{"prefix":"https:\/\/ss1.4sqi.net\/img\/categories_v2\/food\/gastropub_","suffix":".png"},"primary":"true"}],"verified":"false","restricted":"true","stats":{"checkinsCount":"42","usersCount":"14","tipCount":"1"},"specials":{"count":"0"},"hereNow":{"count":"0"},"referralId":"v-1392478024"},{"id":"52d26883498e11138dd848bf","name":"picadilly circus","location":{"lat":"51.51048140703653","lng":"-0.12270410728314694","distance":"3139","cc":"GB","country":"United Kingdom"},"verified":"false","restricted":"true","stats":{"checkinsCount":"21","usersCount":"21","tipCount":"0"},"specials":{"count":"0"},"hereNow":{"count":"0"},"referralId":"v-1392478024"},{"id":"50a54efae4b091f48ef9002c","name":"Dukes Bar","location":{"lat":"51.51451752618944","lng":"-0.07739190047888565","distance":"38","cc":"GB","country":"United Kingdom"},"categories":[{"id":"4bf58dd8d48988d116941735","name":"Bar","pluralName":"Bars","shortName":"Bar","icon":{"prefix":"https:\/\/ss1.4sqi.net\/img\/categories_v2\/nightlife\/bar_","suffix":".png"},"primary":"true"}],"verified":"false","restricted":"true","stats":{"checkinsCount":"67","usersCount":"56","tipCount":"2"},"specials":{"count":"0"},"hereNow":{"count":"0"},"referralId":"v-1392478024"},{"id":"4d91d15cd7b1236a69403838","name":"EAT.","location":{"address":"The St Botolph Building","crossStreet":"St Botolph St.","lat":"51.51495918707668","lng":"-0.07682462059863018","distance":"100","cc":"GB","city":"London","state":"Greater London","country":"United Kingdom"},"categories":[{"id":"4bf58dd8d48988d1c5941735","name":"Sandwich Place","pluralName":"Sandwich Places","shortName":"Sandwiches","icon":{"prefix":"https:\/\/ss1.4sqi.net\/img\/categories_v2\/food\/sandwiches_","suffix":".png"},"primary":"true"}],"verified":"false","restricted":"true","stats":{"checkinsCount":"446","usersCount":"81","tipCount":"4"},"specials":{"count":"0"},"hereNow":{"count":"0"},"referralId":"v-1392478024"},{"id":"4b6dbefdf964a520e18b2ce3","name":"Travelodge","contact":{"phone":"+448719846190","formattedPhone":"+44 871 984 6190","twitter":"travelodgeuk"},"location":{"address":"1 Harrow Pl.","lat":"51.51555025316571","lng":"-0.07742884124666177","distance":"142","postalCode":"E1 7DB","cc":"GB","city":"Spitalfields","state":"Greater London","country":"United Kingdom"},"categories":[{"id":"4bf58dd8d48988d1fa931735","name":"Hotel","pluralName":"Hotels","shortName":"Hotel","icon":{"prefix":"https:\/\/ss1.4sqi.net\/img\/categories_v2\/travel\/hotel_","suffix":".png"},"primary":"true"}],"verified":"false","restricted":"true","stats":{"checkinsCount":"422","usersCount":"194","tipCount":"10"},"specials":{"count":"0"},"hereNow":{"count":"1","groups":[{"type":"others","name":"Other people here","count":"1"}]},"referralId":"v-1392478024"},{"id":"4c8f8081d80976b0b9c58975","name":"The St. Botolph Building","location":{"address":"138 Houndsditch","crossStreet":"at Stoney Ln","lat":"51.51467176063095","lng":"-0.07694721221923828","distance":"73","postalCode":"EC3","cc":"GB","city":"London","state":"Greater London","country":"United Kingdom"},"categories":[{"id":"4bf58dd8d48988d124941735","name":"Office","pluralName":"Offices","shortName":"Office","icon":{"prefix":"https:\/\/ss1.4sqi.net\/img\/categories_v2\/building\/default_","suffix":".png"},"primary":"true"}],"verified":"false","restricted":"true","stats":{"checkinsCount":"111","usersCount":"33","tipCount":"0"},"specials":{"count":"0"},"hereNow":{"count":"0"},"referralId":"v-1392478024"},{"id":"520e32c911d20eb92b870ef2","name":"JLT The St. Botolph Building","location":{"lat":"51.51491804193572","lng":"-0.07740943802843135","distance":"75","cc":"GB","country":"United Kingdom"},"categories":[{"id":"4bf58dd8d48988d124941735","name":"Office","pluralName":"Offices","shortName":"Office","icon":{"prefix":"https:\/\/ss1.4sqi.net\/img\/categories_v2\/building\/default_","suffix":".png"},"primary":"true"}],"verified":"false","restricted":"true","stats":{"checkinsCount":"36","usersCount":"11","tipCount":"0"},"specials":{"count":"0"},"hereNow":{"count":"0"},"referralId":"v-1392478024"},{"id":"4f1ef13be4b0475dfa997863","name":"Capita","location":{"lat":"51.514601","lng":"-0.077395","distance":"44","cc":"GB","country":"United Kingdom"},"verified":"false","restricted":"true","stats":{"checkinsCount":"3","usersCount":"3","tipCount":"0"},"specials":{"count":"0"},"hereNow":{"count":"0"},"referralId":"v-1392478024"},{"id":"4be7e7bcd837c9b6f0a2a406","name":"Beaufort House","location":{"lat":"51.51483727773727","lng":"-0.07623882377980444","distance":"124","cc":"GB","country":"United Kingdom"},"categories":[{"id":"4bf58dd8d48988d124941735","name":"Office","pluralName":"Offices","shortName":"Office","icon":{"prefix":"https:\/\/ss1.4sqi.net\/img\/categories_v2\/building\/default_","suffix":".png"},"primary":"true"}],"verified":"false","restricted":"true","stats":{"checkinsCount":"464","usersCount":"107","tipCount":"1"},"specials":{"count":"0"},"hereNow":{"count":"0"},"referralId":"v-1392478024"},{"id":"4d0f55905584f04db7495116","name":"Codehouse","contact":{"phone":"+442073981491","formattedPhone":"+44 20 7398 1491","twitter":"codehouse"},"location":{"address":"39 Houndsditch","lat":"51.515020178882","lng":"-0.07832229175543297","distance":"88","postalCode":"EC3A 7DB","cc":"GB","city":"London","state":"Greater London","country":"United Kingdom"},"categories":[{"id":"4bf58dd8d48988d124941735","name":"Office","pluralName":"Offices","shortName":"Office","icon":{"prefix":"https:\/\/ss1.4sqi.net\/img\/categories_v2\/building\/default_","suffix":".png"},"primary":"true"}],"verified":"false","restricted":"true","stats":{"checkinsCount":"948","usersCount":"8","tipCount":"1"},"specials":{"count":"0"},"hereNow":{"count":"0"},"referralId":"v-1392478024"},{"id":"4ad85419f964a520091121e3","name":"The Old Tea Warehouse","contact":{"phone":"+442076211913","formattedPhone":"+44 20 7621 1913"},"location":{"address":"4-8 Creechurch Ln","crossStreet":"near Leadenhall St","lat":"51.513336399623476","lng":"-0.07892131805419922","distance":"131","postalCode":"EC3A 5AY","cc":"GB","city":"London","state":"Greater London","country":"United Kingdom"},"categories":[{"id":"4bf58dd8d48988d11b941735","name":"Pub","pluralName":"Pubs","shortName":"Pub","icon":{"prefix":"https:\/\/ss1.4sqi.net\/img\/categories_v2\/nightlife\/pub_","suffix":".png"},"primary":"true"}],"verified":"false","restricted":"true","stats":{"checkinsCount":"286","usersCount":"158","tipCount":"1"},"reservations":{"url":"http:\/\/www.toptable.co.uk\/single.aspx?rid=100227&ref=9601"},"specials":{"count":"0"},"hereNow":{"count":"0"},"referralId":"v-1392478024"},{"id":"5069f476e4b01f86f2488d4b","name":"Mitre Passage","location":{"lat":"51.514111","lng":"-0.078619","distance":"59","cc":"GB","country":"United Kingdom"},"categories":[{"id":"4bf58dd8d48988d162941735","name":"Other Great Outdoors","pluralName":"Other Great Outdoors","shortName":"Other Outdoors","icon":{"prefix":"https:\/\/ss1.4sqi.net\/img\/categories_v2\/parks_outdoors\/outdoors_","suffix":".png"},"primary":"true"}],"verified":"false","restricted":"true","stats":{"checkinsCount":"8","usersCount":"5","tipCount":"0"},"specials":{"count":"0"},"hereNow":{"count":"0"},"referralId":"v-1392478024"},{"id":"4ac518bbf964a5202ba220e3","name":"The Slug and Lettuce","location":{"address":"9 Stoney Lane","lat":"51.51507753369633","lng":"-0.07740540965095179","distance":"91","postalCode":"E1 7BH","cc":"GB","city":"London","state":"Greater London","country":"United Kingdom"},"categories":[{"id":"4bf58dd8d48988d116941735","name":"Bar","pluralName":"Bars","shortName":"Bar","icon":{"prefix":"https:\/\/ss1.4sqi.net\/img\/categories_v2\/nightlife\/bar_","suffix":".png"},"primary":"true"}],"verified":"false","restricted":"true","stats":{"checkinsCount":"169","usersCount":"96","tipCount":"4"},"specials":{"count":"0"},"hereNow":{"count":"0"},"referralId":"v-1392478024"},{"id":"4c359f3266e40f47326ccb8b","name":"Lockton","location":{"address":"Houndsditch","crossStreet":"Stoney Lane","lat":"51.51479992099488","lng":"-0.0773464194471199","distance":"65","cc":"GB","city":"London","state":"Greater London","country":"United Kingdom"},"categories":[{"id":"4bf58dd8d48988d124941735","name":"Office","pluralName":"Offices","shortName":"Office","icon":{"prefix":"https:\/\/ss1.4sqi.net\/img\/categories_v2\/building\/default_","suffix":".png"},"primary":"true"}],"verified":"false","restricted":"true","stats":{"checkinsCount":"31","usersCount":"15","tipCount":"0"},"specials":{"count":"0"},"hereNow":{"count":"0"},"referralId":"v-1392478024"},{"id":"4c2cd590d1a10f47b414fa64","name":"La Piazzetta Bistro & Bar","contact":{"phone":"+442072471224","formattedPhone":"+44 20 7247 1224"},"location":{"address":"1 White Kennett Street","lat":"51.515127","lng":"-0.076871","distance":"113","postalCode":"E1","cc":"GB","city":"London","state":"Greater London","country":"United Kingdom"},"categories":[{"id":"4bf58dd8d48988d110941735","name":"Italian Restaurant","pluralName":"Italian Restaurants","shortName":"Italian","icon":{"prefix":"https:\/\/ss1.4sqi.net\/img\/categories_v2\/food\/italian_","suffix":".png"},"primary":"true"}],"verified":"false","restricted":"true","stats":{"checkinsCount":"455","usersCount":"97","tipCount":"3"},"specials":{"count":"0"},"hereNow":{"count":"0"},"referralId":"v-1392478024"},{"id":"52de369a498ef27c6f84dbf4","name":"Torus Insurance","location":{"address":"88 Leadenhall Street","lat":"51.513941","lng":"-0.07959","distance":"129","cc":"GB","city":"London","state":"Greater London","country":"United Kingdom"},"categories":[{"id":"4bf58dd8d48988d124941735","name":"Office","pluralName":"Offices","shortName":"Office","icon":{"prefix":"https:\/\/ss1.4sqi.net\/img\/categories_v2\/building\/default_","suffix":".png"},"primary":"true"}],"verified":"false","restricted":"true","stats":{"checkinsCount":"12","usersCount":"1","tipCount":"0"},"specials":{"count":"0"},"hereNow":{"count":"0"},"referralId":"v-1392478024"},{"id":"4f315e9fe4b057434c648a27","name":"Clyde & Co","location":{"address":"138 Hounsditch","lat":"51.51489230017065","lng":"-0.0777309244353906","distance":"67","postalCode":"EC3A 7AR","cc":"GB","city":"London","state":"Greater London","country":"United Kingdom"},"categories":[{"id":"4bf58dd8d48988d124941735","name":"Office","pluralName":"Offices","shortName":"Office","icon":{"prefix":"https:\/\/ss1.4sqi.net\/img\/categories_v2\/building\/default_","suffix":".png"},"primary":"true"}],"verified":"false","restricted":"true","stats":{"checkinsCount":"70","usersCount":"16","tipCount":"0"},"specials":{"count":"0"},"hereNow":{"count":"0"},"referralId":"v-1392478024"},{"id":"4b4c76a4f964a52098b326e3","name":"Post Office","location":{"address":"11 White Kennet St","lat":"51.51533942645497","lng":"-0.07712960243225098","distance":"125","postalCode":"E1 7BS","cc":"GB","city":"London","state":"Greater London","country":"United Kingdom"},"categories":[{"id":"4bf58dd8d48988d172941735","name":"Post Office","pluralName":"Post Offices","shortName":"Post Office","icon":{"prefix":"https:\/\/ss1.4sqi.net\/img\/categories_v2\/building\/postoffice_","suffix":".png"},"primary":"true"}],"verified":"true","restricted":"true","stats":{"checkinsCount":"496","usersCount":"168","tipCount":"4"},"url":"http:\/\/www.postoffice.co.uk","specials":{"count":"0"},"hereNow":{"count":"0"},"referralId":"v-1392478024"}],"confident":"false"}}