{"meta":{"code":"200"},"response":{"venues":[{"id":"5199f413498e99518665a423","name":"City of London","contact":{"twitter":"cityoflondon"},"location":{"address":"Everywhere!","lat":"51.514571609913254","lng":"-0.08746147155761717","distance":"39","postalCode":"EC,WC & E1","cc":"GB","city":"London","state":"Greater London","country":"United Kingdom"},"categories":[{"id":"50aa9e094b90af0d42d5de0d","name":"City","pluralName":"Cities","shortName":"City","icon":{"prefix":"https:\/\/ss1.4sqi.net\/img\/categories_v2\/parks_outdoors\/neighborhood_","suffix":".png"},"primary":"true"}],"verified":"false","restricted":"true","stats":{"checkinsCount":"1282","usersCount":"525","tipCount":"4"},"url":"http:\/\/www.cityoflondon.gov.uk","specials":{"count":"0"},"hereNow":{"count":"1","groups":[{"type":"others","name":"Other people here","count":"1"}]},"referralId":"v-1392478020"},{"id":"4b1e1a0df964a5206d1724e3","name":"Bank of England","contact":{"phone":"+442076014878","formattedPhone":"+44 20 7601 4878"},"location":{"address":"Threadneedle St","lat":"51.51388390237126","lng":"-0.08866310119628906","distance":"74","postalCode":"EC2R 8AH","cc":"GB","city":"London","state":"Greater London","country":"United Kingdom"},"categories":[{"id":"4bf58dd8d48988d10a951735","name":"Bank","pluralName":"Banks","shortName":"Bank","icon":{"prefix":"https:\/\/ss1.4sqi.net\/img\/categories_v2\/shops\/financial_","suffix":".png"},"primary":"true"}],"verified":"false","restricted":"true","stats":{"checkinsCount":"3389","usersCount":"1770","tipCount":"13"},"specials":{"count":"0"},"hereNow":{"count":"0"},"referralId":"v-1392478020"},{"id":"4ac518cdf964a520e7a520e3","name":"Bank of England Museum","contact":{"phone":"+442076015545","formattedPhone":"+44 20 7601 5545"},"location":{"address":"Threadneedle St.","lat":"51.51419285111008","lng":"-0.08728070182292523","distance":"37","postalCode":"EC2R 8AH","cc":"GB","city":"London","state":"Greater London","country":"United Kingdom"},"categories":[{"id":"4bf58dd8d48988d181941735","name":"Museum","pluralName":"Museums","shortName":"Museum","icon":{"prefix":"https:\/\/ss1.4sqi.net\/img\/categories_v2\/arts_entertainment\/museum_","suffix":".png"},"primary":"true"}],"verified":"false","restricted":"true","stats":{"checkinsCount":"679","usersCount":"411","tipCount":"12"},"specials":{"count":"0"},"hereNow":{"count":"0"},"referralId":"v-1392478020"},{"id":"4ac518f3f964a520ccae20e3","name":"The Royal Exchange","location":{"address":"5-14 Cornhill","lat":"51.51359679809241","lng":"-0.08730053901672363","distance":"84","postalCode":"EC3V 3","cc":"GB","city":"London","state":"Greater London","country":"United Kingdom"},"categories":[{"id":"503287a291d4c4b30a586d65","name":"Financial or Legal Service","pluralName":"Financial or Legal Services","shortName":"Financial \/ Legal","icon":{"prefix":"https:\/\/ss1.4sqi.net\/img\/categories_v2\/shops\/financial_","suffix":".png"},"primary":"true"}],"verified":"false","restricted":"true","stats":{"checkinsCount":"3443","usersCount":"1907","tipCount":"22"},"url":"http:\/\/www.royalexchange-grandcafe.co.uk\/mezzanine-lounge","menu":{"type":"Menu","label":"Menu","anchor":"View Menu","url":"https:\/\/foursquare.com\/v\/the-royal-exchange\/4ac518f3f964a520ccae20e3\/menu","mobileUrl":"https:\/\/foursquare.com\/v\/4ac518f3f964a520ccae20e3\/device_menu"},"specials":{"count":"0"},"hereNow":{"count":"0"},"referralId":"v-1392478020"},{"id":"4c8fa1cfa8de224b733c3101","name":"Silicon Valley Bank","contact":{"phone":"+442073677800","formattedPhone":"+44 20 7367 7800","twitter":"svb_uk"},"location":{"address":"41 Lothbury","lat":"51.51434615247549","lng":"-0.08809172030924492","distance":"20","postalCode":"EC2R 7HF","cc":"GB","city":"London","state":"Greater London","country":"United Kingdom"},"categories":[{"id":"4bf58dd8d48988d130941735","name":"Building","pluralName":"Buildings","shortName":"Building","icon":{"prefix":"https:\/\/ss1.4sqi.net\/img\/categories_v2\/building\/default_","suffix":".png"},"primary":"true"}],"verified":"false","restricted":"true","stats":{"checkinsCount":"283","usersCount":"38","tipCount":"0"},"url":"http:\/\/www.svb.com\/uk\/","specials":{"count":"0"},"hereNow":{"count":"0"},"referralId":"v-1392478020"},{"id":"50c20dc3e4b01800256ca703","name":"Bank","location":{"address":"Everywhere!","lat":"51.513452351778575","lng":"-0.08840399166430739","distance":"102","cc":"GB","city":"London","state":"Greater London","country":"United Kingdom"},"categories":[{"id":"4f2a25ac4b909258e854f55f","name":"Neighborhood","pluralName":"Neighborhoods","shortName":"Neighborhood","icon":{"prefix":"https:\/\/ss1.4sqi.net\/img\/categories_v2\/parks_outdoors\/neighborhood_","suffix":".png"},"primary":"true"}],"verified":"false","restricted":"true","stats":{"checkinsCount":"1021","usersCount":"675","tipCount":"3"},"specials":{"count":"0"},"hereNow":{"count":"0"},"referralId":"v-1392478020"},{"id":"5124befce4b0860020e50bdc","name":"1Threadneedle Street","location":{"address":"1 Threadneedle Street","crossStreet":"Royal Exchange Buildings","lat":"51.51401827679588","lng":"-0.08727547773959202","distance":"47","cc":"GB","city":"London","state":"Greater London","country":"United Kingdom"},"categories":[{"id":"4bf58dd8d48988d130941735","name":"Building","pluralName":"Buildings","shortName":"Building","icon":{"prefix":"https:\/\/ss1.4sqi.net\/img\/categories_v2\/building\/default_","suffix":".png"},"primary":"true"}],"verified":"false","restricted":"true","stats":{"checkinsCount":"22","usersCount":"5","tipCount":"0"},"specials":{"count":"0"},"hereNow":{"count":"0"},"referralId":"v-1392478020"},{"id":"4af89520f964a520710e22e3","name":"Le Relais de Venise","location":{"address":"5 Throgmorton St","lat":"51.51468043671123","lng":"-0.08643426045205199","distance":"104","postalCode":"EC2N","cc":"GB","city":"London","state":"Greater London","country":"United Kingdom"},"categories":[{"id":"4bf58dd8d48988d10c941735","name":"French Restaurant","pluralName":"French Restaurants","shortName":"French","icon":{"prefix":"https:\/\/ss1.4sqi.net\/img\/categories_v2\/food\/french_","suffix":".png"},"primary":"true"}],"verified":"false","restricted":"true","stats":{"checkinsCount":"852","usersCount":"567","tipCount":"22"},"specials":{"count":"0"},"hereNow":{"count":"0"},"referralId":"v-1392478020"},{"id":"4ac518c0f964a5207ea320e3","name":"Abacus","contact":{"phone":"+442073376767","formattedPhone":"+44 20 7337 6767","twitter":"latenightlondon","facebook":"35693999927"},"location":{"address":"24 Cornhill","lat":"51.513393","lng":"-0.087127","distance":"110","postalCode":"EC3V 3ND","cc":"GB","city":"London","state":"Greater London","country":"United Kingdom"},"categories":[{"id":"4bf58dd8d48988d116941735","name":"Bar","pluralName":"Bars","shortName":"Bar","icon":{"prefix":"https:\/\/ss1.4sqi.net\/img\/categories_v2\/nightlife\/bar_","suffix":".png"},"primary":"true"}],"verified":"true","restricted":"true","stats":{"checkinsCount":"1209","usersCount":"881","tipCount":"19"},"url":"http:\/\/www.abacusbar.co.uk","reservations":{"url":"http:\/\/www.toptable.co.uk\/single.aspx?rid=54463&ref=9601"},"menu":{"type":"Menu","label":"Menu","anchor":"View Menu","url":"https:\/\/foursquare.com\/v\/abacus\/4ac518c0f964a5207ea320e3\/menu","mobileUrl":"https:\/\/foursquare.com\/v\/4ac518c0f964a5207ea320e3\/device_menu"},"specials":{"count":"0"},"hereNow":{"count":"0"},"storeId":"","referralId":"v-1392478020"},{"id":"4eb14c2649013eafe6665756","name":"Arrow ECS","contact":{"phone":"+442076182480","formattedPhone":"+44 20 7618 2480"},"location":{"address":"4th floor, Royal Exchange Avenue","lat":"51.51366899774535","lng":"-0.08716537038057462","distance":"81","postalCode":"8","cc":"GB","city":"City of London","country":"United Kingdom"},"categories":[{"id":"4bf58dd8d48988d124941735","name":"Office","pluralName":"Offices","shortName":"Office","icon":{"prefix":"https:\/\/ss1.4sqi.net\/img\/categories_v2\/building\/default_","suffix":".png"},"primary":"true"}],"verified":"false","restricted":"true","stats":{"checkinsCount":"197","usersCount":"72","tipCount":"1"},"specials":{"count":"0"},"hereNow":{"count":"0"},"referralId":"v-1392478020"},{"id":"4b7d87fdf964a520dbc42fe3","name":"Mint Leaf Lounge","location":{"address":"12 Angel Ct.","lat":"51.51501378611821","lng":"-0.087387275648128","distance":"85","postalCode":"EC2R 7","cc":"GB","city":"London","state":"Greater London","country":"United Kingdom"},"categories":[{"id":"4bf58dd8d48988d142941735","name":"Asian Restaurant","pluralName":"Asian Restaurants","shortName":"Asian","icon":{"prefix":"https:\/\/ss1.4sqi.net\/img\/categories_v2\/food\/asian_","suffix":".png"},"primary":"true"}],"verified":"false","restricted":"true","stats":{"checkinsCount":"395","usersCount":"291","tipCount":"8"},"url":"http:\/\/www.mintleaflounge.com","reservations":{"url":"http:\/\/www.toptable.co.uk\/single.aspx?rid=31327&ref=9601"},"menu":{"type":"Menu","label":"Menu","anchor":"View Menu","url":"https:\/\/foursquare.com\/v\/mint-leaf-lounge\/4b7d87fdf964a520dbc42fe3\/menu","mobileUrl":"https:\/\/foursquare.com\/v\/4b7d87fdf964a520dbc42fe3\/device_menu"},"specials":{"count":"0"},"hereNow":{"count":"0"},"referralId":"v-1392478020"},{"id":"51715d33e4b0e5ceaa967f88","name":"Panino Giusto","contact":{"phone":"+442072830057","formattedPhone":"+44 20 7283 0057","twitter":"paninogiusto"},"location":{"address":"1-3 Royal Exchange Building","lat":"51.5135400447068","lng":"-0.08745074272155762","distance":"86","postalCode":"EC3V 3LR","cc":"GB","city":"London","state":"Greater London","country":"United Kingdom"},"categories":[{"id":"4bf58dd8d48988d1c5941735","name":"Sandwich Place","pluralName":"Sandwich Places","shortName":"Sandwiches","icon":{"prefix":"https:\/\/ss1.4sqi.net\/img\/categories_v2\/food\/sandwiches_","suffix":".png"},"primary":"true"}],"verified":"false","restricted":"true","stats":{"checkinsCount":"135","usersCount":"70","tipCount":"1"},"url":"http:\/\/www.paninogiusto.it\/en\/","reservations":{"url":"http:\/\/www.toptable.co.uk\/single.aspx?rid=97971&ref=9601"},"menu":{"type":"Menu","label":"Menu","anchor":"View Menu","url":"https:\/\/foursquare.com\/v\/panino-giusto\/51715d33e4b0e5ceaa967f88\/menu","mobileUrl":"https:\/\/foursquare.com\/v\/51715d33e4b0e5ceaa967f88\/device_menu"},"specials":{"count":"0"},"hereNow":{"count":"0"},"referralId":"v-1392478020"},{"id":"5238081411d2aec1841423c5","name":"RBS - Threadneedle","location":{"lat":"51.514136","lng":"-0.087082","distance":"52","cc":"GB","country":"United Kingdom"},"categories":[{"id":"4bf58dd8d48988d124941735","name":"Office","pluralName":"Offices","shortName":"Office","icon":{"prefix":"https:\/\/ss1.4sqi.net\/img\/categories_v2\/building\/default_","suffix":".png"},"primary":"true"}],"verified":"false","restricted":"true","stats":{"checkinsCount":"27","usersCount":"4","tipCount":"0"},"specials":{"count":"0"},"hereNow":{"count":"0"},"referralId":"v-1392478020"},{"id":"4ac518e1f964a5206eaa20e3","name":"Sauterelle","contact":{"phone":"+442076182483","formattedPhone":"+44 20 7618 2483","twitter":"danddlondon"},"location":{"address":"The Royal Exchange","crossStreet":"btwn Old Broad St. & Cornhill","lat":"51.51367408833626","lng":"-0.08725702878143116","distance":"78","postalCode":"EC3V 3LR","cc":"GB","city":"London","state":"Greater London","country":"United Kingdom"},"categories":[{"id":"4bf58dd8d48988d10c941735","name":"French Restaurant","pluralName":"French Restaurants","shortName":"French","icon":{"prefix":"https:\/\/ss1.4sqi.net\/img\/categories_v2\/food\/french_","suffix":".png"},"primary":"true"}],"verified":"true","restricted":"true","stats":{"checkinsCount":"89","usersCount":"75","tipCount":"4"},"url":"http:\/\/www.sauterelle-restaurant.co.uk","reservations":{"url":"http:\/\/www.toptable.co.uk\/single.aspx?rid=81328&ref=9601"},"menu":{"type":"Menu","label":"Menu","anchor":"View Menu","url":"https:\/\/foursquare.com\/v\/sauterelle\/4ac518e1f964a5206eaa20e3\/menu","mobileUrl":"https:\/\/foursquare.com\/v\/4ac518e1f964a5206eaa20e3\/device_menu"},"specials":{"count":"0"},"hereNow":{"count":"0"},"storeId":"","referralId":"v-1392478020"},{"id":"4cd5904a4ebba090d3b8a9d6","name":"T\u00fcrkiye Is Bankasi A.S. London Branch","contact":{"twitter":"dentalturk"},"location":{"address":"8 Princes Street","lat":"51.51429839453214","lng":"-0.08939987526721248","distance":"110","postalCode":"EC2R 8HL","cc":"GB","city":"London","state":"Greater London","country":"United Kingdom"},"categories":[{"id":"4bf58dd8d48988d10a951735","name":"Bank","pluralName":"Banks","shortName":"Bank","icon":{"prefix":"https:\/\/ss1.4sqi.net\/img\/categories_v2\/shops\/financial_","suffix":".png"},"primary":"true"}],"verified":"false","restricted":"true","stats":{"checkinsCount":"155","usersCount":"91","tipCount":"1"},"specials":{"count":"0"},"hereNow":{"count":"0"},"referralId":"v-1392478020"},{"id":"4ad4693af964a520cae720e3","name":"Paul A Young Fine Chocolates","contact":{"phone":"+442079297007","formattedPhone":"+44 20 7929 7007"},"location":{"address":"20 The Royal Exchange, Threadneedle St","lat":"51.51373701203605","lng":"-0.08686065673828125","distance":"89","postalCode":"EC3V 3LP","cc":"GB","city":"London","state":"Greater London","country":"United Kingdom"},"categories":[{"id":"4bf58dd8d48988d117951735","name":"Candy Store","pluralName":"Candy Stores","shortName":"Candy Store","icon":{"prefix":"https:\/\/ss1.4sqi.net\/img\/categories_v2\/shops\/candystore_","suffix":".png"},"primary":"true"}],"verified":"true","restricted":"true","stats":{"checkinsCount":"297","usersCount":"221","tipCount":"7"},"url":"http:\/\/www.paulayoung.co.uk","specials":{"count":"1","items":[{"id":"4c06d43786ba62b5855388b3","type":"count","message":"Show the you've checked in on Foursquare and get free award winning chocolate truffles. Best in the U.K.!","description":"Unlocked on your 1st check-in","icon":"newbie","title":"Newbie Special","provider":"foursquare","redemption":"standard"}]},"hereNow":{"count":"0"},"referralId":"v-1392478020"},{"id":"51781732e4b0a9fc27363c69","name":"Mezzanine Lounge at the Royal Exchange","location":{"address":"Royal Exchange","lat":"51.51363018240385","lng":"-0.08718252182006836","distance":"85","postalCode":"EC3V 3LR","cc":"GB","city":"London","state":"Greater London","country":"United Kingdom"},"categories":[{"id":"4bf58dd8d48988d11e941735","name":"Cocktail Bar","pluralName":"Cocktail Bars","shortName":"Cocktail","icon":{"prefix":"https:\/\/ss1.4sqi.net\/img\/categories_v2\/nightlife\/cocktails_","suffix":".png"},"primary":"true"}],"verified":"false","restricted":"true","stats":{"checkinsCount":"25","usersCount":"10","tipCount":"0"},"specials":{"count":"0"},"hereNow":{"count":"0"},"referralId":"v-1392478020"},{"id":"5138ce6ee4b069e508f5e083","name":"Smokers Paradise","location":{"address":"33 Royal Exchange","lat":"51.513960988862635","lng":"-0.08798664109966103","distance":"38","postalCode":"EC3V 3LP","cc":"GB","city":"London","state":"Greater London","country":"United Kingdom"},"categories":[{"id":"4bf58dd8d48988d123951735","name":"Smoke Shop","pluralName":"Smoke Shops","shortName":"Smoke Shop","icon":{"prefix":"https:\/\/ss1.4sqi.net\/img\/categories_v2\/shops\/tobacco_","suffix":".png"},"primary":"true"}],"verified":"false","restricted":"true","stats":{"checkinsCount":"13","usersCount":"4","tipCount":"1"},"specials":{"count":"0"},"hereNow":{"count":"0"},"referralId":"v-1392478020"},{"id":"50bf45a1e4b06e050c6116ad","name":"N+1 Singer","location":{"lat":"51.514582","lng":"-0.087587","distance":"35","cc":"GB","country":"United Kingdom"},"categories":[{"id":"4bf58dd8d48988d124941735","name":"Office","pluralName":"Offices","shortName":"Office","icon":{"prefix":"https:\/\/ss1.4sqi.net\/img\/categories_v2\/building\/default_","suffix":".png"},"primary":"true"}],"verified":"false","restricted":"true","stats":{"checkinsCount":"6","usersCount":"3","tipCount":"0"},"specials":{"count":"0"},"hereNow":{"count":"0"},"referralId":"v-1392478020"},{"id":"52e6048211d230e18f0f9633","name":"Maxis Investments","location":{"address":"7 Princes Street","lat":"51.514158","lng":"-0.08946","distance":"115","cc":"GB","city":"London","state":"Greater London","country":"United Kingdom"},"categories":[{"id":"4bf58dd8d48988d124941735","name":"Office","pluralName":"Offices","shortName":"Office","icon":{"prefix":"https:\/\/ss1.4sqi.net\/img\/categories_v2\/building\/default_","suffix":".png"},"primary":"true"}],"verified":"false","restricted":"true","stats":{"checkinsCount":"8","usersCount":"1","tipCount":"0"},"specials":{"count":"0"},"hereNow":{"count":"0"},"referralId":"v-1392478020"},{"id":"4af00367f964a52078da21e3","name":"The Grand Cafe","contact":{"phone":"+442076182480","formattedPhone":"+44 20 7618 2480","twitter":"rexlondon"},"location":{"address":"The Royal Exchange","crossStreet":"btwn Cornhill & Old Broad St.","lat":"51.513622693144946","lng":"-0.08726807078357918","distance":"82","postalCode":"EC3V 3LL","cc":"GB","city":"London","state":"Greater London","country":"United Kingdom"},"categories":[{"id":"4bf58dd8d48988d16d941735","name":"Caf\u00e9","pluralName":"Caf\u00e9s","shortName":"Caf\u00e9","icon":{"prefix":"https:\/\/ss1.4sqi.net\/img\/categories_v2\/food\/cafe_","suffix":".png"},"primary":"true"}],"verified":"true","restricted":"true","stats":{"checkinsCount":"330","usersCount":"240","tipCount":"5"},"url":"http:\/\/www.royalexchange-grandcafe.co.uk","specials":{"count":"0"},"hereNow":{"count":"0"},"venuePage":{"id":"34408654"},"storeId":"The Gramd Cafe","referralId":"v-1392478020"},{"id":"4c160ca4a5eb76b0df23c4b7","name":"Kiehl's","location":{"address":"Royal Exchange, unit 14-15","lat":"51.51374129822659","lng":"-0.08688500828294142","distance":"88","postalCode":"EC3V","cc":"GB","city":"London","state":"Greater London","country":"United Kingdom"},"categories":[{"id":"4bf58dd8d48988d10c951735","name":"Cosmetics Shop","pluralName":"Cosmetics Shops","shortName":"Cosmetics","icon":{"prefix":"https:\/\/ss1.4sqi.net\/img\/categories_v2\/shops\/beauty_cosmetic_","suffix":".png"},"primary":"true"}],"verified":"false","restricted":"true","stats":{"checkinsCount":"15","usersCount":"14","tipCount":"0"},"specials":{"count":"0"},"hereNow":{"count":"0"},"referralId":"v-1392478020"},{"id":"4ac518ddf964a52062a920e3","name":"Imperial City Chinese Restaurant and Bar","location":{"address":"Cornhill","lat":"51.51340196038664","lng":"-0.08733652102294025","distance":"103","postalCode":"EC3V 3LL","cc":"GB","city":"London","state":"Greater London","country":"United Kingdom"},"categories":[{"id":"4bf58dd8d48988d145941735","name":"Chinese Restaurant","pluralName":"Chinese Restaurants","shortName":"Chinese","icon":{"prefix":"https:\/\/ss1.4sqi.net\/img\/categories_v2\/food\/chinese_","suffix":".png"},"primary":"true"}],"verified":"false","restricted":"true","stats":{"checkinsCount":"87","usersCount":"65","tipCount":"5"},"url":"http:\/\/www.orientalrestaurantgroup.co.uk","menu":{"type":"Menu","label":"Menu","anchor":"View Menu","url":"https:\/\/foursquare.com\/v\/imperial-city-chinese-restaurant-and-bar-london-uk\/4ac518ddf964a52062a920e3\/menu","mobileUrl":"https:\/\/foursquare.com\/v\/4ac518ddf964a52062a920e3\/device_menu"},"specials":{"count":"0"},"hereNow":{"count":"0"},"referralId":"v-1392478020"},{"id":"52c168db498eaf4baa4490a7","name":"NTT Data","location":{"address":"2 Royal Exchange","lat":"51.51356132099029","lng":"-0.08702144867190106","distance":"97","postalCode":"EC3V 3DG","cc":"GB","city":"London","state":"Greater London","country":"United Kingdom"},"verified":"false","restricted":"true","stats":{"checkinsCount":"6","usersCount":"1","tipCount":"0"},"url":"http:\/\/www.nttdata.com\/uk","specials":{"count":"0"},"hereNow":{"count":"0"},"referralId":"v-1392478020"},{"id":"4bb1eac1f964a5208faa3ce3","name":"Jo Malone","location":{"lat":"51.5141259714715","lng":"-0.08701747144705704","distance":"57","cc":"GB","country":"United Kingdom"},"verified":"false","restricted":"true","stats":{"checkinsCount":"17","usersCount":"14","tipCount":"0"},"specials":{"count":"0"},"hereNow":{"count":"0"},"referralId":"v-1392478020"},{"id":"4db9508393a0f369e86b7325","name":"Paul Smith","contact":{"phone":"+442076264778","formattedPhone":"+44 20 7626 4778"},"location":{"address":"The Royal Exchange","lat":"51.51367924274601","lng":"-0.08718031121208383","distance":"80","postalCode":"EC3V 3LR","cc":"GB","city":"London","state":"Greater London","country":"United Kingdom"},"categories":[{"id":"4bf58dd8d48988d104951735","name":"Boutique","pluralName":"Boutiques","shortName":"Boutique","icon":{"prefix":"https:\/\/ss1.4sqi.net\/img\/categories_v2\/shops\/apparel_boutique_","suffix":".png"},"primary":"true"}],"verified":"false","restricted":"true","stats":{"checkinsCount":"39","usersCount":"28","tipCount":"1"},"specials":{"count":"0"},"hereNow":{"count":"0"},"referralId":"v-1392478020"},{"id":"4c907db00b9e3704a214685e","name":"Trading Technologies Intl, Inc.","location":{"address":"85 King Williams Street","lat":"51.514111","lng":"-0.08771","distance":"20","cc":"GB","city":"London","state":"Greater London","country":"United Kingdom"},"categories":[{"id":"4bf58dd8d48988d124941735","name":"Office","pluralName":"Offices","shortName":"Office","icon":{"prefix":"https:\/\/ss1.4sqi.net\/img\/categories_v2\/building\/default_","suffix":".png"},"primary":"true"}],"verified":"false","restricted":"true","stats":{"checkinsCount":"12","usersCount":"6","tipCount":"0"},"specials":{"count":"0"},"hereNow":{"count":"0"},"referralId":"v-1392478020"},{"id":"4cc6e80cd43ba14358ca76f8","name":"Hermes","contact":{"phone":"+442076267794","formattedPhone":"+44 20 7626 7794"},"location":{"address":"12-13 Royal Exchange","lat":"51.51386397626827","lng":"-0.08661307255087326","distance":"95","postalCode":"EC3V 3LP","cc":"GB","city":"London","state":"Greater London","country":"United Kingdom"},"categories":[{"id":"4bf58dd8d48988d102951735","name":"Accessories Store","pluralName":"Accessories Stores","shortName":"Accessories","icon":{"prefix":"https:\/\/ss1.4sqi.net\/img\/categories_v2\/shops\/apparel_accessories_","suffix":".png"},"primary":"true"}],"verified":"false","restricted":"true","stats":{"checkinsCount":"71","usersCount":"33","tipCount":"3"},"specials":{"count":"0"},"hereNow":{"count":"0"},"referralId":"v-1392478020"},{"id":"51adecb6498ed0d62d4c56d2","name":"Milano 1979","location":{"lat":"51.513923","lng":"-0.086625","distance":"91","cc":"GB","country":"United Kingdom"},"categories":[{"id":"4bf58dd8d48988d110941735","name":"Italian Restaurant","pluralName":"Italian Restaurants","shortName":"Italian","icon":{"prefix":"https:\/\/ss1.4sqi.net\/img\/categories_v2\/food\/italian_","suffix":".png"},"primary":"true"}],"verified":"false","restricted":"true","stats":{"checkinsCount":"6","usersCount":"5","tipCount":"1"},"specials":{"count":"0"},"hereNow":{"count":"0"},"referralId":"v-1392478020"},{"id":"4f0c560ee4b0c4aaa96b49d7","name":"Fiserv","location":{"address":"1 Kings Arms Yard","lat":"51.514992494702646","lng":"-0.08849991395477066","distance":"91","postalCode":"EC2R 7AF","cc":"GB","city":"London","state":"Greater London","country":"United Kingdom"},"categories":[{"id":"4bf58dd8d48988d124941735","name":"Office","pluralName":"Offices","shortName":"Office","icon":{"prefix":"https:\/\/ss1.4sqi.net\/img\/categories_v2\/building\/default_","suffix":".png"},"primary":"true"}],"verified":"false","restricted":"true","stats":{"checkinsCount":"250","usersCount":"4","tipCount":"0"},"specials":{"count":"0"},"hereNow":{"count":"0"},"referralId":"v-1392478020"}],"confident":"true"}}