{"meta":{"code":"200"},"response":{"venues":[{"id":"4b575d0df964a520b23328e3","name":"Pret A Manger","contact":{"phone":"+442079325262","formattedPhone":"+44 20 7932 5262","twitter":"pret","facebook":"162638680417951"},"location":{"address":"29-33 Kingsway","lat":"51.514266","lng":"-0.118056","distance":"17","postalCode":"WC2B 6UJ","cc":"GB","city":"London","state":"Greater London","country":"United Kingdom"},"categories":[{"id":"4bf58dd8d48988d1c5941735","name":"Sandwich Place","pluralName":"Sandwich Places","shortName":"Sandwiches","icon":{"prefix":"https:\/\/ss1.4sqi.net\/img\/categories_v2\/food\/sandwiches_","suffix":".png"},"primary":"true"}],"verified":"true","restricted":"true","stats":{"checkinsCount":"787","usersCount":"369","tipCount":"4"},"url":"http:\/\/www.pret.com","specials":{"count":"0"},"hereNow":{"count":"1","groups":[{"type":"others","name":"Other people here","count":"1"}]},"storeId":"62","referralId":"v-1392478017"},{"id":"4ac518e7f964a52054ab20e3","name":"Peacock Theatre","location":{"address":"Portugal St","lat":"51.514370906568345","lng":"-0.11819047221741562","distance":"28","postalCode":"WC2A 2HT","cc":"GB","city":"Holborn","state":"Greater London","country":"United Kingdom"},"categories":[{"id":"4bf58dd8d48988d137941735","name":"Theater","pluralName":"Theaters","shortName":"Theater","icon":{"prefix":"https:\/\/ss1.4sqi.net\/img\/categories_v2\/arts_entertainment\/performingarts_theater_","suffix":".png"},"primary":"true"}],"verified":"false","restricted":"true","stats":{"checkinsCount":"1803","usersCount":"1206","tipCount":"16"},"specials":{"count":"0"},"hereNow":{"count":"1","groups":[{"type":"others","name":"Other people here","count":"1"}]},"referralId":"v-1392478017"},{"id":"522d91ae11d28ed950b94b2a","name":"King's College London - Virginia Woolf Building","location":{"address":"22 Kingsway","lat":"51.51424786013958","lng":"-0.11795407344070931","distance":"11","postalCode":"WC2B","cc":"GB","city":"London","state":"Greater London","country":"United Kingdom"},"categories":[{"id":"4bf58dd8d48988d198941735","name":"College Academic Building","pluralName":"College Academic Buildings","shortName":"Academic Building","icon":{"prefix":"https:\/\/ss1.4sqi.net\/img\/categories_v2\/education\/academicbuilding_","suffix":".png"},"primary":"true"}],"verified":"false","restricted":"true","stats":{"checkinsCount":"84","usersCount":"28","tipCount":"0"},"specials":{"count":"0"},"hereNow":{"count":"0"},"referralId":"v-1392478017"},{"id":"4af1a842f964a520e5e121e3","name":"London School of Economics and Political Science (LSE)","contact":{"phone":"+442074057686","formattedPhone":"+44 20 7405 7686","twitter":"lsepublicevents"},"location":{"address":"Houghton St.","lat":"51.514213244998075","lng":"-0.11640665465825144","distance":"97","postalCode":"WC2A 2AE","cc":"GB","city":"London","state":"Greater London","country":"United Kingdom"},"categories":[{"id":"4bf58dd8d48988d1ae941735","name":"University","pluralName":"Universities","shortName":"University","icon":{"prefix":"https:\/\/ss1.4sqi.net\/img\/categories_v2\/education\/default_","suffix":".png"},"primary":"true"}],"verified":"false","restricted":"true","stats":{"checkinsCount":"7217","usersCount":"2191","tipCount":"17"},"url":"http:\/\/www.lse.ac.uk","specials":{"count":"0"},"hereNow":{"count":"0"},"referralId":"v-1392478017"},{"id":"4b840247f964a520e91a31e3","name":"Starbucks","contact":{"phone":"+442078314661","formattedPhone":"+44 20 7831 4661","twitter":"starbucksuk"},"location":{"address":"Unit B2; St Catherines House, 10 Kingsway","lat":"51.513747","lng":"-0.117747","distance":"60","postalCode":"WC2B 6LH","cc":"GB","city":"London","state":"Greater London","country":"United Kingdom"},"categories":[{"id":"4bf58dd8d48988d1e0931735","name":"Coffee Shop","pluralName":"Coffee Shops","shortName":"Coffee Shop","icon":{"prefix":"https:\/\/ss1.4sqi.net\/img\/categories_v2\/food\/coffeeshop_","suffix":".png"},"primary":"true"}],"verified":"true","restricted":"true","stats":{"checkinsCount":"1941","usersCount":"818","tipCount":"21"},"url":"http:\/\/starbucks.co.uk","specials":{"count":"0"},"hereNow":{"count":"0"},"storeId":"12165","referralId":"v-1392478017"},{"id":"4f395a33e4b0d9574f012311","name":"York House","location":{"address":"23 Kingsway","lat":"51.51403749826597","lng":"-0.11819460510225886","distance":"38","postalCode":"WC2B 6UJ","cc":"GB","city":"London","state":"Greater London","country":"United Kingdom"},"categories":[{"id":"4bf58dd8d48988d130941735","name":"Building","pluralName":"Buildings","shortName":"Building","icon":{"prefix":"https:\/\/ss1.4sqi.net\/img\/categories_v2\/building\/default_","suffix":".png"},"primary":"true"}],"verified":"false","restricted":"true","stats":{"checkinsCount":"194","usersCount":"23","tipCount":"0"},"specials":{"count":"0"},"hereNow":{"count":"0"},"referralId":"v-1392478017"},{"id":"4bc45d68b492d13ad3e0a960","name":"Wasabi","contact":{"phone":"+442073791075","formattedPhone":"+44 20 7379 1075"},"location":{"address":"19 Kingsway","lat":"51.51400408502046","lng":"-0.11801719665527344","distance":"35","postalCode":"WC2B 6UN","cc":"GB","city":"Holborn","state":"Greater London","country":"United Kingdom"},"categories":[{"id":"4bf58dd8d48988d1d2941735","name":"Sushi Restaurant","pluralName":"Sushi Restaurants","shortName":"Sushi","icon":{"prefix":"https:\/\/ss1.4sqi.net\/img\/categories_v2\/food\/sushi_","suffix":".png"},"primary":"true"}],"verified":"false","restricted":"true","stats":{"checkinsCount":"906","usersCount":"419","tipCount":"9"},"specials":{"count":"0"},"hereNow":{"count":"0"},"referralId":"v-1392478017"},{"id":"4bc3433a461576b09f5a7e32","name":"Old Building","location":{"address":"London School of Economics, Houghton St","lat":"51.51405082263175","lng":"-0.11681556701660156","distance":"73","postalCode":"WC2A 2AE","cc":"GB","city":"London","state":"Greater London","country":"United Kingdom"},"categories":[{"id":"4bf58dd8d48988d198941735","name":"College Academic Building","pluralName":"College Academic Buildings","shortName":"Academic Building","icon":{"prefix":"https:\/\/ss1.4sqi.net\/img\/categories_v2\/education\/academicbuilding_","suffix":".png"},"primary":"true"}],"verified":"false","restricted":"true","stats":{"checkinsCount":"1271","usersCount":"355","tipCount":"1"},"specials":{"count":"0"},"hereNow":{"count":"0"},"referralId":"v-1392478017"},{"id":"4d359d09329e5481fc5bcc1d","name":"Confucius Institute for Business London CIBL LSE","location":{"address":"20 Kingsway","crossStreet":"Portugal Street","lat":"51.514286","lng":"-0.117706","distance":"6","postalCode":"WC2A","cc":"GB","city":"Camden Town","state":"Greater London","country":"United Kingdom"},"categories":[{"id":"4bf58dd8d48988d198941735","name":"College Academic Building","pluralName":"College Academic Buildings","shortName":"Academic Building","icon":{"prefix":"https:\/\/ss1.4sqi.net\/img\/categories_v2\/education\/academicbuilding_","suffix":".png"},"primary":"true"}],"verified":"false","restricted":"true","stats":{"checkinsCount":"87","usersCount":"11","tipCount":"0"},"specials":{"count":"0"},"hereNow":{"count":"0"},"referralId":"v-1392478017"},{"id":"529e279111d23184f1227899","name":"LSE Saw Swee Hock Student Centre (SAW)","location":{"address":"1 Sheffield Street","lat":"51.51480763715078","lng":"-0.11729655413580405","distance":"67","postalCode":"WC2A 2AP","cc":"GB","city":"London","state":"Greater London","country":"United Kingdom"},"categories":[{"id":"4bf58dd8d48988d1ab941735","name":"Student Center","pluralName":"Student Centers","shortName":"Student Center","icon":{"prefix":"https:\/\/ss1.4sqi.net\/img\/categories_v2\/education\/studentcenter_","suffix":".png"},"primary":"true"}],"verified":"false","restricted":"true","stats":{"checkinsCount":"73","usersCount":"29","tipCount":"0"},"specials":{"count":"0"},"hereNow":{"count":"0"},"referralId":"v-1392478017"},{"id":"4c7f554fd51ea143cc5e5a9f","name":"Costa Coffee","location":{"address":"9-11 Kingsway","lat":"51.5135946","lng":"-0.117721","distance":"77","postalCode":"WC2B 6UN","cc":"GB","city":"London","state":"Greater London","country":"United Kingdom"},"categories":[{"id":"4bf58dd8d48988d1e0931735","name":"Coffee Shop","pluralName":"Coffee Shops","shortName":"Coffee Shop","icon":{"prefix":"https:\/\/ss1.4sqi.net\/img\/categories_v2\/food\/coffeeshop_","suffix":".png"},"primary":"true"}],"verified":"false","restricted":"true","stats":{"checkinsCount":"525","usersCount":"309","tipCount":"6"},"url":"http:\/\/www.costa.co.uk","specials":{"count":"0"},"hereNow":{"count":"0"},"referralId":"v-1392478017"},{"id":"4cb5f37564998cfa75c511a2","name":"St Clement's Building (STC)","location":{"address":"London School of Economics, Houghton Street","lat":"51.51419705704139","lng":"-0.11644896615202094","distance":"94","postalCode":"WC2A 2AE","cc":"GB","city":"London","state":"Greater London","country":"United Kingdom"},"categories":[{"id":"4bf58dd8d48988d19b941735","name":"College Science Building","pluralName":"College Science Buildings","shortName":"Science","icon":{"prefix":"https:\/\/ss1.4sqi.net\/img\/categories_v2\/education\/collegeacademicbuildings_science_","suffix":".png"},"primary":"true"}],"verified":"false","restricted":"true","stats":{"checkinsCount":"632","usersCount":"156","tipCount":"0"},"specials":{"count":"0"},"hereNow":{"count":"0"},"referralId":"v-1392478017"},{"id":"4cdbcdfd22bd721e2678f747","name":"Old Theatre","contact":{"phone":"+442079556043","formattedPhone":"+44 20 7955 6043","twitter":"lsepublicevents"},"location":{"address":"Old Building, LSE, Houghton St","lat":"51.513941","lng":"-0.116827","distance":"77","postalCode":"WC2A 2AE","cc":"GB","city":"Holborn","state":"Greater London","country":"United Kingdom"},"categories":[{"id":"4bf58dd8d48988d1af941735","name":"College Auditorium","pluralName":"College Auditoriums","shortName":"Auditorium","icon":{"prefix":"https:\/\/ss1.4sqi.net\/img\/categories_v2\/building\/auditorium_","suffix":".png"},"primary":"true"}],"verified":"false","restricted":"true","stats":{"checkinsCount":"438","usersCount":"227","tipCount":"2"},"specials":{"count":"0"},"hereNow":{"count":"0"},"referralId":"v-1392478017"},{"id":"4b50c706f964a520063227e3","name":"Ye Old White Horse","contact":{"phone":"+442072425518","formattedPhone":"+44 20 7242 5518"},"location":{"address":"2 St Clements Ln","lat":"51.514584","lng":"-0.117085","distance":"59","postalCode":"WC2A 2HA","cc":"GB","city":"Aldwych","state":"Greater London","country":"United Kingdom"},"categories":[{"id":"4bf58dd8d48988d11b941735","name":"Pub","pluralName":"Pubs","shortName":"Pub","icon":{"prefix":"https:\/\/ss1.4sqi.net\/img\/categories_v2\/nightlife\/pub_","suffix":".png"},"primary":"true"}],"verified":"false","restricted":"true","stats":{"checkinsCount":"323","usersCount":"184","tipCount":"3"},"specials":{"count":"0"},"hereNow":{"count":"0"},"referralId":"v-1392478017"},{"id":"52cf0882498e3c20488b974e","name":"LSESU Gym Saw Swee Hock","location":{"lat":"51.515033975007256","lng":"-0.11731481423666353","distance":"89","cc":"GB","country":"United Kingdom"},"categories":[{"id":"4bf58dd8d48988d1b2941735","name":"College Gym","pluralName":"College Gyms","shortName":"Gym","icon":{"prefix":"https:\/\/ss1.4sqi.net\/img\/categories_v2\/building\/gym_","suffix":".png"},"primary":"true"}],"verified":"false","restricted":"true","stats":{"checkinsCount":"24","usersCount":"7","tipCount":"0"},"specials":{"count":"0"},"hereNow":{"count":"0"},"referralId":"v-1392478017"},{"id":"4c99be7bb8e9224b1ec3473d","name":"Hot","location":{"lat":"51.513956","lng":"-0.11799","distance":"39","cc":"GB","country":"United Kingdom"},"categories":[{"id":"4bf58dd8d48988d16d941735","name":"Caf\u00e9","pluralName":"Caf\u00e9s","shortName":"Caf\u00e9","icon":{"prefix":"https:\/\/ss1.4sqi.net\/img\/categories_v2\/food\/cafe_","suffix":".png"},"primary":"true"}],"verified":"false","restricted":"true","stats":{"checkinsCount":"159","usersCount":"80","tipCount":"1"},"specials":{"count":"0"},"hereNow":{"count":"0"},"referralId":"v-1392478017"},{"id":"5076f37c582f5328b48c82d5","name":"MPA Lounge","location":{"address":"Connaught House","crossStreet":"Houghton Street","lat":"51.51515248101072","lng":"-0.11840343475341797","distance":"104","postalCode":"WC2A 2AE","cc":"GB","city":"London","state":"Greater London","country":"United Kingdom"},"categories":[{"id":"4bf58dd8d48988d197941735","name":"College Administrative Building","pluralName":"College Administrative Buildings","shortName":"Administrative Building","icon":{"prefix":"https:\/\/ss1.4sqi.net\/img\/categories_v2\/education\/administrativebuilding_","suffix":".png"},"primary":"true"}],"verified":"false","restricted":"true","stats":{"checkinsCount":"83","usersCount":"2","tipCount":"0"},"specials":{"count":"0"},"hereNow":{"count":"1","groups":[{"type":"others","name":"Other people here","count":"1"}]},"referralId":"v-1392478017"},{"id":"4b8e9757f964a520a22a33e3","name":"George IV","location":{"address":"Portugal St","crossStreet":"Portsmouth St","lat":"51.51472183590722","lng":"-0.11677801609039307","distance":"85","postalCode":"WC2A 2AE","cc":"GB","city":"City of Westminster","state":"Greater London","country":"United Kingdom"},"categories":[{"id":"4bf58dd8d48988d11b941735","name":"Pub","pluralName":"Pubs","shortName":"Pub","icon":{"prefix":"https:\/\/ss1.4sqi.net\/img\/categories_v2\/nightlife\/pub_","suffix":".png"},"primary":"true"}],"verified":"false","restricted":"true","stats":{"checkinsCount":"780","usersCount":"410","tipCount":"4"},"specials":{"count":"0"},"hereNow":{"count":"0"},"referralId":"v-1392478017"},{"id":"4d663490485ab1f77a866749","name":"Vera Anstey Suite LSE","location":{"lat":"51.514360882129395","lng":"-0.11733352784384977","distance":"33","cc":"GB","country":"United Kingdom"},"categories":[{"id":"4bf58dd8d48988d198941735","name":"College Academic Building","pluralName":"College Academic Buildings","shortName":"Academic Building","icon":{"prefix":"https:\/\/ss1.4sqi.net\/img\/categories_v2\/education\/academicbuilding_","suffix":".png"},"primary":"true"}],"verified":"false","restricted":"true","stats":{"checkinsCount":"36","usersCount":"5","tipCount":"0"},"specials":{"count":"0"},"hereNow":{"count":"0"},"referralId":"v-1392478017"},{"id":"4d5cf131ddac721ec9fc72fe","name":"20 Kingsway","location":{"lat":"51.5142994909531","lng":"-0.11767328563089993","distance":"9","cc":"GB","country":"United Kingdom"},"categories":[{"id":"4bf58dd8d48988d198941735","name":"College Academic Building","pluralName":"College Academic Buildings","shortName":"Academic Building","icon":{"prefix":"https:\/\/ss1.4sqi.net\/img\/categories_v2\/education\/academicbuilding_","suffix":".png"},"primary":"true"}],"verified":"false","restricted":"true","stats":{"checkinsCount":"74","usersCount":"25","tipCount":"0"},"specials":{"count":"0"},"hereNow":{"count":"0"},"referralId":"v-1392478017"},{"id":"4ee9cf4a4690034a7f63c453","name":"LSE Peacock theatre","location":{"lat":"51.51368336897537","lng":"-0.11781422105334653","distance":"67","cc":"GB","country":"United Kingdom"},"categories":[{"id":"4bf58dd8d48988d1af941735","name":"College Auditorium","pluralName":"College Auditoriums","shortName":"Auditorium","icon":{"prefix":"https:\/\/ss1.4sqi.net\/img\/categories_v2\/building\/auditorium_","suffix":".png"},"primary":"true"}],"verified":"false","restricted":"true","stats":{"checkinsCount":"52","usersCount":"37","tipCount":"0"},"specials":{"count":"0"},"hereNow":{"count":"0"},"referralId":"v-1392478017"},{"id":"4b8fb5eaf964a520465e33e3","name":"LSESU Gym","contact":{"phone":"+442079556002","formattedPhone":"+44 20 7955 6002"},"location":{"address":"Houghton Street","lat":"51.513933978513634","lng":"-0.11648833751678467","distance":"99","postalCode":"WC2","cc":"GB","city":"City of Westminster","state":"Greater London","country":"United Kingdom"},"categories":[{"id":"4bf58dd8d48988d1b2941735","name":"College Gym","pluralName":"College Gyms","shortName":"Gym","icon":{"prefix":"https:\/\/ss1.4sqi.net\/img\/categories_v2\/building\/gym_","suffix":".png"},"primary":"true"}],"verified":"true","restricted":"true","stats":{"checkinsCount":"164","usersCount":"32","tipCount":"0"},"url":"http:\/\/www.lsesu.com\/facilities\/gym\/","specials":{"count":"0"},"hereNow":{"count":"0"},"venuePage":{"id":"33856089"},"storeId":"","referralId":"v-1392478017"},{"id":"4ea92ee95c5c7c8309411e15","name":"Cowdray House,LSE","location":{"lat":"51.51467023527981","lng":"-0.11678343228121653","distance":"82","postalCode":"WC2A 2AE","cc":"GB","country":"United Kingdom"},"categories":[{"id":"4bf58dd8d48988d1ae941735","name":"University","pluralName":"Universities","shortName":"University","icon":{"prefix":"https:\/\/ss1.4sqi.net\/img\/categories_v2\/education\/default_","suffix":".png"},"primary":"true"}],"verified":"false","restricted":"true","stats":{"checkinsCount":"448","usersCount":"15","tipCount":"0"},"specials":{"count":"0"},"hereNow":{"count":"0"},"referralId":"v-1392478017"},{"id":"52d7b6b511d2ac98b5b108b0","name":"LSE East Building (EAS)","location":{"address":"Houghton Street","lat":"51.51412040301862","lng":"-0.1163443835997406","distance":"102","cc":"GB","city":"London","state":"Greater London","country":"United Kingdom"},"categories":[{"id":"4bf58dd8d48988d198941735","name":"College Academic Building","pluralName":"College Academic Buildings","shortName":"Academic Building","icon":{"prefix":"https:\/\/ss1.4sqi.net\/img\/categories_v2\/education\/academicbuilding_","suffix":".png"},"primary":"true"}],"verified":"false","restricted":"true","stats":{"checkinsCount":"16","usersCount":"7","tipCount":"0"},"specials":{"count":"0"},"hereNow":{"count":"0"},"referralId":"v-1392478017"},{"id":"52d941f9498ebc9e437b1dcd","name":"Fourth Floor Caf\u00e9 Bar","location":{"address":"Old Building, London School Of Economics","lat":"51.513882","lng":"-0.116788","distance":"83","cc":"GB","city":"London","state":"Greater London","country":"United Kingdom"},"categories":[{"id":"4bf58dd8d48988d16d941735","name":"Caf\u00e9","pluralName":"Caf\u00e9s","shortName":"Caf\u00e9","icon":{"prefix":"https:\/\/ss1.4sqi.net\/img\/categories_v2\/food\/cafe_","suffix":".png"},"primary":"true"}],"verified":"false","restricted":"true","stats":{"checkinsCount":"9","usersCount":"5","tipCount":"0"},"specials":{"count":"0"},"hereNow":{"count":"0"},"referralId":"v-1392478017"},{"id":"4d20818b8629224bf18a1387","name":"Subway","contact":{"phone":"+448000855058","formattedPhone":"+44 800 085 5058","twitter":"subwayukireland"},"location":{"address":"15 Kingsway","lat":"51.51378106514621","lng":"-0.11773475227196042","distance":"56","postalCode":"WC2A 2","cc":"GB","city":"London","state":"Greater London","country":"United Kingdom"},"categories":[{"id":"4bf58dd8d48988d1c5941735","name":"Sandwich Place","pluralName":"Sandwich Places","shortName":"Sandwiches","icon":{"prefix":"https:\/\/ss1.4sqi.net\/img\/categories_v2\/food\/sandwiches_","suffix":".png"},"primary":"true"}],"verified":"true","restricted":"true","stats":{"checkinsCount":"229","usersCount":"135","tipCount":"6"},"url":"http:\/\/www.subway.co.uk","specials":{"count":"0"},"hereNow":{"count":"0"},"storeId":"38876","referralId":"v-1392478017"},{"id":"5271137b498eb29040bfe4c4","name":"King's Chambers (KGS)","location":{"address":"LSE, Portugal Street","lat":"51.5146543968999","lng":"-0.11693469183881665","distance":"72","cc":"GB","city":"London","state":"Greater London","country":"United Kingdom"},"categories":[{"id":"4bf58dd8d48988d198941735","name":"College Academic Building","pluralName":"College Academic Buildings","shortName":"Academic Building","icon":{"prefix":"https:\/\/ss1.4sqi.net\/img\/categories_v2\/education\/academicbuilding_","suffix":".png"},"primary":"true"}],"verified":"false","restricted":"true","stats":{"checkinsCount":"48","usersCount":"6","tipCount":"0"},"specials":{"count":"0"},"hereNow":{"count":"0"},"referralId":"v-1392478017"},{"id":"4aeaf23ef964a520dbbc21e3","name":"Caffe Amici","contact":{"phone":"+442072404099","formattedPhone":"+44 20 7240 4099","twitter":"amici205"},"location":{"address":"Kingsway","lat":"51.513465","lng":"-0.117705","distance":"91","cc":"GB","city":"London","state":"Greater London","country":"United Kingdom"},"categories":[{"id":"4bf58dd8d48988d110941735","name":"Italian Restaurant","pluralName":"Italian Restaurants","shortName":"Italian","icon":{"prefix":"https:\/\/ss1.4sqi.net\/img\/categories_v2\/food\/italian_","suffix":".png"},"primary":"true"}],"verified":"false","restricted":"true","stats":{"checkinsCount":"381","usersCount":"187","tipCount":"5"},"menu":{"type":"Menu","label":"Menu","anchor":"View Menu","url":"https:\/\/foursquare.com\/v\/caffe-amici\/4aeaf23ef964a520dbbc21e3\/menu","mobileUrl":"https:\/\/foursquare.com\/v\/4aeaf23ef964a520dbbc21e3\/device_menu"},"specials":{"count":"0"},"hereNow":{"count":"0"},"referralId":"v-1392478017"},{"id":"4e3a9c2c1838961aff0179d4","name":"Fourth Floor Restaurant","location":{"address":"Houghton Street","lat":"51.51403382887512","lng":"-0.11670196596591653","distance":"81","cc":"GB","city":"London","state":"Greater London","country":"United Kingdom"},"categories":[{"id":"4bf58dd8d48988d1c4941735","name":"Restaurant","pluralName":"Restaurants","shortName":"Restaurant","icon":{"prefix":"https:\/\/ss1.4sqi.net\/img\/categories_v2\/food\/default_","suffix":".png"},"primary":"true"}],"verified":"false","restricted":"true","stats":{"checkinsCount":"143","usersCount":"35","tipCount":"1"},"specials":{"count":"0"},"hereNow":{"count":"0"},"referralId":"v-1392478017"},{"id":"4f39014be4b0a67fedd763c3","name":"LSE Connaught House- Department of Government","location":{"address":"65 Aldwych (at Kingsway)","lat":"51.51362264805133","lng":"-0.11698550073509971","distance":"93","postalCode":"WC2B E4J","cc":"GB","city":"London","state":"Greater London","country":"United Kingdom"},"categories":[{"id":"4bf58dd8d48988d19b941735","name":"College Science Building","pluralName":"College Science Buildings","shortName":"Science","icon":{"prefix":"https:\/\/ss1.4sqi.net\/img\/categories_v2\/education\/collegeacademicbuildings_science_","suffix":".png"},"primary":"true"}],"verified":"false","restricted":"true","stats":{"checkinsCount":"37","usersCount":"13","tipCount":"0"},"specials":{"count":"0"},"hereNow":{"count":"0"},"referralId":"v-1392478017"}],"confident":"true"}}