{"meta":{"code":"200"},"response":{"venues":[{"id":"4bc0c5084cdfc9b601719321","name":"Umi Hotel London","contact":{"phone":"+442072219131","formattedPhone":"+44 20 7221 9131","twitter":"umihotellondon"},"location":{"address":"16 Leinster Square","lat":"51.51417768162066","lng":"-0.19213199615478516","distance":"48","postalCode":"W2 4PR","cc":"GB","city":"London","state":"Greater London","country":"United Kingdom"},"categories":[{"id":"4bf58dd8d48988d1fa931735","name":"Hotel","pluralName":"Hotels","shortName":"Hotel","icon":{"prefix":"https:\/\/ss1.4sqi.net\/img\/categories_v2\/travel\/hotel_","suffix":".png"},"primary":"true"}],"verified":"true","restricted":"true","stats":{"checkinsCount":"589","usersCount":"240","tipCount":"6"},"url":"http:\/\/www.umihotellondon.co.uk","specials":{"count":"0"},"hereNow":{"count":"0"},"storeId":"","referralId":"v-1392478009"},{"id":"51ea62b15019673dc9da45f9","name":"Bayswater Inn Hotel","contact":{"phone":"+442077278621","formattedPhone":"+44 20 7727 8621"},"location":{"address":"8-16 Prince\u00b4s Square","crossStreet":"Leinster Square","lat":"51.513619633257484","lng":"-0.19281864166259766","distance":"74","postalCode":"W2 4NT","cc":"GB","city":"London","state":"Greater London","country":"United Kingdom"},"categories":[{"id":"4bf58dd8d48988d1fa931735","name":"Hotel","pluralName":"Hotels","shortName":"Hotel","icon":{"prefix":"https:\/\/ss1.4sqi.net\/img\/categories_v2\/travel\/hotel_","suffix":".png"},"primary":"true"}],"verified":"false","restricted":"true","stats":{"checkinsCount":"11","usersCount":"5","tipCount":"1"},"specials":{"count":"0"},"hereNow":{"count":"1","groups":[{"type":"others","name":"Other people here","count":"1"}]},"referralId":"v-1392478009"},{"id":"4be548aabcef2d7f639e03e5","name":"Starbucks","contact":{"twitter":"starbucksuk"},"location":{"address":"96 Westboune Grove,","lat":"51.51525096129573","lng":"-0.19387543201446533","distance":"130","postalCode":"W2 5RT","cc":"GB","city":"London","state":"Greater London","country":"United Kingdom"},"categories":[{"id":"4bf58dd8d48988d1e0931735","name":"Coffee Shop","pluralName":"Coffee Shops","shortName":"Coffee Shop","icon":{"prefix":"https:\/\/ss1.4sqi.net\/img\/categories_v2\/food\/coffeeshop_","suffix":".png"},"primary":"true"}],"verified":"true","restricted":"true","stats":{"checkinsCount":"1741","usersCount":"691","tipCount":"13"},"url":"http:\/\/starbucks.co.uk","specials":{"count":"0"},"hereNow":{"count":"0"},"storeId":"12339","referralId":"v-1392478009"},{"id":"4ad3550ff964a520d5e320e3","name":"Caff\u00e8 Nero","location":{"address":"113 Westbourne Grove","crossStreet":"Hereford Road","lat":"51.515025170878644","lng":"-0.19374334033995896","distance":"104","postalCode":"W2 4UP","cc":"GB","city":"London","state":"Greater London","country":"United Kingdom"},"categories":[{"id":"4bf58dd8d48988d1e0931735","name":"Coffee Shop","pluralName":"Coffee Shops","shortName":"Coffee Shop","icon":{"prefix":"https:\/\/ss1.4sqi.net\/img\/categories_v2\/food\/coffeeshop_","suffix":".png"},"primary":"true"}],"verified":"false","restricted":"true","stats":{"checkinsCount":"604","usersCount":"212","tipCount":"4"},"url":"http:\/\/caffenero.com","specials":{"count":"0"},"hereNow":{"count":"0"},"referralId":"v-1392478009"},{"id":"515cbf34e4b0f5d2c7fa1869","name":"Leinster Square","location":{"lat":"51.51375405554326","lng":"-0.19269399097878223","distance":"60","postalCode":"W2","cc":"GB","city":"London","state":"Greater London","country":"United Kingdom"},"categories":[{"id":"4f2a25ac4b909258e854f55f","name":"Neighborhood","pluralName":"Neighborhoods","shortName":"Neighborhood","icon":{"prefix":"https:\/\/ss1.4sqi.net\/img\/categories_v2\/parks_outdoors\/neighborhood_","suffix":".png"},"primary":"true"}],"verified":"false","restricted":"true","stats":{"checkinsCount":"141","usersCount":"73","tipCount":"1"},"specials":{"count":"0"},"hereNow":{"count":"0"},"referralId":"v-1392478009"},{"id":"4ac518e5f964a52002ab20e3","name":"Hereford Road","contact":{"phone":"+442077271144","formattedPhone":"+44 20 7727 1144"},"location":{"address":"3 Hereford Rd","lat":"51.513837","lng":"-0.19363165000000002","distance":"76","postalCode":"W2 4AB","cc":"GB","city":"London","state":"Greater London","country":"United Kingdom"},"categories":[{"id":"4bf58dd8d48988d1c4941735","name":"Restaurant","pluralName":"Restaurants","shortName":"Restaurant","icon":{"prefix":"https:\/\/ss1.4sqi.net\/img\/categories_v2\/food\/default_","suffix":".png"},"primary":"true"}],"verified":"false","restricted":"true","stats":{"checkinsCount":"400","usersCount":"321","tipCount":"14"},"url":"http:\/\/www.herefordroad.org","reservations":{"url":"http:\/\/www.toptable.co.uk\/single.aspx?rid=14446&ref=9601"},"menu":{"type":"Menu","label":"Menu","anchor":"View Menu","url":"https:\/\/foursquare.com\/v\/hereford-road\/4ac518e5f964a52002ab20e3\/menu","mobileUrl":"https:\/\/foursquare.com\/v\/4ac518e5f964a52002ab20e3\/device_menu"},"specials":{"count":"0"},"hereNow":{"count":"0"},"referralId":"v-1392478009"},{"id":"4aec9f2bf964a5208bc921e3","name":"Hafez","location":{"address":"5, Hereford Road","lat":"51.51393227056114","lng":"-0.19344834063772373","distance":"59","postalCode":"W2 4AB","cc":"GB","city":"London","state":"Greater London","country":"United Kingdom"},"categories":[{"id":"4bf58dd8d48988d115941735","name":"Middle Eastern Restaurant","pluralName":"Middle Eastern Restaurants","shortName":"Middle Eastern","icon":{"prefix":"https:\/\/ss1.4sqi.net\/img\/categories_v2\/food\/default_","suffix":".png"},"primary":"true"}],"verified":"false","restricted":"true","stats":{"checkinsCount":"234","usersCount":"165","tipCount":"13"},"menu":{"type":"Menu","label":"Menu","anchor":"View Menu","url":"https:\/\/foursquare.com\/v\/hafez\/4aec9f2bf964a5208bc921e3\/menu","mobileUrl":"https:\/\/foursquare.com\/v\/4aec9f2bf964a5208bc921e3\/device_menu"},"specials":{"count":"0"},"hereNow":{"count":"0"},"referralId":"v-1392478009"},{"id":"4b76bd95f964a520dc5b2ee3","name":"Ping Pong","contact":{"phone":"+442073139832","formattedPhone":"+44 20 7313 9832","twitter":"pingpongdimsum"},"location":{"address":"74-76 Westbourne Grove","crossStreet":"Monmouth Road","lat":"51.51530574444445","lng":"-0.192803","distance":"113","postalCode":"W2 5SH","cc":"GB","city":"London","state":"Greater London","country":"United Kingdom"},"categories":[{"id":"4bf58dd8d48988d1f5931735","name":"Dim Sum Restaurant","pluralName":"Dim Sum Restaurants","shortName":"Dim Sum","icon":{"prefix":"https:\/\/ss1.4sqi.net\/img\/categories_v2\/food\/dimsum_","suffix":".png"},"primary":"true"}],"verified":"true","restricted":"true","stats":{"checkinsCount":"804","usersCount":"578","tipCount":"19"},"url":"http:\/\/www.pingpongdimsum.com","specials":{"count":"0"},"hereNow":{"count":"0"},"referralId":"v-1392478009"},{"id":"4fc30f5600394e15190e614b","name":"Byron","contact":{"phone":"+442072434226","formattedPhone":"+44 20 7243 4226","twitter":"byronhamburgers"},"location":{"address":"103 Westbourne Grove","lat":"51.51520589407308","lng":"-0.19253969192504883","distance":"103","postalCode":"W2 4UW","cc":"GB","city":"London","state":"Greater London","country":"United Kingdom"},"categories":[{"id":"4bf58dd8d48988d16c941735","name":"Burger Joint","pluralName":"Burger Joints","shortName":"Burgers","icon":{"prefix":"https:\/\/ss1.4sqi.net\/img\/categories_v2\/food\/burger_","suffix":".png"},"primary":"true"}],"verified":"true","restricted":"true","stats":{"checkinsCount":"581","usersCount":"381","tipCount":"12"},"specials":{"count":"0"},"hereNow":{"count":"0"},"storeId":"","referralId":"v-1392478009"},{"id":"4dd62fccc65bee535a9288d7","name":"Tony & Guy","location":{"address":"64 Westbourne Grove","lat":"51.515270891904414","lng":"-0.19363067930572683","distance":"123","postalCode":"W2 5SH","cc":"GB","city":"London","state":"Greater London","country":"United Kingdom"},"categories":[{"id":"4bf58dd8d48988d110951735","name":"Salon \/ Barbershop","pluralName":"Salons \/ Barbershops","shortName":"Salon \/ Barbershop","icon":{"prefix":"https:\/\/ss1.4sqi.net\/img\/categories_v2\/shops\/salon_barber_","suffix":".png"},"primary":"true"}],"verified":"false","restricted":"true","stats":{"checkinsCount":"87","usersCount":"30","tipCount":"1"},"specials":{"count":"0"},"hereNow":{"count":"1","groups":[{"type":"others","name":"Other people here","count":"1"}]},"referralId":"v-1392478009"},{"id":"4bab82e8f964a52022af3ae3","name":"Aphrodite Taverna","contact":{"phone":"+442072292206","formattedPhone":"+44 20 7229 2206"},"location":{"address":"15 Hereford Road","lat":"51.514131","lng":"-0.193578","distance":"56","cc":"GB","city":"London","country":"United Kingdom"},"categories":[{"id":"4bf58dd8d48988d10e941735","name":"Greek Restaurant","pluralName":"Greek Restaurants","shortName":"Greek","icon":{"prefix":"https:\/\/ss1.4sqi.net\/img\/categories_v2\/food\/greek_","suffix":".png"},"primary":"true"}],"verified":"false","restricted":"true","stats":{"checkinsCount":"144","usersCount":"86","tipCount":"3"},"specials":{"count":"0"},"hereNow":{"count":"0"},"referralId":"v-1392478009"},{"id":"4ac518dcf964a52059a920e3","name":"Rodizio Rico","location":{"address":"111 Westbourne Grove","lat":"51.5151822","lng":"-0.1938804","distance":"124","postalCode":"W2 4UW","cc":"GB","city":"London","state":"Greater London","country":"United Kingdom"},"categories":[{"id":"4bf58dd8d48988d16b941735","name":"Brazilian Restaurant","pluralName":"Brazilian Restaurants","shortName":"Brazilian","icon":{"prefix":"https:\/\/ss1.4sqi.net\/img\/categories_v2\/food\/brazilian_","suffix":".png"},"primary":"true"}],"verified":"false","restricted":"true","stats":{"checkinsCount":"613","usersCount":"443","tipCount":"19"},"url":"http:\/\/www.rodiziorico.com\/content\/loc_nottinghill.php","menu":{"type":"Menu","label":"Menu","anchor":"View Menu","url":"https:\/\/foursquare.com\/v\/rodizio-rico\/4ac518dcf964a52059a920e3\/menu","mobileUrl":"https:\/\/foursquare.com\/v\/4ac518dcf964a52059a920e3\/device_menu"},"specials":{"count":"0"},"hereNow":{"count":"0"},"referralId":"v-1392478009"},{"id":"4d541597f5daa09331d26d74","name":"Lords","location":{"lat":"51.514512","lng":"-0.193342","distance":"44","cc":"GB","country":"United Kingdom"},"categories":[{"id":"4bf58dd8d48988d112951735","name":"Hardware Store","pluralName":"Hardware Stores","shortName":"Hardware","icon":{"prefix":"https:\/\/ss1.4sqi.net\/img\/categories_v2\/shops\/hardware_","suffix":".png"},"primary":"true"}],"verified":"false","restricted":"true","stats":{"checkinsCount":"13","usersCount":"11","tipCount":"0"},"specials":{"count":"0"},"hereNow":{"count":"0"},"referralId":"v-1392478009"},{"id":"50a37f66e4b09bb46d60b79e","name":"Olympia","location":{"crossStreet":"Notting hill","lat":"51.51363504162525","lng":"-0.1931932662823352","distance":"77","cc":"GB","country":"United Kingdom"},"categories":[{"id":"4bf58dd8d48988d124941735","name":"Office","pluralName":"Offices","shortName":"Office","icon":{"prefix":"https:\/\/ss1.4sqi.net\/img\/categories_v2\/building\/default_","suffix":".png"},"primary":"true"}],"verified":"false","restricted":"true","stats":{"checkinsCount":"18","usersCount":"3","tipCount":"0"},"specials":{"count":"0"},"hereNow":{"count":"0"},"referralId":"v-1392478009"},{"id":"4b780c11f964a52072b32ee3","name":"The Hyde Park Hotel","contact":{"phone":"+442072435000","formattedPhone":"+44 20 7243 5000"},"location":{"address":"23-25 Leinster Sq","lat":"51.51409756019508","lng":"-0.19148826599121094","distance":"93","postalCode":"W2 4NE","cc":"GB","city":"London","state":"Greater London","country":"United Kingdom"},"categories":[{"id":"4bf58dd8d48988d1fa931735","name":"Hotel","pluralName":"Hotels","shortName":"Hotel","icon":{"prefix":"https:\/\/ss1.4sqi.net\/img\/categories_v2\/travel\/hotel_","suffix":".png"},"primary":"true"}],"verified":"false","restricted":"true","stats":{"checkinsCount":"448","usersCount":"238","tipCount":"10"},"specials":{"count":"0"},"hereNow":{"count":"0"},"referralId":"v-1392478009"},{"id":"4f0a2cebe4b0aa2dc829b619","name":"Lords Hotel London","location":{"address":"20-22 Leinster Square, London W2 4PR, England","lat":"51.514407532353054","lng":"-0.19173159855344182","distance":"75","postalCode":"W2 4PR","cc":"GB","city":"Bayswater","country":"United Kingdom"},"categories":[{"id":"4bf58dd8d48988d1f8931735","name":"Bed & Breakfast","pluralName":"Bed & Breakfasts","shortName":"B & B","icon":{"prefix":"https:\/\/ss1.4sqi.net\/img\/categories_v2\/travel\/bedandbreakfast_","suffix":".png"},"primary":"true"}],"verified":"false","restricted":"true","stats":{"checkinsCount":"91","usersCount":"43","tipCount":"4"},"specials":{"count":"0"},"hereNow":{"count":"0"},"referralId":"v-1392478009"},{"id":"4b50e89af964a520233827e3","name":"New Linden Hotel","location":{"address":"58-60 Leinster Square","lat":"51.51344907694791","lng":"-0.19369800685395017","distance":"112","postalCode":"W2 4","cc":"GB","city":"London","state":"Greater London","country":"United Kingdom"},"categories":[{"id":"4bf58dd8d48988d1fa931735","name":"Hotel","pluralName":"Hotels","shortName":"Hotel","icon":{"prefix":"https:\/\/ss1.4sqi.net\/img\/categories_v2\/travel\/hotel_","suffix":".png"},"primary":"true"}],"verified":"false","restricted":"true","stats":{"checkinsCount":"253","usersCount":"137","tipCount":"3"},"specials":{"count":"0"},"hereNow":{"count":"0"},"referralId":"v-1392478009"},{"id":"4c17df0b834e2d7f22062880","name":"Wedgewood Hotel","location":{"address":"49-51 Leinster Sq","lat":"51.51371","lng":"-0.19256","distance":"66","cc":"GB","city":"London","state":"Greater London","country":"United Kingdom"},"categories":[{"id":"4bf58dd8d48988d1fa931735","name":"Hotel","pluralName":"Hotels","shortName":"Hotel","icon":{"prefix":"https:\/\/ss1.4sqi.net\/img\/categories_v2\/travel\/hotel_","suffix":".png"},"primary":"true"}],"verified":"false","restricted":"true","stats":{"checkinsCount":"192","usersCount":"110","tipCount":"6"},"specials":{"count":"0"},"hereNow":{"count":"0"},"referralId":"v-1392478009"},{"id":"4bbe443553e995218e002da9","name":"Sainsbury's Local","location":{"address":"88-93 Westbourne Grove","crossStreet":"Garway Road","lat":"51.51523030995807","lng":"-0.19393127445797573","distance":"130","postalCode":"W2 5RT","cc":"GB","city":"London","state":"Greater London","country":"United Kingdom"},"categories":[{"id":"4bf58dd8d48988d118951735","name":"Grocery Store","pluralName":"Grocery Stores","shortName":"Grocery Store","icon":{"prefix":"https:\/\/ss1.4sqi.net\/img\/categories_v2\/shops\/food_grocery_","suffix":".png"},"primary":"true"}],"verified":"false","restricted":"true","stats":{"checkinsCount":"429","usersCount":"128","tipCount":"2"},"specials":{"count":"0"},"hereNow":{"count":"0"},"referralId":"v-1392478009"},{"id":"4bd9f0bd2a3a0f47cbfda8b6","name":"Loco Mexicano","contact":{"phone":"+442072431499","formattedPhone":"+44 20 7243 1499"},"location":{"address":"Westbourne Grove","lat":"51.515202","lng":"-0.193648","distance":"117","postalCode":"W2 4UW","cc":"GB","city":"London","state":"Greater London","country":"United Kingdom"},"categories":[{"id":"4bf58dd8d48988d1c1941735","name":"Mexican Restaurant","pluralName":"Mexican Restaurants","shortName":"Mexican","icon":{"prefix":"https:\/\/ss1.4sqi.net\/img\/categories_v2\/food\/mexican_","suffix":".png"},"primary":"true"}],"verified":"false","restricted":"true","stats":{"checkinsCount":"373","usersCount":"283","tipCount":"6"},"menu":{"type":"Menu","label":"Menu","anchor":"View Menu","url":"https:\/\/foursquare.com\/v\/loco-mexicano\/4bd9f0bd2a3a0f47cbfda8b6\/menu","mobileUrl":"https:\/\/foursquare.com\/v\/4bd9f0bd2a3a0f47cbfda8b6\/device_menu"},"specials":{"count":"0"},"hereNow":{"count":"0"},"referralId":"v-1392478009"},{"id":"51ca1911498e60c70413bce9","name":"Londres","location":{"address":"Europa","crossStreet":"Reino Unido","lat":"51.51377770806068","lng":"-0.19085960521807735","distance":"146","cc":"GB","city":"London","state":"Greater London","country":"United Kingdom"},"categories":[{"id":"4deefb944765f83613cdba6e","name":"Historic Site","pluralName":"Historic Sites","shortName":"Historic Site","icon":{"prefix":"https:\/\/ss1.4sqi.net\/img\/categories_v2\/arts_entertainment\/historicsite_","suffix":".png"},"primary":"true"}],"verified":"false","restricted":"true","stats":{"checkinsCount":"95","usersCount":"85","tipCount":"0"},"specials":{"count":"0"},"hereNow":{"count":"0"},"referralId":"v-1392478009"},{"id":"51f397c0498e2469f734477f","name":"The Tanning Shop","location":{"lat":"51.50969255105094","lng":"-0.19082219292195643","distance":"529","cc":"GB","country":"United Kingdom"},"categories":[{"id":"4d1cf8421a97d635ce361c31","name":"Tanning Salon","pluralName":"Tanning Salons","shortName":"Tanning Salon","icon":{"prefix":"https:\/\/ss1.4sqi.net\/img\/categories_v2\/shops\/tanning_salon_","suffix":".png"},"primary":"true"}],"verified":"false","restricted":"true","stats":{"checkinsCount":"13","usersCount":"6","tipCount":"1"},"specials":{"count":"0"},"hereNow":{"count":"0"},"referralId":"v-1392478009"},{"id":"4c8fe6293790199c83ff916b","name":"Reem Hotel","location":{"address":"50-51 Princes Square","lat":"51.513445","lng":"-0.191783","distance":"117","postalCode":"w2 4PX","cc":"GB","city":"London","state":"Greater London","country":"United Kingdom"},"categories":[{"id":"4bf58dd8d48988d1fa931735","name":"Hotel","pluralName":"Hotels","shortName":"Hotel","icon":{"prefix":"https:\/\/ss1.4sqi.net\/img\/categories_v2\/travel\/hotel_","suffix":".png"},"primary":"true"}],"verified":"false","restricted":"true","stats":{"checkinsCount":"136","usersCount":"70","tipCount":"3"},"specials":{"count":"0"},"hereNow":{"count":"0"},"referralId":"v-1392478009"},{"id":"4c6efd3db3ce224b11766fc6","name":"Durbar","location":{"address":"Hereford Ed","lat":"51.51481","lng":"-0.193804","distance":"90","postalCode":"W2","cc":"GB","city":"London","state":"Greater London","country":"United Kingdom"},"categories":[{"id":"4bf58dd8d48988d10f941735","name":"Indian Restaurant","pluralName":"Indian Restaurants","shortName":"Indian","icon":{"prefix":"https:\/\/ss1.4sqi.net\/img\/categories_v2\/food\/indian_","suffix":".png"},"primary":"true"}],"verified":"false","restricted":"true","stats":{"checkinsCount":"122","usersCount":"85","tipCount":"1"},"url":"http:\/\/www.durbartandoori.co.uk","reservations":{"url":"http:\/\/www.toptable.co.uk\/single.aspx?rid=93210&ref=9601"},"menu":{"type":"Menu","label":"Menu","anchor":"View Menu","url":"https:\/\/foursquare.com\/v\/durbar\/4c6efd3db3ce224b11766fc6\/menu","mobileUrl":"https:\/\/foursquare.com\/v\/4c6efd3db3ce224b11766fc6\/device_menu"},"specials":{"count":"0"},"hereNow":{"count":"0"},"referralId":"v-1392478009"},{"id":"4bc8f12d762beee108ba3d38","name":"Pembridge Palace Hotel London","location":{"address":"55 Prince's Square","lat":"51.51340705108605","lng":"-0.19208115266159514","distance":"110","cc":"GB","city":"London","state":"Greater London","country":"United Kingdom"},"categories":[{"id":"4bf58dd8d48988d1fa931735","name":"Hotel","pluralName":"Hotels","shortName":"Hotel","icon":{"prefix":"https:\/\/ss1.4sqi.net\/img\/categories_v2\/travel\/hotel_","suffix":".png"},"primary":"true"}],"verified":"false","restricted":"true","stats":{"checkinsCount":"233","usersCount":"117","tipCount":"5"},"specials":{"count":"0"},"hereNow":{"count":"0"},"referralId":"v-1392478009"},{"id":"52094c7611d2a8b4f9819931","name":"Leinster Square Gardens","location":{"lat":"51.513717511114734","lng":"-0.19289421967342096","distance":"63","cc":"GB","country":"United Kingdom"},"categories":[{"id":"4bf58dd8d48988d15a941735","name":"Garden","pluralName":"Gardens","shortName":"Garden","icon":{"prefix":"https:\/\/ss1.4sqi.net\/img\/categories_v2\/parks_outdoors\/garden_","suffix":".png"},"primary":"true"}],"verified":"false","restricted":"true","stats":{"checkinsCount":"23","usersCount":"9","tipCount":"0"},"specials":{"count":"0"},"hereNow":{"count":"0"},"referralId":"v-1392478009"},{"id":"4e500233ae6051db8dd47b2a","name":"Moroccan Sahara","location":{"lat":"51.514954","lng":"-0.193833","distance":"102","cc":"GB","city":"London","state":"Greater London","country":"United Kingdom"},"categories":[{"id":"4bf58dd8d48988d1c3941735","name":"Moroccan Restaurant","pluralName":"Moroccan Restaurants","shortName":"Moroccan","icon":{"prefix":"https:\/\/ss1.4sqi.net\/img\/categories_v2\/food\/moroccan_","suffix":".png"},"primary":"true"}],"verified":"false","restricted":"true","stats":{"checkinsCount":"27","usersCount":"22","tipCount":"2"},"reservations":{"url":"http:\/\/www.toptable.co.uk\/single.aspx?rid=99549&ref=9601"},"specials":{"count":"0"},"hereNow":{"count":"0"},"referralId":"v-1392478009"},{"id":"4c5d9b8c6ebe2d7fc14bd32e","name":"New Fortune Cookie","contact":{"phone":"+442077277260","formattedPhone":"+44 20 7727 7260"},"location":{"address":"1 Queensway","lat":"51.5140531483987","lng":"-0.19177583661793576","distance":"75","postalCode":"W2 4QJ","cc":"GB","city":"Paddington","state":"Greater London","country":"United Kingdom"},"categories":[{"id":"4bf58dd8d48988d145941735","name":"Chinese Restaurant","pluralName":"Chinese Restaurants","shortName":"Chinese","icon":{"prefix":"https:\/\/ss1.4sqi.net\/img\/categories_v2\/food\/chinese_","suffix":".png"},"primary":"true"}],"verified":"false","restricted":"true","stats":{"checkinsCount":"39","usersCount":"32","tipCount":"0"},"specials":{"count":"0"},"hereNow":{"count":"0"},"referralId":"v-1392478009"},{"id":"4cf62854c28df04dce3dc915","name":"Palace Court Hotel","contact":{"phone":"+442077274412","formattedPhone":"+44 20 7727 4412"},"location":{"address":"64-65 Prince's Square","lat":"51.513352","lng":"-0.193234","distance":"108","postalCode":"W2 4PX","cc":"GB","city":"London","state":"Greater London","country":"United Kingdom"},"categories":[{"id":"4bf58dd8d48988d1fa931735","name":"Hotel","pluralName":"Hotels","shortName":"Hotel","icon":{"prefix":"https:\/\/ss1.4sqi.net\/img\/categories_v2\/travel\/hotel_","suffix":".png"},"primary":"true"}],"verified":"false","restricted":"true","stats":{"checkinsCount":"139","usersCount":"76","tipCount":"1"},"specials":{"count":"0"},"hereNow":{"count":"0"},"referralId":"v-1392478009"},{"id":"4fbc992ebe77564d719b433a","name":"neds noodle bar","contact":{"phone":"+442070340089","formattedPhone":"+44 20 7034 0089","twitter":"nedsnoodlebar"},"location":{"address":"95 Westbourne Grove","lat":"51.51508571459469","lng":"-0.19299030303955078","distance":"89","postalCode":"w24uw","cc":"GB","city":"London","state":"Greater London","country":"United Kingdom"},"categories":[{"id":"4bf58dd8d48988d142941735","name":"Asian Restaurant","pluralName":"Asian Restaurants","shortName":"Asian","icon":{"prefix":"https:\/\/ss1.4sqi.net\/img\/categories_v2\/food\/asian_","suffix":".png"},"primary":"true"}],"verified":"false","restricted":"true","stats":{"checkinsCount":"96","usersCount":"57","tipCount":"4"},"specials":{"count":"0"},"hereNow":{"count":"0"},"referralId":"v-1392478009"}],"confident":"true"}}