{"meta":{"code":"200"},"response":{"venues":[{"id":"4bbeeb1330c99c74a36c5411","name":"McDonald's","contact":{"phone":"+448702413300","formattedPhone":"+44 870 241 3300","twitter":"mcdonalds"},"location":{"address":"152 Fleet St.","lat":"51.514205","lng":"-0.107731","distance":"10","postalCode":"EC4A 2DQ","cc":"GB","city":"London","state":"Greater London","country":"United Kingdom"},"categories":[{"id":"4bf58dd8d48988d16e941735","name":"Fast Food Restaurant","pluralName":"Fast Food Restaurants","shortName":"Fast Food","icon":{"prefix":"https:\/\/ss1.4sqi.net\/img\/categories_v2\/food\/fastfood_","suffix":".png"},"primary":"true"}],"verified":"false","restricted":"true","stats":{"checkinsCount":"677","usersCount":"370","tipCount":"2"},"menu":{"type":"Menu","label":"Menu","anchor":"View Menu","url":"https:\/\/foursquare.com\/v\/mcdonalds\/4bbeeb1330c99c74a36c5411\/menu","mobileUrl":"https:\/\/foursquare.com\/v\/4bbeeb1330c99c74a36c5411\/device_menu"},"specials":{"count":"0"},"hereNow":{"count":"0"},"referralId":"v-1392478018"},{"id":"4b03f201f964a5209c5022e3","name":"Starbucks","contact":{"twitter":"starbucksuk"},"location":{"address":"150 Fleet Street,","crossStreet":"btwn Fetter Ln. & Farringdon St.","lat":"51.51429786349476","lng":"-0.10755658149719238","distance":"17","postalCode":"EC4A 2DQ","cc":"GB","city":"London","state":"Greater London","country":"United Kingdom"},"categories":[{"id":"4bf58dd8d48988d1e0931735","name":"Coffee Shop","pluralName":"Coffee Shops","shortName":"Coffee Shop","icon":{"prefix":"https:\/\/ss1.4sqi.net\/img\/categories_v2\/food\/coffeeshop_","suffix":".png"},"primary":"true"}],"verified":"true","restricted":"true","stats":{"checkinsCount":"1983","usersCount":"636","tipCount":"11"},"url":"http:\/\/starbucks.co.uk","specials":{"count":"0"},"hereNow":{"count":"0"},"storeId":"12268","referralId":"v-1392478018"},{"id":"4ac518bff964a52024a320e3","name":"Ye Olde Cheshire Cheese","contact":{"phone":"+442073536170","formattedPhone":"+44 20 7353 6170"},"location":{"address":"145 Fleet St.","crossStreet":"at Whitefriars St.","lat":"51.51435054538995","lng":"-0.10720345675221798","distance":"42","postalCode":"EC4A 2BU","cc":"GB","city":"London","state":"Greater London","country":"United Kingdom"},"categories":[{"id":"4bf58dd8d48988d11b941735","name":"Pub","pluralName":"Pubs","shortName":"Pub","icon":{"prefix":"https:\/\/ss1.4sqi.net\/img\/categories_v2\/nightlife\/pub_","suffix":".png"},"primary":"true"}],"verified":"false","restricted":"true","stats":{"checkinsCount":"2979","usersCount":"2329","tipCount":"46"},"specials":{"count":"0"},"hereNow":{"count":"0"},"referralId":"v-1392478018"},{"id":"4b59a863f964a5203e9128e3","name":"Chilango","contact":{"phone":"+442073536761","formattedPhone":"+44 20 7353 6761","twitter":"chilango_uk"},"location":{"address":"142 Fleet St.","lat":"51.514311217016754","lng":"-0.10718107223510742","distance":"43","postalCode":"EC4A 2BP","cc":"GB","city":"London","state":"Greater London","country":"United Kingdom"},"categories":[{"id":"4bf58dd8d48988d153941735","name":"Burrito Place","pluralName":"Burrito Places","shortName":"Burritos","icon":{"prefix":"https:\/\/ss1.4sqi.net\/img\/categories_v2\/food\/burrito_","suffix":".png"},"primary":"true"}],"verified":"false","restricted":"true","stats":{"checkinsCount":"1560","usersCount":"506","tipCount":"32"},"url":"http:\/\/www.chilango.co.uk","menu":{"type":"Menu","label":"Menu","anchor":"View Menu","url":"https:\/\/foursquare.com\/v\/chilango\/4b59a863f964a5203e9128e3\/menu","mobileUrl":"https:\/\/foursquare.com\/v\/4b59a863f964a5203e9128e3\/device_menu"},"specials":{"count":"0"},"hereNow":{"count":"0"},"referralId":"v-1392478018"},{"id":"4ac518c3f964a52040a420e3","name":"The Tipperary","contact":{"phone":"+442075836470","formattedPhone":"+44 20 7583 6470"},"location":{"address":"66 Fleet St.","crossStreet":"at Whitefriars St.","lat":"51.514164328059515","lng":"-0.10741710662841797","distance":"30","postalCode":"EC4Y 1HT","cc":"GB","city":"London","state":"Greater London","country":"United Kingdom"},"categories":[{"id":"4bf58dd8d48988d11b941735","name":"Pub","pluralName":"Pubs","shortName":"Pub","icon":{"prefix":"https:\/\/ss1.4sqi.net\/img\/categories_v2\/nightlife\/pub_","suffix":".png"},"primary":"true"}],"verified":"false","restricted":"true","stats":{"checkinsCount":"350","usersCount":"294","tipCount":"6"},"specials":{"count":"0"},"hereNow":{"count":"0"},"referralId":"v-1392478018"},{"id":"4bffb2df92a6c928b8ea42e2","name":"Pret A Manger","contact":{"phone":"+442079325323","formattedPhone":"+44 20 7932 5323","twitter":"pret","facebook":"162638680417951"},"location":{"address":"143 Fleet St","lat":"51.5143066036","lng":"-0.107261145686","distance":"37","postalCode":"EC4Y 1HY","cc":"GB","city":"London","state":"Greater London","country":"United Kingdom"},"categories":[{"id":"4bf58dd8d48988d1c5941735","name":"Sandwich Place","pluralName":"Sandwich Places","shortName":"Sandwiches","icon":{"prefix":"https:\/\/ss1.4sqi.net\/img\/categories_v2\/food\/sandwiches_","suffix":".png"},"primary":"true"}],"verified":"true","restricted":"true","stats":{"checkinsCount":"442","usersCount":"167","tipCount":"3"},"url":"http:\/\/www.pret.com","specials":{"count":"0"},"hereNow":{"count":"0"},"storeId":"123","referralId":"v-1392478018"},{"id":"4f4e29fbe4b0ed36942c7445","name":"165 Fleet Street","location":{"address":"165 Fleet Street","lat":"51.51441103321159","lng":"-0.10850847908074528","distance":"50","cc":"GB","city":"London","state":"Greater London","country":"United Kingdom"},"categories":[{"id":"4bf58dd8d48988d124941735","name":"Office","pluralName":"Offices","shortName":"Office","icon":{"prefix":"https:\/\/ss1.4sqi.net\/img\/categories_v2\/building\/default_","suffix":".png"},"primary":"true"}],"verified":"false","restricted":"true","stats":{"checkinsCount":"247","usersCount":"58","tipCount":"0"},"specials":{"count":"0"},"hereNow":{"count":"0"},"referralId":"v-1392478018"},{"id":"4bffa7f7f61ea5937287ea13","name":"Fuzzy's Grub","location":{"address":"62a Bouverie Street","lat":"51.51406","lng":"-0.107857","distance":"25","cc":"GB","city":"London","state":"Greater London","country":"United Kingdom"},"categories":[{"id":"4bf58dd8d48988d1c5941735","name":"Sandwich Place","pluralName":"Sandwich Places","shortName":"Sandwiches","icon":{"prefix":"https:\/\/ss1.4sqi.net\/img\/categories_v2\/food\/sandwiches_","suffix":".png"},"primary":"true"}],"verified":"false","restricted":"true","stats":{"checkinsCount":"151","usersCount":"61","tipCount":"4"},"specials":{"count":"0"},"hereNow":{"count":"0"},"referralId":"v-1392478018"},{"id":"4eb14bef9a52c49f4cec6b59","name":"Apex Temple Court","contact":{"twitter":"apexhotels"},"location":{"address":"1-2 Serjeant's Inn","lat":"51.51372304141557","lng":"-0.10867550489660803","distance":"87","postalCode":"EC4Y 1LL","cc":"GB","city":"London","state":"Greater London","country":"United Kingdom"},"categories":[{"id":"4bf58dd8d48988d1fa931735","name":"Hotel","pluralName":"Hotels","shortName":"Hotel","icon":{"prefix":"https:\/\/ss1.4sqi.net\/img\/categories_v2\/travel\/hotel_","suffix":".png"},"primary":"true"}],"verified":"false","restricted":"true","stats":{"checkinsCount":"1226","usersCount":"428","tipCount":"6"},"specials":{"count":"0"},"hereNow":{"count":"0"},"referralId":"v-1392478018"},{"id":"4bd58ca15631c9b6ba34a430","name":"Wasabi","location":{"address":"69 Fleet Street","lat":"51.514110913775795","lng":"-0.10724544525146484","distance":"43","postalCode":"EC4Y 1EU","cc":"GB","city":"London","state":"Greater London","country":"United Kingdom"},"categories":[{"id":"4bf58dd8d48988d1d2941735","name":"Sushi Restaurant","pluralName":"Sushi Restaurants","shortName":"Sushi","icon":{"prefix":"https:\/\/ss1.4sqi.net\/img\/categories_v2\/food\/sushi_","suffix":".png"},"primary":"true"}],"verified":"false","restricted":"true","stats":{"checkinsCount":"417","usersCount":"173","tipCount":"8"},"specials":{"count":"0"},"hereNow":{"count":"0"},"referralId":"v-1392478018"},{"id":"51f0d923498e831018c5b6cc","name":"Home Office","location":{"address":"165 Fleet Street","lat":"51.514287752122364","lng":"-0.10757483320872903","distance":"15","cc":"GB","country":"United Kingdom"},"categories":[{"id":"4bf58dd8d48988d12a941735","name":"Capitol Building","pluralName":"Capitol Buildings","shortName":"Capitol Building","icon":{"prefix":"https:\/\/ss1.4sqi.net\/img\/categories_v2\/building\/government_capitolbuilding_","suffix":".png"},"primary":"true"}],"verified":"false","restricted":"true","stats":{"checkinsCount":"25","usersCount":"2","tipCount":"0"},"specials":{"count":"0"},"hereNow":{"count":"0"},"referralId":"v-1392478018"},{"id":"4b5882caf964a5205b5b28e3","name":"Paul","contact":{"phone":"+442073535874","formattedPhone":"+44 20 7353 5874"},"location":{"address":"147 Fleet St.","lat":"51.514244","lng":"-0.107328","distance":"33","postalCode":"EC4A 2BU","cc":"GB","city":"London","state":"Greater London","country":"United Kingdom"},"categories":[{"id":"4bf58dd8d48988d16a941735","name":"Bakery","pluralName":"Bakeries","shortName":"Bakery","icon":{"prefix":"https:\/\/ss1.4sqi.net\/img\/categories_v2\/food\/bakery_","suffix":".png"},"primary":"true"}],"verified":"false","restricted":"true","stats":{"checkinsCount":"147","usersCount":"74","tipCount":"3"},"specials":{"count":"0"},"hereNow":{"count":"0"},"referralId":"v-1392478018"},{"id":"4ca1def4e44d6dcbd2ae0175","name":"EAT.","contact":{"phone":"+442076368311","formattedPhone":"+44 20 7636 8311","twitter":"eat_news"},"location":{"address":"170 Fleet Street","lat":"51.51424670789819","lng":"-0.10857407744621055","distance":"53","postalCode":"EC4A 2EA","cc":"GB","city":"London","state":"Greater London","country":"United Kingdom"},"categories":[{"id":"4bf58dd8d48988d1c5941735","name":"Sandwich Place","pluralName":"Sandwich Places","shortName":"Sandwiches","icon":{"prefix":"https:\/\/ss1.4sqi.net\/img\/categories_v2\/food\/sandwiches_","suffix":".png"},"primary":"true"}],"verified":"true","restricted":"true","stats":{"checkinsCount":"189","usersCount":"66","tipCount":"2"},"url":"http:\/\/www.eat.co.uk","specials":{"count":"0"},"hereNow":{"count":"0"},"storeId":"EAT - Fleet Street","referralId":"v-1392478018"},{"id":"5297984a498e59fe04d4784e","name":"Hack & Hop","contact":{"phone":"+442075838117","formattedPhone":"+44 20 7583 8117","twitter":"hackandhop"},"location":{"address":"35 Whitefriars Street","lat":"51.513703825061924","lng":"-0.10708471294876218","distance":"81","postalCode":"EC4Y 8BH","cc":"GB","city":"London","state":"Greater London","country":"United Kingdom"},"categories":[{"id":"4bf58dd8d48988d116941735","name":"Bar","pluralName":"Bars","shortName":"Bar","icon":{"prefix":"https:\/\/ss1.4sqi.net\/img\/categories_v2\/nightlife\/bar_","suffix":".png"},"primary":"true"}],"verified":"false","restricted":"true","stats":{"checkinsCount":"45","usersCount":"34","tipCount":"0"},"url":"http:\/\/thehackandhop.com","specials":{"count":"0"},"hereNow":{"count":"0"},"referralId":"v-1392478018"},{"id":"519232168bbd6a851630b369","name":"Pilpel","location":{"address":"1a Wine Office Court","crossStreet":"146 Fleet Street","lat":"51.51436463106559","lng":"-0.10724544525146484","distance":"39","postalCode":"ec4a 3by","cc":"GB","city":"London","state":"Greater London","country":"United Kingdom"},"categories":[{"id":"4bf58dd8d48988d10b941735","name":"Falafel Restaurant","pluralName":"Falafel Restaurants","shortName":"Falafel","icon":{"prefix":"https:\/\/ss1.4sqi.net\/img\/categories_v2\/food\/falafel_","suffix":".png"},"primary":"true"}],"verified":"false","restricted":"true","stats":{"checkinsCount":"62","usersCount":"28","tipCount":"2"},"specials":{"count":"0"},"hereNow":{"count":"0"},"referralId":"v-1392478018"},{"id":"4c5ffba6b36eb713a0c29bd2","name":"Gough Square","location":{"address":"Gough Square","lat":"51.515063542194305","lng":"-0.10774973457236701","distance":"86","postalCode":"EC4A 3DE","cc":"GB","city":"London","state":"Greater London","country":"United Kingdom"},"categories":[{"id":"4bf58dd8d48988d164941735","name":"Plaza","pluralName":"Plazas","shortName":"Plaza","icon":{"prefix":"https:\/\/ss1.4sqi.net\/img\/categories_v2\/parks_outdoors\/plaza_","suffix":".png"},"primary":"true"}],"verified":"false","restricted":"true","stats":{"checkinsCount":"308","usersCount":"79","tipCount":"0"},"specials":{"count":"0"},"hereNow":{"count":"1","groups":[{"type":"others","name":"Other people here","count":"1"}]},"referralId":"v-1392478018"},{"id":"4d0a39c1e023224b53de5ed2","name":"Snappy Snaps","contact":{"phone":"+442073534610","formattedPhone":"+44 20 7353 4610","twitter":"snappysnapsuk","facebook":"101184434818"},"location":{"address":"59 Fleet Street","lat":"51.51422","lng":"-0.108173","distance":"26","postalCode":"EC4Y 1JU","cc":"GB","city":"London","state":"Greater London","country":"United Kingdom"},"categories":[{"id":"4bf58dd8d48988d1ff941735","name":"Miscellaneous Shop","pluralName":"Miscellaneous Shops","shortName":"Shop","icon":{"prefix":"https:\/\/ss1.4sqi.net\/img\/categories_v2\/shops\/default_","suffix":".png"},"primary":"true"}],"verified":"true","restricted":"true","stats":{"checkinsCount":"46","usersCount":"31","tipCount":"1"},"specials":{"count":"0"},"hereNow":{"count":"0"},"storeId":"081","referralId":"v-1392478018"},{"id":"50cb6402e4b0e6c834a28f12","name":"Ryman","location":{"lat":"51.51410690838996","lng":"-0.10795903096178974","distance":"22","cc":"GB","country":"United Kingdom"},"categories":[{"id":"4bf58dd8d48988d121951735","name":"Paper \/ Office Supplies Store","pluralName":"Paper \/ Office Supplies Stores","shortName":"Office Supplies","icon":{"prefix":"https:\/\/ss1.4sqi.net\/img\/categories_v2\/shops\/papergoods_","suffix":".png"},"primary":"true"}],"verified":"false","restricted":"true","stats":{"checkinsCount":"10","usersCount":"10","tipCount":"0"},"specials":{"count":"0"},"hereNow":{"count":"0"},"referralId":"v-1392478018"},{"id":"4dba7a876a23e2622da1f393","name":"Saco","location":{"address":"1 Crane Court","lat":"51.514365","lng":"-0.109281","distance":"102","cc":"GB","city":"London","state":"Greater London","country":"United Kingdom"},"categories":[{"id":"4d954b06a243a5684965b473","name":"Residential Building (Apartment \/ Condo)","pluralName":"Residential Buildings (Apartments \/ Condos)","shortName":"Residential","icon":{"prefix":"https:\/\/ss1.4sqi.net\/img\/categories_v2\/building\/apartment_","suffix":".png"},"primary":"true"}],"verified":"false","restricted":"true","stats":{"checkinsCount":"34","usersCount":"12","tipCount":"0"},"specials":{"count":"0"},"hereNow":{"count":"0"},"referralId":"v-1392478018"},{"id":"4dd0f90bfa7664b7c6e3d253","name":"IDRC","location":{"lat":"51.51421709323657","lng":"-0.1071784457076949","distance":"44","cc":"GB","city":"London","state":"Greater London","country":"United Kingdom"},"categories":[{"id":"4bf58dd8d48988d130941735","name":"Building","pluralName":"Buildings","shortName":"Building","icon":{"prefix":"https:\/\/ss1.4sqi.net\/img\/categories_v2\/building\/default_","suffix":".png"},"primary":"true"}],"verified":"false","restricted":"true","stats":{"checkinsCount":"45","usersCount":"17","tipCount":"0"},"specials":{"count":"0"},"hereNow":{"count":"0"},"referralId":"v-1392478018"},{"id":"4e416d85ae60920b01790a2c","name":"Adecco Head Office","contact":{"phone":"+442073009000","formattedPhone":"+44 20 7300 9000","twitter":"adecco_uk"},"location":{"address":"Bouverie Street","lat":"51.513777073083524","lng":"-0.10808229446411133","distance":"60","postalCode":"EC4Y 8AX","cc":"GB","city":"Greater London","state":"Greater London","country":"United Kingdom"},"categories":[{"id":"4bf58dd8d48988d124941735","name":"Office","pluralName":"Offices","shortName":"Office","icon":{"prefix":"https:\/\/ss1.4sqi.net\/img\/categories_v2\/building\/default_","suffix":".png"},"primary":"true"}],"verified":"false","restricted":"true","stats":{"checkinsCount":"144","usersCount":"23","tipCount":"0"},"specials":{"count":"0"},"hereNow":{"count":"0"},"referralId":"v-1392478018"},{"id":"4c5a6b4a67ac0f4725bd064c","name":"Business Environment","location":{"address":"Fleet Street","lat":"51.51419087643928","lng":"-0.10774806994664621","distance":"11","postalCode":"EC4","cc":"GB","city":"London","state":"Greater London","country":"United Kingdom"},"categories":[{"id":"4bf58dd8d48988d174941735","name":"Coworking Space","pluralName":"Coworking Spaces","shortName":"Coworking Space","icon":{"prefix":"https:\/\/ss1.4sqi.net\/img\/categories_v2\/building\/office_coworkingspace_","suffix":".png"},"primary":"true"}],"verified":"false","restricted":"true","stats":{"checkinsCount":"24","usersCount":"5","tipCount":"0"},"specials":{"count":"0"},"hereNow":{"count":"0"},"referralId":"v-1392478018"},{"id":"4eba597c93ade58bee894b5d","name":"tkm9 London","location":{"address":"Fleet street","lat":"51.514275","lng":"-0.107816","distance":"1","postalCode":"Ec4a2dq","cc":"GB","city":"London","state":"Greater London","country":"United Kingdom"},"categories":[{"id":"4bf58dd8d48988d124941735","name":"Office","pluralName":"Offices","shortName":"Office","icon":{"prefix":"https:\/\/ss1.4sqi.net\/img\/categories_v2\/building\/default_","suffix":".png"},"primary":"true"}],"verified":"false","restricted":"true","stats":{"checkinsCount":"1","usersCount":"1","tipCount":"2"},"specials":{"count":"0"},"hereNow":{"count":"0"},"referralId":"v-1392478018"},{"id":"5006671be4b06c98e128e7cc","name":"And Meetings","location":{"lat":"51.51437976729672","lng":"-0.10782720431239484","distance":"10","cc":"GB","country":"United Kingdom"},"categories":[{"id":"4bf58dd8d48988d127941735","name":"Conference Room","pluralName":"Conference Rooms","shortName":"Conference room","icon":{"prefix":"https:\/\/ss1.4sqi.net\/img\/categories_v2\/building\/office_conferenceroom_","suffix":".png"},"primary":"true"}],"verified":"false","restricted":"true","stats":{"checkinsCount":"8","usersCount":"4","tipCount":"0"},"specials":{"count":"0"},"hereNow":{"count":"0"},"referralId":"v-1392478018"},{"id":"4b7bf41cf964a5208e752fe3","name":"HSBC","contact":{"phone":"+448457404404","formattedPhone":"+44 845 740 4404"},"location":{"address":"165 Fleet St","lat":"51.514136","lng":"-0.108434","distance":"46","postalCode":"EC4A 2DY","cc":"GB","city":"London","state":"Greater London","country":"United Kingdom"},"categories":[{"id":"4bf58dd8d48988d124941735","name":"Office","pluralName":"Offices","shortName":"Office","icon":{"prefix":"https:\/\/ss1.4sqi.net\/img\/categories_v2\/building\/default_","suffix":".png"},"primary":"true"}],"verified":"false","restricted":"true","stats":{"checkinsCount":"129","usersCount":"65","tipCount":"3"},"specials":{"count":"0"},"hereNow":{"count":"0"},"referralId":"v-1392478018"},{"id":"52adfd9d498ec95200ca89ef","name":"London Souvenirs","location":{"lat":"51.51379673018552","lng":"-0.10784258368236081","distance":"54","cc":"GB","country":"United Kingdom"},"categories":[{"id":"4bf58dd8d48988d128951735","name":"Gift Shop","pluralName":"Gift Shops","shortName":"Gift Shop","icon":{"prefix":"https:\/\/ss1.4sqi.net\/img\/categories_v2\/shops\/giftshop_","suffix":".png"},"primary":"true"}],"verified":"false","restricted":"true","stats":{"checkinsCount":"5","usersCount":"3","tipCount":"0"},"specials":{"count":"0"},"hereNow":{"count":"0"},"referralId":"v-1392478018"},{"id":"4cd0520e1ac7a1cdf8da1892","name":"Essential Therapie","contact":{"phone":"+442073531895","formattedPhone":"+44 20 7353 1895"},"location":{"address":"39 Whitefriars St.","lat":"51.514036","lng":"-0.107939","distance":"29","postalCode":"EC4Y 8BH","cc":"GB","city":"London","state":"Greater London","country":"United Kingdom"},"categories":[{"id":"4bf58dd8d48988d1ed941735","name":"Spa","pluralName":"Spas","shortName":"Spa","icon":{"prefix":"https:\/\/ss1.4sqi.net\/img\/categories_v2\/shops\/spa_","suffix":".png"},"primary":"true"}],"verified":"false","restricted":"true","stats":{"checkinsCount":"9","usersCount":"6","tipCount":"1"},"url":"http:\/\/www.essential-therapie.co.uk","specials":{"count":"0"},"hereNow":{"count":"0"},"referralId":"v-1392478018"},{"id":"4cd2c776df88a35d75d36aa0","name":"Luytens Restaurant, Fleet Street, London","location":{"address":"Fleet Street","lat":"51.514218526662646","lng":"-0.10690146667211961","distance":"62","cc":"GB","city":"EC 1","state":"Greater London","country":"United Kingdom"},"categories":[{"id":"4bf58dd8d48988d1c4941735","name":"Restaurant","pluralName":"Restaurants","shortName":"Restaurant","icon":{"prefix":"https:\/\/ss1.4sqi.net\/img\/categories_v2\/food\/default_","suffix":".png"},"primary":"true"}],"verified":"false","restricted":"true","stats":{"checkinsCount":"32","usersCount":"19","tipCount":"0"},"menu":{"type":"Menu","label":"Menu","anchor":"View Menu","url":"https:\/\/foursquare.com\/v\/luytens-restaurant-fleet-street-london\/4cd2c776df88a35d75d36aa0\/menu","mobileUrl":"https:\/\/foursquare.com\/v\/4cd2c776df88a35d75d36aa0\/device_menu"},"specials":{"count":"0"},"hereNow":{"count":"0"},"referralId":"v-1392478018"},{"id":"5106631fe4b0e850b352af8b","name":"Sainsbury's Local","location":{"address":"Fleet Street","lat":"51.5142895211454","lng":"-0.10659354358839758","distance":"83","cc":"GB","country":"United Kingdom"},"categories":[{"id":"4d954b0ea243a5684a65b473","name":"Convenience Store","pluralName":"Convenience Stores","shortName":"Convenience Stores","icon":{"prefix":"https:\/\/ss1.4sqi.net\/img\/categories_v2\/shops\/conveniencestore_","suffix":".png"},"primary":"true"}],"verified":"false","restricted":"true","stats":{"checkinsCount":"51","usersCount":"25","tipCount":"1"},"specials":{"count":"0"},"hereNow":{"count":"0"},"referralId":"v-1392478018"},{"id":"4e738531a8095a7c4254f93e","name":"Roger's Barber shop","location":{"address":"Basement, 61Fleet Street","lat":"51.514298341051095","lng":"-0.1081778761867027","distance":"25","postalCode":"EC4Y 1JU","cc":"GB","city":"London","state":"Greater London","country":"United Kingdom"},"categories":[{"id":"4bf58dd8d48988d110951735","name":"Salon \/ Barbershop","pluralName":"Salons \/ Barbershops","shortName":"Salon \/ Barbershop","icon":{"prefix":"https:\/\/ss1.4sqi.net\/img\/categories_v2\/shops\/salon_barber_","suffix":".png"},"primary":"true"}],"verified":"false","restricted":"true","stats":{"checkinsCount":"24","usersCount":"6","tipCount":"2"},"specials":{"count":"0"},"hereNow":{"count":"0"},"referralId":"v-1392478018"}],"confident":"true"}}