{"meta":{"code":"200"},"response":{"venues":[{"id":"4c379cc03849c928f906beb1","name":"St. John's Wood","location":{"address":"Everywhere!","lat":"51.5343971577772","lng":"-0.17421483993530273","distance":"98","postalCode":"NW8","cc":"GB","city":"St John's Wood","state":"Greater London","country":"United Kingdom"},"categories":[{"id":"4f2a25ac4b909258e854f55f","name":"Neighborhood","pluralName":"Neighborhoods","shortName":"Neighborhood","icon":{"prefix":"https:\/\/ss1.4sqi.net\/img\/categories_v2\/parks_outdoors\/neighborhood_","suffix":".png"},"primary":"true"}],"verified":"false","restricted":"true","stats":{"checkinsCount":"4513","usersCount":"1153","tipCount":"7"},"specials":{"count":"0"},"hereNow":{"count":"0"},"referralId":"v-1392477959"},{"id":"4b0d7d90f964a520824923e3","name":"Starbucks","contact":{"twitter":"starbucksuk"},"location":{"address":"Circus Rd","lat":"51.53401457796396","lng":"-0.17145474136100192","distance":"98","postalCode":"NW8 7NL","cc":"GB","city":"London","state":"Greater London","country":"United Kingdom"},"categories":[{"id":"4bf58dd8d48988d1e0931735","name":"Coffee Shop","pluralName":"Coffee Shops","shortName":"Coffee Shop","icon":{"prefix":"https:\/\/ss1.4sqi.net\/img\/categories_v2\/food\/coffeeshop_","suffix":".png"},"primary":"true"}],"verified":"true","restricted":"true","stats":{"checkinsCount":"1711","usersCount":"623","tipCount":"7"},"url":"http:\/\/starbucks.co.uk","specials":{"count":"0"},"hereNow":{"count":"1","groups":[{"type":"others","name":"Other people here","count":"1"}]},"storeId":"12038","referralId":"v-1392477959"},{"id":"4b6407e4f964a5200d9c2ae3","name":"GAIL's Artisan Bakery","contact":{"phone":"+442077220983","formattedPhone":"+44 20 7722 0983","twitter":"gailsbakery"},"location":{"address":"5 Circus Rd","lat":"51.53384996611287","lng":"-0.17177627611806887","distance":"86","postalCode":"NW8 6NX","cc":"GB","city":"St Johns Wood","state":"Greater London","country":"United Kingdom"},"categories":[{"id":"4bf58dd8d48988d16a941735","name":"Bakery","pluralName":"Bakeries","shortName":"Bakery","icon":{"prefix":"https:\/\/ss1.4sqi.net\/img\/categories_v2\/food\/bakery_","suffix":".png"},"primary":"true"}],"verified":"true","restricted":"true","stats":{"checkinsCount":"1180","usersCount":"282","tipCount":"14"},"url":"http:\/\/www.gailsbread.co.uk","specials":{"count":"0"},"hereNow":{"count":"0"},"storeId":"","referralId":"v-1392477959"},{"id":"4ba8f17ff964a52065fc39e3","name":"Tesco Express","contact":{"phone":"+448450269338","formattedPhone":"+44 845 026 9338","twitter":"uktescooffers"},"location":{"address":"6\/14 Circus Road","lat":"51.53390996663796","lng":"-0.17183303833007812","distance":"79","postalCode":"NW8 6PG","cc":"GB","city":"London","state":"Greater London","country":"United Kingdom"},"categories":[{"id":"4bf58dd8d48988d118951735","name":"Grocery Store","pluralName":"Grocery Stores","shortName":"Grocery Store","icon":{"prefix":"https:\/\/ss1.4sqi.net\/img\/categories_v2\/shops\/food_grocery_","suffix":".png"},"primary":"true"}],"verified":"true","restricted":"true","stats":{"checkinsCount":"1404","usersCount":"248","tipCount":"3"},"url":"http:\/\/www.tesco.com","specials":{"count":"0"},"hereNow":{"count":"0"},"storeId":"3479","referralId":"v-1392477959"},{"id":"4bc815f92f94d13a2716137f","name":"Beatles Coffee Shop","contact":{"phone":"+442075865404","formattedPhone":"+44 20 7586 5404","twitter":"londonbeatles"},"location":{"address":"St John's Wood Underground Station, Finchley Rd","crossStreet":"Acacia Road","lat":"51.53443710226777","lng":"-0.17414933297056942","distance":"94","postalCode":"NW8 6EB","cc":"GB","city":"London","state":"Greater London","country":"United Kingdom"},"categories":[{"id":"4bf58dd8d48988d1e0931735","name":"Coffee Shop","pluralName":"Coffee Shops","shortName":"Coffee Shop","icon":{"prefix":"https:\/\/ss1.4sqi.net\/img\/categories_v2\/food\/coffeeshop_","suffix":".png"},"primary":"true"}],"verified":"false","restricted":"true","stats":{"checkinsCount":"557","usersCount":"332","tipCount":"8"},"url":"http:\/\/www.beatlescoffeeshop.com","specials":{"count":"0"},"hereNow":{"count":"1","groups":[{"type":"others","name":"Other people here","count":"1"}]},"referralId":"v-1392477959"},{"id":"4ad74735f964a520330921e3","name":"Richoux St John's Wood","contact":{"phone":"+442074834001","formattedPhone":"+44 20 7483 4001"},"location":{"address":"3 Circus Road","lat":"51.533885","lng":"-0.17171215","distance":"87","postalCode":"NW8 6NX","cc":"GB","city":"London","state":"Greater London","country":"United Kingdom"},"categories":[{"id":"4bf58dd8d48988d1c4941735","name":"Restaurant","pluralName":"Restaurants","shortName":"Restaurant","icon":{"prefix":"https:\/\/ss1.4sqi.net\/img\/categories_v2\/food\/default_","suffix":".png"},"primary":"true"}],"verified":"false","restricted":"true","stats":{"checkinsCount":"553","usersCount":"298","tipCount":"10"},"url":"http:\/\/richouxstjohnswood.com","reservations":{"url":"http:\/\/www.toptable.co.uk\/single.aspx?rid=85882&ref=9601"},"menu":{"type":"Menu","label":"Menu","anchor":"View Menu","url":"https:\/\/foursquare.com\/v\/richoux-st-johns-wood\/4ad74735f964a520330921e3\/menu","mobileUrl":"https:\/\/foursquare.com\/v\/4ad74735f964a520330921e3\/device_menu"},"specials":{"count":"0"},"hereNow":{"count":"0"},"referralId":"v-1392477959"},{"id":"4d7e3de4f635236a381c6416","name":"John Kay Furs","location":{"address":"5-11 Circus Rd","lat":"51.53398727292142","lng":"-0.17256495293147298","distance":"37","postalCode":"NW8 6","cc":"GB","city":"Paddington","state":"Greater London","country":"United Kingdom"},"categories":[{"id":"4bf58dd8d48988d104951735","name":"Boutique","pluralName":"Boutiques","shortName":"Boutique","icon":{"prefix":"https:\/\/ss1.4sqi.net\/img\/categories_v2\/shops\/apparel_boutique_","suffix":".png"},"primary":"true"}],"verified":"false","restricted":"true","stats":{"checkinsCount":"19","usersCount":"2","tipCount":"0"},"specials":{"count":"0"},"hereNow":{"count":"0"},"referralId":"v-1392477959"},{"id":"4b200f7ff964a520b32c24e3","name":"Duke of York","contact":{"phone":"+442077221933","formattedPhone":"+44 20 7722 1933","twitter":"dukestjohnswood"},"location":{"address":"2 St Anne's Terrace","crossStreet":"Circus Road","lat":"51.53413687822829","lng":"-0.17131805419921875","distance":"104","postalCode":"NW8 6PJ","cc":"GB","city":"St. John's Wood","state":"Greater London","country":"United Kingdom"},"categories":[{"id":"4bf58dd8d48988d155941735","name":"Gastropub","pluralName":"Gastropubs","shortName":"Gastropub","icon":{"prefix":"https:\/\/ss1.4sqi.net\/img\/categories_v2\/food\/gastropub_","suffix":".png"},"primary":"true"}],"verified":"false","restricted":"true","stats":{"checkinsCount":"862","usersCount":"487","tipCount":"15"},"url":"http:\/\/www.thedukeofyork.com\/stjohnswood\/","menu":{"type":"Menu","label":"Menu","anchor":"View Menu","url":"https:\/\/foursquare.com\/v\/duke-of-york-st-johns-wood-london\/4b200f7ff964a520b32c24e3\/menu","mobileUrl":"https:\/\/foursquare.com\/v\/4b200f7ff964a520b32c24e3\/device_menu"},"specials":{"count":"0"},"hereNow":{"count":"0"},"referralId":"v-1392477959"},{"id":"51d2bc0b2fc67007b7c2a90e","name":"Pret A Manger","contact":{"phone":"+442076339492","formattedPhone":"+44 20 7633 9492","twitter":"pret","facebook":"162638680417951"},"location":{"address":"2-4 Circus Road","lat":"51.53408015043675","lng":"-0.17156481742858887","distance":"88","postalCode":"NW8 6PG","cc":"GB","city":"London","state":"Greater London","country":"United Kingdom"},"categories":[{"id":"4bf58dd8d48988d1c5941735","name":"Sandwich Place","pluralName":"Sandwich Places","shortName":"Sandwiches","icon":{"prefix":"https:\/\/ss1.4sqi.net\/img\/categories_v2\/food\/sandwiches_","suffix":".png"},"primary":"true"}],"verified":"true","restricted":"true","stats":{"checkinsCount":"74","usersCount":"39","tipCount":"0"},"url":"http:\/\/http:\/\/www.pret.com\/find_a_pret\/shops\/shop_24_Circus_Road_NW8_6PG_UK0327.shtm","specials":{"count":"0"},"hereNow":{"count":"0"},"storeId":"","referralId":"v-1392477959"},{"id":"4bae2fb2f964a520578f3be3","name":"The Bread Shop","contact":{"twitter":"thebreadshop"},"location":{"address":"65 St Johns Wood High St","lat":"51.53370211590137","lng":"-0.17104456905438914","distance":"138","postalCode":"NW8","cc":"GB","city":"London","state":"Greater London","country":"United Kingdom"},"categories":[{"id":"4bf58dd8d48988d16a941735","name":"Bakery","pluralName":"Bakeries","shortName":"Bakery","icon":{"prefix":"https:\/\/ss1.4sqi.net\/img\/categories_v2\/food\/bakery_","suffix":".png"},"primary":"true"}],"verified":"false","restricted":"true","stats":{"checkinsCount":"452","usersCount":"117","tipCount":"5"},"specials":{"count":"0"},"hereNow":{"count":"0"},"referralId":"v-1392477959"},{"id":"4befe949c601a593e911c3d1","name":"Cafe Rouge","location":{"address":"St John's Wood High Street","lat":"51.533327753884535","lng":"-0.17041009629447268","distance":"197","cc":"GB","city":"Paddington","state":"Greater London","country":"United Kingdom"},"categories":[{"id":"4bf58dd8d48988d10c941735","name":"French Restaurant","pluralName":"French Restaurants","shortName":"French","icon":{"prefix":"https:\/\/ss1.4sqi.net\/img\/categories_v2\/food\/french_","suffix":".png"},"primary":"true"}],"verified":"false","restricted":"true","stats":{"checkinsCount":"529","usersCount":"318","tipCount":"8"},"specials":{"count":"0"},"hereNow":{"count":"1","groups":[{"type":"others","name":"Other people here","count":"1"}]},"referralId":"v-1392477959"},{"id":"4b9cced5f964a5209a7c36e3","name":"Panzer's","location":{"address":"13-19 Circus Rd.","lat":"51.53360240859595","lng":"-0.17240151898014902","distance":"81","postalCode":"Nw8","cc":"GB","city":"London","state":"Greater London","country":"United Kingdom"},"categories":[{"id":"4bf58dd8d48988d146941735","name":"Deli \/ Bodega","pluralName":"Delis \/ Bodegas","shortName":"Deli \/ Bodega","icon":{"prefix":"https:\/\/ss1.4sqi.net\/img\/categories_v2\/food\/deli_","suffix":".png"},"primary":"true"}],"verified":"false","restricted":"true","stats":{"checkinsCount":"397","usersCount":"127","tipCount":"8"},"specials":{"count":"0"},"hereNow":{"count":"0"},"referralId":"v-1392477959"},{"id":"4b2a6f99f964a5201da924e3","name":"The Hospital of St John & St Elizabeth","contact":{"phone":"+442078064000","formattedPhone":"+44 20 7806 4000","twitter":"hospstjohneliz"},"location":{"address":"60 Grove End Rd","lat":"51.533385815905234","lng":"-0.17491168321756656","distance":"177","postalCode":"NW8 9NH","cc":"GB","city":"London","state":"Greater London","country":"United Kingdom"},"categories":[{"id":"4bf58dd8d48988d196941735","name":"Hospital","pluralName":"Hospitals","shortName":"Hospital","icon":{"prefix":"https:\/\/ss1.4sqi.net\/img\/categories_v2\/building\/medical_hospital_","suffix":".png"},"primary":"true"}],"verified":"true","restricted":"true","stats":{"checkinsCount":"912","usersCount":"294","tipCount":"8"},"url":"https:\/\/www.facebook.com\/johnandlizzies","specials":{"count":"0"},"hereNow":{"count":"0"},"venuePage":{"id":"67771526"},"storeId":"","referralId":"v-1392477959"},{"id":"4e59a09bb0fbdca30a01551a","name":"Athena Court","location":{"lat":"51.53459032628835","lng":"-0.17438051398361537","distance":"114","cc":"GB","city":"Paddington","state":"Greater London","country":"United Kingdom"},"categories":[{"id":"4d954b06a243a5684965b473","name":"Residential Building (Apartment \/ Condo)","pluralName":"Residential Buildings (Apartments \/ Condos)","shortName":"Residential","icon":{"prefix":"https:\/\/ss1.4sqi.net\/img\/categories_v2\/building\/apartment_","suffix":".png"},"primary":"true"}],"verified":"false","restricted":"true","stats":{"checkinsCount":"157","usersCount":"11","tipCount":"0"},"specials":{"count":"0"},"hereNow":{"count":"0"},"referralId":"v-1392477959"},{"id":"4f22f5ade4b0fd183646d346","name":"Fora","location":{"address":"11 Circus Rd.","lat":"51.533643839665956","lng":"-0.17216420408257235","distance":"84","postalCode":"NW8 6NX","cc":"GB","city":"St John's Wood","state":"Greater London","country":"United Kingdom"},"categories":[{"id":"4f04af1f2fb6e1c99f3db0bb","name":"Turkish Restaurant","pluralName":"Turkish Restaurants","shortName":"Turkish","icon":{"prefix":"https:\/\/ss1.4sqi.net\/img\/categories_v2\/food\/turkish_","suffix":".png"},"primary":"true"}],"verified":"false","restricted":"true","stats":{"checkinsCount":"103","usersCount":"84","tipCount":"5"},"specials":{"count":"0"},"hereNow":{"count":"0"},"referralId":"v-1392477959"},{"id":"5206011311d2676edee314ee","name":"Post Office","location":{"address":"Circus Road","lat":"51.533901321300334","lng":"-0.172510074544773","distance":"47","postalCode":"Nw8","cc":"GB","city":"London","state":"Greater London","country":"United Kingdom"},"categories":[{"id":"4bf58dd8d48988d172941735","name":"Post Office","pluralName":"Post Offices","shortName":"Post Office","icon":{"prefix":"https:\/\/ss1.4sqi.net\/img\/categories_v2\/building\/postoffice_","suffix":".png"},"primary":"true"}],"verified":"false","restricted":"true","stats":{"checkinsCount":"10","usersCount":"6","tipCount":"0"},"specials":{"count":"0"},"hereNow":{"count":"0"},"referralId":"v-1392477959"},{"id":"4be5353a477d9c741ca3e62d","name":"St John's Wood Library","contact":{"phone":"+442076411300","formattedPhone":"+44 20 7641 1300","twitter":"wcclibraries"},"location":{"address":"20 Circus Rd","lat":"51.53362966252356","lng":"-0.17247676849365234","distance":"76","postalCode":"NW8 6PD","cc":"GB","city":"St John's Wood","state":"Greater London","country":"United Kingdom"},"categories":[{"id":"4bf58dd8d48988d12f941735","name":"Library","pluralName":"Libraries","shortName":"Library","icon":{"prefix":"https:\/\/ss1.4sqi.net\/img\/categories_v2\/building\/library_","suffix":".png"},"primary":"true"}],"verified":"false","restricted":"true","stats":{"checkinsCount":"132","usersCount":"44","tipCount":"1"},"url":"http:\/\/www.westminster.gov.uk\/libraries","specials":{"count":"0"},"hereNow":{"count":"0"},"referralId":"v-1392477959"},{"id":"4b0d2cf9f964a520504423e3","name":"Post Office","location":{"address":"Circus Rd.","lat":"51.533524","lng":"-0.172571","distance":"86","cc":"GB","city":"St. Johns Wood","state":"Greater London","country":"United Kingdom"},"categories":[{"id":"4bf58dd8d48988d172941735","name":"Post Office","pluralName":"Post Offices","shortName":"Post Office","icon":{"prefix":"https:\/\/ss1.4sqi.net\/img\/categories_v2\/building\/postoffice_","suffix":".png"},"primary":"true"}],"verified":"false","restricted":"true","stats":{"checkinsCount":"128","usersCount":"51","tipCount":"0"},"specials":{"count":"0"},"hereNow":{"count":"0"},"referralId":"v-1392477959"},{"id":"4e5118bbe4cdc76dc9c7b64e","name":"Hair By Nico","location":{"lat":"51.534684","lng":"-0.174527","distance":"127","cc":"GB","city":"London","state":"Greater London","country":"United Kingdom"},"categories":[{"id":"4bf58dd8d48988d110951735","name":"Salon \/ Barbershop","pluralName":"Salons \/ Barbershops","shortName":"Salon \/ Barbershop","icon":{"prefix":"https:\/\/ss1.4sqi.net\/img\/categories_v2\/shops\/salon_barber_","suffix":".png"},"primary":"true"}],"verified":"false","restricted":"true","stats":{"checkinsCount":"4","usersCount":"4","tipCount":"1"},"specials":{"count":"0"},"hereNow":{"count":"0"},"referralId":"v-1392477959"},{"id":"5072ab88e4b0b212b1fd32ec","name":"Barclays","location":{"lat":"51.53341191180129","lng":"-0.172542045901438","distance":"99","cc":"GB","country":"United Kingdom"},"categories":[{"id":"4bf58dd8d48988d10a951735","name":"Bank","pluralName":"Banks","shortName":"Bank","icon":{"prefix":"https:\/\/ss1.4sqi.net\/img\/categories_v2\/shops\/financial_","suffix":".png"},"primary":"true"}],"verified":"false","restricted":"true","stats":{"checkinsCount":"36","usersCount":"27","tipCount":"0"},"specials":{"count":"0"},"hereNow":{"count":"0"},"referralId":"v-1392477959"},{"id":"4f68a659e4b072f145dc009b","name":"Abbey Road & Lord's Spy Mission Trail","location":{"lat":"51.5343282932124","lng":"-0.17432877537410726","distance":"105","cc":"GB","country":"United Kingdom"},"categories":[{"id":"4bf58dd8d48988d159941735","name":"Trail","pluralName":"Trails","shortName":"Trail","icon":{"prefix":"https:\/\/ss1.4sqi.net\/img\/categories_v2\/parks_outdoors\/hikingtrail_","suffix":".png"},"primary":"true"}],"verified":"true","restricted":"true","stats":{"checkinsCount":"105","usersCount":"91","tipCount":"1"},"specials":{"count":"0"},"hereNow":{"count":"0"},"referralId":"v-1392477959"},{"id":"52de86f8498e17bb57a698f6","name":"Post Office St Johns Wood","location":{"lat":"51.534613","lng":"-0.174139","distance":"99","cc":"GB","country":"United Kingdom"},"categories":[{"id":"4bf58dd8d48988d172941735","name":"Post Office","pluralName":"Post Offices","shortName":"Post Office","icon":{"prefix":"https:\/\/ss1.4sqi.net\/img\/categories_v2\/building\/postoffice_","suffix":".png"},"primary":"true"}],"verified":"false","restricted":"true","stats":{"checkinsCount":"1","usersCount":"1","tipCount":"0"},"specials":{"count":"0"},"hereNow":{"count":"0"},"referralId":"v-1392477959"},{"id":"4e351fd145dd1c42bf1b8b85","name":"Pereira News","location":{"lat":"51.53401425920902","lng":"-0.17145515148165988","distance":"98","cc":"GB","country":"United Kingdom"},"categories":[{"id":"4d954b0ea243a5684a65b473","name":"Convenience Store","pluralName":"Convenience Stores","shortName":"Convenience Stores","icon":{"prefix":"https:\/\/ss1.4sqi.net\/img\/categories_v2\/shops\/conveniencestore_","suffix":".png"},"primary":"true"}],"verified":"false","restricted":"true","stats":{"checkinsCount":"20","usersCount":"4","tipCount":"1"},"specials":{"count":"0"},"hereNow":{"count":"0"},"referralId":"v-1392477959"},{"id":"4bfd6f20b68d0f4789c8e857","name":"Gelato Mio","location":{"address":"138 St Johns Wood High St.","lat":"51.533645383749764","lng":"-0.17113160069975275","distance":"136","cc":"GB","city":"London","country":"United Kingdom"},"categories":[{"id":"4bf58dd8d48988d1c9941735","name":"Ice Cream Shop","pluralName":"Ice Cream Shops","shortName":"Ice Cream","icon":{"prefix":"https:\/\/ss1.4sqi.net\/img\/categories_v2\/food\/icecream_","suffix":".png"},"primary":"true"}],"verified":"false","restricted":"true","stats":{"checkinsCount":"419","usersCount":"191","tipCount":"7"},"menu":{"type":"Menu","label":"Menu","anchor":"View Menu","url":"https:\/\/foursquare.com\/v\/gelato-mio\/4bfd6f20b68d0f4789c8e857\/menu","mobileUrl":"https:\/\/foursquare.com\/v\/4bfd6f20b68d0f4789c8e857\/device_menu"},"specials":{"count":"0"},"hereNow":{"count":"0"},"referralId":"v-1392477959"},{"id":"4cc2d850be40a35d0cf3734c","name":"Hair By Partners","location":{"address":"66 St Johns Wood High Street","lat":"51.534303225353774","lng":"-0.17070417823093084","distance":"145","cc":"GB","country":"United Kingdom"},"categories":[{"id":"4bf58dd8d48988d110951735","name":"Salon \/ Barbershop","pluralName":"Salons \/ Barbershops","shortName":"Salon \/ Barbershop","icon":{"prefix":"https:\/\/ss1.4sqi.net\/img\/categories_v2\/shops\/salon_barber_","suffix":".png"},"primary":"true"}],"verified":"false","restricted":"true","stats":{"checkinsCount":"22","usersCount":"13","tipCount":"0"},"specials":{"count":"0"},"hereNow":{"count":"0"},"referralId":"v-1392477959"},{"id":"51ab6bfc498ebb2ef9c95ff7","name":"Nail Addict","location":{"lat":"51.534109","lng":"-0.171626","distance":"83","cc":"GB","country":"United Kingdom"},"categories":[{"id":"4f04aa0c2fb6e1c99f3db0b8","name":"Nail Salon","pluralName":"Nail Salons","shortName":"Nail Salon","icon":{"prefix":"https:\/\/ss1.4sqi.net\/img\/categories_v2\/shops\/nailsalon_","suffix":".png"},"primary":"true"}],"verified":"false","restricted":"true","stats":{"checkinsCount":"11","usersCount":"6","tipCount":"0"},"specials":{"count":"0"},"hereNow":{"count":"0"},"referralId":"v-1392477959"},{"id":"50c48256e4b0de89d0ef673c","name":"square one","location":{"lat":"51.53371723558832","lng":"-0.171125313662356","distance":"132","cc":"GB","country":"United Kingdom"},"categories":[{"id":"4bf58dd8d48988d106951735","name":"Men's Store","pluralName":"Men's Stores","shortName":"Men's Store","icon":{"prefix":"https:\/\/ss1.4sqi.net\/img\/categories_v2\/shops\/apparel_men_","suffix":".png"},"primary":"true"}],"verified":"false","restricted":"true","stats":{"checkinsCount":"7","usersCount":"3","tipCount":"0"},"specials":{"count":"0"},"hereNow":{"count":"0"},"referralId":"v-1392477959"},{"id":"52c061f5498eb50bca0fc7a0","name":"St. John's Wood Station - Bus Stop C","location":{"lat":"51.53356533390787","lng":"-0.17317205240041522","distance":"84","cc":"GB","country":"United Kingdom"},"categories":[{"id":"4bf58dd8d48988d1fe931735","name":"Bus Station","pluralName":"Bus Stations","shortName":"Bus Station","icon":{"prefix":"https:\/\/ss1.4sqi.net\/img\/categories_v2\/travel\/busstation_","suffix":".png"},"primary":"true"}],"verified":"false","restricted":"true","stats":{"checkinsCount":"1","usersCount":"1","tipCount":"0"},"specials":{"count":"0"},"hereNow":{"count":"0"},"referralId":"v-1392477959"},{"id":"4c89fba0a92fa09362248dbf","name":"HSBC Bank plc","contact":{"phone":"+448457404404","formattedPhone":"+44 845 740 4404"},"location":{"address":"1 Finchley Rd.","lat":"51.53440104011969","lng":"-0.1743550665614345","distance":"108","postalCode":"NW8 9TS","cc":"GB","city":"St. John's Wood","state":"Greater London","country":"United Kingdom"},"categories":[{"id":"4bf58dd8d48988d10a951735","name":"Bank","pluralName":"Banks","shortName":"Bank","icon":{"prefix":"https:\/\/ss1.4sqi.net\/img\/categories_v2\/shops\/financial_","suffix":".png"},"primary":"true"}],"verified":"false","restricted":"true","stats":{"checkinsCount":"93","usersCount":"39","tipCount":"0"},"specials":{"count":"0"},"hereNow":{"count":"0"},"referralId":"v-1392477959"},{"id":"4e61eb44c65b2dc89f652dae","name":"Madame George","contact":{"phone":"+442077223337","formattedPhone":"+44 20 7722 3337"},"location":{"address":"9 Circus Rd","lat":"51.534003","lng":"-0.17179","distance":"77","postalCode":"NW8 6NX","cc":"GB","city":"London","state":"Greater London","country":"United Kingdom"},"categories":[{"id":"4bf58dd8d48988d1fc941735","name":"Laundry Service","pluralName":"Laundry Services","shortName":"Laundry","icon":{"prefix":"https:\/\/ss1.4sqi.net\/img\/categories_v2\/shops\/laundry_","suffix":".png"},"primary":"true"}],"verified":"false","restricted":"true","stats":{"checkinsCount":"26","usersCount":"13","tipCount":"1"},"specials":{"count":"0"},"hereNow":{"count":"0"},"referralId":"v-1392477959"}],"confident":"true"}}