{"meta":{"code":"200"},"response":{"venues":[{"id":"4d6f88b4edca2c0fe7a153ea","name":"St Michaels School","contact":{"phone":"+442074858965","formattedPhone":"+44 20 7485 8965"},"location":{"address":"88 Camden St.","lat":"51.53889044254976","lng":"-0.13827476670476388","distance":"55","postalCode":"NW1 0JA","cc":"GB","city":"Camden","state":"Greater London","country":"United Kingdom"},"categories":[{"id":"4bf58dd8d48988d13b941735","name":"School","pluralName":"Schools","shortName":"School","icon":{"prefix":"https:\/\/ss1.4sqi.net\/img\/categories_v2\/building\/school_","suffix":".png"},"primary":"true"}],"verified":"false","restricted":"true","stats":{"checkinsCount":"693","usersCount":"11","tipCount":"0"},"specials":{"count":"0"},"hereNow":{"count":"0"},"referralId":"v-1392477949"},{"id":"4ad4f77af964a520040121e3","name":"The Prince Albert","contact":{"phone":"+442074850270","formattedPhone":"+44 20 7485 0270"},"location":{"address":"163 Royal College St","crossStreet":"Georgiana St","lat":"51.539959704184795","lng":"-0.13693418915767516","distance":"95","postalCode":"NW1 0SG","cc":"GB","city":"London","state":"Greater London","country":"United Kingdom"},"categories":[{"id":"4bf58dd8d48988d11b941735","name":"Pub","pluralName":"Pubs","shortName":"Pub","icon":{"prefix":"https:\/\/ss1.4sqi.net\/img\/categories_v2\/nightlife\/pub_","suffix":".png"},"primary":"true"}],"verified":"false","restricted":"true","stats":{"checkinsCount":"1009","usersCount":"569","tipCount":"15"},"reservations":{"url":"http:\/\/www.toptable.co.uk\/single.aspx?rid=79798&ref=9601"},"specials":{"count":"0"},"hereNow":{"count":"0"},"referralId":"v-1392477949"},{"id":"4e1c0dcd14954075097ca66e","name":"London Bridge Media","location":{"lat":"51.53815707880812","lng":"-0.13734390967938906","distance":"129","cc":"GB","country":"United Kingdom"},"categories":[{"id":"4bf58dd8d48988d124941735","name":"Office","pluralName":"Offices","shortName":"Office","icon":{"prefix":"https:\/\/ss1.4sqi.net\/img\/categories_v2\/building\/default_","suffix":".png"},"primary":"true"}],"verified":"false","restricted":"true","stats":{"checkinsCount":"95","usersCount":"13","tipCount":"0"},"specials":{"count":"0"},"hereNow":{"count":"0"},"referralId":"v-1392477949"},{"id":"4d9f5951090da093c0b1d4a8","name":"Forward Internet Group","location":{"address":"19 Mandela St","lat":"51.537977802015696","lng":"-0.13690636036280232","distance":"158","postalCode":"NW1 0DU","cc":"GB","city":"Camden Town","state":"Greater London","country":"United Kingdom"},"categories":[{"id":"4bf58dd8d48988d130941735","name":"Building","pluralName":"Buildings","shortName":"Building","icon":{"prefix":"https:\/\/ss1.4sqi.net\/img\/categories_v2\/building\/default_","suffix":".png"},"primary":"true"}],"verified":"false","restricted":"true","stats":{"checkinsCount":"2455","usersCount":"533","tipCount":"9"},"specials":{"count":"0"},"hereNow":{"count":"0"},"referralId":"v-1392477949"},{"id":"4f0af33be4b0803b6b522390","name":"win technologies","location":{"lat":"51.538161696520426","lng":"-0.13748152292781157","distance":"127","cc":"GB","country":"United Kingdom"},"categories":[{"id":"4bf58dd8d48988d124941735","name":"Office","pluralName":"Offices","shortName":"Office","icon":{"prefix":"https:\/\/ss1.4sqi.net\/img\/categories_v2\/building\/default_","suffix":".png"},"primary":"true"}],"verified":"false","restricted":"true","stats":{"checkinsCount":"702","usersCount":"16","tipCount":"2"},"specials":{"count":"0"},"hereNow":{"count":"0"},"referralId":"v-1392477949"},{"id":"4c8a4b28e51e6dcbb28267de","name":"St Martins Gardens","location":{"address":"Camden St","crossStreet":"St Martin's Close","lat":"51.538976594599916","lng":"-0.1391201423735378","distance":"97","cc":"GB","city":"Camden Town","state":"Greater London","country":"United Kingdom"},"categories":[{"id":"4bf58dd8d48988d15a941735","name":"Garden","pluralName":"Gardens","shortName":"Garden","icon":{"prefix":"https:\/\/ss1.4sqi.net\/img\/categories_v2\/parks_outdoors\/garden_","suffix":".png"},"primary":"true"}],"verified":"false","restricted":"true","stats":{"checkinsCount":"384","usersCount":"62","tipCount":"3"},"specials":{"count":"0"},"hereNow":{"count":"0"},"referralId":"v-1392477949"},{"id":"50323bbc90e7ade562305354","name":"Forward3D","contact":{"phone":"+442071211199","formattedPhone":"+44 20 7121 1199","twitter":"forward3d"},"location":{"address":"Centro 3, 19 Mandela Street","lat":"51.537887429466444","lng":"-0.13666391372680664","distance":"174","postalCode":"NW1 0DU","cc":"GB","city":"London","state":"Greater London","country":"United Kingdom"},"categories":[{"id":"4bf58dd8d48988d124941735","name":"Office","pluralName":"Offices","shortName":"Office","icon":{"prefix":"https:\/\/ss1.4sqi.net\/img\/categories_v2\/building\/default_","suffix":".png"},"primary":"true"}],"verified":"false","restricted":"true","stats":{"checkinsCount":"532","usersCount":"50","tipCount":"1"},"specials":{"count":"0"},"hereNow":{"count":"0"},"referralId":"v-1392477949"},{"id":"520be4af8bbd437f23c94a22","name":"Cakes n Treats","location":{"address":"15 Pratt Street","crossStreet":"Camden Town","lat":"51.53867487249872","lng":"-0.13702869415283203","distance":"86","postalCode":"NW1 0AE","cc":"GB","city":"London","state":"Greater London","country":"United Kingdom"},"categories":[{"id":"4bf58dd8d48988d16d941735","name":"Caf\u00e9","pluralName":"Caf\u00e9s","shortName":"Caf\u00e9","icon":{"prefix":"https:\/\/ss1.4sqi.net\/img\/categories_v2\/food\/cafe_","suffix":".png"},"primary":"true"}],"verified":"false","restricted":"true","stats":{"checkinsCount":"29","usersCount":"21","tipCount":"2"},"specials":{"count":"0"},"hereNow":{"count":"0"},"referralId":"v-1392477949"},{"id":"4e367d461838f85189b15b4b","name":"Pratt Street","location":{"lat":"51.53742438376784","lng":"-0.1390038546216913","distance":"223","cc":"GB","country":"United Kingdom"},"categories":[{"id":"4bf58dd8d48988d130941735","name":"Building","pluralName":"Buildings","shortName":"Building","icon":{"prefix":"https:\/\/ss1.4sqi.net\/img\/categories_v2\/building\/default_","suffix":".png"},"primary":"true"}],"verified":"false","restricted":"true","stats":{"checkinsCount":"450","usersCount":"61","tipCount":"1"},"specials":{"count":"0"},"hereNow":{"count":"0"},"referralId":"v-1392477949"},{"id":"4cfba50bd8468cfa0dbef56b","name":"Bus Stop N Sainsbury's","location":{"address":"7 Camden Rd","lat":"51.54038202516264","lng":"-0.14034475842772506","distance":"213","postalCode":"NW1 9","cc":"GB","city":"Camden Town","state":"Greater London","country":"United Kingdom"},"categories":[{"id":"4bf58dd8d48988d1fe931735","name":"Bus Station","pluralName":"Bus Stations","shortName":"Bus Station","icon":{"prefix":"https:\/\/ss1.4sqi.net\/img\/categories_v2\/travel\/busstation_","suffix":".png"},"primary":"true"}],"verified":"false","restricted":"true","stats":{"checkinsCount":"920","usersCount":"79","tipCount":"1"},"specials":{"count":"0"},"hereNow":{"count":"0"},"referralId":"v-1392477949"},{"id":"50864049e4b00e8b10c67eb2","name":"Our Lady's Catholic Primary School","location":{"lat":"51.53898421122926","lng":"-0.1369343690189401","distance":"69","cc":"GB","country":"United Kingdom"},"categories":[{"id":"4bf58dd8d48988d13b941735","name":"School","pluralName":"Schools","shortName":"School","icon":{"prefix":"https:\/\/ss1.4sqi.net\/img\/categories_v2\/building\/school_","suffix":".png"},"primary":"true"}],"verified":"false","restricted":"true","stats":{"checkinsCount":"7","usersCount":"2","tipCount":"0"},"specials":{"count":"0"},"hereNow":{"count":"0"},"referralId":"v-1392477949"},{"id":"51fb95f4498e3a401c19d109","name":"Costa","location":{"address":"307-309 Kentish Town Road","lat":"51.53965419139493","lng":"-0.13925453515710515","distance":"108","postalCode":"NW5 2TJ","cc":"GB","city":"London","state":"Greater London","country":"United Kingdom"},"categories":[{"id":"4bf58dd8d48988d1e0931735","name":"Coffee Shop","pluralName":"Coffee Shops","shortName":"Coffee Shop","icon":{"prefix":"https:\/\/ss1.4sqi.net\/img\/categories_v2\/food\/coffeeshop_","suffix":".png"},"primary":"true"}],"verified":"false","restricted":"true","stats":{"checkinsCount":"7","usersCount":"5","tipCount":"0"},"specials":{"count":"0"},"hereNow":{"count":"0"},"referralId":"v-1392477949"},{"id":"4ba93cc0f964a52003173ae3","name":"The Constitution","contact":{"phone":"+442073874805","formattedPhone":"+44 20 7387 4805"},"location":{"address":"42 St. Pancras Way","lat":"51.540182705472006","lng":"-0.1353308666734373","distance":"197","postalCode":"NW1 0QT","cc":"GB","city":"London","state":"Greater London","country":"United Kingdom"},"categories":[{"id":"4bf58dd8d48988d11b941735","name":"Pub","pluralName":"Pubs","shortName":"Pub","icon":{"prefix":"https:\/\/ss1.4sqi.net\/img\/categories_v2\/nightlife\/pub_","suffix":".png"},"primary":"true"}],"verified":"false","restricted":"true","stats":{"checkinsCount":"640","usersCount":"372","tipCount":"7"},"specials":{"count":"0"},"hereNow":{"count":"0"},"referralId":"v-1392477949"},{"id":"4ad32905f964a52044e320e3","name":"Sen Nin","contact":{"phone":"+442070961276","formattedPhone":"+44 20 7096 1276"},"location":{"address":"35 Pratt St","lat":"51.53784667457169","lng":"-0.13922267368293095","distance":"188","postalCode":"NW1 0BG","cc":"GB","city":"London","state":"Greater London","country":"United Kingdom"},"categories":[{"id":"4bf58dd8d48988d111941735","name":"Japanese Restaurant","pluralName":"Japanese Restaurants","shortName":"Japanese","icon":{"prefix":"https:\/\/ss1.4sqi.net\/img\/categories_v2\/food\/japanese_","suffix":".png"},"primary":"true"}],"verified":"false","restricted":"true","stats":{"checkinsCount":"275","usersCount":"220","tipCount":"9"},"url":"http:\/\/www.sen-nin.com\/restaurant-9.html","menu":{"type":"Menu","label":"Menu","anchor":"View Menu","url":"https:\/\/foursquare.com\/v\/sen-nin\/4ad32905f964a52044e320e3\/menu","mobileUrl":"https:\/\/foursquare.com\/v\/4ad32905f964a52044e320e3\/device_menu"},"specials":{"count":"0"},"hereNow":{"count":"0"},"referralId":"v-1392477949"},{"id":"5244309a8bbd4c99791ef8a4","name":"October Films","contact":{"phone":"+442072846868","formattedPhone":"+44 20 7284 6868","twitter":"octoberfilmsuk"},"location":{"address":"30-31 Lyme Street","lat":"51.53987269403691","lng":"-0.13782262802124023","distance":"64","postalCode":"Nw10ee","cc":"GB","city":"London","state":"Greater London","country":"United Kingdom"},"categories":[{"id":"4bf58dd8d48988d124941735","name":"Office","pluralName":"Offices","shortName":"Office","icon":{"prefix":"https:\/\/ss1.4sqi.net\/img\/categories_v2\/building\/default_","suffix":".png"},"primary":"true"}],"verified":"false","restricted":"true","stats":{"checkinsCount":"33","usersCount":"2","tipCount":"0"},"url":"http:\/\/www.octoberfilms.co.uk","specials":{"count":"0"},"hereNow":{"count":"0"},"referralId":"v-1392477949"},{"id":"50b20bd1e0e223f4170329df","name":"The Camden Studio","contact":{"phone":"+442074190567","formattedPhone":"+44 20 7419 0567"},"location":{"address":"Unit 6, St. Pancras Commercial Centre 63 Pratt Street","lat":"51.539035223240745","lng":"-0.13805866241455078","distance":"33","postalCode":"NW1 0BY","cc":"GB","city":"London","state":"Greater London","country":"United Kingdom"},"categories":[{"id":"4bf58dd8d48988d1f1931735","name":"General Entertainment","pluralName":"General Entertainment","shortName":"Entertainment","icon":{"prefix":"https:\/\/ss1.4sqi.net\/img\/categories_v2\/arts_entertainment\/default_","suffix":".png"},"primary":"true"}],"verified":"false","restricted":"true","stats":{"checkinsCount":"3","usersCount":"2","tipCount":"0"},"specials":{"count":"0"},"hereNow":{"count":"0"},"referralId":"v-1392477949"},{"id":"51b9e96a498e35be27e03583","name":"Tfl Bus 214","location":{"lat":"51.54040265512239","lng":"-0.14032766499991112","distance":"214","cc":"GB","country":"United Kingdom"},"categories":[{"id":"4bf58dd8d48988d12b951735","name":"Bus Line","pluralName":"Bus Lines","shortName":"Bus","icon":{"prefix":"https:\/\/ss1.4sqi.net\/img\/categories_v2\/travel\/busstation_","suffix":".png"},"primary":"true"}],"verified":"false","restricted":"true","stats":{"checkinsCount":"44","usersCount":"24","tipCount":"0"},"specials":{"count":"0"},"hereNow":{"count":"0"},"referralId":"v-1392477949"},{"id":"4b50416ff964a520331f27e3","name":"Frank PR","contact":{"phone":"+442076936999","formattedPhone":"+44 20 7693 6999","twitter":"andrewbloch"},"location":{"address":"Centro 4, 20-23 Mandela St.","lat":"51.538208496117385","lng":"-0.13720029500695263","distance":"127","postalCode":"NW1 0EG","cc":"GB","city":"London","state":"Greater London","country":"United Kingdom"},"categories":[{"id":"4bf58dd8d48988d174941735","name":"Coworking Space","pluralName":"Coworking Spaces","shortName":"Coworking Space","icon":{"prefix":"https:\/\/ss1.4sqi.net\/img\/categories_v2\/building\/office_coworkingspace_","suffix":".png"},"primary":"true"}],"verified":"true","restricted":"true","stats":{"checkinsCount":"343","usersCount":"69","tipCount":"2"},"url":"http:\/\/www.frankpr.it","specials":{"count":"0"},"hereNow":{"count":"0"},"referralId":"v-1392477949"},{"id":"5058c15ae4128cbdeeaa4725","name":"Camden Hall","location":{"address":"100 Camden Street","lat":"51.538968491837096","lng":"-0.1384878158569336","distance":"59","cc":"GB","city":"London","state":"Greater London","country":"United Kingdom"},"categories":[{"id":"4bf58dd8d48988d1f1931735","name":"General Entertainment","pluralName":"General Entertainment","shortName":"Entertainment","icon":{"prefix":"https:\/\/ss1.4sqi.net\/img\/categories_v2\/arts_entertainment\/default_","suffix":".png"},"primary":"true"}],"verified":"false","restricted":"true","stats":{"checkinsCount":"10","usersCount":"4","tipCount":"0"},"specials":{"count":"0"},"hereNow":{"count":"0"},"referralId":"v-1392477949"},{"id":"4ad2f202f964a520dee220e3","name":"Profero","location":{"address":"Centro 3, 19 Mandela St","lat":"51.53782","lng":"-0.136881","distance":"175","postalCode":"Nw1","cc":"GB","city":"London","state":"Greater London","country":"United Kingdom"},"categories":[{"id":"4bf58dd8d48988d124941735","name":"Office","pluralName":"Offices","shortName":"Office","icon":{"prefix":"https:\/\/ss1.4sqi.net\/img\/categories_v2\/building\/default_","suffix":".png"},"primary":"true"}],"verified":"false","restricted":"true","stats":{"checkinsCount":"988","usersCount":"123","tipCount":"3"},"specials":{"count":"0"},"hereNow":{"count":"0"},"referralId":"v-1392477949"},{"id":"4bfcfa7eb68d0f479d0ce857","name":"Centro 3","location":{"address":"19 Mandella Street","lat":"51.53805961402568","lng":"-0.13696500533330122","distance":"148","postalCode":"NW1 0DU","cc":"GB","city":"Camden Town","state":"Greater London","country":"United Kingdom"},"categories":[{"id":"4bf58dd8d48988d124941735","name":"Office","pluralName":"Offices","shortName":"Office","icon":{"prefix":"https:\/\/ss1.4sqi.net\/img\/categories_v2\/building\/default_","suffix":".png"},"primary":"true"}],"verified":"false","restricted":"true","stats":{"checkinsCount":"164","usersCount":"52","tipCount":"0"},"specials":{"count":"0"},"hereNow":{"count":"0"},"referralId":"v-1392477949"},{"id":"4c475faf76d72d7fa4f43c4d","name":"The Red Lion","location":{"lat":"51.53894922628034","lng":"-0.13610637801653247","distance":"123","cc":"GB","country":"United Kingdom"},"categories":[{"id":"4bf58dd8d48988d11b941735","name":"Pub","pluralName":"Pubs","shortName":"Pub","icon":{"prefix":"https:\/\/ss1.4sqi.net\/img\/categories_v2\/nightlife\/pub_","suffix":".png"},"primary":"true"}],"verified":"false","restricted":"true","stats":{"checkinsCount":"3","usersCount":"3","tipCount":"0"},"specials":{"count":"0"},"hereNow":{"count":"0"},"referralId":"v-1392477949"},{"id":"515729f2e4b034f6dd7f162b","name":"All Saints Greek Orthodox Church","location":{"address":"Camden Street","lat":"51.53877821812981","lng":"-0.1375029185021167","distance":"60","postalCode":"NW1 0JA","cc":"GB","city":"London","state":"Greater London","country":"United Kingdom"},"categories":[{"id":"4bf58dd8d48988d132941735","name":"Church","pluralName":"Churches","shortName":"Church","icon":{"prefix":"https:\/\/ss1.4sqi.net\/img\/categories_v2\/building\/religious_church_","suffix":".png"},"primary":"true"}],"verified":"false","restricted":"true","stats":{"checkinsCount":"7","usersCount":"6","tipCount":"0"},"specials":{"count":"0"},"hereNow":{"count":"0"},"referralId":"v-1392477949"},{"id":"52d6aa3a498ec17528ef0c85","name":"Forward Partners","location":{"lat":"51.537767","lng":"-0.1366","distance":"188","cc":"GB","country":"United Kingdom"},"categories":[{"id":"4bf58dd8d48988d125941735","name":"Tech Startup","pluralName":"Tech Startups","shortName":"Tech Startup","icon":{"prefix":"https:\/\/ss1.4sqi.net\/img\/categories_v2\/shops\/technology_","suffix":".png"},"primary":"true"}],"verified":"false","restricted":"true","stats":{"checkinsCount":"2","usersCount":"2","tipCount":"0"},"specials":{"count":"0"},"hereNow":{"count":"0"},"referralId":"v-1392477949"},{"id":"4f634441e4b0777dfb3405c7","name":"Rainbowwave","location":{"lat":"51.540656","lng":"-0.136482","distance":"177","cc":"GB","country":"United Kingdom"},"categories":[{"id":"4bf58dd8d48988d124941735","name":"Office","pluralName":"Offices","shortName":"Office","icon":{"prefix":"https:\/\/ss1.4sqi.net\/img\/categories_v2\/building\/default_","suffix":".png"},"primary":"true"}],"verified":"false","restricted":"true","stats":{"checkinsCount":"3","usersCount":"3","tipCount":"0"},"specials":{"count":"0"},"hereNow":{"count":"0"},"referralId":"v-1392477949"},{"id":"4d6e42ce8df154813bf57b23","name":"Parcelforce","contact":{"phone":"+448442096100","formattedPhone":"+44 844 209 6100"},"location":{"address":"24\/58 Royal College St","lat":"51.53855971073394","lng":"-0.13545488895150007","distance":"181","postalCode":"NW1 0QA","cc":"GB","city":"Camden Town","state":"Greater London","country":"United Kingdom"},"categories":[{"id":"4bf58dd8d48988d172941735","name":"Post Office","pluralName":"Post Offices","shortName":"Post Office","icon":{"prefix":"https:\/\/ss1.4sqi.net\/img\/categories_v2\/building\/postoffice_","suffix":".png"},"primary":"true"}],"verified":"false","restricted":"true","stats":{"checkinsCount":"51","usersCount":"45","tipCount":"0"},"specials":{"count":"0"},"hereNow":{"count":"0"},"referralId":"v-1392477949"},{"id":"51cc11e52fc6d711afdb788b","name":"Forward Labs HQ","contact":{"twitter":"forwardlabs"},"location":{"address":"19 Mandela Street","lat":"51.53802089534607","lng":"-0.1368570327758789","distance":"155","postalCode":"NW1 0DU","cc":"GB","city":"London","state":"Greater London","country":"United Kingdom"},"categories":[{"id":"4bf58dd8d48988d125941735","name":"Tech Startup","pluralName":"Tech Startups","shortName":"Tech Startup","icon":{"prefix":"https:\/\/ss1.4sqi.net\/img\/categories_v2\/shops\/technology_","suffix":".png"},"primary":"true"}],"verified":"false","restricted":"true","stats":{"checkinsCount":"16","usersCount":"7","tipCount":"0"},"specials":{"count":"0"},"hereNow":{"count":"0"},"referralId":"v-1392477949"},{"id":"4c2a5bdeb34ad13aa524e8ce","name":"Bar & CO","location":{"address":"33 pratt street","lat":"51.53776447382622","lng":"-0.13937730198485473","distance":"201","cc":"GB","city":"Camden Town","state":"Greater London","country":"United Kingdom"},"categories":[{"id":"4def73e84765ae376e57713a","name":"Portuguese Restaurant","pluralName":"Portuguese Restaurants","shortName":"Portuguese","icon":{"prefix":"https:\/\/ss1.4sqi.net\/img\/categories_v2\/food\/default_","suffix":".png"},"primary":"true"}],"verified":"false","restricted":"true","stats":{"checkinsCount":"35","usersCount":"26","tipCount":"1"},"specials":{"count":"0"},"hereNow":{"count":"0"},"referralId":"v-1392477949"},{"id":"52ab804011d2780cfd99a102","name":"Fashot","contact":{"phone":"+442072670700","formattedPhone":"+44 20 7267 0700"},"location":{"address":"43 Carol St","crossStreet":"43 Carol St","lat":"51.53959576316829","lng":"-0.14003276824951172","distance":"158","postalCode":"NW1 0HT","cc":"GB","city":"London","state":"Greater London","country":"United Kingdom"},"categories":[{"id":"4eb1bdde3b7b55596b4a7490","name":"Photography Lab","pluralName":"Photography Labs","shortName":"Photography Lab","icon":{"prefix":"https:\/\/ss1.4sqi.net\/img\/categories_v2\/shops\/photographylab_","suffix":".png"},"primary":"true"}],"verified":"false","restricted":"true","stats":{"checkinsCount":"1","usersCount":"1","tipCount":"0"},"specials":{"count":"0"},"hereNow":{"count":"0"},"referralId":"v-1392477949"},{"id":"4b6ffacbf964a52022022de3","name":"Screen Digest","location":{"lat":"51.540068","lng":"-0.138245","distance":"91","cc":"GB","country":"United Kingdom"},"categories":[{"id":"4bf58dd8d48988d124941735","name":"Office","pluralName":"Offices","shortName":"Office","icon":{"prefix":"https:\/\/ss1.4sqi.net\/img\/categories_v2\/building\/default_","suffix":".png"},"primary":"true"}],"verified":"false","restricted":"true","stats":{"checkinsCount":"112","usersCount":"9","tipCount":"0"},"specials":{"count":"0"},"hereNow":{"count":"0"},"referralId":"v-1392477949"}],"confident":"false"}}