{"meta":{"code":"200"},"response":{"venues":[{"id":"51d419fe498e19413653daae","name":"Vital Ingredient","location":{"lat":"51.51429120701894","lng":"-0.09265265062660084","distance":"10","cc":"GB","country":"United Kingdom"},"categories":[{"id":"4bf58dd8d48988d1bd941735","name":"Salad Place","pluralName":"Salad Shop","shortName":"Salad","icon":{"prefix":"https:\/\/ss1.4sqi.net\/img\/categories_v2\/food\/salad_","suffix":".png"},"primary":"true"}],"verified":"false","restricted":"true","stats":{"checkinsCount":"102","usersCount":"20","tipCount":"1"},"specials":{"count":"0"},"hereNow":{"count":"0"},"referralId":"v-1392478019"},{"id":"5177c4dbe4b0de6e7edccca1","name":"Pure","location":{"address":"Cheapside","lat":"51.514008561638526","lng":"-0.09330034267969035","distance":"46","cc":"GB","city":"London","state":"Greater London","country":"United Kingdom"},"categories":[{"id":"4bf58dd8d48988d1bd941735","name":"Salad Place","pluralName":"Salad Shop","shortName":"Salad","icon":{"prefix":"https:\/\/ss1.4sqi.net\/img\/categories_v2\/food\/salad_","suffix":".png"},"primary":"true"}],"verified":"false","restricted":"true","stats":{"checkinsCount":"176","usersCount":"72","tipCount":"8"},"menu":{"type":"Menu","label":"Menu","anchor":"View Menu","url":"https:\/\/foursquare.com\/v\/pure-london\/5177c4dbe4b0de6e7edccca1\/menu","mobileUrl":"https:\/\/foursquare.com\/v\/5177c4dbe4b0de6e7edccca1\/device_menu"},"specials":{"count":"0"},"hereNow":{"count":"1","groups":[{"type":"others","name":"Other people here","count":"1"}]},"referralId":"v-1392478019"},{"id":"4c90c1fb2626a1cd5b202c6b","name":"Orrick, Herrington & Sutcliffe (Europe) LLP","contact":{"phone":"+442078624600","formattedPhone":"+44 20 7862 4600","twitter":"orrick"},"location":{"address":"107 Cheapside","lat":"51.51406751462415","lng":"-0.09370565414428711","distance":"67","postalCode":"EC2V 6DN","cc":"GB","city":"London","state":"Greater London","country":"United Kingdom"},"categories":[{"id":"4bf58dd8d48988d124941735","name":"Office","pluralName":"Offices","shortName":"Office","icon":{"prefix":"https:\/\/ss1.4sqi.net\/img\/categories_v2\/building\/default_","suffix":".png"},"primary":"true"}],"verified":"false","restricted":"true","stats":{"checkinsCount":"781","usersCount":"149","tipCount":"0"},"url":"http:\/\/www.orrick.com","specials":{"count":"0"},"hereNow":{"count":"0"},"referralId":"v-1392478019"},{"id":"4bd18d59b221c9b67caad5d0","name":"Boots","contact":{"phone":"+442072489340","formattedPhone":"+44 20 7248 9340"},"location":{"address":"61 Cheapside","crossStreet":"at Bow Ln","lat":"51.51414429771045","lng":"-0.09331941604614258","distance":"39","postalCode":"EC2V 6AX","cc":"GB","city":"London","state":"Greater London","country":"United Kingdom"},"categories":[{"id":"4bf58dd8d48988d10f951735","name":"Drugstore \/ Pharmacy","pluralName":"Drugstores \/ Pharmacies","shortName":"Pharmacy","icon":{"prefix":"https:\/\/ss1.4sqi.net\/img\/categories_v2\/shops\/pharmacy_","suffix":".png"},"primary":"true"}],"verified":"false","restricted":"true","stats":{"checkinsCount":"327","usersCount":"117","tipCount":"0"},"url":"http:\/\/www.boots.com","specials":{"count":"0"},"hereNow":{"count":"0"},"referralId":"v-1392478019"},{"id":"50c16bade4b0de95d22542df","name":"Sweatshop","location":{"address":"Trump St","lat":"51.51424986133611","lng":"-0.09265256542505171","distance":"11","cc":"GB","city":"London","state":"Greater London","country":"United Kingdom"},"categories":[{"id":"4bf58dd8d48988d1f2941735","name":"Sporting Goods Shop","pluralName":"Sporting Goods Shops","shortName":"Sporting Goods","icon":{"prefix":"https:\/\/ss1.4sqi.net\/img\/categories_v2\/shops\/sports_outdoors_","suffix":".png"},"primary":"true"}],"verified":"false","restricted":"true","stats":{"checkinsCount":"36","usersCount":"21","tipCount":"0"},"specials":{"count":"0"},"hereNow":{"count":"0"},"referralId":"v-1392478019"},{"id":"5144ab28c84ca982f1598516","name":"The Altitude Centre","contact":{"phone":"+442071931626","formattedPhone":"+44 20 7193 1626","twitter":"altitudecentre"},"location":{"address":"6 Trump Street","lat":"51.51439133806654","lng":"-0.09278297424316405","distance":"11","postalCode":"EC2V 8AF","cc":"GB","city":"London","state":"Greater London","country":"United Kingdom"},"categories":[{"id":"4bf58dd8d48988d176941735","name":"Gym","pluralName":"Gyms","shortName":"Gym","icon":{"prefix":"https:\/\/ss1.4sqi.net\/img\/categories_v2\/building\/gym_","suffix":".png"},"primary":"true"}],"verified":"false","restricted":"true","stats":{"checkinsCount":"8","usersCount":"5","tipCount":"1"},"specials":{"count":"0"},"hereNow":{"count":"0"},"referralId":"v-1392478019"},{"id":"4bcbf241b6c49c742c189391","name":"Costa Coffee","location":{"address":"Unit 4 Bow Bells House","lat":"51.51395067054886","lng":"-0.09399533271789551","distance":"90","postalCode":"EC2V 6AU","cc":"GB","city":"London","state":"Greater London","country":"United Kingdom"},"categories":[{"id":"4bf58dd8d48988d1e0931735","name":"Coffee Shop","pluralName":"Coffee Shops","shortName":"Coffee Shop","icon":{"prefix":"https:\/\/ss1.4sqi.net\/img\/categories_v2\/food\/coffeeshop_","suffix":".png"},"primary":"true"}],"verified":"false","restricted":"true","stats":{"checkinsCount":"710","usersCount":"344","tipCount":"4"},"specials":{"count":"0"},"hereNow":{"count":"0"},"referralId":"v-1392478019"},{"id":"4be808779a54a593506f0911","name":"The Anthologist","contact":{"phone":"+448454680101","formattedPhone":"+44 845 468 0101"},"location":{"address":"58 Gresham St.","lat":"51.51494884313586","lng":"-0.0912165641784668","distance":"132","postalCode":"EC2V 7BB","cc":"GB","city":"London","state":"Greater London","country":"United Kingdom"},"categories":[{"id":"4bf58dd8d48988d1c4941735","name":"Restaurant","pluralName":"Restaurants","shortName":"Restaurant","icon":{"prefix":"https:\/\/ss1.4sqi.net\/img\/categories_v2\/food\/default_","suffix":".png"},"primary":"true"}],"verified":"true","restricted":"true","stats":{"checkinsCount":"1814","usersCount":"1218","tipCount":"24"},"url":"http:\/\/www.theanthologistbar.co.uk","reservations":{"url":"http:\/\/www.toptable.co.uk\/single.aspx?rid=53754&ref=9601"},"menu":{"type":"Menu","label":"Menu","anchor":"View Menu","url":"https:\/\/foursquare.com\/v\/the-anthologist\/4be808779a54a593506f0911\/menu","mobileUrl":"https:\/\/foursquare.com\/v\/4be808779a54a593506f0911\/device_menu"},"specials":{"count":"0"},"hereNow":{"count":"0"},"referralId":"v-1392478019"},{"id":"4ac518d1f964a520bea620e3","name":"St Mary-le-Bow","contact":{"phone":"+442072485139","formattedPhone":"+44 20 7248 5139"},"location":{"address":"1 Bow Ln.","crossStreet":"Cheapside","lat":"51.513857195072795","lng":"-0.09357690811157227","distance":"72","postalCode":"EC2V 6AU","cc":"GB","city":"London","state":"Greater London","country":"United Kingdom"},"categories":[{"id":"4bf58dd8d48988d132941735","name":"Church","pluralName":"Churches","shortName":"Church","icon":{"prefix":"https:\/\/ss1.4sqi.net\/img\/categories_v2\/building\/religious_church_","suffix":".png"},"primary":"true"}],"verified":"false","restricted":"true","stats":{"checkinsCount":"320","usersCount":"205","tipCount":"5"},"specials":{"count":"0"},"hereNow":{"count":"0"},"referralId":"v-1392478019"},{"id":"52efae7a11d232668350550c","name":"Bathtub 2 Boardroom","contact":{"phone":"+447919130476","formattedPhone":"+44 7919 130476","twitter":"bath2board"},"location":{"address":"1-3 Fredericks Place","lat":"51.51415097449445","lng":"-0.09133994579315186","distance":"102","postalCode":"EC2R 8AE","cc":"GB","city":"London","state":"Greater London","country":"United Kingdom"},"categories":[{"id":"4bf58dd8d48988d174941735","name":"Coworking Space","pluralName":"Coworking Spaces","shortName":"Coworking Space","icon":{"prefix":"https:\/\/ss1.4sqi.net\/img\/categories_v2\/building\/office_coworkingspace_","suffix":".png"},"primary":"true"}],"verified":"false","restricted":"true","stats":{"checkinsCount":"16","usersCount":"2","tipCount":"0"},"specials":{"count":"0"},"hereNow":{"count":"1","groups":[{"type":"others","name":"Other people here","count":"1"}]},"referralId":"v-1392478019"},{"id":"4cadc734632b370400f7696e","name":"City C\u00e0ph\u00ea","contact":{"phone":"+442070000000","formattedPhone":"+44 20 7000 0000"},"location":{"address":"17 Ironmonger Ln.","lat":"51.514832","lng":"-0.09153306484222412","distance":"106","postalCode":"EC2V","cc":"GB","city":"London","state":"Greater London","country":"United Kingdom"},"categories":[{"id":"4bf58dd8d48988d14a941735","name":"Vietnamese Restaurant","pluralName":"Vietnamese Restaurants","shortName":"Vietnamese","icon":{"prefix":"https:\/\/ss1.4sqi.net\/img\/categories_v2\/food\/default_","suffix":".png"},"primary":"true"}],"verified":"false","restricted":"true","stats":{"checkinsCount":"791","usersCount":"224","tipCount":"21"},"url":"http:\/\/www.citycaphe.com","specials":{"count":"0"},"hereNow":{"count":"0"},"referralId":"v-1392478019"},{"id":"4cb34ceb9b34199c30fbb963","name":"Daunt Books","contact":{"phone":"+442072481117","formattedPhone":"+44 20 7248 1117","twitter":"dauntbooks"},"location":{"address":"61 Cheapside","lat":"51.5139012","lng":"-0.0929352","distance":"44","postalCode":"EC2V 6AX","cc":"GB","city":"London","state":"Greater London","country":"United Kingdom"},"categories":[{"id":"4bf58dd8d48988d114951735","name":"Bookstore","pluralName":"Bookstores","shortName":"Bookstore","icon":{"prefix":"https:\/\/ss1.4sqi.net\/img\/categories_v2\/shops\/bookstore_","suffix":".png"},"primary":"true"}],"verified":"false","restricted":"true","stats":{"checkinsCount":"232","usersCount":"136","tipCount":"2"},"specials":{"count":"0"},"hereNow":{"count":"0"},"referralId":"v-1392478019"},{"id":"4bb44422bd4b9c742f8432f5","name":"Commerzbank","location":{"address":"30 Gresham St.","lat":"51.514912121454984","lng":"-0.09310483932495117","distance":"72","postalCode":"EC2P 2XY","cc":"GB","city":"London","state":"Greater London","country":"United Kingdom"},"categories":[{"id":"4bf58dd8d48988d124941735","name":"Office","pluralName":"Offices","shortName":"Office","icon":{"prefix":"https:\/\/ss1.4sqi.net\/img\/categories_v2\/building\/default_","suffix":".png"},"primary":"true"}],"verified":"false","restricted":"true","stats":{"checkinsCount":"646","usersCount":"70","tipCount":"1"},"specials":{"count":"0"},"hereNow":{"count":"0"},"referralId":"v-1392478019"},{"id":"52b8071b498e6898ce6a258c","name":"PointOneJobs Ltd","contact":{"twitter":"pointonejobs"},"location":{"address":"54 Bow Lane","lat":"51.513880024049","lng":"-0.09382170000336199","distance":"83","postalCode":"EC4M 9DJ","cc":"GB","city":"London","state":"Greater London","country":"United Kingdom"},"categories":[{"id":"4bf58dd8d48988d124941735","name":"Office","pluralName":"Offices","shortName":"Office","icon":{"prefix":"https:\/\/ss1.4sqi.net\/img\/categories_v2\/building\/default_","suffix":".png"},"primary":"true"}],"verified":"false","restricted":"true","stats":{"checkinsCount":"10","usersCount":"1","tipCount":"0"},"specials":{"count":"0"},"hereNow":{"count":"0"},"referralId":"v-1392478019"},{"id":"4bbe2353eeca9521380f4df1","name":"Harry's Bar","contact":{"phone":"+442076000300","formattedPhone":"+44 20 7600 0300"},"location":{"address":"17-20 Ironmonger Lane","lat":"51.514655","lng":"-0.091639","distance":"90","postalCode":"EC2V 8EP","cc":"GB","city":"London","state":"Greater London","country":"United Kingdom"},"categories":[{"id":"4bf58dd8d48988d121941735","name":"Lounge","pluralName":"Lounges","shortName":"Lounge","icon":{"prefix":"https:\/\/ss1.4sqi.net\/img\/categories_v2\/nightlife\/lounge_","suffix":".png"},"primary":"true"}],"verified":"false","restricted":"true","stats":{"checkinsCount":"410","usersCount":"243","tipCount":"5"},"url":"http:\/\/www.harrys.co.uk","menu":{"type":"Menu","label":"Menu","anchor":"View Menu","url":"https:\/\/foursquare.com\/v\/harrys-bar\/4bbe2353eeca9521380f4df1\/menu","mobileUrl":"https:\/\/foursquare.com\/v\/4bbe2353eeca9521380f4df1\/device_menu"},"specials":{"count":"0"},"hereNow":{"count":"0"},"referralId":"v-1392478019"},{"id":"4b8faf38f964a520035d33e3","name":"The Fine Line","contact":{"phone":"+442072483262","formattedPhone":"+44 20 7248 3262"},"location":{"address":"1 Bow Church Yard","lat":"51.5138642","lng":"-0.09389","distance":"88","postalCode":"EC4M 9DQ","cc":"GB","city":"London","state":"Greater London","country":"United Kingdom"},"categories":[{"id":"4bf58dd8d48988d11b941735","name":"Pub","pluralName":"Pubs","shortName":"Pub","icon":{"prefix":"https:\/\/ss1.4sqi.net\/img\/categories_v2\/nightlife\/pub_","suffix":".png"},"primary":"true"}],"verified":"false","restricted":"true","stats":{"checkinsCount":"268","usersCount":"190","tipCount":"1"},"url":"http:\/\/finelinebow.co.uk","menu":{"type":"Menu","label":"Menu","anchor":"View Menu","url":"https:\/\/foursquare.com\/v\/the-fine-line\/4b8faf38f964a520035d33e3\/menu","mobileUrl":"https:\/\/foursquare.com\/v\/4b8faf38f964a520035d33e3\/device_menu"},"specials":{"count":"0"},"hereNow":{"count":"0"},"referralId":"v-1392478019"},{"id":"510f60fbe4b0a910d734c0ba","name":"Equinix Services Ltd (EMEA Regional HQ)","location":{"address":"4th Floor, 80 Cheapside","lat":"51.513692","lng":"-0.091653","distance":"103","postalCode":"EC2V 6EE","cc":"GB","city":"London","state":"Greater London","country":"United Kingdom"},"categories":[{"id":"4bf58dd8d48988d124941735","name":"Office","pluralName":"Offices","shortName":"Office","icon":{"prefix":"https:\/\/ss1.4sqi.net\/img\/categories_v2\/building\/default_","suffix":".png"},"primary":"true"}],"verified":"false","restricted":"true","stats":{"checkinsCount":"39","usersCount":"6","tipCount":"2"},"specials":{"count":"0"},"hereNow":{"count":"0"},"referralId":"v-1392478019"},{"id":"4bfee304daf9c9b64d69f9ef","name":"PizzaExpress","contact":{"phone":"+442076002232","formattedPhone":"+44 20 7600 2232","twitter":"pizzaexpress"},"location":{"address":"8 Russia Row","lat":"51.514444","lng":"-0.093879","distance":"76","postalCode":"EC2V 8BL","cc":"GB","city":"London","state":"Greater London","country":"United Kingdom"},"categories":[{"id":"4bf58dd8d48988d1ca941735","name":"Pizza Place","pluralName":"Pizza Places","shortName":"Pizza","icon":{"prefix":"https:\/\/ss1.4sqi.net\/img\/categories_v2\/food\/pizza_","suffix":".png"},"primary":"true"}],"verified":"true","restricted":"true","stats":{"checkinsCount":"137","usersCount":"99","tipCount":"1"},"url":"http:\/\/www.pizzaexpress.com","specials":{"count":"0"},"hereNow":{"count":"0"},"storeId":"","referralId":"v-1392478019"},{"id":"4c5c1a5817f3b713c6e100e6","name":"Eversheds","contact":{"phone":"+448454979797","formattedPhone":"+44 845 497 9797","twitter":"eversheds"},"location":{"address":"1 Wood St","lat":"51.514587670000004","lng":"-0.094187","distance":"101","postalCode":"EC2V 7WS","cc":"GB","city":"London","state":"Greater London","country":"United Kingdom"},"categories":[{"id":"4bf58dd8d48988d124941735","name":"Office","pluralName":"Offices","shortName":"Office","icon":{"prefix":"https:\/\/ss1.4sqi.net\/img\/categories_v2\/building\/default_","suffix":".png"},"primary":"true"}],"verified":"false","restricted":"true","stats":{"checkinsCount":"157","usersCount":"73","tipCount":"1"},"specials":{"count":"0"},"hereNow":{"count":"0"},"referralId":"v-1392478019"},{"id":"4c4eef36960e76b06d9e1fe7","name":"Itsu","contact":{"phone":"+442077262373","formattedPhone":"+44 20 7726 2373","twitter":"itsuofficial","facebook":"115164458642981"},"location":{"address":"107 Cheapside","lat":"51.514299","lng":"-0.094067","distance":"87","postalCode":"EC2V 6DN","cc":"GB","city":"London","state":"Greater London","country":"United Kingdom"},"categories":[{"id":"4bf58dd8d48988d1d2941735","name":"Sushi Restaurant","pluralName":"Sushi Restaurants","shortName":"Sushi","icon":{"prefix":"https:\/\/ss1.4sqi.net\/img\/categories_v2\/food\/sushi_","suffix":".png"},"primary":"true"}],"verified":"true","restricted":"true","stats":{"checkinsCount":"386","usersCount":"176","tipCount":"4"},"url":"http:\/\/www.itsu.com","specials":{"count":"0"},"hereNow":{"count":"0"},"storeId":"","referralId":"v-1392478019"},{"id":"4c0e0f6098102d7fe607e306","name":"O2","contact":{"phone":"+442076219283","formattedPhone":"+44 20 7621 9283"},"location":{"address":"56-57 Cheapside","lat":"51.513873887136164","lng":"-0.09337842464447021","distance":"61","postalCode":"EC2V 6AU","cc":"GB","city":"London","state":"Greater London","country":"United Kingdom"},"categories":[{"id":"4f04afc02fb6e1c99f3db0bc","name":"Mobile Phone Shop","pluralName":"Mobile Phone Shops","shortName":"Mobile Phone","icon":{"prefix":"https:\/\/ss1.4sqi.net\/img\/categories_v2\/shops\/mobilephoneshop_","suffix":".png"},"primary":"true"}],"verified":"true","restricted":"true","stats":{"checkinsCount":"56","usersCount":"43","tipCount":"0"},"url":"http:\/\/www.o2.co.uk","specials":{"count":"0"},"hereNow":{"count":"0"},"referralId":"v-1392478019"},{"id":"4b5edf76f964a520dd9b29e3","name":"Cafe Below","contact":{"phone":"+442073290789","formattedPhone":"+44 20 7329 0789"},"location":{"address":"Cheapside","crossStreet":"St Mary-le-Bow Church","lat":"51.51415765127745","lng":"-0.09390950202941895","distance":"78","postalCode":"EC2V 6AU","cc":"GB","city":"London","state":"Greater London","country":"United Kingdom"},"categories":[{"id":"4bf58dd8d48988d16d941735","name":"Caf\u00e9","pluralName":"Caf\u00e9s","shortName":"Caf\u00e9","icon":{"prefix":"https:\/\/ss1.4sqi.net\/img\/categories_v2\/food\/cafe_","suffix":".png"},"primary":"true"}],"verified":"false","restricted":"true","stats":{"checkinsCount":"237","usersCount":"102","tipCount":"5"},"reservations":{"url":"http:\/\/www.toptable.co.uk\/single.aspx?rid=93846&ref=9601"},"menu":{"type":"Menu","label":"Menu","anchor":"View Menu","url":"https:\/\/foursquare.com\/v\/cafe-below\/4b5edf76f964a520dd9b29e3\/menu","mobileUrl":"https:\/\/foursquare.com\/v\/4b5edf76f964a520dd9b29e3\/device_menu"},"specials":{"count":"0"},"hereNow":{"count":"0"},"referralId":"v-1392478019"},{"id":"524a695811d2b217ec22c758","name":"Guildhall Crypt","location":{"lat":"51.51451080213498","lng":"-0.09389882150490758","distance":"79","cc":"GB","country":"United Kingdom"},"categories":[{"id":"4bf58dd8d48988d1f6931735","name":"General Travel","pluralName":"General Travel","shortName":"Travel","icon":{"prefix":"https:\/\/ss1.4sqi.net\/img\/categories_v2\/travel\/default_","suffix":".png"},"primary":"true"}],"verified":"false","restricted":"true","stats":{"checkinsCount":"4","usersCount":"2","tipCount":"0"},"specials":{"count":"0"},"hereNow":{"count":"0"},"referralId":"v-1392478019"},{"id":"4bb47806643cd13ae8af395c","name":"Boots","contact":{"phone":"+442074891682","formattedPhone":"+44 20 7489 1682"},"location":{"address":"28 Watling St.","crossStreet":"at Cheapside","lat":"51.51399777693799","lng":"-0.09364691102128084","distance":"66","postalCode":"EC4M 9BR","cc":"GB","city":"London","state":"Greater London","country":"United Kingdom"},"categories":[{"id":"4bf58dd8d48988d10f951735","name":"Drugstore \/ Pharmacy","pluralName":"Drugstores \/ Pharmacies","shortName":"Pharmacy","icon":{"prefix":"https:\/\/ss1.4sqi.net\/img\/categories_v2\/shops\/pharmacy_","suffix":".png"},"primary":"true"}],"verified":"false","restricted":"true","stats":{"checkinsCount":"67","usersCount":"34","tipCount":"0"},"url":"http:\/\/www.boots.com","specials":{"count":"0"},"hereNow":{"count":"0"},"referralId":"v-1392478019"},{"id":"4b851792f964a520a44b31e3","name":"Dental Excellence","location":{"address":"1 bow lane","lat":"51.513992","lng":"-0.093297","distance":"47","cc":"GB","city":"London","state":"Greater London","country":"United Kingdom"},"categories":[{"id":"4bf58dd8d48988d178941735","name":"Dentist's Office","pluralName":"Dentist's Offices","shortName":"Dentist's Office","icon":{"prefix":"https:\/\/ss1.4sqi.net\/img\/categories_v2\/building\/medical_dentist_","suffix":".png"},"primary":"true"}],"verified":"false","restricted":"true","stats":{"checkinsCount":"6","usersCount":"3","tipCount":"0"},"specials":{"count":"0"},"hereNow":{"count":"0"},"referralId":"v-1392478019"},{"id":"4f59af9ae4b04e4607bc96c1","name":"POSTA GAZETESI","location":{"address":"Trump Towers","crossStreet":"Mecidiyekoy","lat":"51.5144083","lng":"-0.09276799999999999","distance":"13","cc":"GB","city":"No:1","country":"United Kingdom"},"categories":[{"id":"4bf58dd8d48988d130941735","name":"Building","pluralName":"Buildings","shortName":"Building","icon":{"prefix":"https:\/\/ss1.4sqi.net\/img\/categories_v2\/building\/default_","suffix":".png"},"primary":"true"}],"verified":"false","restricted":"true","stats":{"checkinsCount":"0","usersCount":"0","tipCount":"0"},"specials":{"count":"0"},"hereNow":{"count":"0"},"referralId":"v-1392478019"},{"id":"4fa3add0e4b052ea2852a40b","name":"The Running School","contact":{"twitter":"runningschool"},"location":{"address":"The Running School","crossStreet":"9, Wilson Walk","lat":"51.514244605779105","lng":"-0.09297975941003596","distance":"13","postalCode":"W4 1TP","cc":"GB","city":"Chiswick","state":"Greater London","country":"United Kingdom"},"categories":[{"id":"4f4528bc4b90abdf24c9de85","name":"Athletics & Sports","pluralName":"Athletics & Sports","shortName":"Athletics & Sports","icon":{"prefix":"https:\/\/ss1.4sqi.net\/img\/categories_v2\/shops\/sports_outdoors_","suffix":".png"},"primary":"true"}],"verified":"false","restricted":"true","stats":{"checkinsCount":"3","usersCount":"2","tipCount":"0"},"specials":{"count":"0"},"hereNow":{"count":"0"},"referralId":"v-1392478019"},{"id":"4ac518def964a520d5a920e3","name":"Taberna Etrusca","location":{"address":"9-11 Bow Churchyard","lat":"51.51360240162269","lng":"-0.09364880554743343","distance":"96","postalCode":"EC4M 9DQ","cc":"GB","city":"London","state":"Greater London","country":"United Kingdom"},"categories":[{"id":"4bf58dd8d48988d110941735","name":"Italian Restaurant","pluralName":"Italian Restaurants","shortName":"Italian","icon":{"prefix":"https:\/\/ss1.4sqi.net\/img\/categories_v2\/food\/italian_","suffix":".png"},"primary":"true"}],"verified":"false","restricted":"true","stats":{"checkinsCount":"79","usersCount":"70","tipCount":"3"},"url":"http:\/\/www.etruscarestaurants.com","reservations":{"url":"http:\/\/www.toptable.co.uk\/single.aspx?rid=38359&ref=9601"},"menu":{"type":"Menu","label":"Menu","anchor":"View Menu","url":"https:\/\/foursquare.com\/v\/taberna-etrusca\/4ac518def964a520d5a920e3\/menu","mobileUrl":"https:\/\/foursquare.com\/v\/4ac518def964a520d5a920e3\/device_menu"},"specials":{"count":"0"},"hereNow":{"count":"0"},"referralId":"v-1392478019"},{"id":"4b7099d8f964a52092242de3","name":"Bar Remo","location":{"address":"Bow Lane","lat":"51.51389725","lng":"-0.09325115","distance":"53","postalCode":"EC4M 9DJ","cc":"GB","city":"London","state":"Greater London","country":"United Kingdom"},"categories":[{"id":"4bf58dd8d48988d1c5941735","name":"Sandwich Place","pluralName":"Sandwich Places","shortName":"Sandwiches","icon":{"prefix":"https:\/\/ss1.4sqi.net\/img\/categories_v2\/food\/sandwiches_","suffix":".png"},"primary":"true"}],"verified":"false","restricted":"true","stats":{"checkinsCount":"329","usersCount":"46","tipCount":"8"},"specials":{"count":"0"},"hereNow":{"count":"0"},"referralId":"v-1392478019"},{"id":"4bb21b64f964a52064b93ce3","name":"Bow Wine Vaults","contact":{"phone":"+442072481121","formattedPhone":"+44 20 7248 1121"},"location":{"address":"10 Bow Church Yard","crossStreet":"Cheapside","lat":"51.51348996813139","lng":"-0.09347498416900635","distance":"100","postalCode":"EC4M 9DQ","cc":"GB","city":"London","state":"Greater London","country":"United Kingdom"},"categories":[{"id":"4bf58dd8d48988d123941735","name":"Wine Bar","pluralName":"Wine Bars","shortName":"Wine Bar","icon":{"prefix":"https:\/\/ss1.4sqi.net\/img\/categories_v2\/nightlife\/wine_","suffix":".png"},"primary":"true"}],"verified":"false","restricted":"true","stats":{"checkinsCount":"98","usersCount":"73","tipCount":"2"},"url":"http:\/\/www.bowwinevaults.com","reservations":{"url":"http:\/\/www.toptable.co.uk\/single.aspx?rid=80905&ref=9601"},"menu":{"type":"Menu","label":"Menu","anchor":"View Menu","url":"https:\/\/foursquare.com\/v\/bow-wine-vaults\/4bb21b64f964a52064b93ce3\/menu","mobileUrl":"https:\/\/foursquare.com\/v\/4bb21b64f964a52064b93ce3\/device_menu"},"specials":{"count":"0"},"hereNow":{"count":"0"},"referralId":"v-1392478019"}],"confident":"true"}}