{"meta":{"code":"200"},"response":{"venues":[{"id":"4b75a42bf964a5204c192ee3","name":"All Star Lanes","contact":{"phone":"+442070252676","formattedPhone":"+44 20 7025 2676"},"location":{"address":"Victoria House","crossStreet":"Bloomsbury Pl.","lat":"51.51945876626997","lng":"-0.1226158019666488","distance":"22","postalCode":"WC1B 4DA","cc":"GB","city":"London","state":"Greater London","country":"United Kingdom"},"categories":[{"id":"4bf58dd8d48988d1e4931735","name":"Bowling Alley","pluralName":"Bowling Alleys","shortName":"Bowling Alley","icon":{"prefix":"https:\/\/ss1.4sqi.net\/img\/categories_v2\/arts_entertainment\/bowling_","suffix":".png"},"primary":"true"}],"verified":"false","restricted":"true","stats":{"checkinsCount":"1429","usersCount":"1230","tipCount":"17"},"url":"http:\/\/www.allstarlanes.co.uk","reservations":{"url":"http:\/\/www.toptable.co.uk\/single.aspx?rid=80986&ref=9601"},"menu":{"type":"Menu","label":"Menu","anchor":"View Menu","url":"https:\/\/foursquare.com\/v\/all-star-lanes\/4b75a42bf964a5204c192ee3\/menu","mobileUrl":"https:\/\/foursquare.com\/v\/4b75a42bf964a5204c192ee3\/device_menu"},"specials":{"count":"0"},"hereNow":{"count":"0"},"referralId":"v-1392478003"},{"id":"4ac518d3f964a52082a720e3","name":"Bloomsbury Square","location":{"address":"Bloomsbury Sq.","lat":"51.51874027871787","lng":"-0.12262162673180511","distance":"62","postalCode":"WC1A 2LS","cc":"GB","city":"London","state":"Greater London","country":"United Kingdom"},"categories":[{"id":"4bf58dd8d48988d163941735","name":"Park","pluralName":"Parks","shortName":"Park","icon":{"prefix":"https:\/\/ss1.4sqi.net\/img\/categories_v2\/parks_outdoors\/park_","suffix":".png"},"primary":"true"}],"verified":"false","restricted":"true","stats":{"checkinsCount":"4049","usersCount":"1805","tipCount":"12"},"specials":{"count":"0"},"hereNow":{"count":"0"},"referralId":"v-1392478003"},{"id":"4c442b48dcd61b8deee97a56","name":"Victoria House","contact":{"phone":"+442072698610","formattedPhone":"+44 20 7269 8610"},"location":{"address":"37-63 Southampton Row","crossStreet":"Bloomsbury Sq","lat":"51.51916705893386","lng":"-0.12211766652995562","distance":"49","postalCode":"WC1","cc":"GB","city":"Holborn","state":"Greater London","country":"United Kingdom"},"categories":[{"id":"4bf58dd8d48988d1e2931735","name":"Art Gallery","pluralName":"Art Galleries","shortName":"Art Gallery","icon":{"prefix":"https:\/\/ss1.4sqi.net\/img\/categories_v2\/arts_entertainment\/artgallery_","suffix":".png"},"primary":"true"}],"verified":"false","restricted":"true","stats":{"checkinsCount":"994","usersCount":"621","tipCount":"1"},"url":"http:\/\/www.victoriahousewc1.co.uk","specials":{"count":"0"},"hereNow":{"count":"1","groups":[{"type":"others","name":"Other people here","count":"1"}]},"referralId":"v-1392478003"},{"id":"4ac518e9f964a520cbab20e3","name":"The Bloomsbury Ballroom","contact":{"phone":"+442072420002","formattedPhone":"+44 20 7242 0002","twitter":"bloomballroom"},"location":{"address":"Victoria House, 37-63 Bloomsbury Sq","lat":"51.51906339237362","lng":"-0.12228234792439163","distance":"43","postalCode":"WC1B 4DA","cc":"GB","city":"London","state":"Greater London","country":"United Kingdom"},"categories":[{"id":"4bf58dd8d48988d1e5931735","name":"Music Venue","pluralName":"Music Venues","shortName":"Music Venue","icon":{"prefix":"https:\/\/ss1.4sqi.net\/img\/categories_v2\/arts_entertainment\/musicvenue_","suffix":".png"},"primary":"true"}],"verified":"false","restricted":"true","stats":{"checkinsCount":"431","usersCount":"389","tipCount":"4"},"url":"http:\/\/www.thebloomsburyballroom.com","specials":{"count":"0"},"hereNow":{"count":"0"},"referralId":"v-1392478003"},{"id":"4d3df3a284d46ea8baf00a5d","name":"DoubleTree by Hilton London - West End","contact":{"phone":"+442072422828","formattedPhone":"+44 20 7242 2828","twitter":"doubletree"},"location":{"address":"92 Southampton Row","lat":"51.52012964173205","lng":"-0.12206196784973145","distance":"106","postalCode":"WC1B 4BH","cc":"GB","city":"London","state":"Greater London","country":"United Kingdom"},"categories":[{"id":"4bf58dd8d48988d1fa931735","name":"Hotel","pluralName":"Hotels","shortName":"Hotel","icon":{"prefix":"https:\/\/ss1.4sqi.net\/img\/categories_v2\/travel\/hotel_","suffix":".png"},"primary":"true"}],"verified":"true","restricted":"true","stats":{"checkinsCount":"3004","usersCount":"1009","tipCount":"22"},"url":"http:\/\/doubletree3.hilton.com\/en\/hotels\/united-kingdom\/doubletree-by-hilton-hotel-london-west-end-LHRLBDI\/index.html","specials":{"count":"0"},"hereNow":{"count":"0"},"storeId":"LHRLB","referralId":"v-1392478003"},{"id":"504a7f1bb0edd00f6b9c21e6","name":"Central London Shodokan Aikido Club","contact":{"phone":"+442071125131","formattedPhone":"+44 20 7112 5131","twitter":"clshodokan"},"location":{"address":"23 Bloomsbury Square","lat":"51.5195054401361","lng":"-0.12336015701293945","distance":"45","postalCode":"WC1A 2PJ","cc":"GB","city":"London","state":"Greater London","country":"United Kingdom"},"categories":[{"id":"4f4528bc4b90abdf24c9de85","name":"Athletics & Sports","pluralName":"Athletics & Sports","shortName":"Athletics & Sports","icon":{"prefix":"https:\/\/ss1.4sqi.net\/img\/categories_v2\/shops\/sports_outdoors_","suffix":".png"},"primary":"true"}],"verified":"true","restricted":"true","stats":{"checkinsCount":"101","usersCount":"4","tipCount":"3"},"url":"http:\/\/www.sportaikido.co.uk","specials":{"count":"0"},"hereNow":{"count":"0"},"venuePage":{"id":"38537045"},"storeId":"","referralId":"v-1392478003"},{"id":"4e38eec88130dc0341c34eec","name":"Holborn Health & Fitness Club","location":{"address":"50-60 Southampton Row","lat":"51.51961225598922","lng":"-0.12230873107910156","distance":"49","cc":"GB","city":"London","state":"Greater London","country":"United Kingdom"},"categories":[{"id":"4bf58dd8d48988d175941735","name":"Gym \/ Fitness Center","pluralName":"Gyms or Fitness Centers","shortName":"Gym \/ Fitness","icon":{"prefix":"https:\/\/ss1.4sqi.net\/img\/categories_v2\/building\/gym_","suffix":".png"},"primary":"true"}],"verified":"false","restricted":"true","stats":{"checkinsCount":"234","usersCount":"29","tipCount":"0"},"specials":{"count":"0"},"hereNow":{"count":"0"},"referralId":"v-1392478003"},{"id":"4bfe2997bf6576b05b53aeb8","name":"TfL Bus 38","contact":{"phone":"+443432221234","formattedPhone":"+44 343 222 1234","twitter":"tflbusalerts"},"location":{"address":"Moving Target!","lat":"51.53977858846367","lng":"-0.09723500497916866","distance":"2887","cc":"GB","city":"London","state":"Greater London","country":"United Kingdom"},"categories":[{"id":"4bf58dd8d48988d12b951735","name":"Bus Line","pluralName":"Bus Lines","shortName":"Bus","icon":{"prefix":"https:\/\/ss1.4sqi.net\/img\/categories_v2\/travel\/busstation_","suffix":".png"},"primary":"true"}],"verified":"false","restricted":"true","stats":{"checkinsCount":"2808","usersCount":"654","tipCount":"13"},"url":"http:\/\/tfl.gov.uk","specials":{"count":"0"},"hereNow":{"count":"0"},"referralId":"v-1392478003"},{"id":"519538d3498e2d07013f246e","name":"English Studio (Language School)","location":{"lat":"51.519099","lng":"-0.123445","distance":"49","cc":"GB","country":"United Kingdom"},"categories":[{"id":"4bf58dd8d48988d198941735","name":"College Academic Building","pluralName":"College Academic Buildings","shortName":"Academic Building","icon":{"prefix":"https:\/\/ss1.4sqi.net\/img\/categories_v2\/education\/academicbuilding_","suffix":".png"},"primary":"true"}],"verified":"false","restricted":"true","stats":{"checkinsCount":"108","usersCount":"26","tipCount":"0"},"specials":{"count":"0"},"hereNow":{"count":"0"},"referralId":"v-1392478003"},{"id":"4ba4a872f964a52055aa38e3","name":"Grange Holborn Hotel","contact":{"phone":"+442072421800","formattedPhone":"+44 20 7242 1800","twitter":"grangehotels","facebook":"1407377219476804"},"location":{"address":"50-60 Southampton Row","crossStreet":"Theobalds Rd.","lat":"51.51922424449753","lng":"-0.12116335162033166","distance":"113","postalCode":"WC1B 4AR","cc":"GB","city":"Holborn","state":"Greater London","country":"United Kingdom"},"categories":[{"id":"4bf58dd8d48988d1fa931735","name":"Hotel","pluralName":"Hotels","shortName":"Hotel","icon":{"prefix":"https:\/\/ss1.4sqi.net\/img\/categories_v2\/travel\/hotel_","suffix":".png"},"primary":"true"}],"verified":"true","restricted":"true","stats":{"checkinsCount":"1515","usersCount":"734","tipCount":"22"},"specials":{"count":"0"},"hereNow":{"count":"0"},"referralId":"v-1392478003"},{"id":"4f7aa42de4b0d859b6233bb3","name":"Le Cordon Bleu, Culinary School","location":{"address":"15 Bloomsbury Square","lat":"51.51877385120712","lng":"-0.12403760562708463","distance":"102","cc":"GB","city":"London","state":"Greater London","country":"United Kingdom"},"categories":[{"id":"4bf58dd8d48988d1a8941735","name":"General College & University","pluralName":"General Colleges & Universities","shortName":"Education","icon":{"prefix":"https:\/\/ss1.4sqi.net\/img\/categories_v2\/education\/other_","suffix":".png"},"primary":"true"}],"verified":"false","restricted":"true","stats":{"checkinsCount":"790","usersCount":"126","tipCount":"1"},"specials":{"count":"0"},"hereNow":{"count":"0"},"referralId":"v-1392478003"},{"id":"4acdf077f964a5209fcd20e3","name":"Hummus Bros.","contact":{"phone":"+442074047079","formattedPhone":"+44 20 7404 7079","twitter":"hbros"},"location":{"address":"37-63 Southampton Row","crossStreet":"at New Oxford St","lat":"51.519492","lng":"-0.121408","distance":"99","postalCode":"WC1B 4DA","cc":"GB","city":"London","state":"Greater London","country":"United Kingdom"},"categories":[{"id":"4bf58dd8d48988d1c0941735","name":"Mediterranean Restaurant","pluralName":"Mediterranean Restaurants","shortName":"Mediterranean","icon":{"prefix":"https:\/\/ss1.4sqi.net\/img\/categories_v2\/food\/mediterranean_","suffix":".png"},"primary":"true"}],"verified":"true","restricted":"true","stats":{"checkinsCount":"1918","usersCount":"686","tipCount":"23"},"url":"http:\/\/www.hbros.co.uk","menu":{"type":"Menu","label":"Menu","anchor":"View Menu","url":"https:\/\/foursquare.com\/v\/hummus-bros\/4acdf077f964a5209fcd20e3\/menu","mobileUrl":"https:\/\/foursquare.com\/v\/4acdf077f964a5209fcd20e3\/device_menu"},"specials":{"count":"0"},"hereNow":{"count":"0"},"referralId":"v-1392478003"},{"id":"512dc6a1e4b0a2341e4c4ac1","name":"GroupM","location":{"address":"24-28 Bloomsbury Way","lat":"51.51834390151883","lng":"-0.123329420315184","distance":"111","cc":"GB","city":"London","state":"Greater London","country":"United Kingdom"},"categories":[{"id":"4bf58dd8d48988d124941735","name":"Office","pluralName":"Offices","shortName":"Office","icon":{"prefix":"https:\/\/ss1.4sqi.net\/img\/categories_v2\/building\/default_","suffix":".png"},"primary":"true"}],"verified":"false","restricted":"true","stats":{"checkinsCount":"231","usersCount":"14","tipCount":"2"},"specials":{"count":"0"},"hereNow":{"count":"0"},"referralId":"v-1392478003"},{"id":"4e090dbfaeb74c399119b188","name":"Corporate Executive Board London","location":{"address":"37-63 Southampton Row","lat":"51.51942855555485","lng":"-0.12169690467910854","distance":"78","cc":"GB","city":"London","state":"Greater London","country":"United Kingdom"},"categories":[{"id":"4bf58dd8d48988d124941735","name":"Office","pluralName":"Offices","shortName":"Office","icon":{"prefix":"https:\/\/ss1.4sqi.net\/img\/categories_v2\/building\/default_","suffix":".png"},"primary":"true"}],"verified":"false","restricted":"true","stats":{"checkinsCount":"105","usersCount":"15","tipCount":"0"},"specials":{"count":"0"},"hereNow":{"count":"0"},"referralId":"v-1392478003"},{"id":"4e76f344e4cd325437f9eb38","name":"Stafford House School Of English","location":{"address":"2 Southampton Place","lat":"51.51832454846353","lng":"-0.12198548604211776","distance":"121","postalCode":"WC1A 2DA","cc":"GB","city":"Camden Town","state":"Greater London","country":"United Kingdom"},"categories":[{"id":"4bf58dd8d48988d1ae941735","name":"University","pluralName":"Universities","shortName":"University","icon":{"prefix":"https:\/\/ss1.4sqi.net\/img\/categories_v2\/education\/default_","suffix":".png"},"primary":"true"}],"verified":"false","restricted":"true","stats":{"checkinsCount":"939","usersCount":"119","tipCount":"3"},"specials":{"count":"0"},"hereNow":{"count":"0"},"referralId":"v-1392478003"},{"id":"51d2c013498e4590d78fc2ee","name":"Delfin English School","location":{"lat":"51.51848375835744","lng":"-0.12223814497700156","distance":"97","cc":"GB","city":"London","state":"Greater London","country":"United Kingdom"},"categories":[{"id":"4bf58dd8d48988d198941735","name":"College Academic Building","pluralName":"College Academic Buildings","shortName":"Academic Building","icon":{"prefix":"https:\/\/ss1.4sqi.net\/img\/categories_v2\/education\/academicbuilding_","suffix":".png"},"primary":"true"}],"verified":"false","restricted":"true","stats":{"checkinsCount":"53","usersCount":"15","tipCount":"0"},"specials":{"count":"0"},"hereNow":{"count":"0"},"referralId":"v-1392478003"},{"id":"4f1042e3e4b0aabf166ca2a2","name":"Le Cordon Bleu","location":{"address":"15 Bloomsbury Square","lat":"51.51879145860168","lng":"-0.12382563611941855","distance":"89","postalCode":"WC1A 2LS","cc":"GB","city":"London","state":"Greater London","country":"United Kingdom"},"categories":[{"id":"4bf58dd8d48988d16d941735","name":"Caf\u00e9","pluralName":"Caf\u00e9s","shortName":"Caf\u00e9","icon":{"prefix":"https:\/\/ss1.4sqi.net\/img\/categories_v2\/food\/cafe_","suffix":".png"},"primary":"true"}],"verified":"false","restricted":"true","stats":{"checkinsCount":"407","usersCount":"93","tipCount":"3"},"specials":{"count":"0"},"hereNow":{"count":"0"},"referralId":"v-1392478003"},{"id":"4d50040b7ee1a35dee468134","name":"IES Abroad Centre","location":{"address":"5 Bloomsbury Place","lat":"51.5199414616449","lng":"-0.12234292808456873","distance":"79","cc":"GB","city":"Camden Town","state":"Greater London","country":"United Kingdom"},"categories":[{"id":"4bf58dd8d48988d198941735","name":"College Academic Building","pluralName":"College Academic Buildings","shortName":"Academic Building","icon":{"prefix":"https:\/\/ss1.4sqi.net\/img\/categories_v2\/education\/academicbuilding_","suffix":".png"},"primary":"true"}],"verified":"false","restricted":"true","stats":{"checkinsCount":"189","usersCount":"22","tipCount":"0"},"specials":{"count":"0"},"hereNow":{"count":"0"},"referralId":"v-1392478003"},{"id":"50af6f3b498e8cffe1332ff4","name":"Salvador and Amanda","contact":{"phone":"+442074309600","formattedPhone":"+44 20 7430 9600","twitter":"sabloombsbury"},"location":{"address":"1 Vernon Pl.","lat":"51.51875112954854","lng":"-0.1217183539087118","distance":"96","postalCode":"WC1A 2EP","cc":"GB","city":"London","state":"Greater London","country":"United Kingdom"},"categories":[{"id":"4bf58dd8d48988d150941735","name":"Spanish Restaurant","pluralName":"Spanish Restaurants","shortName":"Spanish","icon":{"prefix":"https:\/\/ss1.4sqi.net\/img\/categories_v2\/food\/default_","suffix":".png"},"primary":"true"}],"verified":"true","restricted":"true","stats":{"checkinsCount":"250","usersCount":"189","tipCount":"6"},"url":"http:\/\/www.salvadorandamanda.com","menu":{"type":"Menu","label":"Menu","anchor":"View Menu","url":"https:\/\/foursquare.com\/v\/salvador-and-amanda-london-greater-london\/50af6f3b498e8cffe1332ff4\/menu","mobileUrl":"https:\/\/foursquare.com\/v\/50af6f3b498e8cffe1332ff4\/device_menu"},"specials":{"count":"0"},"hereNow":{"count":"0"},"venuePage":{"id":"64237953"},"storeId":"","referralId":"v-1392478003"},{"id":"4ac518e1f964a52066aa20e3","name":"Hason Raja","location":{"address":"84 Southampton Row","lat":"51.51977723998357","lng":"-0.12210669704692914","distance":"72","postalCode":"WC1B 4BB","cc":"GB","city":"London","state":"Greater London","country":"United Kingdom"},"categories":[{"id":"4bf58dd8d48988d10f941735","name":"Indian Restaurant","pluralName":"Indian Restaurants","shortName":"Indian","icon":{"prefix":"https:\/\/ss1.4sqi.net\/img\/categories_v2\/food\/indian_","suffix":".png"},"primary":"true"}],"verified":"false","restricted":"true","stats":{"checkinsCount":"165","usersCount":"137","tipCount":"6"},"menu":{"type":"Menu","label":"Menu","anchor":"View Menu","url":"https:\/\/foursquare.com\/v\/hason-raja\/4ac518e1f964a52066aa20e3\/menu","mobileUrl":"https:\/\/foursquare.com\/v\/4ac518e1f964a52066aa20e3\/device_menu"},"specials":{"count":"0"},"hereNow":{"count":"0"},"referralId":"v-1392478003"},{"id":"51b0c7ad498eebb672923238","name":"Bloomsbury Square Gardens","location":{"lat":"51.51866276143553","lng":"-0.12231090528123154","distance":"77","cc":"GB","country":"United Kingdom"},"categories":[{"id":"4bf58dd8d48988d15a941735","name":"Garden","pluralName":"Gardens","shortName":"Garden","icon":{"prefix":"https:\/\/ss1.4sqi.net\/img\/categories_v2\/parks_outdoors\/garden_","suffix":".png"},"primary":"true"}],"verified":"false","restricted":"true","stats":{"checkinsCount":"73","usersCount":"59","tipCount":"1"},"specials":{"count":"0"},"hereNow":{"count":"0"},"referralId":"v-1392478003"},{"id":"4b55d19bf964a52067f127e3","name":"Tesco Express","contact":{"phone":"+448450269358","formattedPhone":"+44 845 026 9358","twitter":"uktescooffers"},"location":{"address":"100 Southampton Row","lat":"51.52019291952182","lng":"-0.12242475052811193","distance":"103","postalCode":"WC1B 4BB","cc":"GB","city":"London","state":"Greater London","country":"United Kingdom"},"categories":[{"id":"4bf58dd8d48988d118951735","name":"Grocery Store","pluralName":"Grocery Stores","shortName":"Grocery Store","icon":{"prefix":"https:\/\/ss1.4sqi.net\/img\/categories_v2\/shops\/food_grocery_","suffix":".png"},"primary":"true"}],"verified":"true","restricted":"true","stats":{"checkinsCount":"391","usersCount":"173","tipCount":"0"},"url":"http:\/\/www.tesco.com","specials":{"count":"0"},"hereNow":{"count":"0"},"storeId":"3475","referralId":"v-1392478003"},{"id":"4e7b1da78231623875ded2f8","name":"Competition Commission","location":{"lat":"51.519248797354074","lng":"-0.12175381875201191","distance":"72","cc":"GB","city":"Camden Town","state":"Greater London","country":"United Kingdom"},"categories":[{"id":"4bf58dd8d48988d126941735","name":"Government Building","pluralName":"Government Buildings","shortName":"Government","icon":{"prefix":"https:\/\/ss1.4sqi.net\/img\/categories_v2\/building\/government_","suffix":".png"},"primary":"true"}],"verified":"false","restricted":"true","stats":{"checkinsCount":"85","usersCount":"10","tipCount":"0"},"specials":{"count":"0"},"hereNow":{"count":"0"},"referralId":"v-1392478003"},{"id":"4ca30d6bc1f1ef3b8e6e8da4","name":"Anglo American Educational Services","location":{"address":"22 Bloomsbury Square","lat":"51.51937191996743","lng":"-0.12372493743896484","distance":"64","postalCode":"WC1A 2NS","cc":"GB","city":"London","state":"Greater London","country":"United Kingdom"},"categories":[{"id":"4bf58dd8d48988d124941735","name":"Office","pluralName":"Offices","shortName":"Office","icon":{"prefix":"https:\/\/ss1.4sqi.net\/img\/categories_v2\/building\/default_","suffix":".png"},"primary":"true"}],"verified":"false","restricted":"true","stats":{"checkinsCount":"28","usersCount":"14","tipCount":"1"},"specials":{"count":"0"},"hereNow":{"count":"0"},"referralId":"v-1392478003"},{"id":"4e3995177d8b6bed20b04013","name":"Bar 92","location":{"address":"Southampton Row","lat":"51.519970959860224","lng":"-0.12203804306093273","distance":"92","cc":"GB","city":"London","state":"Greater London","country":"United Kingdom"},"categories":[{"id":"4bf58dd8d48988d1d5941735","name":"Hotel Bar","pluralName":"Hotel Bars","shortName":"Hotel Bar","icon":{"prefix":"https:\/\/ss1.4sqi.net\/img\/categories_v2\/travel\/hotel_bar_","suffix":".png"},"primary":"true"}],"verified":"false","restricted":"true","stats":{"checkinsCount":"61","usersCount":"40","tipCount":"2"},"specials":{"count":"0"},"hereNow":{"count":"0"},"referralId":"v-1392478003"},{"id":"51c0815f498ec7d23b62c57d","name":"The Wam Bam Club @ Bloomsbury Ballroom","contact":{"phone":"+442078872612","formattedPhone":"+44 20 7887 2612","twitter":"wambamclub"},"location":{"address":"Victoria House","crossStreet":"Bloomsbury Square","lat":"51.51880213151409","lng":"-0.12205092363838713","distance":"75","postalCode":"WC1B 4DA","cc":"GB","city":"London","state":"Greater London","country":"United Kingdom"},"categories":[{"id":"4bf58dd8d48988d1f1931735","name":"General Entertainment","pluralName":"General Entertainment","shortName":"Entertainment","icon":{"prefix":"https:\/\/ss1.4sqi.net\/img\/categories_v2\/arts_entertainment\/default_","suffix":".png"},"primary":"true"}],"verified":"true","restricted":"true","stats":{"checkinsCount":"9","usersCount":"6","tipCount":"1"},"specials":{"count":"0"},"hereNow":{"count":"0"},"venuePage":{"id":"61691639"},"referralId":"v-1392478003"},{"id":"507ab869e4b047ff2c7b00d4","name":"Amway Experience Centre","location":{"address":"37 Southampton Row","crossStreet":"Russell Square","lat":"51.5195928598756","lng":"-0.1218993196130782","distance":"71","postalCode":"WC1B","cc":"GB","city":"London","state":"Greater London","country":"United Kingdom"},"categories":[{"id":"4bf58dd8d48988d171941735","name":"Event Space","pluralName":"Event Spaces","shortName":"Event Space","icon":{"prefix":"https:\/\/ss1.4sqi.net\/img\/categories_v2\/building\/eventspace_","suffix":".png"},"primary":"true"}],"verified":"false","restricted":"true","stats":{"checkinsCount":"38","usersCount":"13","tipCount":"0"},"specials":{"count":"0"},"hereNow":{"count":"0"},"referralId":"v-1392478003"},{"id":"4b59a161f964a520d98f28e3","name":"Sport England HQ","location":{"address":"Victoria House, Bloomsbury Square","lat":"51.51914656628327","lng":"-0.12160568919866702","distance":"84","postalCode":"WC1B 4SE","cc":"GB","city":"London","state":"Greater London","country":"United Kingdom"},"categories":[{"id":"4bf58dd8d48988d126941735","name":"Government Building","pluralName":"Government Buildings","shortName":"Government","icon":{"prefix":"https:\/\/ss1.4sqi.net\/img\/categories_v2\/building\/government_","suffix":".png"},"primary":"true"}],"verified":"false","restricted":"true","stats":{"checkinsCount":"109","usersCount":"39","tipCount":"0"},"specials":{"count":"0"},"hereNow":{"count":"0"},"referralId":"v-1392478003"},{"id":"520b4a6f11d2398e52515691","name":"Rayman","location":{"address":"70 Lambs Conduit St.","lat":"51.5197259338546","lng":"-0.12228468715773212","distance":"60","postalCode":"WC1N 3LN","cc":"GB","country":"United Kingdom"},"categories":[{"id":"4bf58dd8d48988d121951735","name":"Paper \/ Office Supplies Store","pluralName":"Paper \/ Office Supplies Stores","shortName":"Office Supplies","icon":{"prefix":"https:\/\/ss1.4sqi.net\/img\/categories_v2\/shops\/papergoods_","suffix":".png"},"primary":"true"}],"verified":"false","restricted":"true","stats":{"checkinsCount":"4","usersCount":"4","tipCount":"0"},"specials":{"count":"0"},"hereNow":{"count":"0"},"referralId":"v-1392478003"},{"id":"50b3387019a9c8211ddc9ae9","name":"Best STL","contact":{"phone":"+442079873777","formattedPhone":"+44 20 7987 3777","twitter":"beststl"},"location":{"address":"The Chartered Institute of Arbitrators, 12 Bloomsbury Square","lat":"51.518604171401115","lng":"-0.12339234352111815","distance":"86","postalCode":"WC1A 2LP","cc":"GB","city":"London","state":"Greater London","country":"United Kingdom"},"categories":[{"id":"4bf58dd8d48988d124941735","name":"Office","pluralName":"Offices","shortName":"Office","icon":{"prefix":"https:\/\/ss1.4sqi.net\/img\/categories_v2\/building\/default_","suffix":".png"},"primary":"true"}],"verified":"false","restricted":"true","stats":{"checkinsCount":"71","usersCount":"3","tipCount":"1"},"specials":{"count":"0"},"hereNow":{"count":"0"},"referralId":"v-1392478003"}],"confident":"true"}}