{"meta":{"code":"200"},"response":{"venues":[{"id":"4ad9a8acf964a5205f1a21e3","name":"Monmouth Coffee Company","contact":{"phone":"+442072323010","formattedPhone":"+44 20 7232 3010","twitter":"monmouthcoffee_"},"location":{"address":"2 Park St","lat":"51.50551707532427","lng":"-0.09124875068664551","distance":"174","postalCode":"SE1 9AB","cc":"GB","city":"Borough","state":"Greater London","country":"United Kingdom"},"categories":[{"id":"4bf58dd8d48988d1e0931735","name":"Coffee Shop","pluralName":"Coffee Shops","shortName":"Coffee Shop","icon":{"prefix":"https:\/\/ss1.4sqi.net\/img\/categories_v2\/food\/coffeeshop_","suffix":".png"},"primary":"true"}],"verified":"false","restricted":"true","stats":{"checkinsCount":"9115","usersCount":"3361","tipCount":"125"},"specials":{"count":"0"},"hereNow":{"count":"5","groups":[{"type":"others","name":"Other people here","count":"5"}]},"referralId":"v-1392478045"},{"id":"4b116da5f964a520607c23e3","name":"The Market Porter","contact":{"phone":"+442074072495","formattedPhone":"+44 20 7407 2495"},"location":{"address":"9 Stoney St","crossStreet":"at Southwark St","lat":"51.5052454114834","lng":"-0.0913238525390625","distance":"147","postalCode":"SE1 9AA","cc":"GB","city":"Borough","state":"Greater London","country":"United Kingdom"},"categories":[{"id":"4bf58dd8d48988d11b941735","name":"Pub","pluralName":"Pubs","shortName":"Pub","icon":{"prefix":"https:\/\/ss1.4sqi.net\/img\/categories_v2\/nightlife\/pub_","suffix":".png"},"primary":"true"}],"verified":"false","restricted":"true","stats":{"checkinsCount":"4480","usersCount":"2138","tipCount":"28"},"url":"http:\/\/www.markettaverns.co.uk\/the_market_porter.html","menu":{"type":"Menu","label":"Menu","anchor":"View Menu","url":"https:\/\/foursquare.com\/v\/the-market-porter\/4b116da5f964a520607c23e3\/menu","mobileUrl":"https:\/\/foursquare.com\/v\/4b116da5f964a520607c23e3\/device_menu"},"specials":{"count":"0"},"hereNow":{"count":"2","groups":[{"type":"others","name":"Other people here","count":"2"}]},"referralId":"v-1392478045"},{"id":"4ade0758f964a520826721e3","name":"Boot & Flogger","contact":{"phone":"+442074071184","formattedPhone":"+44 20 7407 1184"},"location":{"address":"10-20 Redcross Way","crossStreet":"Southwark street","lat":"51.504128","lng":"-0.093262","distance":"36","postalCode":"SE1 1TA","cc":"GB","city":"London","state":"Greater London","country":"United Kingdom"},"categories":[{"id":"4bf58dd8d48988d123941735","name":"Wine Bar","pluralName":"Wine Bars","shortName":"Wine Bar","icon":{"prefix":"https:\/\/ss1.4sqi.net\/img\/categories_v2\/nightlife\/wine_","suffix":".png"},"primary":"true"}],"verified":"false","restricted":"true","stats":{"checkinsCount":"246","usersCount":"177","tipCount":"6"},"specials":{"count":"0"},"hereNow":{"count":"0"},"referralId":"v-1392478045"},{"id":"4e983ac9775bdedf442954be","name":"Shrigley's","location":{"lat":"51.504020990174354","lng":"-0.09178150659052858","distance":"76","cc":"GB","city":"London","state":"Greater London","country":"United Kingdom"},"categories":[{"id":"4bf58dd8d48988d16d941735","name":"Caf\u00e9","pluralName":"Caf\u00e9s","shortName":"Caf\u00e9","icon":{"prefix":"https:\/\/ss1.4sqi.net\/img\/categories_v2\/food\/cafe_","suffix":".png"},"primary":"true"}],"verified":"false","restricted":"true","stats":{"checkinsCount":"615","usersCount":"75","tipCount":"13"},"specials":{"count":"0"},"hereNow":{"count":"0"},"referralId":"v-1392478045"},{"id":"4bc2159b461576b037cd7c32","name":"Menier Chocolate Factory Theatre","location":{"address":"53 Camberwell Church St.","lat":"51.50477534731013","lng":"-0.09438789862530479","distance":"122","postalCode":"SE1 1RU","cc":"GB","city":"London","state":"Greater London","country":"United Kingdom"},"categories":[{"id":"4bf58dd8d48988d1f2931735","name":"Performing Arts Venue","pluralName":"Performing Arts Venues","shortName":"Performing Arts","icon":{"prefix":"https:\/\/ss1.4sqi.net\/img\/categories_v2\/arts_entertainment\/default_","suffix":".png"},"primary":"true"}],"verified":"false","restricted":"true","stats":{"checkinsCount":"1232","usersCount":"753","tipCount":"12"},"url":"http:\/\/www.menierchocolatefactory.com","menu":{"type":"Menu","label":"Menu","anchor":"View Menu","url":"https:\/\/foursquare.com\/v\/menier-chocolate-factory-theatre\/4bc2159b461576b037cd7c32\/menu","mobileUrl":"https:\/\/foursquare.com\/v\/4bc2159b461576b037cd7c32\/device_menu"},"specials":{"count":"0"},"hereNow":{"count":"2","groups":[{"type":"others","name":"Other people here","count":"2"}]},"referralId":"v-1392478045"},{"id":"4ade1362f964a520e07221e3","name":"Katzenjammers","contact":{"phone":"+442034170196","formattedPhone":"+44 20 3417 0196"},"location":{"address":"The Hop Exchange","crossStreet":"24 Southwark St","lat":"51.50479584033042","lng":"-0.09093761444091797","distance":"141","postalCode":"SE1 1TY","cc":"GB","city":"Borough","state":"Greater London","country":"United Kingdom"},"categories":[{"id":"4bf58dd8d48988d10d941735","name":"German Restaurant","pluralName":"German Restaurants","shortName":"German","icon":{"prefix":"https:\/\/ss1.4sqi.net\/img\/categories_v2\/food\/german_","suffix":".png"},"primary":"true"}],"verified":"false","restricted":"true","stats":{"checkinsCount":"2183","usersCount":"1159","tipCount":"29"},"url":"http:\/\/www.katzenjammers.co.uk","menu":{"type":"Menu","label":"Menu","anchor":"View Menu","url":"https:\/\/foursquare.com\/v\/katzenjammers\/4ade1362f964a520e07221e3\/menu","mobileUrl":"https:\/\/foursquare.com\/v\/4ade1362f964a520e07221e3\/device_menu"},"specials":{"count":"0"},"hereNow":{"count":"0"},"referralId":"v-1392478045"},{"id":"4b65b260f964a52023fa2ae3","name":"The Wheatsheaf","contact":{"phone":"+442079403880","formattedPhone":"+44 20 7940 3880","twitter":"tweetsheaf"},"location":{"address":"6 Stoney St","crossStreet":"Borough Market","lat":"51.50520320594292","lng":"-0.09104490280151367","distance":"158","postalCode":"SE1 9AA","cc":"GB","city":"Borough","state":"Greater London","country":"United Kingdom"},"categories":[{"id":"4bf58dd8d48988d11b941735","name":"Pub","pluralName":"Pubs","shortName":"Pub","icon":{"prefix":"https:\/\/ss1.4sqi.net\/img\/categories_v2\/nightlife\/pub_","suffix":".png"},"primary":"true"}],"verified":"false","restricted":"true","stats":{"checkinsCount":"2107","usersCount":"1147","tipCount":"24"},"url":"http:\/\/wheatsheafborough.co.uk","menu":{"type":"Menu","label":"Menu","anchor":"View Menu","url":"https:\/\/foursquare.com\/v\/the-wheatsheaf-borough-greater-london\/4b65b260f964a52023fa2ae3\/menu","mobileUrl":"https:\/\/foursquare.com\/v\/4b65b260f964a52023fa2ae3\/device_menu"},"specials":{"count":"0"},"hereNow":{"count":"0"},"referralId":"v-1392478045"},{"id":"4ace143df964a52044ce20e3","name":"Southwark Tavern","contact":{"phone":"+442074030257","formattedPhone":"+44 20 7403 0257","twitter":"southwarktavern"},"location":{"address":"22 Southwark St","lat":"51.504804","lng":"-0.090492","distance":"170","postalCode":"SE1 1TU","cc":"GB","city":"Southwark","state":"Greater London","country":"United Kingdom"},"categories":[{"id":"4bf58dd8d48988d11b941735","name":"Pub","pluralName":"Pubs","shortName":"Pub","icon":{"prefix":"https:\/\/ss1.4sqi.net\/img\/categories_v2\/nightlife\/pub_","suffix":".png"},"primary":"true"}],"verified":"false","restricted":"true","stats":{"checkinsCount":"2281","usersCount":"1579","tipCount":"27"},"url":"http:\/\/www.thesouthwarktavern.co.uk","specials":{"count":"0"},"hereNow":{"count":"2","groups":[{"type":"others","name":"Other people here","count":"2"}]},"referralId":"v-1392478045"},{"id":"4bf7c1814a67c928a21a24cf","name":"Neal's Yard Dairy","contact":{"phone":"+442073670799","formattedPhone":"+44 20 7367 0799"},"location":{"address":"6 Park St.","lat":"51.50547032895767","lng":"-0.09171009063720703","distance":"151","postalCode":"SE1 9AB","cc":"GB","city":"Borough","state":"Greater London","country":"United Kingdom"},"categories":[{"id":"4bf58dd8d48988d11e951735","name":"Cheese Shop","pluralName":"Cheese Shops","shortName":"Cheese Shop","icon":{"prefix":"https:\/\/ss1.4sqi.net\/img\/categories_v2\/shops\/food_cheese_","suffix":".png"},"primary":"true"}],"verified":"false","restricted":"true","stats":{"checkinsCount":"657","usersCount":"450","tipCount":"13"},"specials":{"count":"0"},"hereNow":{"count":"1","groups":[{"type":"others","name":"Other people here","count":"1"}]},"referralId":"v-1392478045"},{"id":"523a0c0411d2c95a217522b0","name":"The Sheaf","contact":{"phone":"+442074079934","formattedPhone":"+44 20 7407 9934"},"location":{"address":"Southwark Street","lat":"51.50495529174805","lng":"-0.09126690030097961","distance":"129","cc":"GB","city":"Borough","country":"United Kingdom"},"categories":[{"id":"4bf58dd8d48988d11b941735","name":"Pub","pluralName":"Pubs","shortName":"Pub","icon":{"prefix":"https:\/\/ss1.4sqi.net\/img\/categories_v2\/nightlife\/pub_","suffix":".png"},"primary":"true"}],"verified":"false","restricted":"true","stats":{"checkinsCount":"225","usersCount":"109","tipCount":"6"},"specials":{"count":"0"},"hereNow":{"count":"0"},"referralId":"v-1392478045"},{"id":"4cd58fc24ebba09055b8a9d6","name":"Turkish Bank UK Head Office","location":{"address":"84\u201386 Borough High St","lat":"51.50364680036123","lng":"-0.09170558644608441","distance":"104","postalCode":"SE1 1LN","cc":"GB","city":"London","state":"Greater London","country":"United Kingdom"},"categories":[{"id":"4bf58dd8d48988d124941735","name":"Office","pluralName":"Offices","shortName":"Office","icon":{"prefix":"https:\/\/ss1.4sqi.net\/img\/categories_v2\/building\/default_","suffix":".png"},"primary":"true"}],"verified":"false","restricted":"true","stats":{"checkinsCount":"152","usersCount":"25","tipCount":"0"},"specials":{"count":"0"},"hereNow":{"count":"0"},"referralId":"v-1392478045"},{"id":"4b52081cf964a520a26227e3","name":"St Christophers Inn","contact":{"phone":"+442074072392","formattedPhone":"+44 20 7407 2392","twitter":"stchostels"},"location":{"address":"121 Borough High St.","lat":"51.50375997424466","lng":"-0.09101260444408925","distance":"137","postalCode":"SE1 1NP","cc":"GB","city":"London","state":"Greater London","country":"United Kingdom"},"categories":[{"id":"4bf58dd8d48988d11b941735","name":"Pub","pluralName":"Pubs","shortName":"Pub","icon":{"prefix":"https:\/\/ss1.4sqi.net\/img\/categories_v2\/nightlife\/pub_","suffix":".png"},"primary":"true"}],"verified":"true","restricted":"true","stats":{"checkinsCount":"1193","usersCount":"669","tipCount":"13"},"menu":{"type":"Menu","label":"Menu","anchor":"View Menu","url":"https:\/\/foursquare.com\/v\/st-christophers-inn\/4b52081cf964a520a26227e3\/menu","mobileUrl":"https:\/\/foursquare.com\/v\/4b52081cf964a520a26227e3\/device_menu"},"specials":{"count":"0"},"hereNow":{"count":"0"},"referralId":"v-1392478045"},{"id":"4ad0efccf964a5204edb20e3","name":"Brew Wharf","location":{"address":"1 Stoney St","lat":"51.505694150515424","lng":"-0.09165545468171771","distance":"175","postalCode":"SE1","cc":"GB","city":"Southwark","state":"Greater London","country":"United Kingdom"},"categories":[{"id":"4bf58dd8d48988d11b941735","name":"Pub","pluralName":"Pubs","shortName":"Pub","icon":{"prefix":"https:\/\/ss1.4sqi.net\/img\/categories_v2\/nightlife\/pub_","suffix":".png"},"primary":"true"}],"verified":"false","restricted":"true","stats":{"checkinsCount":"1475","usersCount":"991","tipCount":"17"},"url":"http:\/\/www.brewwharf.com","reservations":{"url":"http:\/\/www.toptable.co.uk\/single.aspx?rid=6106&ref=9601"},"menu":{"type":"Menu","label":"Menu","anchor":"View Menu","url":"https:\/\/foursquare.com\/v\/brew-wharf\/4ad0efccf964a5204edb20e3\/menu","mobileUrl":"https:\/\/foursquare.com\/v\/4ad0efccf964a5204edb20e3\/device_menu"},"specials":{"count":"0"},"hereNow":{"count":"1","groups":[{"type":"others","name":"Other people here","count":"1"}]},"referralId":"v-1392478045"},{"id":"4bb1f091f964a52000ac3ce3","name":"Tas Restaurant","location":{"address":"72 Borough High Street","lat":"51.503785387427975","lng":"-0.09132163501289886","distance":"116","postalCode":"SE1","cc":"GB","city":"London","state":"Greater London","country":"United Kingdom"},"categories":[{"id":"4f04af1f2fb6e1c99f3db0bb","name":"Turkish Restaurant","pluralName":"Turkish Restaurants","shortName":"Turkish","icon":{"prefix":"https:\/\/ss1.4sqi.net\/img\/categories_v2\/food\/turkish_","suffix":".png"},"primary":"true"}],"verified":"false","restricted":"true","stats":{"checkinsCount":"784","usersCount":"547","tipCount":"12"},"specials":{"count":"0"},"hereNow":{"count":"0"},"referralId":"v-1392478045"},{"id":"4ac518e7f964a52033ab20e3","name":"Tapas Brindisa","contact":{"phone":"+442073578880","formattedPhone":"+44 20 7357 8880"},"location":{"address":"18-20 Southwark St.","lat":"51.50481754432783","lng":"-0.09051114320755005","distance":"169","postalCode":"SE1 1TJ","cc":"GB","city":"Borough","state":"Greater London","country":"United Kingdom"},"categories":[{"id":"4bf58dd8d48988d1db931735","name":"Tapas Restaurant","pluralName":"Tapas Restaurants","shortName":"Tapas","icon":{"prefix":"https:\/\/ss1.4sqi.net\/img\/categories_v2\/food\/tapas_","suffix":".png"},"primary":"true"}],"verified":"true","restricted":"true","stats":{"checkinsCount":"1811","usersCount":"1322","tipCount":"35"},"url":"http:\/\/www.brindisa.com","menu":{"type":"Menu","label":"Menu","anchor":"View Menu","url":"https:\/\/foursquare.com\/v\/tapas-brindisa\/4ac518e7f964a52033ab20e3\/menu","mobileUrl":"https:\/\/foursquare.com\/v\/4ac518e7f964a52033ab20e3\/device_menu"},"specials":{"count":"1","items":[{"id":"4d98b9e629352d431ba300c2","type":"frequency","message":"Receive a free glass of Cava when you check in 10 times","description":"Unlocked every 10 check-ins","icon":"frequency","title":"Loyalty Special","provider":"foursquare","redemption":"standard"}]},"hereNow":{"count":"0"},"referralId":"v-1392478045"},{"id":"4c1d11b601379521ff2e47f3","name":"Paul Smith Borough Market","contact":{"phone":"+442074031678","formattedPhone":"+44 20 7403 1678"},"location":{"address":"13 Park St.","lat":"51.505243274494944","lng":"-0.09196758270263672","distance":"120","postalCode":"SE1 9AB","cc":"GB","city":"Southwark","state":"Greater London","country":"United Kingdom"},"categories":[{"id":"4bf58dd8d48988d103951735","name":"Clothing Store","pluralName":"Clothing Stores","shortName":"Apparel","icon":{"prefix":"https:\/\/ss1.4sqi.net\/img\/categories_v2\/shops\/apparel_","suffix":".png"},"primary":"true"}],"verified":"false","restricted":"true","stats":{"checkinsCount":"127","usersCount":"96","tipCount":"3"},"specials":{"count":"0"},"hereNow":{"count":"1","groups":[{"type":"others","name":"Other people here","count":"1"}]},"referralId":"v-1392478045"},{"id":"4cb0808baef16dcb623cb154","name":"St Christopher's Inn Village","contact":{"twitter":"stchostels"},"location":{"address":"165 High St.","lat":"51.502848766666666","lng":"-0.091866","distance":"172","postalCode":"SE1 1HR","cc":"GB","city":"Borough","state":"Greater London","country":"United Kingdom"},"categories":[{"id":"4bf58dd8d48988d1ee931735","name":"Hostel","pluralName":"Hostels","shortName":"Hostel","icon":{"prefix":"https:\/\/ss1.4sqi.net\/img\/categories_v2\/travel\/hostel_","suffix":".png"},"primary":"true"}],"verified":"false","restricted":"true","stats":{"checkinsCount":"1295","usersCount":"681","tipCount":"16"},"specials":{"count":"0"},"hereNow":{"count":"0"},"referralId":"v-1392478045"},{"id":"4c35de426f1fef3bcc37ed3d","name":"Cross Bones Graveyard","location":{"address":"Redcross Way","lat":"51.50410161063039","lng":"-0.09335336709245771","distance":"43","postalCode":"SE1 1TA","cc":"GB","city":"Southwark","state":"Greater London","country":"United Kingdom"},"categories":[{"id":"4bf58dd8d48988d15c941735","name":"Cemetery","pluralName":"Cemeteries","shortName":"Cemetery","icon":{"prefix":"https:\/\/ss1.4sqi.net\/img\/categories_v2\/parks_outdoors\/cemetery_","suffix":".png"},"primary":"true"}],"verified":"false","restricted":"true","stats":{"checkinsCount":"155","usersCount":"82","tipCount":"4"},"specials":{"count":"0"},"hereNow":{"count":"0"},"referralId":"v-1392478045"},{"id":"4b6f0812f964a5202bd82ce3","name":"Sainsbury's Local","contact":{"phone":"+442074071024","formattedPhone":"+44 20 7407 1024","twitter":"sainsburys"},"location":{"address":"116-126 Borough High St","lat":"51.502892526507736","lng":"-0.09226799011230469","distance":"159","postalCode":"SE1 1LB","cc":"GB","city":"Southwark","state":"Greater London","country":"United Kingdom"},"categories":[{"id":"4bf58dd8d48988d118951735","name":"Grocery Store","pluralName":"Grocery Stores","shortName":"Grocery Store","icon":{"prefix":"https:\/\/ss1.4sqi.net\/img\/categories_v2\/shops\/food_grocery_","suffix":".png"},"primary":"true"}],"verified":"false","restricted":"true","stats":{"checkinsCount":"1389","usersCount":"320","tipCount":"5"},"specials":{"count":"0"},"hereNow":{"count":"0"},"referralId":"v-1392478045"},{"id":"4aef2978f964a5202dd621e3","name":"The Slug and Lettuce","contact":{"phone":"+442073789999","formattedPhone":"+44 20 7378 9999","twitter":"sluglettuce"},"location":{"address":"32-34 High St.","lat":"51.50430401588515","lng":"-0.09072071269870698","distance":"144","postalCode":"SE1 1XU","cc":"GB","city":"Borough","state":"Greater London","country":"United Kingdom"},"categories":[{"id":"4bf58dd8d48988d116941735","name":"Bar","pluralName":"Bars","shortName":"Bar","icon":{"prefix":"https:\/\/ss1.4sqi.net\/img\/categories_v2\/nightlife\/bar_","suffix":".png"},"primary":"true"}],"verified":"false","restricted":"true","stats":{"checkinsCount":"716","usersCount":"470","tipCount":"8"},"url":"http:\/\/www.slugandlettuce.co.uk","specials":{"count":"0"},"hereNow":{"count":"0"},"referralId":"v-1392478045"},{"id":"4dfce79d45ddebdfeaac268e","name":"Elliot's Cafe","contact":{"phone":"+442074037436","formattedPhone":"+44 20 7403 7436"},"location":{"address":"12 Stoney St","lat":"51.505648475707616","lng":"-0.09134485621533459","distance":"181","postalCode":"SE1 9AD","cc":"GB","city":"Borough","state":"Greater London","country":"United Kingdom"},"categories":[{"id":"4bf58dd8d48988d16d941735","name":"Caf\u00e9","pluralName":"Caf\u00e9s","shortName":"Caf\u00e9","icon":{"prefix":"https:\/\/ss1.4sqi.net\/img\/categories_v2\/food\/cafe_","suffix":".png"},"primary":"true"}],"verified":"false","restricted":"true","stats":{"checkinsCount":"903","usersCount":"640","tipCount":"38"},"url":"http:\/\/www.elliotscafe.com","reservations":{"url":"http:\/\/www.toptable.co.uk\/single.aspx?rid=80620&ref=9601"},"menu":{"type":"Menu","label":"Menu","anchor":"View Menu","url":"https:\/\/foursquare.com\/v\/elliots-cafe\/4dfce79d45ddebdfeaac268e\/menu","mobileUrl":"https:\/\/foursquare.com\/v\/4dfce79d45ddebdfeaac268e\/device_menu"},"specials":{"count":"0"},"hereNow":{"count":"1","groups":[{"type":"others","name":"Other people here","count":"1"}]},"referralId":"v-1392478045"},{"id":"4b688598f964a520a87d2be3","name":"Belushi's","contact":{"phone":"+442079399710","formattedPhone":"+44 20 7939 9710","twitter":"belushis"},"location":{"address":"161-165 High St.","lat":"51.50295852361717","lng":"-0.0919211607743117","distance":"160","postalCode":"SE1 1HR","cc":"GB","city":"Borough","state":"Greater London","country":"United Kingdom"},"categories":[{"id":"4bf58dd8d48988d116941735","name":"Bar","pluralName":"Bars","shortName":"Bar","icon":{"prefix":"https:\/\/ss1.4sqi.net\/img\/categories_v2\/nightlife\/bar_","suffix":".png"},"primary":"true"}],"verified":"true","restricted":"true","stats":{"checkinsCount":"1275","usersCount":"746","tipCount":"16"},"specials":{"count":"0"},"hereNow":{"count":"0"},"referralId":"v-1392478045"},{"id":"50eaa065e4b0aa6e0d18b053","name":"Insala","location":{"address":"60 Borough High Street","lat":"51.504099","lng":"-0.091156","distance":"116","postalCode":"SE1 1XF","cc":"GB","city":"London","state":"Greater London","country":"United Kingdom"},"categories":[{"id":"4bf58dd8d48988d124941735","name":"Office","pluralName":"Offices","shortName":"Office","icon":{"prefix":"https:\/\/ss1.4sqi.net\/img\/categories_v2\/building\/default_","suffix":".png"},"primary":"true"}],"verified":"false","restricted":"true","stats":{"checkinsCount":"245","usersCount":"5","tipCount":"0"},"specials":{"count":"0"},"hereNow":{"count":"0"},"referralId":"v-1392478045"},{"id":"4b8bc720f964a520eaaa32e3","name":"Roast Restaurant","contact":{"phone":"+448450347300","formattedPhone":"+44 845 034 7300","twitter":"roastrestaurant"},"location":{"address":"Stoney St.","crossStreet":"at Southwark St.","lat":"51.50569738228902","lng":"-0.09115219116210938","distance":"194","postalCode":"SE1 9","cc":"GB","city":"Borough","state":"Greater London","country":"United Kingdom"},"categories":[{"id":"4bf58dd8d48988d1c4941735","name":"Restaurant","pluralName":"Restaurants","shortName":"Restaurant","icon":{"prefix":"https:\/\/ss1.4sqi.net\/img\/categories_v2\/food\/default_","suffix":".png"},"primary":"true"}],"verified":"false","restricted":"true","stats":{"checkinsCount":"2184","usersCount":"1600","tipCount":"67"},"url":"http:\/\/www.roast-restaurant.com","reservations":{"url":"http:\/\/www.toptable.co.uk\/single.aspx?rid=34429&ref=9601"},"menu":{"type":"Menu","label":"Menu","anchor":"View Menu","url":"https:\/\/foursquare.com\/v\/roast-restaurant\/4b8bc720f964a520eaaa32e3\/menu","mobileUrl":"https:\/\/foursquare.com\/v\/4b8bc720f964a520eaaa32e3\/device_menu"},"specials":{"count":"0"},"hereNow":{"count":"0"},"referralId":"v-1392478045"},{"id":"4ac518e6f964a5200aab20e3","name":"Wright Brothers Oyster & Porter House","contact":{"phone":"+442074039554","formattedPhone":"+44 20 7403 9554"},"location":{"address":"11 Stoney St.","lat":"51.5056175827403","lng":"-0.09129307655206083","distance":"181","postalCode":"SE1 9AD","cc":"GB","city":"Borough Market","state":"Greater London","country":"United Kingdom"},"categories":[{"id":"4bf58dd8d48988d1ce941735","name":"Seafood Restaurant","pluralName":"Seafood Restaurants","shortName":"Seafood","icon":{"prefix":"https:\/\/ss1.4sqi.net\/img\/categories_v2\/food\/seafood_","suffix":".png"},"primary":"true"}],"verified":"false","restricted":"true","stats":{"checkinsCount":"1064","usersCount":"820","tipCount":"35"},"url":"http:\/\/www.thewrightbrothers.co.uk","reservations":{"url":"http:\/\/www.toptable.co.uk\/single.aspx?rid=7698&ref=9601"},"menu":{"type":"Menu","label":"Menu","anchor":"View Menu","url":"https:\/\/foursquare.com\/v\/wright-brothers-oyster-porter-house-borough-market-greater-london\/4ac518e6f964a5200aab20e3\/menu","mobileUrl":"https:\/\/foursquare.com\/v\/4ac518e6f964a5200aab20e3\/device_menu"},"specials":{"count":"0"},"hereNow":{"count":"0"},"referralId":"v-1392478045"},{"id":"4b5aac5cf964a52046d028e3","name":"Floatworks","contact":{"phone":"+442073570111","formattedPhone":"+44 20 7357 0111","twitter":"floatworks"},"location":{"address":"1 Thrale St.","lat":"51.504851576481514","lng":"-0.09378031416990772","distance":"92","postalCode":"SE1 9HW","cc":"GB","city":"London","state":"Greater London","country":"United Kingdom"},"categories":[{"id":"4bf58dd8d48988d1ed941735","name":"Spa","pluralName":"Spas","shortName":"Spa","icon":{"prefix":"https:\/\/ss1.4sqi.net\/img\/categories_v2\/shops\/spa_","suffix":".png"},"primary":"true"}],"verified":"false","restricted":"true","stats":{"checkinsCount":"239","usersCount":"136","tipCount":"5"},"url":"http:\/\/www.floatworks.com","specials":{"count":"0"},"hereNow":{"count":"0"},"referralId":"v-1392478045"},{"id":"4b8e68eef964a520542133e3","name":"Pret A Manger","contact":{"phone":"+442079325392","formattedPhone":"+44 20 7932 5392","twitter":"pret","facebook":"162638680417951"},"location":{"address":"51 Borough High St.","lat":"51.50478916217527","lng":"-0.09029388427734375","distance":"182","postalCode":"SE1 1NB","cc":"GB","city":"Borough","state":"Greater London","country":"United Kingdom"},"categories":[{"id":"4bf58dd8d48988d1c5941735","name":"Sandwich Place","pluralName":"Sandwich Places","shortName":"Sandwiches","icon":{"prefix":"https:\/\/ss1.4sqi.net\/img\/categories_v2\/food\/sandwiches_","suffix":".png"},"primary":"true"}],"verified":"true","restricted":"true","stats":{"checkinsCount":"840","usersCount":"380","tipCount":"6"},"url":"http:\/\/www.pret.com","specials":{"count":"0"},"hereNow":{"count":"0"},"storeId":"244","referralId":"v-1392478045"},{"id":"4b5857cdf964a520965328e3","name":"Posh Banger Boys","location":{"address":"8 Stoney St.","crossStreet":"Opp. Borough Market","lat":"51.50552861000001","lng":"-0.091186","distance":"177","postalCode":"SE1 9AA","cc":"GB","city":"Borough","state":"Greater London","country":"United Kingdom"},"categories":[{"id":"4bf58dd8d48988d16c941735","name":"Burger Joint","pluralName":"Burger Joints","shortName":"Burgers","icon":{"prefix":"https:\/\/ss1.4sqi.net\/img\/categories_v2\/food\/burger_","suffix":".png"},"primary":"true"}],"verified":"false","restricted":"true","stats":{"checkinsCount":"288","usersCount":"161","tipCount":"8"},"specials":{"count":"0"},"hereNow":{"count":"1","groups":[{"type":"others","name":"Other people here","count":"1"}]},"referralId":"v-1392478045"},{"id":"4ddfeb99c65bb5e319de307b","name":"Wine Pantry","contact":{"phone":"+442074033003","formattedPhone":"+44 20 7403 3003"},"location":{"address":"1 Stoney Street","lat":"51.504911","lng":"-0.09060922","distance":"167","postalCode":"SE1 9AA","cc":"GB","city":"London","state":"Greater London","country":"United Kingdom"},"categories":[{"id":"4bf58dd8d48988d119951735","name":"Wine Shop","pluralName":"Wine Shops","shortName":"Wine Shop","icon":{"prefix":"https:\/\/ss1.4sqi.net\/img\/categories_v2\/shops\/food_wineshop_","suffix":".png"},"primary":"true"}],"verified":"true","restricted":"true","stats":{"checkinsCount":"109","usersCount":"77","tipCount":"5"},"url":"http:\/\/www.winepantry.co.uk\/home.php","specials":{"count":"0"},"hereNow":{"count":"1","groups":[{"type":"others","name":"Other people here","count":"1"}]},"storeId":"","referralId":"v-1392478045"},{"id":"4b6de2eef964a520cd982ce3","name":"Mango Tree","contact":{"phone":"+442074070333","formattedPhone":"+44 20 7407 0333"},"location":{"address":"5-6 Cromwell Building","crossStreet":"Red Cross Way","lat":"51.50504","lng":"-0.092757","distance":"83","postalCode":"SE1 9HR","cc":"GB","city":"London","state":"Greater London","country":"United Kingdom"},"categories":[{"id":"4bf58dd8d48988d10f941735","name":"Indian Restaurant","pluralName":"Indian Restaurants","shortName":"Indian","icon":{"prefix":"https:\/\/ss1.4sqi.net\/img\/categories_v2\/food\/indian_","suffix":".png"},"primary":"true"}],"verified":"false","restricted":"true","stats":{"checkinsCount":"360","usersCount":"233","tipCount":"15"},"menu":{"type":"Menu","label":"Menu","anchor":"View Menu","url":"https:\/\/foursquare.com\/v\/mango-tree\/4b6de2eef964a520cd982ce3\/menu","mobileUrl":"https:\/\/foursquare.com\/v\/4b6de2eef964a520cd982ce3\/device_menu"},"specials":{"count":"0"},"hereNow":{"count":"0"},"referralId":"v-1392478045"}],"confident":"false"}}