{"meta":{"code":"200"},"response":{"venues":[{"id":"5173fb40498e2885e941600c","name":"Queen Elizabeth Gate","location":{"lat":"51.50408935546875","lng":"-0.15250536799430847","distance":"30","cc":"GB","country":"United Kingdom"},"categories":[{"id":"4deefb944765f83613cdba6e","name":"Historic Site","pluralName":"Historic Sites","shortName":"Historic Site","icon":{"prefix":"https:\/\/ss1.4sqi.net\/img\/categories_v2\/arts_entertainment\/historicsite_","suffix":".png"},"primary":"true"}],"verified":"false","restricted":"true","stats":{"checkinsCount":"41","usersCount":"37","tipCount":"0"},"specials":{"count":"0"},"hereNow":{"count":"0"},"referralId":"v-1392478039"},{"id":"4ac518b4f964a52072a020e3","name":"London Hilton on Park Lane","contact":{"phone":"+442074938000","formattedPhone":"+44 20 7493 8000","twitter":"hiltonhotels"},"location":{"address":"22 Park Ln","lat":"51.50532341149335","lng":"-0.15071868896484375","distance":"184","postalCode":"W1K 1BE","cc":"GB","city":"Mayfair","state":"Greater London","country":"United Kingdom"},"categories":[{"id":"4bf58dd8d48988d1fa931735","name":"Hotel","pluralName":"Hotels","shortName":"Hotel","icon":{"prefix":"https:\/\/ss1.4sqi.net\/img\/categories_v2\/travel\/hotel_","suffix":".png"},"primary":"true"}],"verified":"true","restricted":"true","stats":{"checkinsCount":"6680","usersCount":"3696","tipCount":"30"},"specials":{"count":"0"},"hereNow":{"count":"0"},"storeId":"LONHITW","referralId":"v-1392478039"},{"id":"4ac518b5f964a5208ba020e3","name":"InterContinental London Park Lane","contact":{"phone":"+442074093131","formattedPhone":"+44 20 7409 3131","twitter":"interconhotels","facebook":"90015535776"},"location":{"address":"One Hamilton Place","lat":"51.50350693825546","lng":"-0.15024662017822266","distance":"197","postalCode":"W1J 7QY","cc":"GB","city":"London","state":"Greater London","country":"United Kingdom"},"categories":[{"id":"4bf58dd8d48988d1fa931735","name":"Hotel","pluralName":"Hotels","shortName":"Hotel","icon":{"prefix":"https:\/\/ss1.4sqi.net\/img\/categories_v2\/travel\/hotel_","suffix":".png"},"primary":"true"}],"verified":"true","restricted":"true","stats":{"checkinsCount":"5618","usersCount":"2181","tipCount":"46"},"url":"http:\/\/london.intercontinental.com","specials":{"count":"0"},"hereNow":{"count":"2","groups":[{"type":"others","name":"Other people here","count":"2"}]},"storeId":"LONHB","referralId":"v-1392478039"},{"id":"4ac518d6f964a52050a820e3","name":"Nobu","contact":{"phone":"+442074474747","formattedPhone":"+44 20 7447 4747"},"location":{"address":"19 Old Park Lane","lat":"51.50509445807858","lng":"-0.15072220651709792","distance":"169","postalCode":"W1K 1LB","cc":"GB","city":"London","state":"Greater London","country":"United Kingdom"},"categories":[{"id":"4bf58dd8d48988d1d2941735","name":"Sushi Restaurant","pluralName":"Sushi Restaurants","shortName":"Sushi","icon":{"prefix":"https:\/\/ss1.4sqi.net\/img\/categories_v2\/food\/sushi_","suffix":".png"},"primary":"true"}],"verified":"false","restricted":"true","stats":{"checkinsCount":"3401","usersCount":"2465","tipCount":"63"},"url":"http:\/\/www.noburestaurants.com\/london\/experience\/introduction\/","reservations":{"url":"http:\/\/www.toptable.co.uk\/single.aspx?rid=13267&ref=9601"},"menu":{"type":"Menu","label":"Menu","anchor":"View Menu","url":"https:\/\/foursquare.com\/v\/nobu\/4ac518d6f964a52050a820e3\/menu","mobileUrl":"https:\/\/foursquare.com\/v\/4ac518d6f964a52050a820e3\/device_menu"},"specials":{"count":"0"},"hereNow":{"count":"0"},"referralId":"v-1392478039"},{"id":"4c052f5a73a8c9b6f21197e0","name":"Four Seasons Hotel","contact":{"phone":"+442074990888","formattedPhone":"+44 20 7499 0888","twitter":"fourseasons"},"location":{"address":"Hamilton Place","crossStreet":"at Park Ln","lat":"51.50428161952125","lng":"-0.14977455139160156","distance":"209","postalCode":"W1J 7DR","cc":"GB","city":"London","state":"Greater London","country":"United Kingdom"},"categories":[{"id":"4bf58dd8d48988d1fa931735","name":"Hotel","pluralName":"Hotels","shortName":"Hotel","icon":{"prefix":"https:\/\/ss1.4sqi.net\/img\/categories_v2\/travel\/hotel_","suffix":".png"},"primary":"true"}],"verified":"true","restricted":"true","stats":{"checkinsCount":"2352","usersCount":"1178","tipCount":"23"},"url":"http:\/\/www.fourseasons.com\/london\/","specials":{"count":"0"},"hereNow":{"count":"2","groups":[{"type":"others","name":"Other people here","count":"2"}]},"storeId":"","referralId":"v-1392478039"},{"id":"4ac518d0f964a52092a620e3","name":"Wellington Arch","contact":{"phone":"+442079302726","formattedPhone":"+44 20 7930 2726","twitter":"englishheritage"},"location":{"address":"Wellington Arch","lat":"51.502538568153156","lng":"-0.15082061290740967","distance":"238","postalCode":"W1J 7JZ","cc":"GB","city":"Hyde Park Corner","state":"Greater London","country":"United Kingdom"},"categories":[{"id":"4bf58dd8d48988d12d941735","name":"Monument \/ Landmark","pluralName":"Monuments \/ Landmarks","shortName":"Landmark","icon":{"prefix":"https:\/\/ss1.4sqi.net\/img\/categories_v2\/building\/government_monument_","suffix":".png"},"primary":"true"}],"verified":"true","restricted":"true","stats":{"checkinsCount":"4052","usersCount":"3188","tipCount":"8"},"url":"http:\/\/www.english-heritage.org.uk\/wellingtonarch","specials":{"count":"0"},"hereNow":{"count":"1","groups":[{"type":"others","name":"Other people here","count":"1"}]},"referralId":"v-1392478039"},{"id":"4c055e628f8fa593fcc2f10d","name":"Hyde Park Corner Bus Stop","location":{"address":"Hyde Park Corner","lat":"51.50287952323873","lng":"-0.15322068052601945","distance":"159","cc":"GB","city":"London","state":"Greater London","country":"United Kingdom"},"categories":[{"id":"4bf58dd8d48988d1fe931735","name":"Bus Station","pluralName":"Bus Stations","shortName":"Bus Station","icon":{"prefix":"https:\/\/ss1.4sqi.net\/img\/categories_v2\/travel\/busstation_","suffix":".png"},"primary":"true"}],"verified":"false","restricted":"true","stats":{"checkinsCount":"1502","usersCount":"828","tipCount":"5"},"specials":{"count":"0"},"hereNow":{"count":"0"},"referralId":"v-1392478039"},{"id":"50ca02c7245f2d4aa8c2ca06","name":"Galvin At Windows","contact":{"phone":"+442074938000","formattedPhone":"+44 20 7493 8000","twitter":"hiltonhotels"},"location":{"address":"22 Park Lane","crossStreet":"London Hilton on Park Lane","lat":"51.50539320566093","lng":"-0.1504091402392347","distance":"206","postalCode":"W1K 1BE","cc":"GB","city":"London","state":"Greater London","country":"United Kingdom"},"categories":[{"id":"4bf58dd8d48988d1c4941735","name":"Restaurant","pluralName":"Restaurants","shortName":"Restaurant","icon":{"prefix":"https:\/\/ss1.4sqi.net\/img\/categories_v2\/food\/default_","suffix":".png"},"primary":"true"}],"verified":"true","restricted":"true","stats":{"checkinsCount":"1980","usersCount":"1473","tipCount":"32"},"url":"http:\/\/www.galvinatwindows.com","reservations":{"url":"http:\/\/www.toptable.co.uk\/single.aspx?rid=22839&ref=9601"},"menu":{"type":"Menu","label":"Menu","anchor":"View Menu","url":"https:\/\/foursquare.com\/v\/galvin-at-windows\/50ca02c7245f2d4aa8c2ca06\/menu","mobileUrl":"https:\/\/foursquare.com\/v\/50ca02c7245f2d4aa8c2ca06\/device_menu"},"specials":{"count":"0"},"hereNow":{"count":"0"},"storeId":"LONHITW","referralId":"v-1392478039"},{"id":"4d516862dcce224bb5bee11b","name":"Hyde Park Corner Kiosk","location":{"address":"Hyde Park Corner","lat":"51.504644960421345","lng":"-0.1569696347930915","distance":"291","cc":"GB","city":"London","state":"Greater London","country":"United Kingdom"},"categories":[{"id":"4bf58dd8d48988d1cb941735","name":"Food Truck","pluralName":"Food Trucks","shortName":"Food Truck","icon":{"prefix":"https:\/\/ss1.4sqi.net\/img\/categories_v2\/food\/streetfood_","suffix":".png"},"primary":"true"}],"verified":"false","restricted":"true","stats":{"checkinsCount":"289","usersCount":"242","tipCount":"0"},"specials":{"count":"0"},"hereNow":{"count":"1","groups":[{"type":"others","name":"Other people here","count":"1"}]},"referralId":"v-1392478039"},{"id":"4ac518bbf964a5200fa220e3","name":"Trader Vic's","contact":{"phone":"+442072084113","formattedPhone":"+44 20 7208 4113","twitter":"tradervicslnd"},"location":{"address":"22 Park Lane","lat":"51.505384","lng":"-0.150749","distance":"187","postalCode":"W1K 1BE","cc":"GB","city":"London","state":"Greater London","country":"United Kingdom"},"categories":[{"id":"4bf58dd8d48988d11e941735","name":"Cocktail Bar","pluralName":"Cocktail Bars","shortName":"Cocktail","icon":{"prefix":"https:\/\/ss1.4sqi.net\/img\/categories_v2\/nightlife\/cocktails_","suffix":".png"},"primary":"true"}],"verified":"true","restricted":"true","stats":{"checkinsCount":"1334","usersCount":"842","tipCount":"24"},"url":"http:\/\/www.tradervicslondon.com","menu":{"type":"Menu","label":"Menu","anchor":"View Menu","url":"https:\/\/foursquare.com\/v\/trader-vics-london-greater-london\/4ac518bbf964a5200fa220e3\/menu","mobileUrl":"https:\/\/foursquare.com\/v\/4ac518bbf964a5200fa220e3\/device_menu"},"specials":{"count":"0"},"hereNow":{"count":"0"},"referralId":"v-1392478039"},{"id":"4c6bfe9ee13db60cf8c3d4b1","name":"Rose Garden","location":{"lat":"51.50382994382846","lng":"-0.1557524906265007","distance":"210","cc":"GB","country":"United Kingdom"},"categories":[{"id":"4bf58dd8d48988d15a941735","name":"Garden","pluralName":"Gardens","shortName":"Garden","icon":{"prefix":"https:\/\/ss1.4sqi.net\/img\/categories_v2\/parks_outdoors\/garden_","suffix":".png"},"primary":"true"}],"verified":"false","restricted":"true","stats":{"checkinsCount":"625","usersCount":"501","tipCount":"1"},"menu":{"type":"Menu","label":"Menu","anchor":"View Menu","url":"https:\/\/foursquare.com\/v\/rose-garden\/4c6bfe9ee13db60cf8c3d4b1\/menu","mobileUrl":"https:\/\/foursquare.com\/v\/4c6bfe9ee13db60cf8c3d4b1\/device_menu"},"specials":{"count":"0"},"hereNow":{"count":"0"},"referralId":"v-1392478039"},{"id":"510555ade4b0d770cf17435c","name":"The Wellesley Cigar Lounge","contact":{"phone":"+442072353535","formattedPhone":"+44 20 7235 3535","twitter":"wellesleylondon"},"location":{"address":"11 Knightsbridge","lat":"51.502723","lng":"-0.15385","distance":"188","postalCode":"SW1X 7LY","cc":"GB","city":"London","state":"Greater London","country":"United Kingdom"},"categories":[{"id":"4bf58dd8d48988d121941735","name":"Lounge","pluralName":"Lounges","shortName":"Lounge","icon":{"prefix":"https:\/\/ss1.4sqi.net\/img\/categories_v2\/nightlife\/lounge_","suffix":".png"},"primary":"true"}],"verified":"false","restricted":"true","stats":{"checkinsCount":"324","usersCount":"155","tipCount":"8"},"url":"http:\/\/thewellesley.co.uk","specials":{"count":"0"},"hereNow":{"count":"0"},"referralId":"v-1392478039"},{"id":"4ac518b5f964a520bfa020e3","name":"Metropolitan Hotel by COMO","contact":{"phone":"+442074471000","formattedPhone":"+44 20 7447 1000"},"location":{"address":"Old Park Lane","lat":"51.50514770936655","lng":"-0.15009374590148233","distance":"210","postalCode":"W1K 1LB","cc":"GB","city":"London","state":"Greater London","country":"United Kingdom"},"categories":[{"id":"4bf58dd8d48988d1fa931735","name":"Hotel","pluralName":"Hotels","shortName":"Hotel","icon":{"prefix":"https:\/\/ss1.4sqi.net\/img\/categories_v2\/travel\/hotel_","suffix":".png"},"primary":"true"}],"verified":"true","restricted":"true","stats":{"checkinsCount":"1653","usersCount":"720","tipCount":"18"},"url":"http:\/\/www.comohotels.com\/metropolitanlondon","specials":{"count":"0"},"hereNow":{"count":"0"},"referralId":"v-1392478039"},{"id":"4f03119d7ee5f14f3b4d5e88","name":"The Restaurant at Les Ambassadeurs","location":{"address":"5 Hamilton Place","lat":"51.504519434436546","lng":"-0.1507427410218278","distance":"145","postalCode":"W1J 7ED","cc":"GB","city":"London","state":"Greater London","country":"United Kingdom"},"categories":[{"id":"4bf58dd8d48988d1c4941735","name":"Restaurant","pluralName":"Restaurants","shortName":"Restaurant","icon":{"prefix":"https:\/\/ss1.4sqi.net\/img\/categories_v2\/food\/default_","suffix":".png"},"primary":"true"}],"verified":"false","restricted":"true","stats":{"checkinsCount":"292","usersCount":"26","tipCount":"0"},"specials":{"count":"0"},"hereNow":{"count":"0"},"referralId":"v-1392478039"},{"id":"4ba2b387f964a520a31138e3","name":"Les Ambassadeurs","location":{"address":"5 Hamilton Pl","lat":"51.504396757288","lng":"-0.15064283310401738","distance":"150","postalCode":"W1J 7ED","cc":"GB","city":"London","state":"Greater London","country":"United Kingdom"},"categories":[{"id":"4bf58dd8d48988d17c941735","name":"Casino","pluralName":"Casinos","shortName":"Casino","icon":{"prefix":"https:\/\/ss1.4sqi.net\/img\/categories_v2\/arts_entertainment\/casino_","suffix":".png"},"primary":"true"}],"verified":"false","restricted":"true","stats":{"checkinsCount":"975","usersCount":"121","tipCount":"1"},"specials":{"count":"0"},"hereNow":{"count":"0"},"referralId":"v-1392478039"},{"id":"4d53e3afa64560fce932b43a","name":"Wellington Monument","location":{"address":"park lane","crossStreet":"Piccadilly","lat":"51.50428161952125","lng":"-0.15170574188232422","distance":"76","cc":"GB","city":"London","state":"Greater London","country":"United Kingdom"},"categories":[{"id":"4bf58dd8d48988d12d941735","name":"Monument \/ Landmark","pluralName":"Monuments \/ Landmarks","shortName":"Landmark","icon":{"prefix":"https:\/\/ss1.4sqi.net\/img\/categories_v2\/building\/government_monument_","suffix":".png"},"primary":"true"}],"verified":"false","restricted":"true","stats":{"checkinsCount":"225","usersCount":"162","tipCount":"2"},"specials":{"count":"0"},"hereNow":{"count":"0"},"referralId":"v-1392478039"},{"id":"4d9d92b1a695721e78af130d","name":"Achilles Statue","location":{"lat":"51.504427","lng":"-0.153504","distance":"50","cc":"GB","country":"United Kingdom"},"categories":[{"id":"4bf58dd8d48988d166941735","name":"Sculpture Garden","pluralName":"Sculpture Gardens","shortName":"Sculpture","icon":{"prefix":"https:\/\/ss1.4sqi.net\/img\/categories_v2\/parks_outdoors\/sculpture_","suffix":".png"},"primary":"true"}],"verified":"false","restricted":"true","stats":{"checkinsCount":"129","usersCount":"104","tipCount":"0"},"specials":{"count":"0"},"hereNow":{"count":"0"},"referralId":"v-1392478039"},{"id":"4ac518b4f964a5206fa020e3","name":"The Lanesborough, a St. Regis Hotel","contact":{"phone":"+442072595599","formattedPhone":"+44 20 7259 5599"},"location":{"address":"Hyde Park Corner","lat":"51.50251352382579","lng":"-0.15244334936141968","distance":"199","postalCode":"SW1X 7TA","cc":"GB","city":"London","state":"Greater London","country":"United Kingdom"},"categories":[{"id":"4bf58dd8d48988d1fa931735","name":"Hotel","pluralName":"Hotels","shortName":"Hotel","icon":{"prefix":"https:\/\/ss1.4sqi.net\/img\/categories_v2\/travel\/hotel_","suffix":".png"},"primary":"true"}],"verified":"true","restricted":"true","stats":{"checkinsCount":"1969","usersCount":"1242","tipCount":"28"},"specials":{"count":"0"},"hereNow":{"count":"0"},"storeId":"1435","referralId":"v-1392478039"},{"id":"4ac529b7f964a520bbb020e3","name":"Whisky Mist","contact":{"phone":"+442072084067","formattedPhone":"+44 20 7208 4067"},"location":{"address":"35 Hertford St","lat":"51.50536241081564","lng":"-0.14995587511785954","distance":"230","postalCode":"W1J 7SD","cc":"GB","city":"Mayfair","state":"Greater London","country":"United Kingdom"},"categories":[{"id":"4bf58dd8d48988d11f941735","name":"Nightclub","pluralName":"Nightclubs","shortName":"Nightclub","icon":{"prefix":"https:\/\/ss1.4sqi.net\/img\/categories_v2\/nightlife\/nightclub_","suffix":".png"},"primary":"true"}],"verified":"false","restricted":"true","stats":{"checkinsCount":"1294","usersCount":"929","tipCount":"12"},"specials":{"count":"0"},"hereNow":{"count":"0"},"referralId":"v-1392478039"},{"id":"4c7a4fe72d3ba143fae690d0","name":"Australian War Memorial","location":{"address":"Hyde Park Corner","lat":"51.502456128392616","lng":"-0.15138885598786816","distance":"226","postalCode":"W1","cc":"GB","city":"London","state":"Greater London","country":"United Kingdom"},"categories":[{"id":"4bf58dd8d48988d12d941735","name":"Monument \/ Landmark","pluralName":"Monuments \/ Landmarks","shortName":"Landmark","icon":{"prefix":"https:\/\/ss1.4sqi.net\/img\/categories_v2\/building\/government_monument_","suffix":".png"},"primary":"true"}],"verified":"false","restricted":"true","stats":{"checkinsCount":"544","usersCount":"424","tipCount":"1"},"specials":{"count":"0"},"hereNow":{"count":"0"},"referralId":"v-1392478039"},{"id":"516016a9e4b0e00e437ed43b","name":"Oxford Tube - Coach Stop 10 - Victoria","location":{"lat":"51.50439973123684","lng":"-0.1538437266754674","distance":"73","cc":"GB","country":"United Kingdom"},"categories":[{"id":"4bf58dd8d48988d1fe931735","name":"Bus Station","pluralName":"Bus Stations","shortName":"Bus Station","icon":{"prefix":"https:\/\/ss1.4sqi.net\/img\/categories_v2\/travel\/busstation_","suffix":".png"},"primary":"true"}],"verified":"false","restricted":"true","stats":{"checkinsCount":"70","usersCount":"65","tipCount":"1"},"specials":{"count":"0"},"hereNow":{"count":"0"},"referralId":"v-1392478039"},{"id":"4ace0000f964a520d4cd20e3","name":"Royal Aeronautical Society","contact":{"phone":"+442076704300","formattedPhone":"+44 20 7670 4300","twitter":"aerosociety"},"location":{"address":"4 Hamilton Place","lat":"51.50427349897963","lng":"-0.15054135061057053","distance":"156","postalCode":"W1J 7BQ","cc":"GB","city":"London","state":"Greater London","country":"United Kingdom"},"categories":[{"id":"4bf58dd8d48988d1ff931735","name":"Convention Center","pluralName":"Convention Centers","shortName":"Convention Center","icon":{"prefix":"https:\/\/ss1.4sqi.net\/img\/categories_v2\/building\/conventioncenter_","suffix":".png"},"primary":"true"}],"verified":"false","restricted":"true","stats":{"checkinsCount":"242","usersCount":"147","tipCount":"1"},"specials":{"count":"0"},"hereNow":{"count":"0"},"referralId":"v-1392478039"},{"id":"50efd41ae4b0d03df709601d","name":"The Wellesley","contact":{"phone":"+442072353535","formattedPhone":"+44 20 7235 3535","twitter":"wellesleylondon"},"location":{"address":"11 Knightsbridge","lat":"51.5026575689359","lng":"-0.15396606840126098","distance":"198","postalCode":"SW1X 7LY","cc":"GB","city":"London","state":"Greater London","country":"United Kingdom"},"categories":[{"id":"4bf58dd8d48988d1fa931735","name":"Hotel","pluralName":"Hotels","shortName":"Hotel","icon":{"prefix":"https:\/\/ss1.4sqi.net\/img\/categories_v2\/travel\/hotel_","suffix":".png"},"primary":"true"}],"verified":"true","restricted":"true","stats":{"checkinsCount":"270","usersCount":"154","tipCount":"4"},"url":"http:\/\/thewellesley.co.uk","specials":{"count":"0"},"hereNow":{"count":"0"},"venuePage":{"id":"68621037"},"referralId":"v-1392478039"},{"id":"4dfa1604d22d964c6b9bdb43","name":"Hilton Executive Lounge","location":{"address":"Hilton on Park Lane","lat":"51.50541910952795","lng":"-0.15068441309984862","distance":"193","postalCode":"W1K 1BE","cc":"GB","city":"London","state":"Greater London","country":"United Kingdom"},"categories":[{"id":"4bf58dd8d48988d1d5941735","name":"Hotel Bar","pluralName":"Hotel Bars","shortName":"Hotel Bar","icon":{"prefix":"https:\/\/ss1.4sqi.net\/img\/categories_v2\/travel\/hotel_bar_","suffix":".png"},"primary":"true"}],"verified":"false","restricted":"true","stats":{"checkinsCount":"490","usersCount":"216","tipCount":"3"},"specials":{"count":"0"},"hereNow":{"count":"0"},"referralId":"v-1392478039"},{"id":"4d39e480cc48224b16fc374f","name":"Amaranto Restaurant at Four Seasons Hotel London at Park Lane","contact":{"phone":"+442074990888","formattedPhone":"+44 20 7499 0888","twitter":"fourseasons"},"location":{"address":"Hamilton Place, Park Lane","lat":"51.50446860957782","lng":"-0.15007495880126953","distance":"190","postalCode":"W1J 7DR","cc":"GB","city":"London","state":"Greater London","country":"United Kingdom"},"categories":[{"id":"4bf58dd8d48988d110941735","name":"Italian Restaurant","pluralName":"Italian Restaurants","shortName":"Italian","icon":{"prefix":"https:\/\/ss1.4sqi.net\/img\/categories_v2\/food\/italian_","suffix":".png"},"primary":"true"}],"verified":"true","restricted":"true","stats":{"checkinsCount":"286","usersCount":"173","tipCount":"6"},"url":"http:\/\/www.fourseasons.com\/london\/dining\/amaranto_restaurant\/","menu":{"type":"Menu","label":"Menu","anchor":"View Menu","url":"https:\/\/foursquare.com\/v\/amaranto-restaurant-at-four-seasons-hotel-london-at-park-lane\/4d39e480cc48224b16fc374f\/menu","mobileUrl":"https:\/\/foursquare.com\/v\/4d39e480cc48224b16fc374f\/device_menu"},"specials":{"count":"0"},"hereNow":{"count":"0"},"referralId":"v-1392478039"},{"id":"4ac518baf964a520d1a120e3","name":"Lanesborough Tea Room","location":{"address":"Hyde Park Corner","lat":"51.50290110303268","lng":"-0.15255513661244116","distance":"155","postalCode":"SW1X 7TA","cc":"GB","city":"London","state":"Greater London","country":"United Kingdom"},"categories":[{"id":"4bf58dd8d48988d1dc931735","name":"Tea Room","pluralName":"Tea Rooms","shortName":"Tea Room","icon":{"prefix":"https:\/\/ss1.4sqi.net\/img\/categories_v2\/food\/tearoom_","suffix":".png"},"primary":"true"}],"verified":"false","restricted":"true","stats":{"checkinsCount":"532","usersCount":"422","tipCount":"8"},"reservations":{"url":"http:\/\/www.toptable.co.uk\/single.aspx?rid=96591&ref=9601"},"specials":{"count":"0"},"hereNow":{"count":"0"},"referralId":"v-1392478039"},{"id":"4e8eb9025c5c31299128f601","name":"No. 4 Hamilton Place","contact":{"phone":"+442076704300","formattedPhone":"+44 20 7670 4300","twitter":"4hamiltonplace"},"location":{"address":"4 Hamilton Place","lat":"51.50428161952125","lng":"-0.1503753662109375","distance":"168","postalCode":"W1J 7BQ","cc":"GB","city":"London","state":"Greater London","country":"United Kingdom"},"categories":[{"id":"4bf58dd8d48988d171941735","name":"Event Space","pluralName":"Event Spaces","shortName":"Event Space","icon":{"prefix":"https:\/\/ss1.4sqi.net\/img\/categories_v2\/building\/eventspace_","suffix":".png"},"primary":"true"}],"verified":"true","restricted":"true","stats":{"checkinsCount":"79","usersCount":"28","tipCount":"3"},"url":"http:\/\/4hp.org.uk","specials":{"count":"0"},"hereNow":{"count":"0"},"venuePage":{"id":"65972809"},"storeId":"","referralId":"v-1392478039"},{"id":"4ac518d2f964a5201ea720e3","name":"Hanover Square","location":{"address":"Mayfair","lat":"51.505058","lng":"-0.152117","distance":"97","postalCode":"W1S 1JU","cc":"GB","city":"London","state":"Greater London","country":"United Kingdom"},"categories":[{"id":"4bf58dd8d48988d164941735","name":"Plaza","pluralName":"Plazas","shortName":"Plaza","icon":{"prefix":"https:\/\/ss1.4sqi.net\/img\/categories_v2\/parks_outdoors\/plaza_","suffix":".png"},"primary":"true"}],"verified":"false","restricted":"true","stats":{"checkinsCount":"93","usersCount":"64","tipCount":"0"},"specials":{"count":"0"},"hereNow":{"count":"0"},"referralId":"v-1392478039"},{"id":"4f254d3de4b04f6e6a0d546e","name":"Royal Artillery Memorial","location":{"address":"Hyde Park Corner","lat":"51.50287530037846","lng":"-0.15206175197795294","distance":"165","cc":"GB","country":"United Kingdom"},"categories":[{"id":"4bf58dd8d48988d166941735","name":"Sculpture Garden","pluralName":"Sculpture Gardens","shortName":"Sculpture","icon":{"prefix":"https:\/\/ss1.4sqi.net\/img\/categories_v2\/parks_outdoors\/sculpture_","suffix":".png"},"primary":"true"}],"verified":"false","restricted":"true","stats":{"checkinsCount":"343","usersCount":"282","tipCount":"0"},"specials":{"count":"0"},"hereNow":{"count":"0"},"referralId":"v-1392478039"},{"id":"50ca02c6245f2d4aa8c2c8f4","name":"Podium Restaurant And Bar","contact":{"phone":"+442072084022","formattedPhone":"+44 20 7208 4022","twitter":"hiltonhotels"},"location":{"address":"22 Park Lane","crossStreet":"22 Park Ln","lat":"51.505463966196466","lng":"-0.15063890822600165","distance":"198","postalCode":"W1K 1BE","cc":"GB","city":"Mayfair","state":"Greater London","country":"United Kingdom"},"categories":[{"id":"4bf58dd8d48988d1c4941735","name":"Restaurant","pluralName":"Restaurants","shortName":"Restaurant","icon":{"prefix":"https:\/\/ss1.4sqi.net\/img\/categories_v2\/food\/default_","suffix":".png"},"primary":"true"}],"verified":"true","restricted":"true","stats":{"checkinsCount":"346","usersCount":"189","tipCount":"6"},"url":"http:\/\/www.podiumrestaurant.com","reservations":{"url":"http:\/\/www.toptable.co.uk\/single.aspx?rid=70861&ref=9601"},"menu":{"type":"Menu","label":"Menu","anchor":"View Menu","url":"https:\/\/foursquare.com\/v\/podium-restaurant-and-bar\/50ca02c6245f2d4aa8c2c8f4\/menu","mobileUrl":"https:\/\/foursquare.com\/v\/50ca02c6245f2d4aa8c2c8f4\/device_menu"},"specials":{"count":"0"},"hereNow":{"count":"0"},"storeId":"LONHITW","referralId":"v-1392478039"}],"confident":"true"}}