{"meta":{"code":"200"},"response":{"venues":[{"id":"4cd7bdd453a7f04de9c45f16","name":"Sup de Pub - London","location":{"address":"28-32 Aybrook Street","lat":"51.5194133644238","lng":"-0.1529255969892945","distance":"16","postalCode":"W1U 4RY","cc":"GB","city":"London","state":"Greater London","country":"United Kingdom"},"categories":[{"id":"4bf58dd8d48988d1ae941735","name":"University","pluralName":"Universities","shortName":"University","icon":{"prefix":"https:\/\/ss1.4sqi.net\/img\/categories_v2\/education\/default_","suffix":".png"},"primary":"true"}],"verified":"false","restricted":"true","stats":{"checkinsCount":"1271","usersCount":"83","tipCount":"1"},"specials":{"count":"0"},"hereNow":{"count":"0"},"referralId":"v-1392478000"},{"id":"4b5cb4ecf964a5209d3f29e3","name":"The Gunmakers","contact":{"phone":"+442074874937","formattedPhone":"+44 20 7487 4937"},"location":{"address":"33 Aybrook St.","crossStreet":"at Moxon St.","lat":"51.519243406435386","lng":"-0.1529020071029663","distance":"8","postalCode":"W1U 4AP","cc":"GB","city":"Marylebone","state":"Greater London","country":"United Kingdom"},"categories":[{"id":"4bf58dd8d48988d11b941735","name":"Pub","pluralName":"Pubs","shortName":"Pub","icon":{"prefix":"https:\/\/ss1.4sqi.net\/img\/categories_v2\/nightlife\/pub_","suffix":".png"},"primary":"true"}],"verified":"false","restricted":"true","stats":{"checkinsCount":"964","usersCount":"519","tipCount":"14"},"specials":{"count":"0"},"hereNow":{"count":"0"},"referralId":"v-1392478000"},{"id":"4b4a0eb6f964a520347926e3","name":"Marylebone Farmers Market","location":{"address":"Cramer Street Car Park, Cramer Street","lat":"51.519254037740325","lng":"-0.1526975023513622","distance":"8","postalCode":"W1U 2SF","cc":"GB","city":"London","state":"Greater London","country":"United Kingdom"},"categories":[{"id":"4bf58dd8d48988d1fa941735","name":"Farmers Market","pluralName":"Farmers Markets","shortName":"Farmer's Market","icon":{"prefix":"https:\/\/ss1.4sqi.net\/img\/categories_v2\/shops\/food_farmersmarket_","suffix":".png"},"primary":"true"}],"verified":"false","restricted":"true","stats":{"checkinsCount":"575","usersCount":"288","tipCount":"6"},"specials":{"count":"0"},"hereNow":{"count":"0"},"referralId":"v-1392478000"},{"id":"52caa415498ef7cf8ed064e9","name":"MASTERS & MBA INSEEC","location":{"address":"32 Aybrook St","lat":"51.519367","lng":"-0.153112","distance":"23","cc":"GB","city":"London","state":"Greater London","country":"United Kingdom"},"categories":[{"id":"4bf58dd8d48988d1ae941735","name":"University","pluralName":"Universities","shortName":"University","icon":{"prefix":"https:\/\/ss1.4sqi.net\/img\/categories_v2\/education\/default_","suffix":".png"},"primary":"true"}],"verified":"false","restricted":"true","stats":{"checkinsCount":"13","usersCount":"4","tipCount":"0"},"specials":{"count":"0"},"hereNow":{"count":"0"},"referralId":"v-1392478000"},{"id":"4ac518bff964a5202ba320e3","name":"Providores & Tapa Room","contact":{"phone":"+442079356175","formattedPhone":"+44 20 7935 6175","twitter":"theprovidores"},"location":{"address":"109 Marylebone High St.","crossStreet":"btwn Between Vincent & Moxon","lat":"51.5189168067434","lng":"-0.15161348983608935","distance":"92","postalCode":"W1U 4RX","cc":"GB","city":"Marylebone","state":"Greater London","country":"United Kingdom"},"categories":[{"id":"4bf58dd8d48988d1db931735","name":"Tapas Restaurant","pluralName":"Tapas Restaurants","shortName":"Tapas","icon":{"prefix":"https:\/\/ss1.4sqi.net\/img\/categories_v2\/food\/tapas_","suffix":".png"},"primary":"true"}],"verified":"false","restricted":"true","stats":{"checkinsCount":"2078","usersCount":"1393","tipCount":"52"},"url":"http:\/\/www.theprovidores.co.uk","menu":{"type":"Menu","label":"Menu","anchor":"View Menu","url":"https:\/\/foursquare.com\/v\/providores--tapa-room\/4ac518bff964a5202ba320e3\/menu","mobileUrl":"https:\/\/foursquare.com\/v\/4ac518bff964a5202ba320e3\/device_menu"},"specials":{"count":"0"},"hereNow":{"count":"1","groups":[{"type":"others","name":"Other people here","count":"1"}]},"referralId":"v-1392478000"},{"id":"5273c82811d2472c10b504f5","name":"Aubaine","location":{"address":"Moxon Street","lat":"51.51973149701226","lng":"-0.152508424133005","distance":"53","cc":"GB","country":"United Kingdom"},"categories":[{"id":"4bf58dd8d48988d10c941735","name":"French Restaurant","pluralName":"French Restaurants","shortName":"French","icon":{"prefix":"https:\/\/ss1.4sqi.net\/img\/categories_v2\/food\/french_","suffix":".png"},"primary":"true"}],"verified":"false","restricted":"true","stats":{"checkinsCount":"59","usersCount":"45","tipCount":"1"},"reservations":{"url":"http:\/\/www.toptable.co.uk\/single.aspx?rid=97869&ref=9601"},"specials":{"count":"0"},"hereNow":{"count":"1","groups":[{"type":"others","name":"Other people here","count":"1"}]},"referralId":"v-1392478000"},{"id":"4b63100df964a52084602ae3","name":"Ginger Pig","contact":{"phone":"+442079357788","formattedPhone":"+44 20 7935 7788","twitter":"gingerpigltd"},"location":{"address":"8-10 Moxon St","lat":"51.519791715435936","lng":"-0.15252616909814798","distance":"59","postalCode":"W1U 4EW","cc":"GB","city":"Marylebone","state":"Greater London","country":"United Kingdom"},"categories":[{"id":"4bf58dd8d48988d11d951735","name":"Butcher","pluralName":"Butchers","shortName":"Butcher","icon":{"prefix":"https:\/\/ss1.4sqi.net\/img\/categories_v2\/shops\/food_butcher_","suffix":".png"},"primary":"true"}],"verified":"false","restricted":"true","stats":{"checkinsCount":"755","usersCount":"329","tipCount":"16"},"url":"http:\/\/www.thegingerpig.co.uk","specials":{"count":"0"},"hereNow":{"count":"0"},"referralId":"v-1392478000"},{"id":"4afea714f964a520cf2f22e3","name":"La Fromagerie","contact":{"phone":"+442079350341","formattedPhone":"+44 20 7935 0341","twitter":"lafromagerieuk"},"location":{"address":"2-6 Moxon St","crossStreet":"btw Ashland Pl and Marylebone High St","lat":"51.519850076182024","lng":"-0.15202663037565453","distance":"82","cc":"GB","city":"London","state":"Greater London","country":"United Kingdom"},"categories":[{"id":"4bf58dd8d48988d14b941735","name":"Winery","pluralName":"Wineries","shortName":"Winery","icon":{"prefix":"https:\/\/ss1.4sqi.net\/img\/categories_v2\/food\/winery_","suffix":".png"},"primary":"true"}],"verified":"false","restricted":"true","stats":{"checkinsCount":"1508","usersCount":"902","tipCount":"32"},"menu":{"type":"Menu","label":"Menu","anchor":"View Menu","url":"https:\/\/foursquare.com\/v\/la-fromagerie-london-uk\/4afea714f964a520cf2f22e3\/menu","mobileUrl":"https:\/\/foursquare.com\/v\/4afea714f964a520cf2f22e3\/device_menu"},"specials":{"count":"0"},"hereNow":{"count":"1","groups":[{"type":"others","name":"Other people here","count":"1"}]},"referralId":"v-1392478000"},{"id":"4b507443f964a520c32327e3","name":"Waitrose","contact":{"phone":"+442079354787","formattedPhone":"+44 20 7935 4787","twitter":"waitroseuk"},"location":{"address":"98-101 Marylebone High St.","lat":"51.51938882618151","lng":"-0.1516459873480002","distance":"80","postalCode":"W1U 4SD","cc":"GB","city":"City of Westminster","state":"Greater London","country":"United Kingdom"},"categories":[{"id":"4bf58dd8d48988d118951735","name":"Grocery Store","pluralName":"Grocery Stores","shortName":"Grocery Store","icon":{"prefix":"https:\/\/ss1.4sqi.net\/img\/categories_v2\/shops\/food_grocery_","suffix":".png"},"primary":"true"}],"verified":"false","restricted":"true","stats":{"checkinsCount":"2167","usersCount":"627","tipCount":"16"},"url":"http:\/\/www.waitrose.com","specials":{"count":"0"},"hereNow":{"count":"0"},"referralId":"v-1392478000"},{"id":"4b641fbdf964a5201fa02ae3","name":"Patisserie Valerie","contact":{"phone":"+442079356240","formattedPhone":"+44 20 7935 6240"},"location":{"address":"105 Marylebone High St","lat":"51.51907817421849","lng":"-0.15173524618148804","distance":"77","postalCode":"W1U 4RS","cc":"GB","city":"Marylebone","state":"Greater London","country":"United Kingdom"},"categories":[{"id":"4bf58dd8d48988d16a941735","name":"Bakery","pluralName":"Bakeries","shortName":"Bakery","icon":{"prefix":"https:\/\/ss1.4sqi.net\/img\/categories_v2\/food\/bakery_","suffix":".png"},"primary":"true"}],"verified":"false","restricted":"true","stats":{"checkinsCount":"734","usersCount":"512","tipCount":"13"},"menu":{"type":"Menu","label":"Menu","anchor":"View Menu","url":"https:\/\/foursquare.com\/v\/patisserie-valerie\/4b641fbdf964a5201fa02ae3\/menu","mobileUrl":"https:\/\/foursquare.com\/v\/4b641fbdf964a5201fa02ae3\/device_menu"},"specials":{"count":"0"},"hereNow":{"count":"1","groups":[{"type":"others","name":"Other people here","count":"1"}]},"referralId":"v-1392478000"},{"id":"4be41f9c2457a59391c3a915","name":"Paddington Street Gardens","location":{"address":"Paddington St","lat":"51.51979918312931","lng":"-0.15415191650390625","distance":"109","postalCode":"W1U 4QW","cc":"GB","city":"Marylebone","state":"Greater London","country":"United Kingdom"},"categories":[{"id":"4bf58dd8d48988d15a941735","name":"Garden","pluralName":"Gardens","shortName":"Garden","icon":{"prefix":"https:\/\/ss1.4sqi.net\/img\/categories_v2\/parks_outdoors\/garden_","suffix":".png"},"primary":"true"}],"verified":"false","restricted":"true","stats":{"checkinsCount":"1355","usersCount":"543","tipCount":"7"},"specials":{"count":"0"},"hereNow":{"count":"0"},"referralId":"v-1392478000"},{"id":"4adb3681f964a520f02421e3","name":"The Marylebone","contact":{"phone":"+442079354373","formattedPhone":"+44 20 7935 4373","twitter":"themarylebone"},"location":{"address":"93 Marylebone High St","crossStreet":"at Moxon St","lat":"51.51984542555629","lng":"-0.15181339111640202","distance":"92","postalCode":"W1U 4RE","cc":"GB","city":"London","state":"Greater London","country":"United Kingdom"},"categories":[{"id":"4bf58dd8d48988d11e941735","name":"Cocktail Bar","pluralName":"Cocktail Bars","shortName":"Cocktail","icon":{"prefix":"https:\/\/ss1.4sqi.net\/img\/categories_v2\/nightlife\/cocktails_","suffix":".png"},"primary":"true"}],"verified":"true","restricted":"true","stats":{"checkinsCount":"1707","usersCount":"1218","tipCount":"20"},"url":"http:\/\/www.themarylebonelondon.com","menu":{"type":"Menu","label":"Menu","anchor":"View Menu","url":"https:\/\/foursquare.com\/v\/the-marylebone\/4adb3681f964a520f02421e3\/menu","mobileUrl":"https:\/\/foursquare.com\/v\/4adb3681f964a520f02421e3\/device_menu"},"specials":{"count":"0"},"hereNow":{"count":"0"},"venuePage":{"id":"76843496"},"referralId":"v-1392478000"},{"id":"4c3723d2ae2da593a145fec5","name":"British Study Centres","contact":{"phone":"+442073170160","formattedPhone":"+44 20 7317 0160"},"location":{"address":"Hannah House 13-16 manchester street","lat":"51.519006197816836","lng":"-0.15381511408222417","distance":"76","postalCode":"W1U4DJ","cc":"GB","city":"Paddington","state":"Greater London","country":"United Kingdom"},"categories":[{"id":"4bf58dd8d48988d1a8941735","name":"General College & University","pluralName":"General Colleges & Universities","shortName":"Education","icon":{"prefix":"https:\/\/ss1.4sqi.net\/img\/categories_v2\/education\/other_","suffix":".png"},"primary":"true"}],"verified":"false","restricted":"true","stats":{"checkinsCount":"784","usersCount":"133","tipCount":"2"},"specials":{"count":"0"},"hereNow":{"count":"0"},"referralId":"v-1392478000"},{"id":"4b4362c4f964a5204ddf25e3","name":"Starbucks","contact":{"twitter":"starbucksuk"},"location":{"address":"111 Marylebone High St.","crossStreet":"At New Cavendish St.","lat":"51.518771074364295","lng":"-0.15155553817749023","distance":"103","postalCode":"W1U 4RZ","cc":"GB","city":"London","state":"Greater London","country":"United Kingdom"},"categories":[{"id":"4bf58dd8d48988d1e0931735","name":"Coffee Shop","pluralName":"Coffee Shops","shortName":"Coffee Shop","icon":{"prefix":"https:\/\/ss1.4sqi.net\/img\/categories_v2\/food\/coffeeshop_","suffix":".png"},"primary":"true"}],"verified":"true","restricted":"true","stats":{"checkinsCount":"2520","usersCount":"842","tipCount":"10"},"url":"http:\/\/starbucks.co.uk","specials":{"count":"0"},"hereNow":{"count":"0"},"storeId":"12043","referralId":"v-1392478000"},{"id":"4b1fe53df964a5206a2a24e3","name":"10 Manchester Street Hotel","location":{"address":"10 Manchester Street","lat":"51.51883657348856","lng":"-0.15380772653473224","distance":"85","postalCode":"W1U4DG","cc":"GB","city":"London","state":"Greater London","country":"United Kingdom"},"categories":[{"id":"4bf58dd8d48988d1fa931735","name":"Hotel","pluralName":"Hotels","shortName":"Hotel","icon":{"prefix":"https:\/\/ss1.4sqi.net\/img\/categories_v2\/travel\/hotel_","suffix":".png"},"primary":"true"}],"verified":"false","restricted":"true","stats":{"checkinsCount":"456","usersCount":"131","tipCount":"5"},"url":"http:\/\/www.tenmanchesterstreethotel.com\/restaurant.html","specials":{"count":"0"},"hereNow":{"count":"0"},"referralId":"v-1392478000"},{"id":"4c404deb6c1a95211537b96a","name":"Pret A Manger","contact":{"phone":"+442079325227","formattedPhone":"+44 20 7932 5227","twitter":"pret","facebook":"162638680417951"},"location":{"address":"7 Marylebone High St.","lat":"51.5188478347","lng":"-0.151498428449","distance":"102","postalCode":"W1U 4NL","cc":"GB","city":"Paddington","state":"Greater London","country":"United Kingdom"},"categories":[{"id":"4bf58dd8d48988d1c5941735","name":"Sandwich Place","pluralName":"Sandwich Places","shortName":"Sandwiches","icon":{"prefix":"https:\/\/ss1.4sqi.net\/img\/categories_v2\/food\/sandwiches_","suffix":".png"},"primary":"true"}],"verified":"true","restricted":"true","stats":{"checkinsCount":"811","usersCount":"193","tipCount":"2"},"url":"http:\/\/www.pret.com","specials":{"count":"0"},"hereNow":{"count":"0"},"storeId":"27","referralId":"v-1392478000"},{"id":"4be7faf0d837c9b687b7a406","name":"Mori","contact":{"phone":"+442074490444","formattedPhone":"+44 20 7449 0444"},"location":{"address":"14 Marylebone High St","lat":"51.51912180738961","lng":"-0.1516495023392528","distance":"82","postalCode":"W1U 4NT","cc":"GB","city":"London","state":"Greater London","country":"United Kingdom"},"categories":[{"id":"4bf58dd8d48988d111941735","name":"Japanese Restaurant","pluralName":"Japanese Restaurants","shortName":"Japanese","icon":{"prefix":"https:\/\/ss1.4sqi.net\/img\/categories_v2\/food\/japanese_","suffix":".png"},"primary":"true"}],"verified":"false","restricted":"true","stats":{"checkinsCount":"297","usersCount":"174","tipCount":"5"},"url":"http:\/\/mori.uk.com","specials":{"count":"0"},"hereNow":{"count":"0"},"referralId":"v-1392478000"},{"id":"4d3d72d414aa8cfa6741b35e","name":"Inseec London","location":{"address":"110 marylebone high street","lat":"51.51945400767643","lng":"-0.15270922037684148","distance":"19","cc":"GB","city":"City of Westminster","state":"Greater London","country":"United Kingdom"},"categories":[{"id":"4bf58dd8d48988d1ad941735","name":"Trade School","pluralName":"Trade Schools","shortName":"Trade School","icon":{"prefix":"https:\/\/ss1.4sqi.net\/img\/categories_v2\/education\/tradeschool_","suffix":".png"},"primary":"true"}],"verified":"false","restricted":"true","stats":{"checkinsCount":"106","usersCount":"18","tipCount":"1"},"specials":{"count":"0"},"hereNow":{"count":"0"},"referralId":"v-1392478000"},{"id":"4c63eba4edd320a1ca7bb029","name":"Boots","location":{"address":"102-103 Marylebone High St.","lat":"51.51938527200191","lng":"-0.1519632339477539","distance":"59","postalCode":"W1U 4RN","cc":"GB","city":"London","state":"Greater London","country":"United Kingdom"},"categories":[{"id":"4bf58dd8d48988d10f951735","name":"Drugstore \/ Pharmacy","pluralName":"Drugstores \/ Pharmacies","shortName":"Pharmacy","icon":{"prefix":"https:\/\/ss1.4sqi.net\/img\/categories_v2\/shops\/pharmacy_","suffix":".png"},"primary":"true"}],"verified":"false","restricted":"true","stats":{"checkinsCount":"132","usersCount":"67","tipCount":"0"},"specials":{"count":"0"},"hereNow":{"count":"0"},"referralId":"v-1392478000"},{"id":"4c0932efffb8c9b6e3786961","name":"Tesco Express","contact":{"phone":"+448450269305","formattedPhone":"+44 845 026 9305","twitter":"uktescooffers"},"location":{"address":"112\/114 Marylebone High Street","lat":"51.51877731916454","lng":"-0.15158297347558322","distance":"101","postalCode":"W1U 4SA","cc":"GB","city":"London","state":"Greater London","country":"United Kingdom"},"categories":[{"id":"4bf58dd8d48988d118951735","name":"Grocery Store","pluralName":"Grocery Stores","shortName":"Grocery Store","icon":{"prefix":"https:\/\/ss1.4sqi.net\/img\/categories_v2\/shops\/food_grocery_","suffix":".png"},"primary":"true"}],"verified":"true","restricted":"true","stats":{"checkinsCount":"558","usersCount":"189","tipCount":"5"},"url":"http:\/\/www.tesco.com","specials":{"count":"0"},"hereNow":{"count":"0"},"storeId":"3473","referralId":"v-1392478000"},{"id":"526807a611d269833c946ff5","name":"Pieds Nus","location":{"address":"19 Blandford Street","lat":"51.518355","lng":"-0.153208","distance":"107","postalCode":"W1U 3DU","cc":"GB","city":"London","state":"Greater London","country":"United Kingdom"},"categories":[{"id":"4bf58dd8d48988d10c941735","name":"French Restaurant","pluralName":"French Restaurants","shortName":"French","icon":{"prefix":"https:\/\/ss1.4sqi.net\/img\/categories_v2\/food\/french_","suffix":".png"},"primary":"true"}],"verified":"false","restricted":"true","stats":{"checkinsCount":"33","usersCount":"30","tipCount":"1"},"specials":{"count":"0"},"hereNow":{"count":"0"},"referralId":"v-1392478000"},{"id":"51828d63498e3de592ac3232","name":"Le Vieux Comptoir","location":{"address":"26 Moxon Sreet","crossStreet":"Marylebone Hight Street","lat":"51.519817915955436","lng":"-0.15313024975235914","distance":"63","postalCode":"W1","cc":"GB","city":"London","state":"Greater London","country":"United Kingdom"},"categories":[{"id":"4bf58dd8d48988d10c941735","name":"French Restaurant","pluralName":"French Restaurants","shortName":"French","icon":{"prefix":"https:\/\/ss1.4sqi.net\/img\/categories_v2\/food\/french_","suffix":".png"},"primary":"true"}],"verified":"false","restricted":"true","stats":{"checkinsCount":"49","usersCount":"35","tipCount":"2"},"specials":{"count":"0"},"hereNow":{"count":"0"},"referralId":"v-1392478000"},{"id":"4e26ed56628436bf4d6b863a","name":"Totallyswedish","location":{"lat":"51.519627280197","lng":"-0.15250472914833493","distance":"42","cc":"GB","city":"Paddington","state":"Greater London","country":"United Kingdom"},"categories":[{"id":"4bf58dd8d48988d118951735","name":"Grocery Store","pluralName":"Grocery Stores","shortName":"Grocery Store","icon":{"prefix":"https:\/\/ss1.4sqi.net\/img\/categories_v2\/shops\/food_grocery_","suffix":".png"},"primary":"true"}],"verified":"false","restricted":"true","stats":{"checkinsCount":"4","usersCount":"3","tipCount":"0"},"specials":{"count":"0"},"hereNow":{"count":"0"},"referralId":"v-1392478000"},{"id":"4cfb9597d7206ea846af3f69","name":"Brissi","location":{"address":"22 Marylebone High St","lat":"51.51933229773622","lng":"-0.15189303311824112","distance":"63","postalCode":"W1U 4PF","cc":"GB","city":"Marylebone","state":"Greater London","country":"United Kingdom"},"categories":[{"id":"4bf58dd8d48988d1f8941735","name":"Furniture \/ Home Store","pluralName":"Furniture \/ Home Stores","shortName":"Furniture \/ Home","icon":{"prefix":"https:\/\/ss1.4sqi.net\/img\/categories_v2\/shops\/furniture_","suffix":".png"},"primary":"true"}],"verified":"false","restricted":"true","stats":{"checkinsCount":"12","usersCount":"12","tipCount":"0"},"specials":{"count":"0"},"hereNow":{"count":"0"},"referralId":"v-1392478000"},{"id":"4d637a5e6973a35d49dea7ea","name":"West London College, Hannah House","location":{"lat":"51.518958","lng":"-0.15386","distance":"81","cc":"GB","country":"United Kingdom"},"categories":[{"id":"4bf58dd8d48988d199941735","name":"College Arts Building","pluralName":"College Arts Buildings","shortName":"Arts","icon":{"prefix":"https:\/\/ss1.4sqi.net\/img\/categories_v2\/arts_entertainment\/default_","suffix":".png"},"primary":"true"}],"verified":"false","restricted":"true","stats":{"checkinsCount":"155","usersCount":"31","tipCount":"0"},"specials":{"count":"0"},"hereNow":{"count":"0"},"referralId":"v-1392478000"},{"id":"4ba6481bf964a5201e4239e3","name":"Matches","location":{"address":"87 Marylebone High St","lat":"51.520066200290096","lng":"-0.15180418761205522","distance":"110","postalCode":"W1u  4qu","cc":"GB","city":"London","state":"Greater London","country":"United Kingdom"},"categories":[{"id":"4bf58dd8d48988d104951735","name":"Boutique","pluralName":"Boutiques","shortName":"Boutique","icon":{"prefix":"https:\/\/ss1.4sqi.net\/img\/categories_v2\/shops\/apparel_boutique_","suffix":".png"},"primary":"true"}],"verified":"false","restricted":"true","stats":{"checkinsCount":"166","usersCount":"92","tipCount":"0"},"specials":{"count":"0"},"hereNow":{"count":"0"},"referralId":"v-1392478000"},{"id":"4c48ae6796abd13a62337501","name":"Working Title","contact":{"phone":"+442073073000","formattedPhone":"+44 20 7307 3000"},"location":{"address":"26 Aybrook St.","lat":"51.519447","lng":"-0.152826","distance":"17","postalCode":"W1U 4AN","cc":"GB","city":"London","state":"Greater London","country":"United Kingdom"},"categories":[{"id":"4bf58dd8d48988d1f4941735","name":"Design Studio","pluralName":"Design Studios","shortName":"Design","icon":{"prefix":"https:\/\/ss1.4sqi.net\/img\/categories_v2\/shops\/design_","suffix":".png"},"primary":"true"}],"verified":"false","restricted":"true","stats":{"checkinsCount":"92","usersCount":"50","tipCount":"1"},"specials":{"count":"0"},"hereNow":{"count":"0"},"referralId":"v-1392478000"},{"id":"4ace5b33f964a5200fd020e3","name":"Trishna","contact":{"twitter":"trishnalondon"},"location":{"address":"15-17 Blandford St","lat":"51.51841700077057","lng":"-0.153205","distance":"100","postalCode":"W1U 3DG","cc":"GB","city":"London","state":"Greater London","country":"United Kingdom"},"categories":[{"id":"4bf58dd8d48988d10f941735","name":"Indian Restaurant","pluralName":"Indian Restaurants","shortName":"Indian","icon":{"prefix":"https:\/\/ss1.4sqi.net\/img\/categories_v2\/food\/indian_","suffix":".png"},"primary":"true"}],"verified":"false","restricted":"true","stats":{"checkinsCount":"371","usersCount":"298","tipCount":"14"},"url":"http:\/\/www.trishnalondon.com","reservations":{"url":"http:\/\/www.toptable.co.uk\/single.aspx?rid=67669&ref=9601"},"menu":{"type":"Menu","label":"Menu","anchor":"View Menu","url":"https:\/\/foursquare.com\/v\/trishna-london-uk\/4ace5b33f964a5200fd020e3\/menu","mobileUrl":"https:\/\/foursquare.com\/v\/4ace5b33f964a5200fd020e3\/device_menu"},"specials":{"count":"0"},"hereNow":{"count":"0"},"referralId":"v-1392478000"},{"id":"4ad5ea92f964a520f50321e3","name":"Topkapi","contact":{"phone":"+442074861872","formattedPhone":"+44 20 7486 1872"},"location":{"address":"25 Marylebone High St","crossStreet":"at Weymouth St","lat":"51.51974","lng":"-0.151668","distance":"93","postalCode":"W1U 4PH","cc":"GB","city":"London","state":"Greater London","country":"United Kingdom"},"categories":[{"id":"4bf58dd8d48988d1c0941735","name":"Mediterranean Restaurant","pluralName":"Mediterranean Restaurants","shortName":"Mediterranean","icon":{"prefix":"https:\/\/ss1.4sqi.net\/img\/categories_v2\/food\/mediterranean_","suffix":".png"},"primary":"true"}],"verified":"false","restricted":"true","stats":{"checkinsCount":"256","usersCount":"159","tipCount":"8"},"specials":{"count":"0"},"hereNow":{"count":"0"},"referralId":"v-1392478000"},{"id":"4c66da799cedd13abadb76a1","name":"Holland & Barrett","contact":{"phone":"+442079358412","formattedPhone":"+44 20 7935 8412","twitter":"holland_barrett"},"location":{"address":"104 High St","crossStreet":"St Vincent St","lat":"51.51904469309619","lng":"-0.15173461360807244","distance":"78","postalCode":"W1U 4RR","cc":"GB","city":"Marylebone","state":"Greater London","country":"United Kingdom"},"categories":[{"id":"50aa9e744b90af0d42d5de0e","name":"Health Food Store","pluralName":"Health Food Stores","shortName":"Health Food Store","icon":{"prefix":"https:\/\/ss1.4sqi.net\/img\/categories_v2\/shops\/food_grocery_","suffix":".png"},"primary":"true"}],"verified":"false","restricted":"true","stats":{"checkinsCount":"12","usersCount":"7","tipCount":"0"},"url":"http:\/\/www.hollandandbarrett.com","specials":{"count":"0"},"hereNow":{"count":"0"},"referralId":"v-1392478000"}],"confident":"true"}}