{"meta":{"code":"200"},"response":{"venues":[{"id":"4b411423f964a520aac025e3","name":"Hare & Tortoise","contact":{"phone":"+442072784945","formattedPhone":"+44 20 7278 4945"},"location":{"address":"11-13 The Brunswick","lat":"51.52408380631034","lng":"-0.1230448548832139","distance":"28","postalCode":"WC1N 1AF","cc":"GB","city":"London","state":"Greater London","country":"United Kingdom"},"categories":[{"id":"4bf58dd8d48988d111941735","name":"Japanese Restaurant","pluralName":"Japanese Restaurants","shortName":"Japanese","icon":{"prefix":"https:\/\/ss1.4sqi.net\/img\/categories_v2\/food\/japanese_","suffix":".png"},"primary":"true"}],"verified":"false","restricted":"true","stats":{"checkinsCount":"2410","usersCount":"1347","tipCount":"56"},"specials":{"count":"0"},"hereNow":{"count":"1","groups":[{"type":"others","name":"Other people here","count":"1"}]},"referralId":"v-1392477990"},{"id":"4ac518e8f964a520a5ab20e3","name":"Renoir","location":{"address":"Brunswick Square","lat":"51.52425850312692","lng":"-0.12342453002929688","distance":"43","postalCode":"WC1N 1AW","cc":"GB","city":"London","state":"Greater London","country":"United Kingdom"},"categories":[{"id":"4bf58dd8d48988d17f941735","name":"Movie Theater","pluralName":"Movie Theaters","shortName":"Movie Theater","icon":{"prefix":"https:\/\/ss1.4sqi.net\/img\/categories_v2\/arts_entertainment\/movietheater_","suffix":".png"},"primary":"true"}],"verified":"false","restricted":"true","stats":{"checkinsCount":"1047","usersCount":"683","tipCount":"9"},"specials":{"count":"0"},"events":{"count":"3","summary":"3 movies"},"hereNow":{"count":"0"},"referralId":"v-1392477990"},{"id":"4ae89dbaf964a520e3b021e3","name":"Brunswick Centre","contact":{"phone":"+442078336066","formattedPhone":"+44 20 7833 6066"},"location":{"address":"Marchmont St.","crossStreet":"at Bernard St.","lat":"51.52434194432413","lng":"-0.1237785816192627","distance":"67","postalCode":"WC1N 1BS","cc":"GB","city":"London","state":"Greater London","country":"United Kingdom"},"categories":[{"id":"4bf58dd8d48988d1fd941735","name":"Mall","pluralName":"Malls","shortName":"Mall","icon":{"prefix":"https:\/\/ss1.4sqi.net\/img\/categories_v2\/shops\/mall_","suffix":".png"},"primary":"true"}],"verified":"false","restricted":"true","stats":{"checkinsCount":"7352","usersCount":"2168","tipCount":"22"},"url":"http:\/\/www.brunswick.co.uk","specials":{"count":"0"},"hereNow":{"count":"1","groups":[{"type":"others","name":"Other people here","count":"1"}]},"referralId":"v-1392477990"},{"id":"4b0c377cf964a520103923e3","name":"Waitrose","contact":{"phone":"+442077136096","formattedPhone":"+44 20 7713 6096","twitter":"waitroseuk"},"location":{"address":"The Brunswick, Hunter St.","lat":"51.524311905510764","lng":"-0.12383222579956055","distance":"71","postalCode":"WC1N 1AF","cc":"GB","city":"London","state":"Greater London","country":"United Kingdom"},"categories":[{"id":"4bf58dd8d48988d118951735","name":"Grocery Store","pluralName":"Grocery Stores","shortName":"Grocery Store","icon":{"prefix":"https:\/\/ss1.4sqi.net\/img\/categories_v2\/shops\/food_grocery_","suffix":".png"},"primary":"true"}],"verified":"false","restricted":"true","stats":{"checkinsCount":"4715","usersCount":"1023","tipCount":"22"},"url":"http:\/\/www.waitrose.com","specials":{"count":"0"},"hereNow":{"count":"0"},"referralId":"v-1392477990"},{"id":"4c28812a97d00f479ee13fea","name":"Brunswick Square Gardens","location":{"address":"Brunswick Square","lat":"51.52411523291528","lng":"-0.12235005306529576","distance":"36","postalCode":"WC1N","cc":"GB","city":"London","state":"Greater London","country":"United Kingdom"},"categories":[{"id":"4bf58dd8d48988d164941735","name":"Plaza","pluralName":"Plazas","shortName":"Plaza","icon":{"prefix":"https:\/\/ss1.4sqi.net\/img\/categories_v2\/parks_outdoors\/plaza_","suffix":".png"},"primary":"true"}],"verified":"false","restricted":"true","stats":{"checkinsCount":"936","usersCount":"438","tipCount":"2"},"specials":{"count":"0"},"hereNow":{"count":"0"},"referralId":"v-1392477990"},{"id":"4ad755e3f964a5209d0921e3","name":"Giraffe","contact":{"phone":"+442078121336","formattedPhone":"+44 20 7812 1336","twitter":"giraffetweet"},"location":{"address":"19-21 The Brunswick","lat":"51.52399149026834","lng":"-0.1238107681274414","distance":"77","postalCode":"WC1N 1AF","cc":"GB","city":"London","state":"Greater London","country":"United Kingdom"},"categories":[{"id":"4bf58dd8d48988d1c4941735","name":"Restaurant","pluralName":"Restaurants","shortName":"Restaurant","icon":{"prefix":"https:\/\/ss1.4sqi.net\/img\/categories_v2\/food\/default_","suffix":".png"},"primary":"true"}],"verified":"true","restricted":"true","stats":{"checkinsCount":"1531","usersCount":"971","tipCount":"27"},"url":"http:\/\/www.giraffe.net","specials":{"count":"0"},"hereNow":{"count":"1","groups":[{"type":"others","name":"Other people here","count":"1"}]},"referralId":"v-1392477990"},{"id":"4c531f0df5f3d13a893bf9f7","name":"Starbucks","contact":{"phone":"+442078370567","formattedPhone":"+44 20 7837 0567","twitter":"starbucksuk"},"location":{"address":"Unit 7, Brunswick Centre","lat":"51.52386465861203","lng":"-0.12345671653747559","distance":"65","postalCode":"WC1N 1AW","cc":"GB","city":"London","state":"Greater London","country":"United Kingdom"},"categories":[{"id":"4bf58dd8d48988d1e0931735","name":"Coffee Shop","pluralName":"Coffee Shops","shortName":"Coffee Shop","icon":{"prefix":"https:\/\/ss1.4sqi.net\/img\/categories_v2\/food\/coffeeshop_","suffix":".png"},"primary":"true"}],"verified":"true","restricted":"true","stats":{"checkinsCount":"3048","usersCount":"1191","tipCount":"9"},"url":"http:\/\/starbucks.co.uk","specials":{"count":"0"},"hereNow":{"count":"0"},"storeId":"12420","referralId":"v-1392477990"},{"id":"4b5752f7f964a5206c3128e3","name":"Nando's","contact":{"twitter":"nandosuk"},"location":{"address":"Unit 23 The Brunswick Centre Bloomsbury","lat":"51.52425769807388","lng":"-0.12368347416241042","distance":"61","postalCode":"WC1N 1AE","cc":"GB","city":"London","state":"Greater London","country":"United Kingdom"},"categories":[{"id":"4def73e84765ae376e57713a","name":"Portuguese Restaurant","pluralName":"Portuguese Restaurants","shortName":"Portuguese","icon":{"prefix":"https:\/\/ss1.4sqi.net\/img\/categories_v2\/food\/default_","suffix":".png"},"primary":"true"}],"verified":"true","restricted":"true","stats":{"checkinsCount":"1618","usersCount":"801","tipCount":"15"},"url":"http:\/\/www.nandos.co.uk","specials":{"count":"0"},"hereNow":{"count":"0"},"storeId":"N133","referralId":"v-1392477990"},{"id":"4b8ffdeef964a520a46e33e3","name":"Strada","contact":{"phone":"+442072782777","formattedPhone":"+44 20 7278 2777","twitter":"stradatweet"},"location":{"address":"Brunswick Centre","lat":"51.5241617111466","lng":"-0.1234164834022522","distance":"44","postalCode":"WC1N 1AF","cc":"GB","city":"London","state":"Greater London","country":"United Kingdom"},"categories":[{"id":"4bf58dd8d48988d110941735","name":"Italian Restaurant","pluralName":"Italian Restaurants","shortName":"Italian","icon":{"prefix":"https:\/\/ss1.4sqi.net\/img\/categories_v2\/food\/italian_","suffix":".png"},"primary":"true"}],"verified":"true","restricted":"true","stats":{"checkinsCount":"509","usersCount":"381","tipCount":"10"},"url":"http:\/\/www.strada.co.uk","specials":{"count":"0"},"hereNow":{"count":"0"},"referralId":"v-1392477990"},{"id":"4ae20a02f964a5200f8a21e3","name":"YO! Sushi","contact":{"phone":"+442078331884","formattedPhone":"+44 20 7833 1884","twitter":"yosushi"},"location":{"address":"Unit 30\/32, Brunswick Centre","lat":"51.52442176","lng":"-0.123867562","distance":"75","postalCode":"WC1N 1AE","cc":"GB","city":"London","state":"Greater London","country":"United Kingdom"},"categories":[{"id":"4bf58dd8d48988d1d2941735","name":"Sushi Restaurant","pluralName":"Sushi Restaurants","shortName":"Sushi","icon":{"prefix":"https:\/\/ss1.4sqi.net\/img\/categories_v2\/food\/sushi_","suffix":".png"},"primary":"true"}],"verified":"true","restricted":"true","stats":{"checkinsCount":"1035","usersCount":"538","tipCount":"12"},"url":"http:\/\/www.yosushi.com","specials":{"count":"0"},"hereNow":{"count":"0"},"storeId":"RUSS","referralId":"v-1392477990"},{"id":"4ae7498ef964a52011aa21e3","name":"Gourmet Burger Kitchen","contact":{"phone":"+442072787168","formattedPhone":"+44 20 7278 7168","twitter":"gbkburgers","facebook":"109876765711105"},"location":{"address":"44\/46 The Brunswick Centre","crossStreet":"Bernard St","lat":"51.524442079086974","lng":"-0.12402436738352138","distance":"86","postalCode":"WC1N 1AE","cc":"GB","city":"London","state":"Greater London","country":"United Kingdom"},"categories":[{"id":"4bf58dd8d48988d16c941735","name":"Burger Joint","pluralName":"Burger Joints","shortName":"Burgers","icon":{"prefix":"https:\/\/ss1.4sqi.net\/img\/categories_v2\/food\/burger_","suffix":".png"},"primary":"true"}],"verified":"true","restricted":"true","stats":{"checkinsCount":"1422","usersCount":"652","tipCount":"19"},"url":"http:\/\/www.gbk.co.uk","specials":{"count":"0"},"hereNow":{"count":"0"},"storeId":"Brunswick","referralId":"v-1392477990"},{"id":"4b4cc503f964a52023be26e3","name":"School of Pharmacy","location":{"address":"Brunswick Sq.","lat":"51.52492171934552","lng":"-0.12253111507472741","distance":"72","postalCode":"WC1N","cc":"GB","city":"London","state":"Greater London","country":"United Kingdom"},"categories":[{"id":"4bf58dd8d48988d1a8941735","name":"General College & University","pluralName":"General Colleges & Universities","shortName":"Education","icon":{"prefix":"https:\/\/ss1.4sqi.net\/img\/categories_v2\/education\/other_","suffix":".png"},"primary":"true"}],"verified":"false","restricted":"true","stats":{"checkinsCount":"548","usersCount":"97","tipCount":"2"},"specials":{"count":"0"},"hereNow":{"count":"0"},"referralId":"v-1392477990"},{"id":"4af06e30f964a520f4db21e3","name":"Marquis Cornwallis","contact":{"phone":"+442079235961","formattedPhone":"+44 20 7923 5961","twitter":"marquiswc1"},"location":{"address":"31 Marchmont St","lat":"51.52428207579188","lng":"-0.12481500058973305","distance":"139","postalCode":"WC1N 1AP","cc":"GB","city":"London","state":"Greater London","country":"United Kingdom"},"categories":[{"id":"4bf58dd8d48988d11b941735","name":"Pub","pluralName":"Pubs","shortName":"Pub","icon":{"prefix":"https:\/\/ss1.4sqi.net\/img\/categories_v2\/nightlife\/pub_","suffix":".png"},"primary":"true"}],"verified":"false","restricted":"true","stats":{"checkinsCount":"3034","usersCount":"1668","tipCount":"37"},"url":"http:\/\/www.themarquiscornwalliswc1.co.uk","menu":{"type":"Menu","label":"Menu","anchor":"View Menu","url":"https:\/\/foursquare.com\/v\/marquis-cornwallis\/4af06e30f964a520f4db21e3\/menu","mobileUrl":"https:\/\/foursquare.com\/v\/4af06e30f964a520f4db21e3\/device_menu"},"specials":{"count":"0"},"hereNow":{"count":"1","groups":[{"type":"others","name":"Other people here","count":"1"}]},"referralId":"v-1392477990"},{"id":"4b430ecdf964a520eedb25e3","name":"Carluccio's","contact":{"phone":"+442078334100","formattedPhone":"+44 20 7833 4100","twitter":"carluccioscaffe"},"location":{"address":"1 The Brunswick Centre","lat":"51.523635","lng":"-0.12319963876025626","distance":"77","postalCode":"WC1N 1AF","cc":"GB","city":"London","state":"Greater London","country":"United Kingdom"},"categories":[{"id":"4bf58dd8d48988d110941735","name":"Italian Restaurant","pluralName":"Italian Restaurants","shortName":"Italian","icon":{"prefix":"https:\/\/ss1.4sqi.net\/img\/categories_v2\/food\/italian_","suffix":".png"},"primary":"true"}],"verified":"false","restricted":"true","stats":{"checkinsCount":"1204","usersCount":"767","tipCount":"17"},"url":"http:\/\/www.carluccios.com","specials":{"count":"0"},"hereNow":{"count":"0"},"referralId":"v-1392477990"},{"id":"4b17c3c5f964a520eec723e3","name":"Patisserie Valerie","contact":{"phone":"+442078334906","formattedPhone":"+44 20 7833 4906"},"location":{"address":"9 Brunswick Centre","lat":"51.523964788896386","lng":"-0.12351036071777344","distance":"60","postalCode":"WC1 1AF","cc":"GB","city":"London","state":"Greater London","country":"United Kingdom"},"categories":[{"id":"4bf58dd8d48988d16a941735","name":"Bakery","pluralName":"Bakeries","shortName":"Bakery","icon":{"prefix":"https:\/\/ss1.4sqi.net\/img\/categories_v2\/food\/bakery_","suffix":".png"},"primary":"true"}],"verified":"false","restricted":"true","stats":{"checkinsCount":"663","usersCount":"416","tipCount":"9"},"specials":{"count":"0"},"hereNow":{"count":"0"},"referralId":"v-1392477990"},{"id":"4b49ab40f964a520507226e3","name":"Crussh","contact":{"phone":"+442078376848","formattedPhone":"+44 20 7837 6848"},"location":{"address":"28 Brunswick Centre","lat":"51.52429870325898","lng":"-0.12375206298917951","distance":"65","postalCode":"WC1N 1AE","cc":"GB","city":"London","state":"Greater London","country":"United Kingdom"},"categories":[{"id":"4bf58dd8d48988d112941735","name":"Juice Bar","pluralName":"Juice Bars","shortName":"Juice Bar","icon":{"prefix":"https:\/\/ss1.4sqi.net\/img\/categories_v2\/food\/juicebar_","suffix":".png"},"primary":"true"}],"verified":"false","restricted":"true","stats":{"checkinsCount":"608","usersCount":"177","tipCount":"5"},"url":"http:\/\/www.crussh.com","specials":{"count":"0"},"hereNow":{"count":"0"},"referralId":"v-1392477990"},{"id":"4cd4896289eb6dcb12c0221e","name":"International Hall","contact":{"phone":"+442078223000","formattedPhone":"+44 20 7822 3000"},"location":{"address":"Lansdowne Terrace","lat":"51.523510863177314","lng":"-0.12130022048950195","distance":"135","postalCode":"WC1N 1DJ","cc":"GB","city":"Camden Town","state":"Greater London","country":"United Kingdom"},"categories":[{"id":"4bf58dd8d48988d1a3941735","name":"College Residence Hall","pluralName":"College Residence Halls","shortName":"Residence Hall","icon":{"prefix":"https:\/\/ss1.4sqi.net\/img\/categories_v2\/education\/residencehall_","suffix":".png"},"primary":"true"}],"verified":"false","restricted":"true","stats":{"checkinsCount":"1009","usersCount":"160","tipCount":"1"},"specials":{"count":"0"},"hereNow":{"count":"0"},"referralId":"v-1392477990"},{"id":"4b445bcdf964a52029f425e3","name":"Apostrophe","contact":{"phone":"+442078335900","formattedPhone":"+44 20 7833 5900","twitter":"apostrophe_uk"},"location":{"address":"Brunswick Centre, Bernard St.","lat":"51.52378568399575","lng":"-0.12354831247066207","distance":"76","postalCode":"WC1N 1AE","cc":"GB","city":"London","state":"Greater London","country":"United Kingdom"},"categories":[{"id":"4bf58dd8d48988d16d941735","name":"Caf\u00e9","pluralName":"Caf\u00e9s","shortName":"Caf\u00e9","icon":{"prefix":"https:\/\/ss1.4sqi.net\/img\/categories_v2\/food\/cafe_","suffix":".png"},"primary":"true"}],"verified":"true","restricted":"true","stats":{"checkinsCount":"661","usersCount":"309","tipCount":"9"},"url":"http:\/\/www.apostropheuk.com","specials":{"count":"0"},"hereNow":{"count":"0"},"storeId":"","referralId":"v-1392477990"},{"id":"4d0cbc3b7d28721e3977f420","name":"Robert Dyas","contact":{"phone":"+442078372591","formattedPhone":"+44 20 7837 2591","twitter":"robertdyas"},"location":{"address":"Unit 37. Brunswick Shopping Centre","lat":"51.52455221546295","lng":"-0.1234889030456543","distance":"55","postalCode":"WC1N 1BS","cc":"GB","city":"London","state":"Greater London","country":"United Kingdom"},"categories":[{"id":"4bf58dd8d48988d112951735","name":"Hardware Store","pluralName":"Hardware Stores","shortName":"Hardware","icon":{"prefix":"https:\/\/ss1.4sqi.net\/img\/categories_v2\/shops\/hardware_","suffix":".png"},"primary":"true"}],"verified":"true","restricted":"true","stats":{"checkinsCount":"120","usersCount":"67","tipCount":"1"},"url":"http:\/\/www.robertdyas.co.uk","specials":{"count":"0"},"hereNow":{"count":"0"},"storeId":"126","referralId":"v-1392477990"},{"id":"4c17c5d4838020a15530e361","name":"Superdrug","location":{"address":"Brunswick Centre","lat":"51.52430348041957","lng":"-0.12389655659513774","distance":"75","postalCode":"WC1N","cc":"GB","city":"London","state":"Greater London","country":"United Kingdom"},"categories":[{"id":"4bf58dd8d48988d10f951735","name":"Drugstore \/ Pharmacy","pluralName":"Drugstores \/ Pharmacies","shortName":"Pharmacy","icon":{"prefix":"https:\/\/ss1.4sqi.net\/img\/categories_v2\/shops\/pharmacy_","suffix":".png"},"primary":"true"}],"verified":"true","restricted":"true","stats":{"checkinsCount":"295","usersCount":"106","tipCount":"1"},"specials":{"count":"0"},"hereNow":{"count":"0"},"referralId":"v-1392477990"},{"id":"52af19ab11d2373eb7ae8c61","name":"itsu","contact":{"twitter":"itsuofficial","facebook":"115164458642981"},"location":{"address":"Unit 16 Brunswick Centre","lat":"51.524518839156535","lng":"-0.12385368347167969","distance":"77","postalCode":"WC1N 1AF","cc":"GB","city":"London","state":"Greater London","country":"United Kingdom"},"categories":[{"id":"4bf58dd8d48988d1bd941735","name":"Salad Place","pluralName":"Salad Shop","shortName":"Salad","icon":{"prefix":"https:\/\/ss1.4sqi.net\/img\/categories_v2\/food\/salad_","suffix":".png"},"primary":"true"}],"verified":"true","restricted":"true","stats":{"checkinsCount":"4","usersCount":"4","tipCount":"0"},"specials":{"count":"0"},"hereNow":{"count":"0"},"referralId":"v-1392477990"},{"id":"4ac518d3f964a52081a720e3","name":"Foundling Museum","contact":{"phone":"+442078413600","formattedPhone":"+44 20 7841 3600","twitter":"foundlingmuseum"},"location":{"address":"40 Brunswick Sq.","lat":"51.52508632275218","lng":"-0.12165376676684216","distance":"119","postalCode":"WC1N 1AZ","cc":"GB","city":"London","state":"Greater London","country":"United Kingdom"},"categories":[{"id":"4bf58dd8d48988d190941735","name":"History Museum","pluralName":"History Museums","shortName":"History Museum","icon":{"prefix":"https:\/\/ss1.4sqi.net\/img\/categories_v2\/arts_entertainment\/museum_history_","suffix":".png"},"primary":"true"}],"verified":"true","restricted":"true","stats":{"checkinsCount":"191","usersCount":"175","tipCount":"5"},"url":"http:\/\/www.foundlingmuseum.org.uk","menu":{"type":"Menu","label":"Menu","anchor":"View Menu","url":"https:\/\/foursquare.com\/v\/foundling-museum\/4ac518d3f964a52081a720e3\/menu","mobileUrl":"https:\/\/foursquare.com\/v\/4ac518d3f964a52081a720e3\/device_menu"},"specials":{"count":"0"},"hereNow":{"count":"1","groups":[{"type":"others","name":"Other people here","count":"1"}]},"referralId":"v-1392477990"},{"id":"52f287e1498e92f55ed56ebc","name":"splendid palace at London","location":{"lat":"51.525141","lng":"-0.123175","distance":"98","cc":"GB","country":"United Kingdom"},"categories":[{"id":"4d954b06a243a5684965b473","name":"Residential Building (Apartment \/ Condo)","pluralName":"Residential Buildings (Apartments \/ Condos)","shortName":"Residential","icon":{"prefix":"https:\/\/ss1.4sqi.net\/img\/categories_v2\/building\/apartment_","suffix":".png"},"primary":"true"}],"verified":"false","restricted":"true","stats":{"checkinsCount":"9","usersCount":"5","tipCount":"0"},"specials":{"count":"0"},"hereNow":{"count":"0"},"referralId":"v-1392477990"},{"id":"4fc8c7f3e4b0cc91bedda3f5","name":"Three","location":{"address":"315 High Holborn","lat":"51.52419108950401","lng":"-0.12347604782196651","distance":"47","postalCode":"WC1V 7BN","cc":"GB","city":"London","state":"Greater London","country":"United Kingdom"},"categories":[{"id":"4f04afc02fb6e1c99f3db0bc","name":"Mobile Phone Shop","pluralName":"Mobile Phone Shops","shortName":"Mobile Phone","icon":{"prefix":"https:\/\/ss1.4sqi.net\/img\/categories_v2\/shops\/mobilephoneshop_","suffix":".png"},"primary":"true"}],"verified":"false","restricted":"true","stats":{"checkinsCount":"22","usersCount":"19","tipCount":"0"},"specials":{"count":"0"},"hereNow":{"count":"0"},"referralId":"v-1392477990"},{"id":"4c6919b20e98a5930d812359","name":"Joy Brunswick Centre","contact":{"phone":"+442078333307","formattedPhone":"+44 20 7833 3307"},"location":{"address":"5 Brunswick Centre","lat":"51.52424744224981","lng":"-0.12363679286637294","distance":"57","postalCode":"WC1","cc":"GB","city":"London","state":"Greater London","country":"United Kingdom"},"categories":[{"id":"4bf58dd8d48988d106951735","name":"Men's Store","pluralName":"Men's Stores","shortName":"Men's Store","icon":{"prefix":"https:\/\/ss1.4sqi.net\/img\/categories_v2\/shops\/apparel_men_","suffix":".png"},"primary":"true"}],"verified":"false","restricted":"true","stats":{"checkinsCount":"87","usersCount":"59","tipCount":"0"},"specials":{"count":"0"},"hereNow":{"count":"0"},"referralId":"v-1392477990"},{"id":"4d21d7e0b69c6dcbffd97c95","name":"Holland & Barrett","contact":{"phone":"+442072784392","formattedPhone":"+44 20 7278 4392","twitter":"holland_barrett"},"location":{"address":"Unit 29 The Brunswick Centre","lat":"51.52441153548945","lng":"-0.12381618287452113","distance":"71","postalCode":"WC1N 1AE","cc":"GB","city":"London","state":"Greater London","country":"United Kingdom"},"categories":[{"id":"50aa9e744b90af0d42d5de0e","name":"Health Food Store","pluralName":"Health Food Stores","shortName":"Health Food Store","icon":{"prefix":"https:\/\/ss1.4sqi.net\/img\/categories_v2\/shops\/food_grocery_","suffix":".png"},"primary":"true"}],"verified":"false","restricted":"true","stats":{"checkinsCount":"54","usersCount":"27","tipCount":"1"},"url":"http:\/\/www.hollandandbarrett.com","specials":{"count":"0"},"hereNow":{"count":"0"},"referralId":"v-1392477990"},{"id":"4b17abb4f964a520fbc623e3","name":"Brunswick Gallery","location":{"address":"Brunswick Centre","lat":"51.524042319839324","lng":"-0.12368085764662962","distance":"66","cc":"GB","city":"London","state":"Greater London","country":"United Kingdom"},"categories":[{"id":"4bf58dd8d48988d1e2931735","name":"Art Gallery","pluralName":"Art Galleries","shortName":"Art Gallery","icon":{"prefix":"https:\/\/ss1.4sqi.net\/img\/categories_v2\/arts_entertainment\/artgallery_","suffix":".png"},"primary":"true"}],"verified":"false","restricted":"true","stats":{"checkinsCount":"24","usersCount":"23","tipCount":"0"},"specials":{"count":"0"},"hereNow":{"count":"0"},"referralId":"v-1392477990"},{"id":"50fbc29ae4b084af5b39b906","name":"St George The Martyr Church, Queen's Sq","location":{"lat":"51.52409346625151","lng":"-0.12355028978755633","distance":"56","cc":"GB","country":"United Kingdom"},"categories":[{"id":"4bf58dd8d48988d132941735","name":"Church","pluralName":"Churches","shortName":"Church","icon":{"prefix":"https:\/\/ss1.4sqi.net\/img\/categories_v2\/building\/religious_church_","suffix":".png"},"primary":"true"}],"verified":"false","restricted":"true","stats":{"checkinsCount":"5","usersCount":"4","tipCount":"0"},"specials":{"count":"0"},"hereNow":{"count":"0"},"referralId":"v-1392477990"},{"id":"4cee62baed62721e9a4a5bfd","name":"Vodafone","contact":{"phone":"+448700700191","formattedPhone":"+44 870 070 0191"},"location":{"address":"Unit 20, Brunswick Shopping Cntr","lat":"51.524099","lng":"-0.12354421","distance":"55","postalCode":"WC1N 1AE","cc":"GB","city":"London","state":"Greater London","country":"United Kingdom"},"categories":[{"id":"4f04afc02fb6e1c99f3db0bc","name":"Mobile Phone Shop","pluralName":"Mobile Phone Shops","shortName":"Mobile Phone","icon":{"prefix":"https:\/\/ss1.4sqi.net\/img\/categories_v2\/shops\/mobilephoneshop_","suffix":".png"},"primary":"true"}],"verified":"true","restricted":"true","stats":{"checkinsCount":"61","usersCount":"35","tipCount":"1"},"specials":{"count":"0"},"hereNow":{"count":"0"},"storeId":"London Brunswick","referralId":"v-1392477990"},{"id":"4cb3576deb65b1f7dd0b83cd","name":"Halifax","location":{"address":"Brunswick Centre","lat":"51.524586","lng":"-0.12398242950439453","distance":"88","cc":"GB","city":"Camden","state":"Greater London","country":"United Kingdom"},"categories":[{"id":"4bf58dd8d48988d10a951735","name":"Bank","pluralName":"Banks","shortName":"Bank","icon":{"prefix":"https:\/\/ss1.4sqi.net\/img\/categories_v2\/shops\/financial_","suffix":".png"},"primary":"true"}],"verified":"false","restricted":"true","stats":{"checkinsCount":"35","usersCount":"16","tipCount":"0"},"specials":{"count":"0"},"hereNow":{"count":"0"},"referralId":"v-1392477990"}],"confident":"true"}}