{"meta":{"code":"200"},"response":{"venues":[{"id":"4ac518c3f964a52054a420e3","name":"Automat","contact":{"phone":"+442074993033","formattedPhone":"+44 20 7499 3033"},"location":{"address":"33 Dover St.","crossStreet":"near Berkeley St.","lat":"51.50886135936556","lng":"-0.1429605484012514","distance":"48","postalCode":"W1S 4NF","cc":"GB","city":"Mayfair","state":"Greater London","country":"United Kingdom"},"categories":[{"id":"4bf58dd8d48988d14e941735","name":"American Restaurant","pluralName":"American Restaurants","shortName":"American","icon":{"prefix":"https:\/\/ss1.4sqi.net\/img\/categories_v2\/food\/default_","suffix":".png"},"primary":"true"}],"verified":"false","restricted":"true","stats":{"checkinsCount":"2040","usersCount":"1431","tipCount":"53"},"url":"http:\/\/www.automat-london.com","reservations":{"url":"http:\/\/www.toptable.co.uk\/single.aspx?rid=4825&ref=9601"},"menu":{"type":"Menu","label":"Menu","anchor":"View Menu","url":"https:\/\/foursquare.com\/v\/automat\/4ac518c3f964a52054a420e3\/menu","mobileUrl":"https:\/\/foursquare.com\/v\/4ac518c3f964a52054a420e3\/device_menu"},"specials":{"count":"0"},"hereNow":{"count":"1","groups":[{"type":"others","name":"Other people here","count":"1"}]},"referralId":"v-1392478027"},{"id":"4ac518b4f964a52064a020e3","name":"Brown's Hotel","contact":{"phone":"+442074936020","formattedPhone":"+44 20 7493 6020","twitter":"browns_hotel"},"location":{"address":"33 Albemarle St","lat":"51.50910890709396","lng":"-0.1421356885037478","distance":"50","postalCode":"W1S 4BP","cc":"GB","city":"Mayfair","state":"Greater London","country":"United Kingdom"},"categories":[{"id":"4bf58dd8d48988d1fa931735","name":"Hotel","pluralName":"Hotels","shortName":"Hotel","icon":{"prefix":"https:\/\/ss1.4sqi.net\/img\/categories_v2\/travel\/hotel_","suffix":".png"},"primary":"true"}],"verified":"false","restricted":"true","stats":{"checkinsCount":"1674","usersCount":"861","tipCount":"27"},"url":"http:\/\/www.brownshotel.com","menu":{"type":"Menu","label":"Menu","anchor":"View Menu","url":"https:\/\/foursquare.com\/v\/browns-hotel\/4ac518b4f964a52064a020e3\/menu","mobileUrl":"https:\/\/foursquare.com\/v\/4ac518b4f964a52064a020e3\/device_menu"},"specials":{"count":"0"},"hereNow":{"count":"0"},"referralId":"v-1392478027"},{"id":"4ac518c2f964a52012a420e3","name":"Sumosan Restaurant","location":{"address":"26b Albemarle St.","lat":"51.50970856789476","lng":"-0.1426429900060447","distance":"48","postalCode":"W1S 4HY","cc":"GB","city":"London","country":"United Kingdom"},"categories":[{"id":"4bf58dd8d48988d111941735","name":"Japanese Restaurant","pluralName":"Japanese Restaurants","shortName":"Japanese","icon":{"prefix":"https:\/\/ss1.4sqi.net\/img\/categories_v2\/food\/japanese_","suffix":".png"},"primary":"true"}],"verified":"false","restricted":"true","stats":{"checkinsCount":"1587","usersCount":"940","tipCount":"48"},"url":"http:\/\/www.sumosan.com","reservations":{"url":"http:\/\/www.toptable.co.uk\/single.aspx?rid=17797&ref=9601"},"menu":{"type":"Menu","label":"Menu","anchor":"View Menu","url":"https:\/\/foursquare.com\/v\/sumosan-restaurant\/4ac518c2f964a52012a420e3\/menu","mobileUrl":"https:\/\/foursquare.com\/v\/4ac518c2f964a52012a420e3\/device_menu"},"specials":{"count":"0"},"hereNow":{"count":"0"},"referralId":"v-1392478027"},{"id":"4ecd34b502d5579951a96575","name":"Aubaine","contact":{"twitter":"aubaine_uk"},"location":{"address":"31 Dover St","lat":"51.50972","lng":"-0.143327","distance":"60","postalCode":"W1S 4ND","cc":"GB","city":"Mayfair","state":"Greater London","country":"United Kingdom"},"categories":[{"id":"4bf58dd8d48988d10c941735","name":"French Restaurant","pluralName":"French Restaurants","shortName":"French","icon":{"prefix":"https:\/\/ss1.4sqi.net\/img\/categories_v2\/food\/french_","suffix":".png"},"primary":"true"}],"verified":"true","restricted":"true","stats":{"checkinsCount":"1028","usersCount":"578","tipCount":"3"},"url":"http:\/\/www.aubaine.co.uk","reservations":{"url":"http:\/\/www.toptable.co.uk\/single.aspx?rid=78541&ref=9601"},"menu":{"type":"Menu","label":"Menu","anchor":"View Menu","url":"https:\/\/foursquare.com\/v\/aubaine\/4ecd34b502d5579951a96575\/menu","mobileUrl":"https:\/\/foursquare.com\/v\/4ecd34b502d5579951a96575\/device_menu"},"specials":{"count":"0"},"hereNow":{"count":"0"},"referralId":"v-1392478027"},{"id":"4ac518d3f964a52074a720e3","name":"The Royal Institution","contact":{"phone":"+442074092992","formattedPhone":"+44 20 7409 2992","twitter":"ri_science"},"location":{"address":"21 Albermarle St","lat":"51.509713686773225","lng":"-0.14259769813758585","distance":"49","postalCode":"W1S 4BS","cc":"GB","city":"Mayfair","state":"Greater London","country":"United Kingdom"},"categories":[{"id":"4bf58dd8d48988d191941735","name":"Science Museum","pluralName":"Science Museums","shortName":"Science Museum","icon":{"prefix":"https:\/\/ss1.4sqi.net\/img\/categories_v2\/arts_entertainment\/museum_science_","suffix":".png"},"primary":"true"}],"verified":"false","restricted":"true","stats":{"checkinsCount":"1429","usersCount":"977","tipCount":"15"},"url":"http:\/\/www.rigb.org","specials":{"count":"0"},"hereNow":{"count":"1","groups":[{"type":"others","name":"Other people here","count":"1"}]},"referralId":"v-1392478027"},{"id":"4ac518f3f964a520aaae20e3","name":"Dover Street Market","contact":{"phone":"+442075180680","formattedPhone":"+44 20 7518 0680"},"location":{"address":"17-18 Dover St","lat":"51.5085199","lng":"-0.142288","distance":"92","postalCode":"W1S 4LT","cc":"GB","city":"London","state":"Greater London","country":"United Kingdom"},"categories":[{"id":"4bf58dd8d48988d106951735","name":"Men's Store","pluralName":"Men's Stores","shortName":"Men's Store","icon":{"prefix":"https:\/\/ss1.4sqi.net\/img\/categories_v2\/shops\/apparel_men_","suffix":".png"},"primary":"true"}],"verified":"false","restricted":"true","stats":{"checkinsCount":"1960","usersCount":"1393","tipCount":"29"},"url":"http:\/\/www.doverstreetmarket.com","menu":{"type":"Menu","label":"Menu","anchor":"View Menu","url":"https:\/\/foursquare.com\/v\/dover-street-market\/4ac518f3f964a520aaae20e3\/menu","mobileUrl":"https:\/\/foursquare.com\/v\/4ac518f3f964a520aaae20e3\/device_menu"},"specials":{"count":"0"},"hereNow":{"count":"1","groups":[{"type":"others","name":"Other people here","count":"1"}]},"referralId":"v-1392478027"},{"id":"4c35bcba3896e21ea296ed90","name":"HIX MAYFAIR Restaurant | Brown's Hotel","contact":{"phone":"+442075184004","formattedPhone":"+44 20 7518 4004","twitter":"xixmayfair"},"location":{"address":"Albemarle Street","lat":"51.509011446971755","lng":"-0.14197380598724488","distance":"65","postalCode":"W1S 4BP","cc":"GB","city":"Mayfair","state":"Greater London","country":"United Kingdom"},"categories":[{"id":"4bf58dd8d48988d1c4941735","name":"Restaurant","pluralName":"Restaurants","shortName":"Restaurant","icon":{"prefix":"https:\/\/ss1.4sqi.net\/img\/categories_v2\/food\/default_","suffix":".png"},"primary":"true"}],"verified":"false","restricted":"true","stats":{"checkinsCount":"295","usersCount":"249","tipCount":"5"},"url":"http:\/\/hixmayfair.co.uk","reservations":{"url":"http:\/\/www.toptable.co.uk\/single.aspx?rid=83602&ref=9601"},"menu":{"type":"Menu","label":"Menu","anchor":"View Menu","url":"https:\/\/foursquare.com\/v\/hix-mayfair-restaurant--browns-hotel\/4c35bcba3896e21ea296ed90\/menu","mobileUrl":"https:\/\/foursquare.com\/v\/4c35bcba3896e21ea296ed90\/device_menu"},"specials":{"count":"0"},"hereNow":{"count":"1","groups":[{"type":"others","name":"Other people here","count":"1"}]},"referralId":"v-1392478027"},{"id":"4c51e485384c76b0d58aef2a","name":"Old Bond Street Shopping Area","location":{"address":"Old Bond St","lat":"51.509827948280744","lng":"-0.1416378994996941","distance":"100","postalCode":"W1S","cc":"GB","city":"Mayfair","state":"Greater London","country":"United Kingdom"},"categories":[{"id":"4bf58dd8d48988d1ff941735","name":"Miscellaneous Shop","pluralName":"Miscellaneous Shops","shortName":"Shop","icon":{"prefix":"https:\/\/ss1.4sqi.net\/img\/categories_v2\/shops\/default_","suffix":".png"},"primary":"true"}],"verified":"false","restricted":"true","stats":{"checkinsCount":"1291","usersCount":"922","tipCount":"3"},"specials":{"count":"0"},"hereNow":{"count":"1","groups":[{"type":"others","name":"Other people here","count":"1"}]},"referralId":"v-1392478027"},{"id":"506f2b8ee4b022d1ffd4d550","name":"David Zwirner","location":{"address":"24, Grafton Street","lat":"51.50931268635475","lng":"-0.1432786709497752","distance":"33","postalCode":"W1S4EZ","cc":"GB","city":"London","state":"Greater London","country":"United Kingdom"},"categories":[{"id":"4bf58dd8d48988d1e2931735","name":"Art Gallery","pluralName":"Art Galleries","shortName":"Art Gallery","icon":{"prefix":"https:\/\/ss1.4sqi.net\/img\/categories_v2\/arts_entertainment\/artgallery_","suffix":".png"},"primary":"true"}],"verified":"false","restricted":"true","stats":{"checkinsCount":"89","usersCount":"55","tipCount":"1"},"specials":{"count":"0"},"hereNow":{"count":"0"},"referralId":"v-1392478027"},{"id":"4bc48670f8219c74ed71b710","name":"THE ENGLISH Tea Room | Brown's Hotel","contact":{"phone":"+442074936020","formattedPhone":"+44 20 7493 6020","twitter":"browns_hotel"},"location":{"address":"Albemarle Street","lat":"51.50912932028988","lng":"-0.14201395642205059","distance":"57","postalCode":"W1S 4BP","cc":"GB","city":"Mayfair","state":"Greater London","country":"United Kingdom"},"categories":[{"id":"4bf58dd8d48988d1dc931735","name":"Tea Room","pluralName":"Tea Rooms","shortName":"Tea Room","icon":{"prefix":"https:\/\/ss1.4sqi.net\/img\/categories_v2\/food\/tearoom_","suffix":".png"},"primary":"true"}],"verified":"false","restricted":"true","stats":{"checkinsCount":"287","usersCount":"240","tipCount":"3"},"url":"http:\/\/www.brownshotel.com\/dining\/the-english-tea-room\/","specials":{"count":"0"},"hereNow":{"count":"0"},"referralId":"v-1392478027"},{"id":"4ad04936f964a520ced720e3","name":"The Palm Beach Casino London","contact":{"phone":"+442074936585","formattedPhone":"+44 20 7493 6585"},"location":{"address":"30 Berkeley Street","lat":"51.508685536265595","lng":"-0.14396479056519187","distance":"104","postalCode":"W1J 8EH","cc":"GB","city":"Mayfair","state":"Greater London","country":"United Kingdom"},"categories":[{"id":"4bf58dd8d48988d17c941735","name":"Casino","pluralName":"Casinos","shortName":"Casino","icon":{"prefix":"https:\/\/ss1.4sqi.net\/img\/categories_v2\/arts_entertainment\/casino_","suffix":".png"},"primary":"true"}],"verified":"false","restricted":"true","stats":{"checkinsCount":"1196","usersCount":"567","tipCount":"12"},"menu":{"type":"Menu","label":"Menu","anchor":"View Menu","url":"https:\/\/foursquare.com\/v\/the-palm-beach-casino-london\/4ad04936f964a520ced720e3\/menu","mobileUrl":"https:\/\/foursquare.com\/v\/4ad04936f964a520ced720e3\/device_menu"},"specials":{"count":"0"},"hereNow":{"count":"1","groups":[{"type":"others","name":"Other people here","count":"1"}]},"referralId":"v-1392478027"},{"id":"4ac518ecf964a52068ac20e3","name":"Ralph Lauren","contact":{"phone":"+442075354600","formattedPhone":"+44 20 7535 4600","twitter":"ralphlauren"},"location":{"address":"1 New Bond St.","lat":"51.50979762770458","lng":"-0.1413218882685969","distance":"117","postalCode":"W1S 3RL","cc":"GB","city":"Mayfair","state":"Greater London","country":"United Kingdom"},"categories":[{"id":"4bf58dd8d48988d103951735","name":"Clothing Store","pluralName":"Clothing Stores","shortName":"Apparel","icon":{"prefix":"https:\/\/ss1.4sqi.net\/img\/categories_v2\/shops\/apparel_","suffix":".png"},"primary":"true"}],"verified":"true","restricted":"true","stats":{"checkinsCount":"805","usersCount":"569","tipCount":"8"},"url":"http:\/\/www.ralphlauren.com","specials":{"count":"0"},"hereNow":{"count":"0"},"storeId":"66446","referralId":"v-1392478027"},{"id":"519133a7498e6e48d1dafb24","name":"Mr Fogg's","location":{"address":"15 Bruton Ln.","lat":"51.509871144938046","lng":"-0.14405110534651194","distance":"108","postalCode":"W1J 6JD","cc":"GB","city":"Mayfair","state":"Greater London","country":"United Kingdom"},"categories":[{"id":"4bf58dd8d48988d1d4941735","name":"Speakeasy","pluralName":"Speakeasies","shortName":"Speakeasy","icon":{"prefix":"https:\/\/ss1.4sqi.net\/img\/categories_v2\/nightlife\/secretbar_","suffix":".png"},"primary":"true"}],"verified":"false","restricted":"true","stats":{"checkinsCount":"366","usersCount":"320","tipCount":"20"},"url":"http:\/\/mr-foggs.com","specials":{"count":"0"},"hereNow":{"count":"0"},"referralId":"v-1392478027"},{"id":"4f8f108de4b01487d1b10e27","name":"Wolf and Badger","contact":{"twitter":"wolfandbadger"},"location":{"address":"Dover Street","lat":"51.50904109645675","lng":"-0.14280574193853376","distance":"27","cc":"GB","city":"London","state":"Greater London","country":"United Kingdom"},"categories":[{"id":"4bf58dd8d48988d104951735","name":"Boutique","pluralName":"Boutiques","shortName":"Boutique","icon":{"prefix":"https:\/\/ss1.4sqi.net\/img\/categories_v2\/shops\/apparel_boutique_","suffix":".png"},"primary":"true"}],"verified":"false","restricted":"true","stats":{"checkinsCount":"52","usersCount":"46","tipCount":"1"},"specials":{"count":"0"},"hereNow":{"count":"0"},"referralId":"v-1392478027"},{"id":"4ac518eef964a520f4ac20e3","name":"DKNY","contact":{"phone":"+442074996238","formattedPhone":"+44 20 7499 6238"},"location":{"address":"27 Old Bond St","lat":"51.50943822092554","lng":"-0.1414284357431952","distance":"96","postalCode":"W1S 4QE","cc":"GB","city":"London","state":"Greater London","country":"United Kingdom"},"categories":[{"id":"4bf58dd8d48988d103951735","name":"Clothing Store","pluralName":"Clothing Stores","shortName":"Apparel","icon":{"prefix":"https:\/\/ss1.4sqi.net\/img\/categories_v2\/shops\/apparel_","suffix":".png"},"primary":"true"}],"verified":"true","restricted":"true","stats":{"checkinsCount":"245","usersCount":"124","tipCount":"1"},"url":"http:\/\/dkny.com","specials":{"count":"0"},"hereNow":{"count":"0"},"storeId":"801","referralId":"v-1392478027"},{"id":"4b297076f964a520f59e24e3","name":"Funky Buddha","contact":{"phone":"+442074952596","formattedPhone":"+44 20 7495 2596"},"location":{"address":"15 Berkeley St.","lat":"51.50842928640077","lng":"-0.1437005951915237","distance":"114","postalCode":"W1J 6DY","cc":"GB","city":"London","state":"Greater London","country":"United Kingdom"},"categories":[{"id":"4bf58dd8d48988d11f941735","name":"Nightclub","pluralName":"Nightclubs","shortName":"Nightclub","icon":{"prefix":"https:\/\/ss1.4sqi.net\/img\/categories_v2\/nightlife\/nightclub_","suffix":".png"},"primary":"true"}],"verified":"false","restricted":"true","stats":{"checkinsCount":"672","usersCount":"509","tipCount":"13"},"url":"http:\/\/velvet-pr.com\/guestlists\/funky-buddha-guestlist\/","menu":{"type":"Menu","label":"Menu","anchor":"View Menu","url":"https:\/\/foursquare.com\/v\/funky-buddha\/4b297076f964a520f59e24e3\/menu","mobileUrl":"https:\/\/foursquare.com\/v\/4b297076f964a520f59e24e3\/device_menu"},"specials":{"count":"0"},"hereNow":{"count":"0"},"referralId":"v-1392478027"},{"id":"4bb63a6cf562ef3b17d32f97","name":"THE DONOVAN Bar","contact":{"phone":"+442074936020","formattedPhone":"+44 20 7493 6020","twitter":"browns_hotel"},"location":{"address":"Brown's Hotel","crossStreet":"Albemarle St","lat":"51.509190601124274","lng":"-0.14210644936886532","distance":"49","postalCode":"W1S 4BP","cc":"GB","city":"Mayfair","state":"Greater London","country":"United Kingdom"},"categories":[{"id":"4bf58dd8d48988d121941735","name":"Lounge","pluralName":"Lounges","shortName":"Lounge","icon":{"prefix":"https:\/\/ss1.4sqi.net\/img\/categories_v2\/nightlife\/lounge_","suffix":".png"},"primary":"true"}],"verified":"false","restricted":"true","stats":{"checkinsCount":"335","usersCount":"234","tipCount":"13"},"url":"http:\/\/www.brownshotel.com\/dining\/the-donovan-bar","specials":{"count":"0"},"hereNow":{"count":"0"},"referralId":"v-1392478027"},{"id":"4ac518d7f964a5206ba820e3","name":"Chor Bizarre","location":{"address":"16 Albemarle Street","lat":"51.50918578076313","lng":"-0.1419567851235845","distance":"59","postalCode":"W1S 4HW","cc":"GB","city":"London","state":"Greater London","country":"United Kingdom"},"categories":[{"id":"4bf58dd8d48988d10f941735","name":"Indian Restaurant","pluralName":"Indian Restaurants","shortName":"Indian","icon":{"prefix":"https:\/\/ss1.4sqi.net\/img\/categories_v2\/food\/indian_","suffix":".png"},"primary":"true"}],"verified":"true","restricted":"true","stats":{"checkinsCount":"318","usersCount":"284","tipCount":"11"},"url":"http:\/\/www.chorbizarre.com","reservations":{"url":"http:\/\/www.toptable.co.uk\/single.aspx?rid=18535&ref=9601"},"menu":{"type":"Menu","label":"Menu","anchor":"View Menu","url":"https:\/\/foursquare.com\/v\/chor-bizarre\/4ac518d7f964a5206ba820e3\/menu","mobileUrl":"https:\/\/foursquare.com\/v\/4ac518d7f964a5206ba820e3\/device_menu"},"specials":{"count":"0"},"hereNow":{"count":"0"},"referralId":"v-1392478027"},{"id":"5170295ee4b07b6e79879c2d","name":"The Royal Institute of Great Britain","location":{"lat":"51.50958561025709","lng":"-0.14248159768426485","distance":"39","cc":"GB","country":"United Kingdom"},"categories":[{"id":"50328a8e91d4c4b30a586d6c","name":"Non-Profit","pluralName":"Non-Profits","shortName":"Non-Profit","icon":{"prefix":"https:\/\/ss1.4sqi.net\/img\/categories_v2\/building\/default_","suffix":".png"},"primary":"true"}],"verified":"false","restricted":"true","stats":{"checkinsCount":"10","usersCount":"8","tipCount":"0"},"specials":{"count":"0"},"hereNow":{"count":"0"},"referralId":"v-1392478027"},{"id":"5272c0c1498e0471e6d96695","name":"Rextail","contact":{"phone":"+442033011122","formattedPhone":"+44 20 3301 1122"},"location":{"address":"13 Albemarle St","lat":"51.509263561292336","lng":"-0.1414636492543761","distance":"92","postalCode":"W1S 4HJ","cc":"GB","city":"London","state":"Greater London","country":"United Kingdom"},"categories":[{"id":"4bf58dd8d48988d1cc941735","name":"Steakhouse","pluralName":"Steakhouses","shortName":"Steakhouse","icon":{"prefix":"https:\/\/ss1.4sqi.net\/img\/categories_v2\/food\/steakhouse_","suffix":".png"},"primary":"true"}],"verified":"false","restricted":"true","stats":{"checkinsCount":"76","usersCount":"71","tipCount":"3"},"url":"http:\/\/www.rextail.co.uk","reservations":{"url":"http:\/\/www.toptable.co.uk\/single.aspx?rid=98169&ref=9601"},"menu":{"type":"Menu","label":"Menu","anchor":"View Menu","url":"https:\/\/foursquare.com\/v\/rextail\/5272c0c1498e0471e6d96695\/menu","mobileUrl":"https:\/\/foursquare.com\/v\/5272c0c1498e0471e6d96695\/device_menu"},"specials":{"count":"0"},"hereNow":{"count":"0"},"referralId":"v-1392478027"},{"id":"4b8e209af964a5200b1933e3","name":"Starbucks","contact":{"twitter":"starbucksuk"},"location":{"address":"27 Berkeley St, Berkeley Square","crossStreet":"At Lansdowne","lat":"51.508812","lng":"-0.14421","distance":"111","postalCode":"W1X 5AD","cc":"GB","city":"London","state":"Greater London","country":"United Kingdom"},"categories":[{"id":"4bf58dd8d48988d1e0931735","name":"Coffee Shop","pluralName":"Coffee Shops","shortName":"Coffee Shop","icon":{"prefix":"https:\/\/ss1.4sqi.net\/img\/categories_v2\/food\/coffeeshop_","suffix":".png"},"primary":"true"}],"verified":"true","restricted":"true","stats":{"checkinsCount":"1403","usersCount":"649","tipCount":"7"},"url":"http:\/\/starbucks.co.uk","specials":{"count":"0"},"hereNow":{"count":"0"},"storeId":"12022","referralId":"v-1392478027"},{"id":"5167fd88e4b058109d3f4445","name":"Coll&Cort\u00e9s Fine Arts","location":{"lat":"51.50954454784253","lng":"-0.1424813880700319","distance":"36","cc":"GB","country":"United Kingdom"},"categories":[{"id":"4bf58dd8d48988d1e2931735","name":"Art Gallery","pluralName":"Art Galleries","shortName":"Art Gallery","icon":{"prefix":"https:\/\/ss1.4sqi.net\/img\/categories_v2\/arts_entertainment\/artgallery_","suffix":".png"},"primary":"true"}],"verified":"false","restricted":"true","stats":{"checkinsCount":"4","usersCount":"2","tipCount":"0"},"specials":{"count":"0"},"hereNow":{"count":"0"},"referralId":"v-1392478027"},{"id":"4ecbedede5fab5d2b3e248f0","name":"20 Grafton street","location":{"lat":"51.50925104403968","lng":"-0.14324950595253635","distance":"31","cc":"GB","country":"United Kingdom"},"categories":[{"id":"4bf58dd8d48988d124941735","name":"Office","pluralName":"Offices","shortName":"Office","icon":{"prefix":"https:\/\/ss1.4sqi.net\/img\/categories_v2\/building\/default_","suffix":".png"},"primary":"true"}],"verified":"false","restricted":"true","stats":{"checkinsCount":"8","usersCount":"2","tipCount":"0"},"specials":{"count":"0"},"hereNow":{"count":"0"},"referralId":"v-1392478027"},{"id":"5091388d8302f832018b47c3","name":"The Clubhouse","contact":{"phone":"+442071837210","formattedPhone":"+44 20 7183 7210","twitter":"tchlondon"},"location":{"address":"11-14 Grafton Street","lat":"51.510091309234596","lng":"-0.14301538467407227","distance":"90","postalCode":"W1S 4EW","cc":"GB","city":"London","state":"Greater London","country":"United Kingdom"},"categories":[{"id":"4bf58dd8d48988d124941735","name":"Office","pluralName":"Offices","shortName":"Office","icon":{"prefix":"https:\/\/ss1.4sqi.net\/img\/categories_v2\/building\/default_","suffix":".png"},"primary":"true"}],"verified":"false","restricted":"true","stats":{"checkinsCount":"201","usersCount":"91","tipCount":"2"},"specials":{"count":"0"},"hereNow":{"count":"0"},"referralId":"v-1392478027"},{"id":"4bbdd70a4e069c74352b9fe3","name":"Rose Bakery","contact":{"phone":"+442075180687","formattedPhone":"+44 20 7518 0687"},"location":{"address":"Dover Street Market","crossStreet":"17-18 Dover St","lat":"51.508674","lng":"-0.141955","distance":"90","postalCode":"W1S 4LT","cc":"GB","city":"London","state":"Greater London","country":"United Kingdom"},"categories":[{"id":"4bf58dd8d48988d16d941735","name":"Caf\u00e9","pluralName":"Caf\u00e9s","shortName":"Caf\u00e9","icon":{"prefix":"https:\/\/ss1.4sqi.net\/img\/categories_v2\/food\/cafe_","suffix":".png"},"primary":"true"}],"verified":"false","restricted":"true","stats":{"checkinsCount":"245","usersCount":"151","tipCount":"10"},"url":"http:\/\/london.doverstreetmarket.com","specials":{"count":"0"},"hereNow":{"count":"0"},"referralId":"v-1392478027"},{"id":"4c319c0ca0ced13a11e6136e","name":"Berkeley Square House","location":{"address":"Berkeley Sq.","lat":"51.50898285091343","lng":"-0.14413118362426758","distance":"98","postalCode":"W1J 6BD","cc":"GB","city":"London","state":"Greater London","country":"United Kingdom"},"categories":[{"id":"4bf58dd8d48988d124941735","name":"Office","pluralName":"Offices","shortName":"Office","icon":{"prefix":"https:\/\/ss1.4sqi.net\/img\/categories_v2\/building\/default_","suffix":".png"},"primary":"true"}],"verified":"false","restricted":"true","stats":{"checkinsCount":"1395","usersCount":"253","tipCount":"0"},"specials":{"count":"0"},"hereNow":{"count":"0"},"referralId":"v-1392478027"},{"id":"50cb4c73e4b0c490b697da71","name":"Christian Louboutin Mens Boutique","location":{"address":"Dover Street","lat":"51.5088362112926","lng":"-0.14248925878052074","distance":"54","cc":"GB","city":"London","state":"Greater London","country":"United Kingdom"},"categories":[{"id":"4bf58dd8d48988d107951735","name":"Shoe Store","pluralName":"Shoe Stores","shortName":"Shoes","icon":{"prefix":"https:\/\/ss1.4sqi.net\/img\/categories_v2\/shops\/apparel_shoestore_","suffix":".png"},"primary":"true"}],"verified":"false","restricted":"true","stats":{"checkinsCount":"48","usersCount":"29","tipCount":"2"},"specials":{"count":"0"},"hereNow":{"count":"0"},"referralId":"v-1392478027"},{"id":"4c6d2f52c7edb713d83114e7","name":"Pret A Manger","contact":{"phone":"+442079325325","formattedPhone":"+44 20 7932 5325","twitter":"pret","facebook":"162638680417951"},"location":{"address":"40 Albermarle St","lat":"51.5086885436","lng":"-0.141732158762","distance":"99","postalCode":"W1S 4TE","cc":"GB","city":"Albermarle Street, London","country":"United Kingdom"},"categories":[{"id":"4bf58dd8d48988d1c5941735","name":"Sandwich Place","pluralName":"Sandwich Places","shortName":"Sandwiches","icon":{"prefix":"https:\/\/ss1.4sqi.net\/img\/categories_v2\/food\/sandwiches_","suffix":".png"},"primary":"true"}],"verified":"true","restricted":"true","stats":{"checkinsCount":"333","usersCount":"176","tipCount":"1"},"url":"http:\/\/www.pret.com","specials":{"count":"0"},"hereNow":{"count":"0"},"storeId":"125","referralId":"v-1392478027"},{"id":"5005933ee4b068f792efa3a8","name":"Spianata & Co","location":{"lat":"51.509081662609375","lng":"-0.14363249369598227","distance":"61","cc":"GB","country":"United Kingdom"},"categories":[{"id":"4bf58dd8d48988d1c5941735","name":"Sandwich Place","pluralName":"Sandwich Places","shortName":"Sandwiches","icon":{"prefix":"https:\/\/ss1.4sqi.net\/img\/categories_v2\/food\/sandwiches_","suffix":".png"},"primary":"true"}],"verified":"false","restricted":"true","stats":{"checkinsCount":"152","usersCount":"55","tipCount":"4"},"specials":{"count":"0"},"hereNow":{"count":"0"},"referralId":"v-1392478027"},{"id":"4c3af995d94dc9b64ffafee7","name":"Paul Smith","location":{"address":"9 Ablemare Street","lat":"51.508873028832056","lng":"-0.1415754936214898","distance":"96","cc":"GB","city":"London","state":"Greater London","country":"United Kingdom"},"categories":[{"id":"4bf58dd8d48988d107951735","name":"Shoe Store","pluralName":"Shoe Stores","shortName":"Shoes","icon":{"prefix":"https:\/\/ss1.4sqi.net\/img\/categories_v2\/shops\/apparel_shoestore_","suffix":".png"},"primary":"true"}],"verified":"false","restricted":"true","stats":{"checkinsCount":"107","usersCount":"87","tipCount":"2"},"specials":{"count":"0"},"hereNow":{"count":"0"},"referralId":"v-1392478027"}],"confident":"true"}}