{"meta":{"code":"200"},"response":{"venues":[{"id":"4afb0b96f964a5209b1a22e3","name":"Tesco Express","contact":{"phone":"+448450269291","formattedPhone":"+44 845 026 9291","twitter":"uktescooffers"},"location":{"address":"21-29 Clifton Road","lat":"51.525378","lng":"-0.17970263957977295","distance":"246","postalCode":"W9 1SY","cc":"GB","city":"London","state":"Greater London","country":"United Kingdom"},"categories":[{"id":"4bf58dd8d48988d118951735","name":"Grocery Store","pluralName":"Grocery Stores","shortName":"Grocery Store","icon":{"prefix":"https:\/\/ss1.4sqi.net\/img\/categories_v2\/shops\/food_grocery_","suffix":".png"},"primary":"true"}],"verified":"true","restricted":"true","stats":{"checkinsCount":"421","usersCount":"184","tipCount":"2"},"url":"http:\/\/www.tesco.com","specials":{"count":"0"},"hereNow":{"count":"0"},"storeId":"2717","referralId":"v-1392477984"},{"id":"4ae5031df964a52001a021e3","name":"The Prince Alfred","contact":{"phone":"+442072863287","formattedPhone":"+44 20 7286 3287"},"location":{"address":"5A Formosa St","lat":"51.524375","lng":"-0.184941","distance":"148","postalCode":"W9 1EE","cc":"GB","city":"London","state":"Greater London","country":"United Kingdom"},"categories":[{"id":"4bf58dd8d48988d11b941735","name":"Pub","pluralName":"Pubs","shortName":"Pub","icon":{"prefix":"https:\/\/ss1.4sqi.net\/img\/categories_v2\/nightlife\/pub_","suffix":".png"},"primary":"true"}],"verified":"false","restricted":"true","stats":{"checkinsCount":"1536","usersCount":"714","tipCount":"12"},"url":"http:\/\/www.theprincealfred.com","reservations":{"url":"http:\/\/www.toptable.co.uk\/single.aspx?rid=45085&ref=9601"},"menu":{"type":"Menu","label":"Menu","anchor":"View Menu","url":"https:\/\/foursquare.com\/v\/the-prince-alfred\/4ae5031df964a52001a021e3\/menu","mobileUrl":"https:\/\/foursquare.com\/v\/4ae5031df964a52001a021e3\/device_menu"},"specials":{"count":"0"},"hereNow":{"count":"0"},"referralId":"v-1392477984"},{"id":"4c3b4d295810a593d76dba3c","name":"Toast Cafe","location":{"lat":"51.52455764765684","lng":"-0.18457757193674043","distance":"126","cc":"GB","city":"Paddington","state":"Greater London","country":"United Kingdom"},"categories":[{"id":"4bf58dd8d48988d16d941735","name":"Caf\u00e9","pluralName":"Caf\u00e9s","shortName":"Caf\u00e9","icon":{"prefix":"https:\/\/ss1.4sqi.net\/img\/categories_v2\/food\/cafe_","suffix":".png"},"primary":"true"}],"verified":"false","restricted":"true","stats":{"checkinsCount":"350","usersCount":"146","tipCount":"12"},"specials":{"count":"0"},"hereNow":{"count":"0"},"referralId":"v-1392477984"},{"id":"4ac518b5f964a520c7a020e3","name":"The Colonnade Hotel","contact":{"phone":"+442072861052","formattedPhone":"+44 20 7286 1052"},"location":{"address":"2 Warrington Crescent","lat":"51.52435742385382","lng":"-0.1845129822127418","distance":"118","postalCode":"W9 1ER","cc":"GB","city":"London","state":"Greater London","country":"United Kingdom"},"categories":[{"id":"4bf58dd8d48988d1fa931735","name":"Hotel","pluralName":"Hotels","shortName":"Hotel","icon":{"prefix":"https:\/\/ss1.4sqi.net\/img\/categories_v2\/travel\/hotel_","suffix":".png"},"primary":"true"}],"verified":"true","restricted":"true","stats":{"checkinsCount":"361","usersCount":"157","tipCount":"4"},"specials":{"count":"1","items":[{"id":"4cab0f52d250bfb7e128ca63","type":"frequency","message":"Thanks for checking-in! We'd like to offer you 10% off your next stay with us or any of our sister properties @ http:\/\/www.theetoncollection.co.uk Type  foursquare into booking page 2 unlock discount.","description":"Unlocked every check-in","icon":"check-in","title":"Check-in Special","provider":"foursquare","redemption":"standard"}]},"hereNow":{"count":"0"},"referralId":"v-1392477984"},{"id":"4b1413d5f964a520e79c23e3","name":"Baker & Spice (Maida Vale)","contact":{"phone":"+442072892499","formattedPhone":"+44 20 7289 2499"},"location":{"address":"20 Clifton Rd","lat":"51.525534","lng":"-0.179505","distance":"267","postalCode":"W9 1ST","cc":"GB","city":"London","state":"Greater London","country":"United Kingdom"},"categories":[{"id":"4bf58dd8d48988d16a941735","name":"Bakery","pluralName":"Bakeries","shortName":"Bakery","icon":{"prefix":"https:\/\/ss1.4sqi.net\/img\/categories_v2\/food\/bakery_","suffix":".png"},"primary":"true"}],"verified":"false","restricted":"true","stats":{"checkinsCount":"525","usersCount":"312","tipCount":"25"},"menu":{"type":"Menu","label":"Menu","anchor":"View Menu","url":"https:\/\/foursquare.com\/v\/baker-spice-maida-vale-london-uk\/4b1413d5f964a520e79c23e3\/menu","mobileUrl":"https:\/\/foursquare.com\/v\/4b1413d5f964a520e79c23e3\/device_menu"},"specials":{"count":"0"},"hereNow":{"count":"0"},"referralId":"v-1392477984"},{"id":"4ae8d130f964a5208eb221e3","name":"Red Pepper","location":{"address":"8 Formosa St","lat":"51.52454229996564","lng":"-0.18465244279477128","distance":"131","postalCode":"W9 1EE","cc":"GB","city":"London","state":"Greater London","country":"United Kingdom"},"categories":[{"id":"4bf58dd8d48988d110941735","name":"Italian Restaurant","pluralName":"Italian Restaurants","shortName":"Italian","icon":{"prefix":"https:\/\/ss1.4sqi.net\/img\/categories_v2\/food\/italian_","suffix":".png"},"primary":"true"}],"verified":"false","restricted":"true","stats":{"checkinsCount":"581","usersCount":"193","tipCount":"12"},"menu":{"type":"Menu","label":"Menu","anchor":"View Menu","url":"https:\/\/foursquare.com\/v\/red-pepper\/4ae8d130f964a5208eb221e3\/menu","mobileUrl":"https:\/\/foursquare.com\/v\/4ae8d130f964a5208eb221e3\/device_menu"},"specials":{"count":"0"},"hereNow":{"count":"0"},"referralId":"v-1392477984"},{"id":"50ab6c61e4b04d7b16ec0fb4","name":"Molly's Cafe At Little Venice","location":{"address":"28 Clifton Road","lat":"51.525499702136294","lng":"-0.1794642306206741","distance":"267","cc":"GB","city":"London","state":"Greater London","country":"United Kingdom"},"categories":[{"id":"4bf58dd8d48988d16d941735","name":"Caf\u00e9","pluralName":"Caf\u00e9s","shortName":"Caf\u00e9","icon":{"prefix":"https:\/\/ss1.4sqi.net\/img\/categories_v2\/food\/cafe_","suffix":".png"},"primary":"true"}],"verified":"false","restricted":"true","stats":{"checkinsCount":"66","usersCount":"46","tipCount":"3"},"specials":{"count":"0"},"hereNow":{"count":"1","groups":[{"type":"others","name":"Other people here","count":"1"}]},"referralId":"v-1392477984"},{"id":"4e341408b0fb17f64f899f1d","name":"Saint Saviour","location":{"lat":"51.523752199360096","lng":"-0.1841248621590148","distance":"109","cc":"GB","city":"Paddington","state":"Greater London","country":"United Kingdom"},"categories":[{"id":"4bf58dd8d48988d132941735","name":"Church","pluralName":"Churches","shortName":"Church","icon":{"prefix":"https:\/\/ss1.4sqi.net\/img\/categories_v2\/building\/religious_church_","suffix":".png"},"primary":"true"}],"verified":"false","restricted":"true","stats":{"checkinsCount":"10","usersCount":"7","tipCount":"0"},"specials":{"count":"0"},"hereNow":{"count":"0"},"referralId":"v-1392477984"},{"id":"4ef9dc3577c8e88f49cef87f","name":"Caff\u00e8 Nero","location":{"address":"18 Clifton Rd.","lat":"51.52559789805092","lng":"-0.17952838354412476","distance":"269","postalCode":"W9 1SS","cc":"GB","city":"London","state":"Greater London","country":"United Kingdom"},"categories":[{"id":"4bf58dd8d48988d1e0931735","name":"Coffee Shop","pluralName":"Coffee Shops","shortName":"Coffee Shop","icon":{"prefix":"https:\/\/ss1.4sqi.net\/img\/categories_v2\/food\/coffeeshop_","suffix":".png"},"primary":"true"}],"verified":"false","restricted":"true","stats":{"checkinsCount":"299","usersCount":"123","tipCount":"6"},"specials":{"count":"0"},"hereNow":{"count":"0"},"referralId":"v-1392477984"},{"id":"505db793e4b0c677838046bd","name":"Clifton Road","location":{"lat":"51.525451","lng":"-0.179704","distance":"250","cc":"GB","country":"United Kingdom"},"categories":[{"id":"4f2a25ac4b909258e854f55f","name":"Neighborhood","pluralName":"Neighborhoods","shortName":"Neighborhood","icon":{"prefix":"https:\/\/ss1.4sqi.net\/img\/categories_v2\/parks_outdoors\/neighborhood_","suffix":".png"},"primary":"true"}],"verified":"false","restricted":"true","stats":{"checkinsCount":"92","usersCount":"26","tipCount":"0"},"specials":{"count":"0"},"hereNow":{"count":"0"},"referralId":"v-1392477984"},{"id":"4be47c4d2468c928d2d7fe42","name":"Formosa Dining Rooms (Prince Alfred)","contact":{"phone":"+442072863287","formattedPhone":"+44 20 7286 3287"},"location":{"address":"5A Formosa St","lat":"51.52444921118274","lng":"-0.18492844588011065","distance":"148","postalCode":"W9 1EE","cc":"GB","city":"London","state":"Greater London","country":"United Kingdom"},"categories":[{"id":"4bf58dd8d48988d1c4941735","name":"Restaurant","pluralName":"Restaurants","shortName":"Restaurant","icon":{"prefix":"https:\/\/ss1.4sqi.net\/img\/categories_v2\/food\/default_","suffix":".png"},"primary":"true"}],"verified":"false","restricted":"true","stats":{"checkinsCount":"208","usersCount":"100","tipCount":"2"},"url":"http:\/\/www.theprincealfred.com","specials":{"count":"0"},"hereNow":{"count":"0"},"referralId":"v-1392477984"},{"id":"4bd2c131462cb713c9ecdc07","name":"Caf\u00e9 Rouge","contact":{"phone":"+442072862266","formattedPhone":"+44 20 7286 2266","twitter":"caferougetweet","facebook":"207511922592337"},"location":{"address":"30 Clifton Road, Maida Vale","lat":"51.525438","lng":"-0.179833","distance":"242","postalCode":"W9 1ST","cc":"GB","city":"London","state":"Greater London","country":"United Kingdom"},"categories":[{"id":"4bf58dd8d48988d16d941735","name":"Caf\u00e9","pluralName":"Caf\u00e9s","shortName":"Caf\u00e9","icon":{"prefix":"https:\/\/ss1.4sqi.net\/img\/categories_v2\/food\/cafe_","suffix":".png"},"primary":"true"}],"verified":"true","restricted":"true","stats":{"checkinsCount":"204","usersCount":"151","tipCount":"8"},"url":"http:\/\/www.caferouge.co.uk\/french-restaurant\/maida-vale","specials":{"count":"0"},"hereNow":{"count":"0"},"storeId":"1110466","referralId":"v-1392477984"},{"id":"510d3047e4b0c5028b0b717a","name":"Clifton Greens","location":{"lat":"51.52564442846665","lng":"-0.17936292320186312","distance":"282","cc":"GB","country":"United Kingdom"},"categories":[{"id":"4bf58dd8d48988d1fa941735","name":"Farmers Market","pluralName":"Farmers Markets","shortName":"Farmer's Market","icon":{"prefix":"https:\/\/ss1.4sqi.net\/img\/categories_v2\/shops\/food_farmersmarket_","suffix":".png"},"primary":"true"}],"verified":"false","restricted":"true","stats":{"checkinsCount":"123","usersCount":"40","tipCount":"0"},"specials":{"count":"0"},"hereNow":{"count":"0"},"referralId":"v-1392477984"},{"id":"4d72a2704ab5224b0168c297","name":"Kateh","contact":{"phone":"+442072893393","formattedPhone":"+44 20 7289 3393"},"location":{"address":"5 Warwick Pl.","lat":"51.522124","lng":"-0.183768","distance":"250","postalCode":"W9 2PX","cc":"GB","city":"London","state":"Greater London","country":"United Kingdom"},"categories":[{"id":"4bf58dd8d48988d115941735","name":"Middle Eastern Restaurant","pluralName":"Middle Eastern Restaurants","shortName":"Middle Eastern","icon":{"prefix":"https:\/\/ss1.4sqi.net\/img\/categories_v2\/food\/default_","suffix":".png"},"primary":"true"}],"verified":"false","restricted":"true","stats":{"checkinsCount":"154","usersCount":"127","tipCount":"7"},"url":"http:\/\/www.katehrestaurant.co.uk","reservations":{"url":"http:\/\/www.toptable.co.uk\/single.aspx?rid=78367&ref=9601"},"menu":{"type":"Menu","label":"Menu","anchor":"View Menu","url":"https:\/\/foursquare.com\/v\/kateh\/4d72a2704ab5224b0168c297\/menu","mobileUrl":"https:\/\/foursquare.com\/v\/4d72a2704ab5224b0168c297\/device_menu"},"specials":{"count":"0"},"hereNow":{"count":"0"},"referralId":"v-1392477984"},{"id":"4e3acf32ae6019d8e5d731bb","name":"Little Venice Pilates","contact":{"phone":"+442072865000","formattedPhone":"+44 20 7286 5000"},"location":{"address":"28 Bristol Gardens","lat":"51.523148321133014","lng":"-0.18633931651184846","distance":"275","postalCode":"W9 2JQ","cc":"GB","city":"Paddington","state":"Greater London","country":"United Kingdom"},"categories":[{"id":"4bf58dd8d48988d102941735","name":"Yoga Studio","pluralName":"Yoga Studios","shortName":"Yoga Studio","icon":{"prefix":"https:\/\/ss1.4sqi.net\/img\/categories_v2\/shops\/gym_yogastudio_","suffix":".png"},"primary":"true"}],"verified":"false","restricted":"true","stats":{"checkinsCount":"122","usersCount":"19","tipCount":"0"},"url":"http:\/\/www.littlevenicepilates.com","specials":{"count":"0"},"hereNow":{"count":"0"},"referralId":"v-1392477984"},{"id":"4d3305dcf8c9224bd992b6d2","name":"Sali's Hair and Beauty","contact":{"phone":"+442072861761","formattedPhone":"+44 20 7286 1761"},"location":{"address":"3 Formosa Street","crossStreet":"Warrington Crescent","lat":"51.52452703347532","lng":"-0.18451410233088925","distance":"121","postalCode":"W9","cc":"GB","city":"London","state":"Greater London","country":"United Kingdom"},"categories":[{"id":"4bf58dd8d48988d110951735","name":"Salon \/ Barbershop","pluralName":"Salons \/ Barbershops","shortName":"Salon \/ Barbershop","icon":{"prefix":"https:\/\/ss1.4sqi.net\/img\/categories_v2\/shops\/salon_barber_","suffix":".png"},"primary":"true"}],"verified":"false","restricted":"true","stats":{"checkinsCount":"12","usersCount":"8","tipCount":"0"},"specials":{"count":"0"},"hereNow":{"count":"0"},"referralId":"v-1392477984"},{"id":"4bc1b70e2a89ef3b74a5f288","name":"Clifton Nurseries","contact":{"phone":"+442072896851","formattedPhone":"+44 20 7289 6851"},"location":{"address":"5A Clifton Villas","lat":"51.52235596738635","lng":"-0.18411463356213695","distance":"233","postalCode":"W9 2PH","cc":"GB","city":"London","state":"Greater London","country":"United Kingdom"},"categories":[{"id":"4eb1c0253b7b52c0e1adc2e9","name":"Garden Center","pluralName":"Garden Centers","shortName":"Garden Center","icon":{"prefix":"https:\/\/ss1.4sqi.net\/img\/categories_v2\/parks_outdoors\/gardencenter_","suffix":".png"},"primary":"true"}],"verified":"false","restricted":"true","stats":{"checkinsCount":"239","usersCount":"154","tipCount":"8"},"specials":{"count":"0"},"hereNow":{"count":"0"},"referralId":"v-1392477984"},{"id":"4ac518c6f964a5201ea520e3","name":"Amoul","location":{"address":"14 Formosa Street","lat":"51.52452649165954","lng":"-0.18496329512591148","distance":"151","postalCode":"W9 1EE","cc":"GB","city":"London","state":"Greater London","country":"United Kingdom"},"categories":[{"id":"4bf58dd8d48988d16d941735","name":"Caf\u00e9","pluralName":"Caf\u00e9s","shortName":"Caf\u00e9","icon":{"prefix":"https:\/\/ss1.4sqi.net\/img\/categories_v2\/food\/cafe_","suffix":".png"},"primary":"true"}],"verified":"false","restricted":"true","stats":{"checkinsCount":"243","usersCount":"94","tipCount":"9"},"reservations":{"url":"http:\/\/www.toptable.co.uk\/single.aspx?rid=96399&ref=9601"},"menu":{"type":"Menu","label":"Menu","anchor":"View Menu","url":"https:\/\/foursquare.com\/v\/amoul\/4ac518c6f964a5201ea520e3\/menu","mobileUrl":"https:\/\/foursquare.com\/v\/4ac518c6f964a5201ea520e3\/device_menu"},"specials":{"count":"0"},"hereNow":{"count":"0"},"referralId":"v-1392477984"},{"id":"526ca70111d22cac10a640b0","name":"Miraviva Travel","contact":{"phone":"+442071861111","formattedPhone":"+44 20 7186 1111","twitter":"miravivatravel"},"location":{"address":"14 Clarendon Gardens","lat":"51.524390049234626","lng":"-0.18014802740676536","distance":"184","postalCode":"W9 1AY","cc":"GB","city":"London","state":"Greater London","country":"United Kingdom"},"categories":[{"id":"4f04b08c2fb6e1c99f3db0bd","name":"Travel Agency","pluralName":"Travel Agencies","shortName":"Travel Agency","icon":{"prefix":"https:\/\/ss1.4sqi.net\/img\/categories_v2\/travel\/travelagency_","suffix":".png"},"primary":"true"}],"verified":"false","restricted":"true","stats":{"checkinsCount":"3","usersCount":"1","tipCount":"0"},"url":"http:\/\/www.miravivatravel.com","specials":{"count":"0"},"hereNow":{"count":"0"},"referralId":"v-1392477984"},{"id":"4c4ad056f7cc1b8d0da7f53e","name":"Tillie's Nail Lounge","contact":{"phone":"+442072662620","formattedPhone":"+44 20 7266 2620"},"location":{"address":"5 Formosa Street","lat":"51.52443","lng":"-0.184637","distance":"127","postalCode":"W9 1EE","cc":"GB","city":"London","state":"Greater London","country":"United Kingdom"},"categories":[{"id":"4bf58dd8d48988d10c951735","name":"Cosmetics Shop","pluralName":"Cosmetics Shops","shortName":"Cosmetics","icon":{"prefix":"https:\/\/ss1.4sqi.net\/img\/categories_v2\/shops\/beauty_cosmetic_","suffix":".png"},"primary":"true"}],"verified":"false","restricted":"true","stats":{"checkinsCount":"22","usersCount":"11","tipCount":"0"},"specials":{"count":"0"},"hereNow":{"count":"0"},"referralId":"v-1392477984"},{"id":"51688c4ee4b0dd3094d2cf99","name":"32a Bristol Gardens","location":{"lat":"51.523278","lng":"-0.186479","distance":"278","cc":"GB","country":"United Kingdom"},"categories":[{"id":"4bf58dd8d48988d11c941735","name":"Sake Bar","pluralName":"Sake Bars","shortName":"Sake Bar","icon":{"prefix":"https:\/\/ss1.4sqi.net\/img\/categories_v2\/nightlife\/sake_","suffix":".png"},"primary":"true"}],"verified":"false","restricted":"true","stats":{"checkinsCount":"44","usersCount":"5","tipCount":"0"},"specials":{"count":"0"},"hereNow":{"count":"0"},"referralId":"v-1392477984"},{"id":"4c0bca53340720a1cd968893","name":"Warwick Ave Taxi Shelter","location":{"lat":"51.523329","lng":"-0.183821","distance":"128","cc":"GB","country":"United Kingdom"},"verified":"false","restricted":"true","stats":{"checkinsCount":"43","usersCount":"26","tipCount":"2"},"specials":{"count":"0"},"hereNow":{"count":"0"},"referralId":"v-1392477984"},{"id":"5214bf3511d268ac10dcbb81","name":"lab","location":{"lat":"51.52321243286133","lng":"-0.18343886733055115","distance":"127","cc":"GB","country":"United Kingdom"},"categories":[{"id":"4bf58dd8d48988d1a5941735","name":"College Lab","pluralName":"College Labs","shortName":"Lab","icon":{"prefix":"https:\/\/ss1.4sqi.net\/img\/categories_v2\/education\/lab_","suffix":".png"},"primary":"true"}],"verified":"false","restricted":"true","stats":{"checkinsCount":"1","usersCount":"1","tipCount":"0"},"specials":{"count":"0"},"hereNow":{"count":"0"},"referralId":"v-1392477984"},{"id":"4f8164ace4b085b99be2db34","name":"Alexander's Kitchen","location":{"lat":"51.524857","lng":"-0.18444","distance":"129","cc":"GB","country":"United Kingdom"},"categories":[{"id":"4bf58dd8d48988d1c4941735","name":"Restaurant","pluralName":"Restaurants","shortName":"Restaurant","icon":{"prefix":"https:\/\/ss1.4sqi.net\/img\/categories_v2\/food\/default_","suffix":".png"},"primary":"true"}],"verified":"false","restricted":"true","stats":{"checkinsCount":"5","usersCount":"1","tipCount":"0"},"specials":{"count":"0"},"hereNow":{"count":"0"},"referralId":"v-1392477984"},{"id":"4db1a7bd93a061576859e555","name":"Crescent Gardens","location":{"address":"Westminster, London W9 1EH","crossStreet":"warrington crescent","lat":"51.5257119549955","lng":"-0.1828110635760851","distance":"158","postalCode":"W9 1EH","cc":"GB","city":"London","state":"Greater London","country":"United Kingdom"},"categories":[{"id":"4bf58dd8d48988d163941735","name":"Park","pluralName":"Parks","shortName":"Park","icon":{"prefix":"https:\/\/ss1.4sqi.net\/img\/categories_v2\/parks_outdoors\/park_","suffix":".png"},"primary":"true"}],"verified":"false","restricted":"true","stats":{"checkinsCount":"94","usersCount":"27","tipCount":"0"},"specials":{"count":"0"},"hereNow":{"count":"0"},"referralId":"v-1392477984"},{"id":"5214d30e11d20675072c41f1","name":"bboks","location":{"lat":"51.52317428588867","lng":"-0.18345415592193604","distance":"132","cc":"GB","country":"United Kingdom"},"categories":[{"id":"4bf58dd8d48988d1a7941735","name":"College Library","pluralName":"College Libraries","shortName":"Library","icon":{"prefix":"https:\/\/ss1.4sqi.net\/img\/categories_v2\/building\/library_","suffix":".png"},"primary":"true"}],"verified":"false","restricted":"true","stats":{"checkinsCount":"1","usersCount":"1","tipCount":"0"},"specials":{"count":"0"},"hereNow":{"count":"0"},"referralId":"v-1392477984"},{"id":"516a92b5e4b013b7648ee2dd","name":"Boots","location":{"lat":"51.523183589637824","lng":"-0.18345850926702978","distance":"131","cc":"GB","country":"United Kingdom"},"categories":[{"id":"4bf58dd8d48988d10f951735","name":"Drugstore \/ Pharmacy","pluralName":"Drugstores \/ Pharmacies","shortName":"Pharmacy","icon":{"prefix":"https:\/\/ss1.4sqi.net\/img\/categories_v2\/shops\/pharmacy_","suffix":".png"},"primary":"true"}],"verified":"false","restricted":"true","stats":{"checkinsCount":"5","usersCount":"5","tipCount":"0"},"specials":{"count":"0"},"hereNow":{"count":"0"},"referralId":"v-1392477984"},{"id":"4c823b8de602b1f79f049a7a","name":"D Higs","location":{"address":"Formosa St.","crossStreet":"Little Venice","lat":"51.52491687171797","lng":"-0.1845107608056358","distance":"137","cc":"GB","city":"Paddington","state":"Greater London","country":"United Kingdom"},"categories":[{"id":"4bf58dd8d48988d1f9941735","name":"Food & Drink Shop","pluralName":"Food & Drink Shops","shortName":"Food & Drink","icon":{"prefix":"https:\/\/ss1.4sqi.net\/img\/categories_v2\/shops\/foodanddrink_","suffix":".png"},"primary":"true"}],"verified":"false","restricted":"true","stats":{"checkinsCount":"23","usersCount":"11","tipCount":"0"},"specials":{"count":"0"},"hereNow":{"count":"0"},"referralId":"v-1392477984"},{"id":"4b2e1eb8f964a520d8dc24e3","name":"The Winery","contact":{"phone":"+442072866475","formattedPhone":"+44 20 7286 6475"},"location":{"address":"4 Clifton Road","lat":"51.5252258808334","lng":"-0.18085809221140517","distance":"170","postalCode":"W9 1SS","cc":"GB","city":"London","state":"Greater London","country":"United Kingdom"},"categories":[{"id":"4bf58dd8d48988d119951735","name":"Wine Shop","pluralName":"Wine Shops","shortName":"Wine Shop","icon":{"prefix":"https:\/\/ss1.4sqi.net\/img\/categories_v2\/shops\/food_wineshop_","suffix":".png"},"primary":"true"}],"verified":"false","restricted":"true","stats":{"checkinsCount":"69","usersCount":"22","tipCount":"4"},"specials":{"count":"0"},"hereNow":{"count":"0"},"referralId":"v-1392477984"},{"id":"4d8c75c35bd6f04df7e8e528","name":"Formosa Amenity","location":{"lat":"51.52499","lng":"-0.184551","distance":"144","cc":"GB","country":"United Kingdom"},"categories":[{"id":"4bf58dd8d48988d1e7941735","name":"Playground","pluralName":"Playgrounds","shortName":"Playground","icon":{"prefix":"https:\/\/ss1.4sqi.net\/img\/categories_v2\/parks_outdoors\/playground_","suffix":".png"},"primary":"true"}],"verified":"false","restricted":"true","stats":{"checkinsCount":"39","usersCount":"6","tipCount":"1"},"specials":{"count":"0"},"hereNow":{"count":"0"},"referralId":"v-1392477984"}],"confident":"true"}}