{"meta":{"code":"200"},"response":{"venues":[{"id":"52679a10498eb8400efd8c79","name":"Monitise Create","contact":{"phone":"+442079524029","formattedPhone":"+44 20 7952 4029","twitter":"monitisecreate"},"location":{"address":"51-53 Great Malborough Street","lat":"51.51433181762695","lng":"-0.1381170004606247","distance":"22","postalCode":"W1F 7JT","cc":"GB","city":"London","state":"Greater London","country":"United Kingdom"},"categories":[{"id":"4bf58dd8d48988d124941735","name":"Office","pluralName":"Offices","shortName":"Office","icon":{"prefix":"https:\/\/ss1.4sqi.net\/img\/categories_v2\/building\/default_","suffix":".png"},"primary":"true"}],"verified":"false","restricted":"true","stats":{"checkinsCount":"66","usersCount":"6","tipCount":"0"},"specials":{"count":"0"},"hereNow":{"count":"0"},"referralId":"v-1392478015"},{"id":"4acdd0fbf964a5201acd20e3","name":"Bodean's","contact":{"phone":"+442072877575","formattedPhone":"+44 20 7287 7575","twitter":"bodeansbbq"},"location":{"address":"10 Poland St","lat":"51.51440802993416","lng":"-0.13682618737220764","distance":"68","postalCode":"W1F 8PZ","cc":"GB","city":"London","state":"Greater London","country":"United Kingdom"},"categories":[{"id":"4bf58dd8d48988d1df931735","name":"BBQ Joint","pluralName":"BBQ Joints","shortName":"BBQ","icon":{"prefix":"https:\/\/ss1.4sqi.net\/img\/categories_v2\/food\/bbq_","suffix":".png"},"primary":"true"}],"verified":"false","restricted":"true","stats":{"checkinsCount":"7845","usersCount":"4406","tipCount":"157"},"url":"http:\/\/www.bodeansbbq.com","menu":{"type":"Menu","label":"Menu","anchor":"View Menu","url":"https:\/\/foursquare.com\/v\/bodeans\/4acdd0fbf964a5201acd20e3\/menu","mobileUrl":"https:\/\/foursquare.com\/v\/4acdd0fbf964a5201acd20e3\/device_menu"},"specials":{"count":"0"},"hereNow":{"count":"0"},"referralId":"v-1392478015"},{"id":"4b7a73f3f964a520522d2fe3","name":"Vinyl Factory","location":{"address":"51 Poland St.","lat":"51.51410838524906","lng":"-0.13769995903975843","distance":"21","postalCode":"W1F 7LZ","cc":"GB","city":"London","state":"Greater London","country":"United Kingdom"},"categories":[{"id":"4bf58dd8d48988d1e2931735","name":"Art Gallery","pluralName":"Art Galleries","shortName":"Art Gallery","icon":{"prefix":"https:\/\/ss1.4sqi.net\/img\/categories_v2\/arts_entertainment\/artgallery_","suffix":".png"},"primary":"true"}],"verified":"false","restricted":"true","stats":{"checkinsCount":"123","usersCount":"104","tipCount":"1"},"url":"http:\/\/www.thevinylfactory.com","specials":{"count":"0"},"hereNow":{"count":"0"},"referralId":"v-1392478015"},{"id":"4d837b5ef1e56ea85a2c618a","name":"PlayStation - SCEE","location":{"address":"10 Great Marlborough Str","lat":"51.51465703574565","lng":"-0.13818784051984023","distance":"48","postalCode":"W1F","cc":"GB","city":"London","state":"Greater London","country":"United Kingdom"},"categories":[{"id":"4bf58dd8d48988d124941735","name":"Office","pluralName":"Offices","shortName":"Office","icon":{"prefix":"https:\/\/ss1.4sqi.net\/img\/categories_v2\/building\/default_","suffix":".png"},"primary":"true"}],"verified":"false","restricted":"true","stats":{"checkinsCount":"923","usersCount":"155","tipCount":"2"},"specials":{"count":"0"},"hereNow":{"count":"0"},"referralId":"v-1392478015"},{"id":"4acdabe2f964a5209fcc20e3","name":"Ping Pong","contact":{"phone":"+442078516969","formattedPhone":"+44 20 7851 6969","twitter":"pingpongdimsum"},"location":{"address":"45 Great Marlborough St","lat":"51.514512141470426","lng":"-0.1388423457126126","distance":"76","postalCode":"W1F 7JL","cc":"GB","city":"London","state":"Greater London","country":"United Kingdom"},"categories":[{"id":"4bf58dd8d48988d1f5931735","name":"Dim Sum Restaurant","pluralName":"Dim Sum Restaurants","shortName":"Dim Sum","icon":{"prefix":"https:\/\/ss1.4sqi.net\/img\/categories_v2\/food\/dimsum_","suffix":".png"},"primary":"true"}],"verified":"true","restricted":"true","stats":{"checkinsCount":"3612","usersCount":"2726","tipCount":"89"},"url":"http:\/\/www.pingpongdimsum.com","menu":{"type":"Menu","label":"Menu","anchor":"View Menu","url":"https:\/\/foursquare.com\/v\/ping-pong-london-greater-london\/4acdabe2f964a5209fcc20e3\/menu","mobileUrl":"https:\/\/foursquare.com\/v\/4acdabe2f964a5209fcc20e3\/device_menu"},"specials":{"count":"0"},"hereNow":{"count":"1","groups":[{"type":"others","name":"Other people here","count":"1"}]},"referralId":"v-1392478015"},{"id":"4c13010b127f9521419b2425","name":"Starbucks","contact":{"phone":"+442074341664","formattedPhone":"+44 20 7434 1664","twitter":"starbucksuk"},"location":{"address":"3-4 Great Marlborough St","crossStreet":"at Poland St","lat":"51.51480653178281","lng":"-0.1374479924143601","distance":"62","postalCode":"W1F 7HH","cc":"GB","city":"London","state":"Greater London","country":"United Kingdom"},"categories":[{"id":"4bf58dd8d48988d1e0931735","name":"Coffee Shop","pluralName":"Coffee Shops","shortName":"Coffee Shop","icon":{"prefix":"https:\/\/ss1.4sqi.net\/img\/categories_v2\/food\/coffeeshop_","suffix":".png"},"primary":"true"}],"verified":"true","restricted":"true","stats":{"checkinsCount":"2072","usersCount":"1026","tipCount":"12"},"url":"http:\/\/starbucks.co.uk","specials":{"count":"0"},"hereNow":{"count":"1","groups":[{"type":"others","name":"Other people here","count":"1"}]},"storeId":"12962","referralId":"v-1392478015"},{"id":"5011a676e4b0c7c30c08e2b7","name":"Bibigo","location":{"address":"58-59 Great Marlborough St","lat":"51.514786254177025","lng":"-0.13735583777291813","distance":"63","postalCode":"W1F 7JY","cc":"GB","city":"London","state":"Greater London","country":"United Kingdom"},"categories":[{"id":"4bf58dd8d48988d113941735","name":"Korean Restaurant","pluralName":"Korean Restaurants","shortName":"Korean","icon":{"prefix":"https:\/\/ss1.4sqi.net\/img\/categories_v2\/food\/korean_","suffix":".png"},"primary":"true"}],"verified":"false","restricted":"true","stats":{"checkinsCount":"509","usersCount":"400","tipCount":"19"},"url":"http:\/\/bibigouk.com","reservations":{"url":"http:\/\/www.toptable.co.uk\/single.aspx?rid=94383&ref=9601"},"menu":{"type":"Menu","label":"Menu","anchor":"View Menu","url":"https:\/\/foursquare.com\/v\/bibigo-london-greater-london\/5011a676e4b0c7c30c08e2b7\/menu","mobileUrl":"https:\/\/foursquare.com\/v\/5011a676e4b0c7c30c08e2b7\/device_menu"},"specials":{"count":"0"},"hereNow":{"count":"0"},"referralId":"v-1392478015"},{"id":"5050c6a6e4b0706cbc520a7f","name":"Costa Coffee","location":{"address":"Great Marlborough Street","crossStreet":"Ramillies Street","lat":"51.514610776227904","lng":"-0.13873933679360723","distance":"74","cc":"GB","city":"London","state":"Greater London","country":"United Kingdom"},"categories":[{"id":"4bf58dd8d48988d1e0931735","name":"Coffee Shop","pluralName":"Coffee Shops","shortName":"Coffee Shop","icon":{"prefix":"https:\/\/ss1.4sqi.net\/img\/categories_v2\/food\/coffeeshop_","suffix":".png"},"primary":"true"}],"verified":"false","restricted":"true","stats":{"checkinsCount":"697","usersCount":"396","tipCount":"4"},"specials":{"count":"0"},"hereNow":{"count":"0"},"referralId":"v-1392478015"},{"id":"52f10aa511d212012426a9a1","name":"Ph. @ London Soho","location":{"lat":"51.51388723579619","lng":"-0.13825808705624903","distance":"54","cc":"GB","country":"United Kingdom"},"categories":[{"id":"4bf58dd8d48988d11e941735","name":"Cocktail Bar","pluralName":"Cocktail Bars","shortName":"Cocktail","icon":{"prefix":"https:\/\/ss1.4sqi.net\/img\/categories_v2\/nightlife\/cocktails_","suffix":".png"},"primary":"true"}],"verified":"false","restricted":"true","stats":{"checkinsCount":"19","usersCount":"4","tipCount":"0"},"specials":{"count":"0"},"hereNow":{"count":"0"},"referralId":"v-1392478015"},{"id":"4b229b11f964a5200a4a24e3","name":"Le Pain Quotidien","contact":{"phone":"+442074866154","formattedPhone":"+44 20 7486 6154","twitter":"le_pain_q_uk"},"location":{"address":"18 Great Marlborough St.","crossStreet":"near Regent St.","lat":"51.51431","lng":"-0.139185","distance":"95","postalCode":"W1F 7HT","cc":"GB","city":"London","state":"Greater London","country":"United Kingdom"},"categories":[{"id":"4bf58dd8d48988d16d941735","name":"Caf\u00e9","pluralName":"Caf\u00e9s","shortName":"Caf\u00e9","icon":{"prefix":"https:\/\/ss1.4sqi.net\/img\/categories_v2\/food\/cafe_","suffix":".png"},"primary":"true"}],"verified":"false","restricted":"true","stats":{"checkinsCount":"4106","usersCount":"2116","tipCount":"41"},"url":"http:\/\/www.lepainquotidien.co.uk","specials":{"count":"0"},"hereNow":{"count":"0"},"referralId":"v-1392478015"},{"id":"4b30c62bf964a52081fb24e3","name":"Beyond Retro","contact":{"phone":"+442074341406","formattedPhone":"+44 20 7434 1406"},"location":{"address":"58-59 Great Marlborough St","lat":"51.51483739153882","lng":"-0.1374880478822725","distance":"64","postalCode":"W1F 7JY","cc":"GB","city":"London","state":"Greater London","country":"United Kingdom"},"categories":[{"id":"4bf58dd8d48988d101951735","name":"Thrift \/ Vintage Store","pluralName":"Thrift \/ Vintage Stores","shortName":"Thrift \/ Vintage","icon":{"prefix":"https:\/\/ss1.4sqi.net\/img\/categories_v2\/shops\/default_","suffix":".png"},"primary":"true"}],"verified":"false","restricted":"true","stats":{"checkinsCount":"587","usersCount":"421","tipCount":"10"},"specials":{"count":"0"},"hereNow":{"count":"1","groups":[{"type":"others","name":"Other people here","count":"1"}]},"referralId":"v-1392478015"},{"id":"4ac518d4f964a520bfa720e3","name":"YO! Sushi","contact":{"phone":"+442072870443","formattedPhone":"+44 20 7287 0443","twitter":"yosushi"},"location":{"address":"52 Poland St","lat":"51.5143136","lng":"-0.1368901","distance":"63","postalCode":"W1F 7NQ","cc":"GB","city":"City of Westminster","state":"Greater London","country":"United Kingdom"},"categories":[{"id":"4bf58dd8d48988d1d2941735","name":"Sushi Restaurant","pluralName":"Sushi Restaurants","shortName":"Sushi","icon":{"prefix":"https:\/\/ss1.4sqi.net\/img\/categories_v2\/food\/sushi_","suffix":".png"},"primary":"true"}],"verified":"true","restricted":"true","stats":{"checkinsCount":"1348","usersCount":"950","tipCount":"19"},"url":"http:\/\/www.yosushi.com","specials":{"count":"0"},"hereNow":{"count":"0"},"storeId":"SOHO","referralId":"v-1392478015"},{"id":"4d958d0edaec224b22ec003e","name":"SCEE Research & Development","location":{"address":"13 Great Marlborough Street","lat":"51.51464618117641","lng":"-0.13861871312696558","distance":"69","postalCode":"W1F 7HP","cc":"GB","city":"London","state":"Greater London","country":"United Kingdom"},"categories":[{"id":"4bf58dd8d48988d124941735","name":"Office","pluralName":"Offices","shortName":"Office","icon":{"prefix":"https:\/\/ss1.4sqi.net\/img\/categories_v2\/building\/default_","suffix":".png"},"primary":"true"}],"verified":"false","restricted":"true","stats":{"checkinsCount":"1395","usersCount":"63","tipCount":"1"},"specials":{"count":"0"},"hereNow":{"count":"0"},"referralId":"v-1392478015"},{"id":"4ad32009f964a52024e320e3","name":"The Kati Roll Company","location":{"address":"24 Poland St","crossStreet":"btwn Noel St & Oxford St","lat":"51.51521013333333","lng":"-0.137429","distance":"105","postalCode":"W1F 8QL","cc":"GB","city":"London","state":"Greater London","country":"United Kingdom"},"categories":[{"id":"4bf58dd8d48988d10f941735","name":"Indian Restaurant","pluralName":"Indian Restaurants","shortName":"Indian","icon":{"prefix":"https:\/\/ss1.4sqi.net\/img\/categories_v2\/food\/indian_","suffix":".png"},"primary":"true"}],"verified":"false","restricted":"true","stats":{"checkinsCount":"1335","usersCount":"644","tipCount":"42"},"specials":{"count":"0"},"hereNow":{"count":"2","groups":[{"type":"others","name":"Other people here","count":"2"}]},"referralId":"v-1392478015"},{"id":"4ad5cb8ff964a520820321e3","name":"The Golden Union Fish Bar","contact":{"phone":"+442074341933","formattedPhone":"+44 20 7434 1933","twitter":"goldenunion"},"location":{"address":"38 Poland St","crossStreet":"Nr Oxford St","lat":"51.515443","lng":"-0.13769641428571427","distance":"128","postalCode":"W1F 7LY","cc":"GB","city":"London","state":"Greater London","country":"United Kingdom"},"categories":[{"id":"4edd64a0c7ddd24ca188df1a","name":"Fish & Chips Shop","pluralName":"Fish & Chips Shops","shortName":"Fish & Chips","icon":{"prefix":"https:\/\/ss1.4sqi.net\/img\/categories_v2\/food\/fishandchips_","suffix":".png"},"primary":"true"}],"verified":"true","restricted":"true","stats":{"checkinsCount":"948","usersCount":"684","tipCount":"37"},"url":"http:\/\/www.goldenunion.co.uk","menu":{"type":"Menu","label":"Menu","anchor":"View Menu","url":"https:\/\/foursquare.com\/v\/the-golden-union-fish-bar\/4ad5cb8ff964a520820321e3\/menu","mobileUrl":"https:\/\/foursquare.com\/v\/4ad5cb8ff964a520820321e3\/device_menu"},"specials":{"count":"0"},"hereNow":{"count":"4","groups":[{"type":"others","name":"Other people here","count":"4"}]},"storeId":"","referralId":"v-1392478015"},{"id":"4ac518c6f964a5201ca520e3","name":"Lucky Voice","contact":{"twitter":"luckyvoice"},"location":{"address":"52 Poland St","lat":"51.514311","lng":"-0.1368671","distance":"64","postalCode":"W1F 7NQ","cc":"GB","city":"London","state":"Greater London","country":"United Kingdom"},"categories":[{"id":"4bf58dd8d48988d120941735","name":"Karaoke Bar","pluralName":"Karaoke Bars","shortName":"Karaoke","icon":{"prefix":"https:\/\/ss1.4sqi.net\/img\/categories_v2\/nightlife\/karaoke_","suffix":".png"},"primary":"true"}],"verified":"false","restricted":"true","stats":{"checkinsCount":"774","usersCount":"640","tipCount":"10"},"menu":{"type":"Menu","label":"Menu","anchor":"View Menu","url":"https:\/\/foursquare.com\/v\/lucky-voice-soho-london\/4ac518c6f964a5201ca520e3\/menu","mobileUrl":"https:\/\/foursquare.com\/v\/4ac518c6f964a5201ca520e3\/device_menu"},"specials":{"count":"0"},"hereNow":{"count":"0"},"referralId":"v-1392478015"},{"id":"4f648039e4b03a7ce0f1ba75","name":"Choccywoccydoodah","contact":{"phone":"+442077349713","formattedPhone":"+44 20 7734 9713","twitter":"choccywoccyshop"},"location":{"address":"30 Foubert's Pl.","lat":"51.513783646985026","lng":"-0.13889521299504642","distance":"94","postalCode":"W1F 7PS","cc":"GB","city":"London","state":"Greater London","country":"United Kingdom"},"categories":[{"id":"4bf58dd8d48988d117951735","name":"Candy Store","pluralName":"Candy Stores","shortName":"Candy Store","icon":{"prefix":"https:\/\/ss1.4sqi.net\/img\/categories_v2\/shops\/candystore_","suffix":".png"},"primary":"true"}],"verified":"false","restricted":"true","stats":{"checkinsCount":"964","usersCount":"608","tipCount":"14"},"url":"http:\/\/www.choccywoccydoodah.com\/page\/london+shop","specials":{"count":"0"},"hereNow":{"count":"0"},"referralId":"v-1392478015"},{"id":"4af1b9ecf964a52086e221e3","name":"Phonica","contact":{"phone":"+442070256070","formattedPhone":"+44 20 7025 6070","twitter":"phonicarecords"},"location":{"address":"51 Poland St.","lat":"51.51441200677542","lng":"-0.13669185413606377","distance":"78","postalCode":"W1F 7LZ","cc":"GB","city":"London","state":"Greater London","country":"United Kingdom"},"categories":[{"id":"4bf58dd8d48988d10d951735","name":"Record Shop","pluralName":"Record Shops","shortName":"Record Shop","icon":{"prefix":"https:\/\/ss1.4sqi.net\/img\/categories_v2\/shops\/record_shop_","suffix":".png"},"primary":"true"}],"verified":"false","restricted":"true","stats":{"checkinsCount":"996","usersCount":"640","tipCount":"9"},"url":"http:\/\/www.phonicarecords.com","specials":{"count":"0"},"hereNow":{"count":"0"},"referralId":"v-1392478015"},{"id":"4b059d96f964a520d4df22e3","name":"White Horse","contact":{"phone":"+442074949748","formattedPhone":"+44 20 7494 9748"},"location":{"address":"16 Newburgh St","lat":"51.513378625034825","lng":"-0.13861282411436704","distance":"115","postalCode":"W1F 7RY","cc":"GB","city":"London","state":"Greater London","country":"United Kingdom"},"categories":[{"id":"4bf58dd8d48988d11b941735","name":"Pub","pluralName":"Pubs","shortName":"Pub","icon":{"prefix":"https:\/\/ss1.4sqi.net\/img\/categories_v2\/nightlife\/pub_","suffix":".png"},"primary":"true"}],"verified":"false","restricted":"true","stats":{"checkinsCount":"3214","usersCount":"1899","tipCount":"24"},"specials":{"count":"0"},"hereNow":{"count":"1","groups":[{"type":"others","name":"Other people here","count":"1"}]},"referralId":"v-1392478015"},{"id":"4bc606e5bf29c9b6781ef92a","name":"Barrio Central","contact":{"phone":"+442032301002","formattedPhone":"+44 20 3230 1002","twitter":"_barriocentral","facebook":"194304489228"},"location":{"address":"6 Poland St","lat":"51.513857195072795","lng":"-0.13650834560394287","distance":"101","postalCode":"W1F 8PS","cc":"GB","city":"London","state":"Greater London","country":"United Kingdom"},"categories":[{"id":"4bf58dd8d48988d11e941735","name":"Cocktail Bar","pluralName":"Cocktail Bars","shortName":"Cocktail","icon":{"prefix":"https:\/\/ss1.4sqi.net\/img\/categories_v2\/nightlife\/cocktails_","suffix":".png"},"primary":"true"}],"verified":"true","restricted":"true","stats":{"checkinsCount":"2415","usersCount":"1763","tipCount":"34"},"url":"http:\/\/www.welovebarrio.com","menu":{"type":"Menu","label":"Menu","anchor":"View Menu","url":"https:\/\/foursquare.com\/v\/barrio-central\/4bc606e5bf29c9b6781ef92a\/menu","mobileUrl":"https:\/\/foursquare.com\/v\/4bc606e5bf29c9b6781ef92a\/device_menu"},"specials":{"count":"0"},"hereNow":{"count":"0"},"venuePage":{"id":"60670586"},"storeId":"","referralId":"v-1392478015"},{"id":"4b3a83b1f964a5201c6925e3","name":"Coach & Horses","location":{"address":"Poland St.","lat":"51.51484298102609","lng":"-0.1371722111962959","distance":"75","postalCode":"W1","cc":"GB","city":"London","state":"Greater London","country":"United Kingdom"},"categories":[{"id":"4bf58dd8d48988d116941735","name":"Bar","pluralName":"Bars","shortName":"Bar","icon":{"prefix":"https:\/\/ss1.4sqi.net\/img\/categories_v2\/nightlife\/bar_","suffix":".png"},"primary":"true"}],"verified":"false","restricted":"true","stats":{"checkinsCount":"1553","usersCount":"1182","tipCount":"20"},"specials":{"count":"0"},"hereNow":{"count":"0"},"referralId":"v-1392478015"},{"id":"4b0449c6f964a520e85222e3","name":"Shakespeare's Head","contact":{"phone":"+442077342911","formattedPhone":"+44 20 7734 2911"},"location":{"address":"29 Great Marlborough St","crossStreet":"Fouberts Way","lat":"51.51365478921437","lng":"-0.13947534080508617","distance":"135","postalCode":"W1F 7HZ","cc":"GB","city":"London","state":"Greater London","country":"United Kingdom"},"categories":[{"id":"4bf58dd8d48988d11b941735","name":"Pub","pluralName":"Pubs","shortName":"Pub","icon":{"prefix":"https:\/\/ss1.4sqi.net\/img\/categories_v2\/nightlife\/pub_","suffix":".png"},"primary":"true"}],"verified":"false","restricted":"true","stats":{"checkinsCount":"3028","usersCount":"2352","tipCount":"26"},"specials":{"count":"0"},"hereNow":{"count":"0"},"referralId":"v-1392478015"},{"id":"51707de4498e18e7cfbcd08c","name":"Social Eating House","contact":{"phone":"+442079933251","formattedPhone":"+44 20 7993 3251","twitter":"socialeathouse"},"location":{"address":"58 Poland Street","lat":"51.51383252770421","lng":"-0.13651044588484018","distance":"102","postalCode":"W1F 7NR","cc":"GB","city":"London","state":"Greater London","country":"United Kingdom"},"categories":[{"id":"4bf58dd8d48988d10c941735","name":"French Restaurant","pluralName":"French Restaurants","shortName":"French","icon":{"prefix":"https:\/\/ss1.4sqi.net\/img\/categories_v2\/food\/french_","suffix":".png"},"primary":"true"}],"verified":"false","restricted":"true","stats":{"checkinsCount":"604","usersCount":"518","tipCount":"24"},"url":"http:\/\/www.socialeatinghouse.com","reservations":{"url":"http:\/\/www.toptable.co.uk\/single.aspx?rid=94413&ref=9601"},"menu":{"type":"Menu","label":"Menu","anchor":"View Menu","url":"https:\/\/foursquare.com\/v\/social-eating-house\/51707de4498e18e7cfbcd08c\/menu","mobileUrl":"https:\/\/foursquare.com\/v\/51707de4498e18e7cfbcd08c\/device_menu"},"specials":{"count":"0"},"hereNow":{"count":"1","groups":[{"type":"others","name":"Other people here","count":"1"}]},"referralId":"v-1392478015"},{"id":"4ae1bdd5f964a520148721e3","name":"Leon","contact":{"phone":"+442074375280","formattedPhone":"+44 20 7437 5280"},"location":{"address":"36 Great Marlborough St.","crossStreet":"at Carnaby St.","lat":"51.51381713409578","lng":"-0.13930320739746094","distance":"116","postalCode":"W1F 7JB","cc":"GB","city":"London","state":"Greater London","country":"United Kingdom"},"categories":[{"id":"4bf58dd8d48988d16e941735","name":"Fast Food Restaurant","pluralName":"Fast Food Restaurants","shortName":"Fast Food","icon":{"prefix":"https:\/\/ss1.4sqi.net\/img\/categories_v2\/food\/fastfood_","suffix":".png"},"primary":"true"}],"verified":"true","restricted":"true","stats":{"checkinsCount":"2033","usersCount":"1173","tipCount":"24"},"url":"http:\/\/www.leonrestaurants.co.uk","menu":{"type":"Menu","label":"Menu","anchor":"View Menu","url":"https:\/\/foursquare.com\/v\/leon\/4ae1bdd5f964a520148721e3\/menu","mobileUrl":"https:\/\/foursquare.com\/v\/4ae1bdd5f964a520148721e3\/device_menu"},"specials":{"count":"0"},"hereNow":{"count":"1","groups":[{"type":"others","name":"Other people here","count":"1"}]},"referralId":"v-1392478015"},{"id":"4c4f3a8579ffe21ee0894e1a","name":"Marshall Street Leisure Centre","contact":{"phone":"+442078717222","formattedPhone":"+44 20 7871 7222"},"location":{"address":"15 Marshall St.","lat":"51.51346645450561","lng":"-0.13791773594407164","distance":"91","postalCode":"W1F 7EL","cc":"GB","city":"London","state":"Greater London","country":"United Kingdom"},"categories":[{"id":"4bf58dd8d48988d175941735","name":"Gym \/ Fitness Center","pluralName":"Gyms or Fitness Centers","shortName":"Gym \/ Fitness","icon":{"prefix":"https:\/\/ss1.4sqi.net\/img\/categories_v2\/building\/gym_","suffix":".png"},"primary":"true"}],"verified":"false","restricted":"true","stats":{"checkinsCount":"1972","usersCount":"257","tipCount":"16"},"specials":{"count":"0"},"hereNow":{"count":"0"},"referralId":"v-1392478015"},{"id":"4ce689b7f86537041c5ba3c4","name":"Flatplanet","contact":{"phone":"+442077343133","formattedPhone":"+44 20 7734 3133","twitter":"flatplanethq"},"location":{"address":"39 Great Marlborough St","crossStreet":"Carnaby Street","lat":"51.51429136721286","lng":"-0.13935759012203983","distance":"107","postalCode":"W1F 7JG","cc":"GB","city":"London","state":"Greater London","country":"United Kingdom"},"categories":[{"id":"4bf58dd8d48988d1c4941735","name":"Restaurant","pluralName":"Restaurants","shortName":"Restaurant","icon":{"prefix":"https:\/\/ss1.4sqi.net\/img\/categories_v2\/food\/default_","suffix":".png"},"primary":"true"}],"verified":"true","restricted":"true","stats":{"checkinsCount":"1479","usersCount":"867","tipCount":"41"},"url":"http:\/\/www.flatplanet.co.uk","menu":{"type":"Menu","label":"Menu","anchor":"View Menu","url":"https:\/\/foursquare.com\/v\/flatplanet\/4ce689b7f86537041c5ba3c4\/menu","mobileUrl":"https:\/\/foursquare.com\/v\/4ce689b7f86537041c5ba3c4\/device_menu"},"specials":{"count":"1","items":[{"id":"514496ab19a9aff1cfe4c7d3","type":"frequency","message":"Get a free brownie or any coffee or one of our cold juices with your order!","description":"Unlocked every 10 check-ins","finePrint":"*Lemonade, Elderflower, Raspberry & Rose or Apple & Ginger","icon":"frequency","title":"Loyalty Special","provider":"foursquare","redemption":"standard","page":{"id":"50810315","firstName":"Flatplanet","gender":"none","photo":{"prefix":"https:\/\/irs0.4sqi.net\/img\/user\/","suffix":"\/50810315-5XV534C30EX0G04J.png"},"type":"venuePage","venue":{"id":"4ce689b7f86537041c5ba3c4"},"tips":{"count":"0"},"homeCity":"Soho, Greater London","bio":"","contact":{"twitter":"flatplanethq"}}}]},"hereNow":{"count":"0"},"venuePage":{"id":"50810315"},"storeId":"","referralId":"v-1392478015"},{"id":"503a856c011cb7f7de556034","name":"B-Soho Cocktail Bar & Pizzeria","contact":{"phone":"+442072871661","formattedPhone":"+44 20 7287 1661","twitter":"bsoholondon","facebook":"334566126625417"},"location":{"address":"21 Poland St.","crossStreet":"Great Marlborough St.","lat":"51.515059008000854","lng":"-0.1373612880706787","distance":"91","postalCode":"W1F 8QG","cc":"GB","city":"London","state":"Greater London","country":"United Kingdom"},"categories":[{"id":"4bf58dd8d48988d11e941735","name":"Cocktail Bar","pluralName":"Cocktail Bars","shortName":"Cocktail","icon":{"prefix":"https:\/\/ss1.4sqi.net\/img\/categories_v2\/nightlife\/cocktails_","suffix":".png"},"primary":"true"}],"verified":"true","restricted":"true","stats":{"checkinsCount":"743","usersCount":"548","tipCount":"9"},"url":"http:\/\/www.b-soho.co.uk","specials":{"count":"0"},"hereNow":{"count":"0"},"venuePage":{"id":"36920982"},"storeId":"","referralId":"v-1392478015"},{"id":"4dad8c5e1e72b2444e437063","name":"Kua 'Aina","contact":{"phone":"+442072877474","formattedPhone":"+44 20 7287 7474","twitter":"kuaainauk"},"location":{"address":"26 Foubert's Pl","lat":"51.51371646828168","lng":"-0.1392110721129838","distance":"116","postalCode":"W1F 7PP","cc":"GB","city":"London","state":"Greater London","country":"United Kingdom"},"categories":[{"id":"4bf58dd8d48988d16c941735","name":"Burger Joint","pluralName":"Burger Joints","shortName":"Burgers","icon":{"prefix":"https:\/\/ss1.4sqi.net\/img\/categories_v2\/food\/burger_","suffix":".png"},"primary":"true"}],"verified":"false","restricted":"true","stats":{"checkinsCount":"1520","usersCount":"1005","tipCount":"45"},"url":"http:\/\/www.kua-aina.co.uk","menu":{"type":"Menu","label":"Menu","anchor":"View Menu","url":"https:\/\/foursquare.com\/v\/kua-aina\/4dad8c5e1e72b2444e437063\/menu","mobileUrl":"https:\/\/foursquare.com\/v\/4dad8c5e1e72b2444e437063\/device_menu"},"specials":{"count":"0"},"hereNow":{"count":"0"},"referralId":"v-1392478015"},{"id":"52a839a1498ee7573e61ff55","name":"Obik\u00e0 Mozzarella Bar - Poland Street","contact":{"phone":"+442033277070","formattedPhone":"+44 20 3327 7070","twitter":"obikauk"},"location":{"address":"Poland Street 19-20","lat":"51.5148854147594","lng":"-0.1373291015625","distance":"74","postalCode":"W1F 8QF","cc":"GB","city":"London","state":"Greater London","country":"United Kingdom"},"categories":[{"id":"4bf58dd8d48988d110941735","name":"Italian Restaurant","pluralName":"Italian Restaurants","shortName":"Italian","icon":{"prefix":"https:\/\/ss1.4sqi.net\/img\/categories_v2\/food\/italian_","suffix":".png"},"primary":"true"}],"verified":"false","restricted":"true","stats":{"checkinsCount":"49","usersCount":"47","tipCount":"4"},"reservations":{"url":"http:\/\/www.toptable.co.uk\/single.aspx?rid=97620&ref=9601"},"menu":{"type":"Menu","label":"Menu","anchor":"View Menu","url":"https:\/\/foursquare.com\/v\/obik%C3%A0-mozzarella-bar--poland-street\/52a839a1498ee7573e61ff55\/menu","mobileUrl":"https:\/\/foursquare.com\/v\/52a839a1498ee7573e61ff55\/device_menu"},"specials":{"count":"0"},"hereNow":{"count":"0"},"referralId":"v-1392478015"},{"id":"4c4f1ba71b8e1b8da8fd4728","name":"Ben's Cookies","contact":{"phone":"+442077348846","formattedPhone":"+44 20 7734 8846"},"location":{"address":"35-36 Great Marlborough St.","crossStreet":"Carnaby","lat":"51.51402411543117","lng":"-0.13944804668426514","distance":"117","postalCode":"W1F 7JF","cc":"GB","city":"London","state":"Greater London","country":"United Kingdom"},"categories":[{"id":"4bf58dd8d48988d1d0941735","name":"Dessert Shop","pluralName":"Dessert Shops","shortName":"Desserts","icon":{"prefix":"https:\/\/ss1.4sqi.net\/img\/categories_v2\/food\/dessert_","suffix":".png"},"primary":"true"}],"verified":"true","restricted":"true","stats":{"checkinsCount":"831","usersCount":"666","tipCount":"17"},"specials":{"count":"0"},"hereNow":{"count":"1","groups":[{"type":"others","name":"Other people here","count":"1"}]},"referralId":"v-1392478015"}],"confident":"true"}}