{"meta":{"code":"200"},"response":{"venues":[{"id":"4acdcffcf964a52015cd20e3","name":"Swiss Cottage","contact":{"twitter":"swiss_cottage"},"location":{"address":"Everywhere!","lat":"51.542211524878915","lng":"-0.17447233200073242","distance":"345","postalCode":"NW3","cc":"GB","city":"London","state":"Greater London","country":"United Kingdom"},"categories":[{"id":"4f2a25ac4b909258e854f55f","name":"Neighborhood","pluralName":"Neighborhoods","shortName":"Neighborhood","icon":{"prefix":"https:\/\/ss1.4sqi.net\/img\/categories_v2\/parks_outdoors\/neighborhood_","suffix":".png"},"primary":"true"}],"verified":"false","restricted":"true","stats":{"checkinsCount":"1531","usersCount":"480","tipCount":"5"},"specials":{"count":"0"},"hereNow":{"count":"0"},"referralId":"v-1392477946"},{"id":"4ac518faf964a52031b020e3","name":"Swiss Cottage Leisure Centre","location":{"address":"Winchester Rd.","lat":"51.542304942159305","lng":"-0.17239093780517578","distance":"336","postalCode":"N9","cc":"GB","city":"London","state":"Greater London","country":"United Kingdom"},"categories":[{"id":"4bf58dd8d48988d175941735","name":"Gym \/ Fitness Center","pluralName":"Gyms or Fitness Centers","shortName":"Gym \/ Fitness","icon":{"prefix":"https:\/\/ss1.4sqi.net\/img\/categories_v2\/building\/gym_","suffix":".png"},"primary":"true"}],"verified":"false","restricted":"true","stats":{"checkinsCount":"4236","usersCount":"586","tipCount":"16"},"specials":{"count":"0"},"hereNow":{"count":"0"},"referralId":"v-1392477946"},{"id":"4ac518b4f964a5207ba020e3","name":"Marriott London Regents Park","location":{"address":"128 King Henry's Rd","lat":"51.54211350105258","lng":"-0.17036226687213063","distance":"356","postalCode":"NW3 3ST","cc":"GB","city":"Camden","state":"Greater London","country":"United Kingdom"},"categories":[{"id":"4bf58dd8d48988d1fa931735","name":"Hotel","pluralName":"Hotels","shortName":"Hotel","icon":{"prefix":"https:\/\/ss1.4sqi.net\/img\/categories_v2\/travel\/hotel_","suffix":".png"},"primary":"true"}],"verified":"false","restricted":"true","stats":{"checkinsCount":"2032","usersCount":"837","tipCount":"24"},"url":"http:\/\/www.marriott.co.uk\/hotels\/hotel-information\/restaurant\/lonrp-london-marriott-hotel-regents-park\/","menu":{"type":"Menu","label":"Menu","anchor":"View Menu","url":"https:\/\/foursquare.com\/v\/marriott-london-regents-park-camden-greater-london\/4ac518b4f964a5207ba020e3\/menu","mobileUrl":"https:\/\/foursquare.com\/v\/4ac518b4f964a5207ba020e3\/device_menu"},"specials":{"count":"0"},"hereNow":{"count":"1","groups":[{"type":"others","name":"Other people here","count":"1"}]},"referralId":"v-1392477946"},{"id":"4ac518e8f964a520a3ab20e3","name":"Odeon Swiss Cottage","contact":{"phone":"+448712244007","formattedPhone":"+44 871 224 4007","twitter":"odeoncinemas"},"location":{"address":"96 Finchley Rd","lat":"51.542668505623915","lng":"-0.17492008766858141","distance":"403","postalCode":"NW3 5EL","cc":"GB","city":"South Hampstead","state":"Greater London","country":"United Kingdom"},"categories":[{"id":"4bf58dd8d48988d180941735","name":"Multiplex","pluralName":"Multiplexes","shortName":"Cineplex","icon":{"prefix":"https:\/\/ss1.4sqi.net\/img\/categories_v2\/arts_entertainment\/movietheater_cineplex_","suffix":".png"},"primary":"true"}],"verified":"false","restricted":"true","stats":{"checkinsCount":"2229","usersCount":"1269","tipCount":"21"},"url":"http:\/\/www.odeon.co.uk","specials":{"count":"0"},"events":{"count":"6","summary":"6 movies"},"hereNow":{"count":"0"},"referralId":"v-1392477946"},{"id":"4ad47a4bf964a520fae720e3","name":"Swiss Cottage Library","location":{"address":"88 Avenue Road","lat":"51.54296280021968","lng":"-0.17293133633740854","distance":"409","postalCode":"NW3 3DA","cc":"GB","city":"London","state":"Greater London","country":"United Kingdom"},"categories":[{"id":"4bf58dd8d48988d1a7941735","name":"College Library","pluralName":"College Libraries","shortName":"Library","icon":{"prefix":"https:\/\/ss1.4sqi.net\/img\/categories_v2\/building\/library_","suffix":".png"},"primary":"true"}],"verified":"false","restricted":"true","stats":{"checkinsCount":"831","usersCount":"237","tipCount":"3"},"specials":{"count":"0"},"hereNow":{"count":"0"},"referralId":"v-1392477946"},{"id":"4b5092a7f964a520db2727e3","name":"Ye Olde Swiss Cottage","contact":{"phone":"+442072223487","formattedPhone":"+44 20 7222 3487"},"location":{"address":"98 Finchley Rd","lat":"51.542934110877376","lng":"-0.17482349195849303","distance":"429","postalCode":"NW3 5EL","cc":"GB","city":"London","state":"Greater London","country":"United Kingdom"},"categories":[{"id":"4bf58dd8d48988d11b941735","name":"Pub","pluralName":"Pubs","shortName":"Pub","icon":{"prefix":"https:\/\/ss1.4sqi.net\/img\/categories_v2\/nightlife\/pub_","suffix":".png"},"primary":"true"}],"verified":"false","restricted":"true","stats":{"checkinsCount":"853","usersCount":"527","tipCount":"15"},"specials":{"count":"0"},"hereNow":{"count":"0"},"referralId":"v-1392477946"},{"id":"4f678b94e4b04103a0760d96","name":"Mia Lounge London","contact":{"phone":"+442077224232","formattedPhone":"+44 20 7722 4232","twitter":"mialoungelondon"},"location":{"address":"100 Avenue Road","crossStreet":"Swiss Cottage","lat":"51.54316333416122","lng":"-0.17369791628471853","distance":"435","postalCode":"NW3 6HF","cc":"GB","city":"London","state":"Greater London","country":"United Kingdom"},"categories":[{"id":"4bf58dd8d48988d121941735","name":"Lounge","pluralName":"Lounges","shortName":"Lounge","icon":{"prefix":"https:\/\/ss1.4sqi.net\/img\/categories_v2\/nightlife\/lounge_","suffix":".png"},"primary":"true"}],"verified":"false","restricted":"true","stats":{"checkinsCount":"1253","usersCount":"528","tipCount":"7"},"url":"http:\/\/www.mialounge.com","reservations":{"url":"http:\/\/www.toptable.co.uk\/single.aspx?rid=90489&ref=9601"},"menu":{"type":"Menu","label":"Menu","anchor":"View Menu","url":"https:\/\/foursquare.com\/v\/mia-lounge-london\/4f678b94e4b04103a0760d96\/menu","mobileUrl":"https:\/\/foursquare.com\/v\/4f678b94e4b04103a0760d96\/device_menu"},"specials":{"count":"0"},"hereNow":{"count":"0"},"referralId":"v-1392477946"},{"id":"4ac518eaf964a520f2ab20e3","name":"Hampstead Theatre","contact":{"phone":"+442077229301","formattedPhone":"+44 20 7722 9301","twitter":"hamps_theatre"},"location":{"address":"Eton Avenue","lat":"51.543766230368064","lng":"-0.17365694046020508","distance":"501","postalCode":"NW3 3EU","cc":"GB","city":"London","state":"Greater London","country":"United Kingdom"},"categories":[{"id":"4bf58dd8d48988d137941735","name":"Theater","pluralName":"Theaters","shortName":"Theater","icon":{"prefix":"https:\/\/ss1.4sqi.net\/img\/categories_v2\/arts_entertainment\/performingarts_theater_","suffix":".png"},"primary":"true"}],"verified":"false","restricted":"true","stats":{"checkinsCount":"852","usersCount":"480","tipCount":"11"},"url":"http:\/\/www.hampsteadtheatre.com","specials":{"count":"0"},"hereNow":{"count":"0"},"referralId":"v-1392477946"},{"id":"521f5f2c11d2c445d9df2cbf","name":"Boydell Court","location":{"lat":"51.54118352486454","lng":"-0.1738578975223754","distance":"223","cc":"GB","country":"United Kingdom"},"categories":[{"id":"4d954b06a243a5684965b473","name":"Residential Building (Apartment \/ Condo)","pluralName":"Residential Buildings (Apartments \/ Condos)","shortName":"Residential","icon":{"prefix":"https:\/\/ss1.4sqi.net\/img\/categories_v2\/building\/apartment_","suffix":".png"},"primary":"true"}],"verified":"false","restricted":"true","stats":{"checkinsCount":"51","usersCount":"10","tipCount":"0"},"specials":{"count":"0"},"hereNow":{"count":"0"},"referralId":"v-1392477946"},{"id":"503b993fe4b00973857f29ee","name":"Marriott Leisure Club","location":{"lat":"51.542218841147985","lng":"-0.17099241351587127","distance":"349","cc":"GB","country":"United Kingdom"},"categories":[{"id":"4bf58dd8d48988d176941735","name":"Gym","pluralName":"Gyms","shortName":"Gym","icon":{"prefix":"https:\/\/ss1.4sqi.net\/img\/categories_v2\/building\/gym_","suffix":".png"},"primary":"true"}],"verified":"false","restricted":"true","stats":{"checkinsCount":"107","usersCount":"18","tipCount":"0"},"specials":{"count":"0"},"hereNow":{"count":"0"},"referralId":"v-1392477946"},{"id":"4fe58318e4b0bdc4f43075d2","name":"Executive Lounge","location":{"address":"Marriott Regents Park","lat":"51.54202204071714","lng":"-0.1702384680455022","distance":"352","cc":"GB","country":"United Kingdom"},"categories":[{"id":"4bf58dd8d48988d1d5941735","name":"Hotel Bar","pluralName":"Hotel Bars","shortName":"Hotel Bar","icon":{"prefix":"https:\/\/ss1.4sqi.net\/img\/categories_v2\/travel\/hotel_bar_","suffix":".png"},"primary":"true"}],"verified":"false","restricted":"true","stats":{"checkinsCount":"193","usersCount":"43","tipCount":"1"},"specials":{"count":"0"},"hereNow":{"count":"0"},"referralId":"v-1392477946"},{"id":"4d907a811716a143a30562f7","name":"Swiss Cottage Playground & Outdoor Gym","location":{"address":"Camden, London NW3 3NF","lat":"51.543086260953565","lng":"-0.17308780570340643","distance":"423","postalCode":"NW3 3NF","cc":"GB","city":"London","state":"Greater London","country":"United Kingdom"},"categories":[{"id":"4bf58dd8d48988d1e7941735","name":"Playground","pluralName":"Playgrounds","shortName":"Playground","icon":{"prefix":"https:\/\/ss1.4sqi.net\/img\/categories_v2\/parks_outdoors\/playground_","suffix":".png"},"primary":"true"}],"verified":"false","restricted":"true","stats":{"checkinsCount":"563","usersCount":"97","tipCount":"0"},"specials":{"count":"0"},"hereNow":{"count":"0"},"referralId":"v-1392477946"},{"id":"512bfb1be4b0510e2df390e4","name":"Sherlock Court","location":{"lat":"51.540316","lng":"-0.176311","distance":"268","cc":"GB","country":"United Kingdom"},"categories":[{"id":"4d954b06a243a5684965b473","name":"Residential Building (Apartment \/ Condo)","pluralName":"Residential Buildings (Apartments \/ Condos)","shortName":"Residential","icon":{"prefix":"https:\/\/ss1.4sqi.net\/img\/categories_v2\/building\/apartment_","suffix":".png"},"primary":"true"}],"verified":"false","restricted":"true","stats":{"checkinsCount":"117","usersCount":"8","tipCount":"0"},"specials":{"count":"0"},"hereNow":{"count":"0"},"referralId":"v-1392477946"},{"id":"4cea8bd90f196dcb7f7452ae","name":"Swiss Cottage School","location":{"address":"80 Avenue Road","lat":"51.54154022109886","lng":"-0.17286298108560413","distance":"250","postalCode":"NW8","cc":"GB","city":"Camden Town","state":"Greater London","country":"United Kingdom"},"categories":[{"id":"4bf58dd8d48988d13b941735","name":"School","pluralName":"Schools","shortName":"School","icon":{"prefix":"https:\/\/ss1.4sqi.net\/img\/categories_v2\/building\/school_","suffix":".png"},"primary":"true"}],"verified":"false","restricted":"true","stats":{"checkinsCount":"42","usersCount":"10","tipCount":"2"},"specials":{"count":"0"},"hereNow":{"count":"0"},"referralId":"v-1392477946"},{"id":"4cf11cc1899c6ea88b89eec1","name":"St Johns Wood Park","location":{"lat":"51.53859099306359","lng":"-0.17551924142904282","distance":"203","cc":"GB","country":"United Kingdom"},"categories":[{"id":"4bf58dd8d48988d163941735","name":"Park","pluralName":"Parks","shortName":"Park","icon":{"prefix":"https:\/\/ss1.4sqi.net\/img\/categories_v2\/parks_outdoors\/park_","suffix":".png"},"primary":"true"}],"verified":"false","restricted":"true","stats":{"checkinsCount":"321","usersCount":"86","tipCount":"0"},"specials":{"count":"0"},"hereNow":{"count":"0"},"referralId":"v-1392477946"},{"id":"4ed681c499112d6efebe84e8","name":"Bus Stop E","location":{"lat":"51.54223223962718","lng":"-0.1738760283675203","distance":"335","cc":"GB","city":"Camden Town","state":"Greater London","country":"United Kingdom"},"categories":[{"id":"4bf58dd8d48988d1fe931735","name":"Bus Station","pluralName":"Bus Stations","shortName":"Bus Station","icon":{"prefix":"https:\/\/ss1.4sqi.net\/img\/categories_v2\/travel\/busstation_","suffix":".png"},"primary":"true"}],"verified":"false","restricted":"true","stats":{"checkinsCount":"106","usersCount":"38","tipCount":"0"},"specials":{"count":"0"},"hereNow":{"count":"0"},"referralId":"v-1392477946"},{"id":"52e2c786498e192bf2ac431c","name":"Tara Tari","location":{"address":"117 Finchley Rd","lat":"51.54298218012651","lng":"-0.17375986714434413","distance":"416","postalCode":"NW3 6HY","cc":"GB","city":"London","state":"Greater London","country":"United Kingdom"},"categories":[{"id":"4bf58dd8d48988d1c4941735","name":"Restaurant","pluralName":"Restaurants","shortName":"Restaurant","icon":{"prefix":"https:\/\/ss1.4sqi.net\/img\/categories_v2\/food\/default_","suffix":".png"},"primary":"true"}],"verified":"false","restricted":"true","stats":{"checkinsCount":"7","usersCount":"7","tipCount":"0"},"url":"http:\/\/www.taratari.co.uk","specials":{"count":"0"},"hereNow":{"count":"0"},"referralId":"v-1392477946"},{"id":"4f665716e4b0dc7721c281b2","name":"Buttermere Court","location":{"lat":"51.53928236456938","lng":"-0.17538228635736317","distance":"178","cc":"GB","country":"United Kingdom"},"categories":[{"id":"4d954b06a243a5684965b473","name":"Residential Building (Apartment \/ Condo)","pluralName":"Residential Buildings (Apartments \/ Condos)","shortName":"Residential","icon":{"prefix":"https:\/\/ss1.4sqi.net\/img\/categories_v2\/building\/apartment_","suffix":".png"},"primary":"true"}],"verified":"false","restricted":"true","stats":{"checkinsCount":"12","usersCount":"5","tipCount":"0"},"specials":{"count":"0"},"hereNow":{"count":"0"},"referralId":"v-1392477946"},{"id":"4e89b6002c5b673ad549a933","name":"Dental Surgeon","location":{"address":"34 Finchley Road","lat":"51.53698570034489","lng":"-0.17558255473719622","distance":"320","postalCode":"NW8","cc":"GB","city":"London","state":"Greater London","country":"United Kingdom"},"verified":"false","restricted":"true","stats":{"checkinsCount":"9","usersCount":"3","tipCount":"0"},"specials":{"count":"0"},"hereNow":{"count":"0"},"referralId":"v-1392477946"},{"id":"4ac518ddf964a5206da920e3","name":"Bradleys","location":{"address":"25 Winchester Road","lat":"51.54383619320833","lng":"-0.1730522737091847","distance":"506","postalCode":"NW3 3NR","cc":"GB","city":"London","state":"Greater London","country":"United Kingdom"},"categories":[{"id":"4bf58dd8d48988d1c4941735","name":"Restaurant","pluralName":"Restaurants","shortName":"Restaurant","icon":{"prefix":"https:\/\/ss1.4sqi.net\/img\/categories_v2\/food\/default_","suffix":".png"},"primary":"true"}],"verified":"false","restricted":"true","stats":{"checkinsCount":"239","usersCount":"46","tipCount":"4"},"url":"http:\/\/www.bradleysnw3.co.uk","reservations":{"url":"http:\/\/www.toptable.co.uk\/single.aspx?rid=55633&ref=9601"},"menu":{"type":"Menu","label":"Menu","anchor":"View Menu","url":"https:\/\/foursquare.com\/v\/bradleys\/4ac518ddf964a5206da920e3\/menu","mobileUrl":"https:\/\/foursquare.com\/v\/4ac518ddf964a5206da920e3\/device_menu"},"specials":{"count":"0"},"hereNow":{"count":"0"},"referralId":"v-1392477946"},{"id":"4b4e366df964a52079e526e3","name":"The Winchester Project","location":{"address":"21 Winchester Road","lat":"51.543330430000005","lng":"-0.17272889614105225","distance":"449","postalCode":"NW3","cc":"GB","city":"London","state":"Greater London","country":"United Kingdom"},"categories":[{"id":"4bf58dd8d48988d1e1931735","name":"Arcade","pluralName":"Arcades","shortName":"Arcade","icon":{"prefix":"https:\/\/ss1.4sqi.net\/img\/categories_v2\/arts_entertainment\/arcade_","suffix":".png"},"primary":"true"}],"verified":"false","restricted":"true","stats":{"checkinsCount":"176","usersCount":"27","tipCount":"0"},"specials":{"count":"0"},"hereNow":{"count":"0"},"referralId":"v-1392477946"},{"id":"4f13cb32e4b04b3f05af7035","name":"Bukit Panjang, Singapore","location":{"lat":"51.538525","lng":"-0.173714","distance":"105","cc":"GB","country":"United Kingdom"},"verified":"false","restricted":"true","stats":{"checkinsCount":"1","usersCount":"1","tipCount":"0"},"specials":{"count":"0"},"hereNow":{"count":"0"},"referralId":"v-1392477946"},{"id":"51b3f8a8498ed1f8e1b4e2ea","name":"Queensmead","location":{"lat":"51.538409","lng":"-0.173443","distance":"107","cc":"GB","country":"United Kingdom"},"categories":[{"id":"4d954b06a243a5684965b473","name":"Residential Building (Apartment \/ Condo)","pluralName":"Residential Buildings (Apartments \/ Condos)","shortName":"Residential","icon":{"prefix":"https:\/\/ss1.4sqi.net\/img\/categories_v2\/building\/apartment_","suffix":".png"},"primary":"true"}],"verified":"false","restricted":"true","stats":{"checkinsCount":"41","usersCount":"1","tipCount":"0"},"specials":{"count":"0"},"hereNow":{"count":"0"},"referralId":"v-1392477946"},{"id":"4acda30cf964a52074cc20e3","name":"Del'Aziz","contact":{"phone":"+442075863338","formattedPhone":"+44 20 7586 3338","twitter":"delazizlondon","facebook":"95676299014"},"location":{"address":"Swiss Cottage","crossStreet":"Adelaide Rd.","lat":"51.542832","lng":"-0.17363929999999997","distance":"398","postalCode":"NW3 3NF","cc":"GB","city":"London","state":"Greater London","country":"United Kingdom"},"categories":[{"id":"4bf58dd8d48988d1c3941735","name":"Moroccan Restaurant","pluralName":"Moroccan Restaurants","shortName":"Moroccan","icon":{"prefix":"https:\/\/ss1.4sqi.net\/img\/categories_v2\/food\/moroccan_","suffix":".png"},"primary":"true"}],"verified":"true","restricted":"true","stats":{"checkinsCount":"399","usersCount":"172","tipCount":"9"},"specials":{"count":"0"},"hereNow":{"count":"0"},"referralId":"v-1392477946"},{"id":"4ba4ce47f964a52097b638e3","name":"The Ordnance","contact":{"phone":"+442077220278","formattedPhone":"+44 20 7722 0278"},"location":{"address":"29 Ordnance Hill","crossStreet":"at Acacia Rd.","lat":"51.53578070853499","lng":"-0.17144280637603282","distance":"401","postalCode":"NW8 6PS","cc":"GB","city":"St John's Wood","state":"Greater London","country":"United Kingdom"},"categories":[{"id":"4bf58dd8d48988d11b941735","name":"Pub","pluralName":"Pubs","shortName":"Pub","icon":{"prefix":"https:\/\/ss1.4sqi.net\/img\/categories_v2\/nightlife\/pub_","suffix":".png"},"primary":"true"}],"verified":"false","restricted":"true","stats":{"checkinsCount":"266","usersCount":"141","tipCount":"4"},"specials":{"count":"0"},"hereNow":{"count":"0"},"referralId":"v-1392477946"},{"id":"4f22813be4b0ed3396589ea6","name":"Walsingham","location":{"lat":"51.538356309590064","lng":"-0.17348978413207095","distance":"114","cc":"GB","country":"United Kingdom"},"verified":"false","restricted":"true","stats":{"checkinsCount":"32","usersCount":"2","tipCount":"0"},"specials":{"count":"0"},"hereNow":{"count":"0"},"referralId":"v-1392477946"},{"id":"4e5118bbe4cdc76dc9c7b64e","name":"Hair By Nico","location":{"lat":"51.534684","lng":"-0.174527","distance":"526","cc":"GB","city":"London","state":"Greater London","country":"United Kingdom"},"categories":[{"id":"4bf58dd8d48988d110951735","name":"Salon \/ Barbershop","pluralName":"Salons \/ Barbershops","shortName":"Salon \/ Barbershop","icon":{"prefix":"https:\/\/ss1.4sqi.net\/img\/categories_v2\/shops\/salon_barber_","suffix":".png"},"primary":"true"}],"verified":"false","restricted":"true","stats":{"checkinsCount":"4","usersCount":"4","tipCount":"1"},"specials":{"count":"0"},"hereNow":{"count":"0"},"referralId":"v-1392477946"},{"id":"4debde28636555593e5814a1","name":"Quintin Kynaston Community Academy","contact":{"phone":"+442077228141","formattedPhone":"+44 20 7722 8141"},"location":{"address":"Marlborough Hill","lat":"51.53716053766154","lng":"-0.17689475071433808","distance":"369","postalCode":"NW8 0NL","cc":"GB","city":"London","state":"Greater London","country":"United Kingdom"},"categories":[{"id":"4bf58dd8d48988d1ab941735","name":"Student Center","pluralName":"Student Centers","shortName":"Student Center","icon":{"prefix":"https:\/\/ss1.4sqi.net\/img\/categories_v2\/education\/studentcenter_","suffix":".png"},"primary":"true"}],"verified":"false","restricted":"true","stats":{"checkinsCount":"88","usersCount":"17","tipCount":"1"},"specials":{"count":"0"},"hereNow":{"count":"0"},"referralId":"v-1392477946"},{"id":"52c31463498e8b25e5a681cd","name":"La Voss","location":{"lat":"51.543113708496094","lng":"-0.17492729425430298","distance":"450","cc":"GB","country":"United Kingdom"},"categories":[{"id":"4bf58dd8d48988d110941735","name":"Italian Restaurant","pluralName":"Italian Restaurants","shortName":"Italian","icon":{"prefix":"https:\/\/ss1.4sqi.net\/img\/categories_v2\/food\/italian_","suffix":".png"},"primary":"true"}],"verified":"false","restricted":"true","stats":{"checkinsCount":"7","usersCount":"7","tipCount":"1"},"reservations":{"url":"http:\/\/www.toptable.co.uk\/single.aspx?rid=100497&ref=9601"},"specials":{"count":"0"},"hereNow":{"count":"0"},"referralId":"v-1392477946"},{"id":"4cbc019b43ec6dcbbe45ae31","name":"Swiss Cottage Surgery","contact":{"phone":"+448444778693","formattedPhone":"+44 844 477 8693"},"location":{"address":"2 Winchester Mews","lat":"51.54285430501575","lng":"-0.17314839017929273","distance":"397","postalCode":"NW33NP","cc":"GB","city":"London","state":"Greater London","country":"United Kingdom"},"categories":[{"id":"4bf58dd8d48988d104941735","name":"Medical Center","pluralName":"Medical Centers","shortName":"Medical","icon":{"prefix":"https:\/\/ss1.4sqi.net\/img\/categories_v2\/building\/medical_","suffix":".png"},"primary":"true"}],"verified":"false","restricted":"true","stats":{"checkinsCount":"99","usersCount":"22","tipCount":"0"},"specials":{"count":"0"},"hereNow":{"count":"0"},"referralId":"v-1392477946"}],"confident":"false"}}