{"meta":{"code":"200"},"response":{"venues":[{"id":"4ac518d1f964a520e0a620e3","name":"London Bridge","location":{"address":"A3 London Bridge","crossStreet":"btwn City of London and Southwark","lat":"51.50818153894719","lng":"-0.08754730224609375","distance":"124","postalCode":"EC4R","cc":"GB","city":"London","state":"Greater London","country":"United Kingdom"},"categories":[{"id":"4bf58dd8d48988d1df941735","name":"Bridge","pluralName":"Bridges","shortName":"Bridge","icon":{"prefix":"https:\/\/ss1.4sqi.net\/img\/categories_v2\/parks_outdoors\/bridge_","suffix":".png"},"primary":"true"}],"verified":"false","restricted":"true","stats":{"checkinsCount":"18441","usersCount":"11644","tipCount":"63"},"specials":{"count":"0"},"hereNow":{"count":"6","groups":[{"type":"others","name":"Other people here","count":"6"}]},"storeId":"","referralId":"v-1392478033"},{"id":"4f4bc3c5e4b08334fda1e618","name":"Groupon","location":{"address":"1 Swan Ln.","crossStreet":"Lower Thames St.","lat":"51.50928983973127","lng":"-0.08801769904534644","distance":"14","postalCode":"EC4R 3TA","cc":"GB","city":"London","state":"Greater London","country":"United Kingdom"},"categories":[{"id":"4bf58dd8d48988d130941735","name":"Building","pluralName":"Buildings","shortName":"Building","icon":{"prefix":"https:\/\/ss1.4sqi.net\/img\/categories_v2\/building\/default_","suffix":".png"},"primary":"true"}],"verified":"false","restricted":"true","stats":{"checkinsCount":"1335","usersCount":"93","tipCount":"2"},"specials":{"count":"0"},"hereNow":{"count":"0"},"referralId":"v-1392478033"},{"id":"4b431692f964a52022dc25e3","name":"The Monument to the Great Fire of London","contact":{"phone":"+442076262717","formattedPhone":"+44 20 7626 2717"},"location":{"address":"Monument St","crossStreet":"at Fish St Hill","lat":"51.51013312805822","lng":"-0.08613301832993302","distance":"149","postalCode":"EC3R 8AH","cc":"GB","city":"London","state":"Greater London","country":"United Kingdom"},"categories":[{"id":"4bf58dd8d48988d12d941735","name":"Monument \/ Landmark","pluralName":"Monuments \/ Landmarks","shortName":"Landmark","icon":{"prefix":"https:\/\/ss1.4sqi.net\/img\/categories_v2\/building\/government_monument_","suffix":".png"},"primary":"true"}],"verified":"false","restricted":"true","stats":{"checkinsCount":"6409","usersCount":"4155","tipCount":"34"},"url":"http:\/\/www.themonument.info","specials":{"count":"0"},"hereNow":{"count":"0"},"referralId":"v-1392478033"},{"id":"4cd80c25a42b236aae7bfd08","name":"Adelaide House","location":{"address":"London Bridge","lat":"51.50919653172424","lng":"-0.0868070125579834","distance":"69","postalCode":"EC4R 9HA","cc":"GB","city":"London","state":"Greater London","country":"United Kingdom"},"categories":[{"id":"4bf58dd8d48988d124941735","name":"Office","pluralName":"Offices","shortName":"Office","icon":{"prefix":"https:\/\/ss1.4sqi.net\/img\/categories_v2\/building\/default_","suffix":".png"},"primary":"true"}],"verified":"false","restricted":"true","stats":{"checkinsCount":"916","usersCount":"92","tipCount":"3"},"specials":{"count":"0"},"hereNow":{"count":"0"},"referralId":"v-1392478033"},{"id":"4b5dab68f964a520076629e3","name":"Pret A Manger","contact":{"phone":"+442079325217","formattedPhone":"+44 20 7932 5217","twitter":"pret","facebook":"162638680417951"},"location":{"address":"43 King William St","crossStreet":"at London Bridge","lat":"51.50994440666998","lng":"-0.0867319107055664","distance":"104","postalCode":"EC4R 9AN","cc":"GB","city":"London","state":"Greater London","country":"United Kingdom"},"categories":[{"id":"4bf58dd8d48988d1c5941735","name":"Sandwich Place","pluralName":"Sandwich Places","shortName":"Sandwiches","icon":{"prefix":"https:\/\/ss1.4sqi.net\/img\/categories_v2\/food\/sandwiches_","suffix":".png"},"primary":"true"}],"verified":"true","restricted":"true","stats":{"checkinsCount":"1246","usersCount":"665","tipCount":"9"},"url":"http:\/\/www.pret.com","specials":{"count":"0"},"hereNow":{"count":"0"},"storeId":"217","referralId":"v-1392478033"},{"id":"5220a0a111d2a0bf140e557f","name":"Little Waitrose Monument","contact":{"phone":"+442072831726","formattedPhone":"+44 20 7283 1726"},"location":{"address":"41-46 King William St","lat":"51.510091922190945","lng":"-0.08697381019355267","distance":"106","postalCode":"EC4R 9AN","cc":"GB","city":"London","state":"Greater London","country":"United Kingdom"},"categories":[{"id":"4d954b0ea243a5684a65b473","name":"Convenience Store","pluralName":"Convenience Stores","shortName":"Convenience Stores","icon":{"prefix":"https:\/\/ss1.4sqi.net\/img\/categories_v2\/shops\/conveniencestore_","suffix":".png"},"primary":"true"}],"verified":"false","restricted":"true","stats":{"checkinsCount":"111","usersCount":"37","tipCount":"0"},"url":"http:\/\/www.waitrose.com\/Monument","specials":{"count":"0"},"hereNow":{"count":"0"},"referralId":"v-1392478033"},{"id":"4af9ec80f964a5204a1522e3","name":"The Monument","contact":{"phone":"+442079295880","formattedPhone":"+44 20 7929 5880"},"location":{"address":"18 Fish Street Hill","lat":"51.51008463185556","lng":"-0.08632421493530273","distance":"135","postalCode":"EC3R 6DB","cc":"GB","city":"London","state":"Greater London","country":"United Kingdom"},"categories":[{"id":"4bf58dd8d48988d11b941735","name":"Pub","pluralName":"Pubs","shortName":"Pub","icon":{"prefix":"https:\/\/ss1.4sqi.net\/img\/categories_v2\/nightlife\/pub_","suffix":".png"},"primary":"true"}],"verified":"false","restricted":"true","stats":{"checkinsCount":"1009","usersCount":"659","tipCount":"5"},"url":"http:\/\/gkpubs.co.uk\/pubs-in-london\/monument-pub\/","specials":{"count":"0"},"hereNow":{"count":"0"},"referralId":"v-1392478033"},{"id":"4d553d9916a6b60c4f7d48f8","name":"Alibi","contact":{"twitter":"blplaw"},"location":{"address":"Adelaide House","crossStreet":"London Bridge","lat":"51.509027","lng":"-0.086933","distance":"66","postalCode":"EC4R 9HA","cc":"GB","city":"London","state":"Greater London","country":"United Kingdom"},"categories":[{"id":"4bf58dd8d48988d1c5941735","name":"Sandwich Place","pluralName":"Sandwich Places","shortName":"Sandwiches","icon":{"prefix":"https:\/\/ss1.4sqi.net\/img\/categories_v2\/food\/sandwiches_","suffix":".png"},"primary":"true"}],"verified":"false","restricted":"true","stats":{"checkinsCount":"492","usersCount":"22","tipCount":"2"},"url":"http:\/\/www.blplaw.com","specials":{"count":"0"},"hereNow":{"count":"0"},"referralId":"v-1392478033"},{"id":"4b6941edf964a520139d2be3","name":"Nomura","location":{"address":"1 Angel Lane","crossStreet":"Upper Thames St.","lat":"51.5097106970682","lng":"-0.08977890014648438","distance":"144","postalCode":"EC4R 3AB","cc":"GB","city":"London","state":"Greater London","country":"United Kingdom"},"categories":[{"id":"4bf58dd8d48988d124941735","name":"Office","pluralName":"Offices","shortName":"Office","icon":{"prefix":"https:\/\/ss1.4sqi.net\/img\/categories_v2\/building\/default_","suffix":".png"},"primary":"true"}],"verified":"false","restricted":"true","stats":{"checkinsCount":"1447","usersCount":"168","tipCount":"1"},"specials":{"count":"0"},"hereNow":{"count":"0"},"referralId":"v-1392478033"},{"id":"4f1d5a8fe4b0c74ef3c7400d","name":"The Oyster Shed","contact":{"phone":"+442072563240","formattedPhone":"+44 20 7256 3240","twitter":"oystershed"},"location":{"address":"5 Angel Lane","crossStreet":"Upper Thames St.","lat":"51.50921656424888","lng":"-0.08974671363830566","distance":"134","postalCode":"EC4R 3AB","cc":"GB","city":"London","state":"Greater London","country":"United Kingdom"},"categories":[{"id":"4bf58dd8d48988d155941735","name":"Gastropub","pluralName":"Gastropubs","shortName":"Gastropub","icon":{"prefix":"https:\/\/ss1.4sqi.net\/img\/categories_v2\/food\/gastropub_","suffix":".png"},"primary":"true"}],"verified":"true","restricted":"true","stats":{"checkinsCount":"815","usersCount":"474","tipCount":"14"},"url":"http:\/\/www.geronimo-inns.co.uk\/theoystershed","reservations":{"url":"http:\/\/www.toptable.co.uk\/single.aspx?rid=81991&ref=9601"},"menu":{"type":"Menu","label":"Menu","anchor":"View Menu","url":"https:\/\/foursquare.com\/v\/the-oyster-shed\/4f1d5a8fe4b0c74ef3c7400d\/menu","mobileUrl":"https:\/\/foursquare.com\/v\/4f1d5a8fe4b0c74ef3c7400d\/device_menu"},"specials":{"count":"0"},"hereNow":{"count":"0"},"referralId":"v-1392478033"},{"id":"4c206ff8e923ef3b18ed4e54","name":"St Magnus House","location":{"address":"3 Lower Thames St.","lat":"51.50890272035099","lng":"-0.08591651916503906","distance":"137","postalCode":"EC3R 6AE","cc":"GB","city":"London","state":"Greater London","country":"United Kingdom"},"categories":[{"id":"4bf58dd8d48988d124941735","name":"Office","pluralName":"Offices","shortName":"Office","icon":{"prefix":"https:\/\/ss1.4sqi.net\/img\/categories_v2\/building\/default_","suffix":".png"},"primary":"true"}],"verified":"false","restricted":"true","stats":{"checkinsCount":"903","usersCount":"48","tipCount":"2"},"specials":{"count":"0"},"hereNow":{"count":"0"},"referralId":"v-1392478033"},{"id":"4b61d970f964a520d9262ae3","name":"Be At One","contact":{"phone":"+442076210400","formattedPhone":"+44 20 7621 0400","twitter":"beatonebar"},"location":{"address":"28 King William St","lat":"51.510418499607916","lng":"-0.08699476718902588","distance":"137","postalCode":"EC4R 9AT","cc":"GB","city":"London","state":"Greater London","country":"United Kingdom"},"categories":[{"id":"4bf58dd8d48988d11e941735","name":"Cocktail Bar","pluralName":"Cocktail Bars","shortName":"Cocktail","icon":{"prefix":"https:\/\/ss1.4sqi.net\/img\/categories_v2\/nightlife\/cocktails_","suffix":".png"},"primary":"true"}],"verified":"false","restricted":"true","stats":{"checkinsCount":"613","usersCount":"327","tipCount":"6"},"url":"http:\/\/www.beatone.co.uk\/b-1-monument\/","specials":{"count":"0"},"hereNow":{"count":"0"},"referralId":"v-1392478033"},{"id":"525101db11d25eb1a39a2fca","name":"River Thames","location":{"address":"London","lat":"51.508150874798524","lng":"-0.08742291576717716","distance":"129","cc":"GB","city":"London","state":"Greater London","country":"United Kingdom"},"categories":[{"id":"4eb1d4dd4b900d56c88a45fd","name":"River","pluralName":"Rivers","shortName":"River","icon":{"prefix":"https:\/\/ss1.4sqi.net\/img\/categories_v2\/parks_outdoors\/river_","suffix":".png"},"primary":"true"}],"verified":"false","restricted":"true","stats":{"checkinsCount":"58","usersCount":"54","tipCount":"0"},"specials":{"count":"0"},"hereNow":{"count":"0"},"referralId":"v-1392478033"},{"id":"4c1936426a21c9b63135ca97","name":"The Fine Line","contact":{"phone":"+442076235446","formattedPhone":"+44 20 7623 5446"},"location":{"address":"1 Monument Street","lat":"51.51030498484663","lng":"-0.08642613887786865","distance":"147","postalCode":"EC3R 8BG","cc":"GB","city":"London","state":"Greater London","country":"United Kingdom"},"categories":[{"id":"4bf58dd8d48988d116941735","name":"Bar","pluralName":"Bars","shortName":"Bar","icon":{"prefix":"https:\/\/ss1.4sqi.net\/img\/categories_v2\/nightlife\/bar_","suffix":".png"},"primary":"true"}],"verified":"false","restricted":"true","stats":{"checkinsCount":"750","usersCount":"364","tipCount":"6"},"url":"http:\/\/www.finelinemonument.co.uk","menu":{"type":"Menu","label":"Menu","anchor":"View Menu","url":"https:\/\/foursquare.com\/v\/the-fine-line\/4c1936426a21c9b63135ca97\/menu","mobileUrl":"https:\/\/foursquare.com\/v\/4c1936426a21c9b63135ca97\/device_menu"},"specials":{"count":"0"},"hereNow":{"count":"0"},"referralId":"v-1392478033"},{"id":"50dad1e6e4b07ec1978c9847","name":"Monument","location":{"address":"Fish Street Hill","crossStreet":"Monument Street","lat":"51.510077954475555","lng":"-0.08594870567321777","distance":"155","postalCode":"EC3R 6DB","cc":"GB","city":"London","state":"Greater London","country":"United Kingdom"},"categories":[{"id":"4f2a25ac4b909258e854f55f","name":"Neighborhood","pluralName":"Neighborhoods","shortName":"Neighborhood","icon":{"prefix":"https:\/\/ss1.4sqi.net\/img\/categories_v2\/parks_outdoors\/neighborhood_","suffix":".png"},"primary":"true"}],"verified":"false","restricted":"true","stats":{"checkinsCount":"221","usersCount":"197","tipCount":"1"},"specials":{"count":"0"},"hereNow":{"count":"0"},"referralId":"v-1392478033"},{"id":"51dd822c498e223d331531ee","name":"St Magnus Gardens","location":{"address":"Thames Path","crossStreet":"Between Adelaide House & St Magnus House","lat":"51.50902423351103","lng":"-0.08634731787443875","distance":"105","cc":"GB","city":"London","state":"Greater London","country":"United Kingdom"},"categories":[{"id":"4bf58dd8d48988d15a941735","name":"Garden","pluralName":"Gardens","shortName":"Garden","icon":{"prefix":"https:\/\/ss1.4sqi.net\/img\/categories_v2\/parks_outdoors\/garden_","suffix":".png"},"primary":"true"}],"verified":"false","restricted":"true","stats":{"checkinsCount":"20","usersCount":"6","tipCount":"1"},"specials":{"count":"0"},"hereNow":{"count":"0"},"referralId":"v-1392478033"},{"id":"50ec0a04e4b0e5ba3a6c50d4","name":"BLP Auditorium","location":{"address":"Adelaide House","crossStreet":"London Bridge","lat":"51.50919653172424","lng":"-0.08690357208251953","distance":"63","postalCode":"EC4R 9HA","cc":"GB","city":"London","state":"Greater London","country":"United Kingdom"},"categories":[{"id":"4bf58dd8d48988d173941735","name":"Auditorium","pluralName":"Auditoriums","shortName":"Auditorium","icon":{"prefix":"https:\/\/ss1.4sqi.net\/img\/categories_v2\/building\/auditorium_","suffix":".png"},"primary":"true"}],"verified":"false","restricted":"true","stats":{"checkinsCount":"5","usersCount":"2","tipCount":"0"},"specials":{"count":"0"},"hereNow":{"count":"0"},"referralId":"v-1392478033"},{"id":"4bf298711cd9d13a82d1ed76","name":"Snow+Rock","contact":{"phone":"+442072563940","formattedPhone":"+44 20 7256 3940","twitter":"snowandrock","facebook":"129012151673"},"location":{"address":"47-51 King William St.","lat":"51.5101046639897","lng":"-0.08700013160705566","distance":"106","postalCode":"EC4R 9AF","cc":"GB","city":"London","state":"Greater London","country":"United Kingdom"},"categories":[{"id":"4bf58dd8d48988d1f2941735","name":"Sporting Goods Shop","pluralName":"Sporting Goods Shops","shortName":"Sporting Goods","icon":{"prefix":"https:\/\/ss1.4sqi.net\/img\/categories_v2\/shops\/sports_outdoors_","suffix":".png"},"primary":"true"}],"verified":"true","restricted":"true","stats":{"checkinsCount":"100","usersCount":"77","tipCount":"1"},"url":"http:\/\/www.snowandrock.com\/store-monument\/content\/fcp-content","specials":{"count":"0"},"hereNow":{"count":"0"},"storeId":"","referralId":"v-1392478033"},{"id":"4cf9b3a4c51fa1cd7e6adc2b","name":"TfL bus N47","location":{"address":"Trafalgar Sq - St Mary Cray","lat":"51.50951656719573","lng":"-0.08535335799642105","distance":"171","cc":"GB","country":"United Kingdom"},"categories":[{"id":"4bf58dd8d48988d12b951735","name":"Bus Line","pluralName":"Bus Lines","shortName":"Bus","icon":{"prefix":"https:\/\/ss1.4sqi.net\/img\/categories_v2\/travel\/busstation_","suffix":".png"},"primary":"true"}],"verified":"false","restricted":"true","stats":{"checkinsCount":"75","usersCount":"32","tipCount":"2"},"specials":{"count":"0"},"hereNow":{"count":"0"},"referralId":"v-1392478033"},{"id":"4b82797df964a52075d430e3","name":"The Britannia","contact":{"phone":"+442076238572","formattedPhone":"+44 20 7623 8572"},"location":{"address":"20 Monument St.","lat":"51.509917697061866","lng":"-0.08591651916503906","distance":"148","postalCode":"EC3R 8AJ","cc":"GB","city":"London","state":"Greater London","country":"United Kingdom"},"categories":[{"id":"4bf58dd8d48988d11b941735","name":"Pub","pluralName":"Pubs","shortName":"Pub","icon":{"prefix":"https:\/\/ss1.4sqi.net\/img\/categories_v2\/nightlife\/pub_","suffix":".png"},"primary":"true"}],"verified":"false","restricted":"true","stats":{"checkinsCount":"458","usersCount":"224","tipCount":"7"},"menu":{"type":"Menu","label":"Menu","anchor":"View Menu","url":"https:\/\/foursquare.com\/v\/the-britannia-city-of-london-greater-london\/4b82797df964a52075d430e3\/menu","mobileUrl":"https:\/\/foursquare.com\/v\/4b82797df964a52075d430e3\/device_menu"},"specials":{"count":"0"},"hereNow":{"count":"0"},"referralId":"v-1392478033"},{"id":"4e4395c6d164821e11582675","name":"Man Group Plc","location":{"address":"Swan Lane","lat":"51.510280789528586","lng":"-0.08789465634954077","distance":"110","postalCode":"EC4R 3AD","cc":"GB","city":"London","state":"Greater London","country":"United Kingdom"},"categories":[{"id":"4bf58dd8d48988d124941735","name":"Office","pluralName":"Offices","shortName":"Office","icon":{"prefix":"https:\/\/ss1.4sqi.net\/img\/categories_v2\/building\/default_","suffix":".png"},"primary":"true"}],"verified":"false","restricted":"true","stats":{"checkinsCount":"383","usersCount":"27","tipCount":"1"},"specials":{"count":"0"},"hereNow":{"count":"0"},"referralId":"v-1392478033"},{"id":"4fc72ea5e4b0a9a5f205120c","name":"Darwin's Deli","location":{"address":"1st Floor, 1 Swan Lane","lat":"51.50916134778128","lng":"-0.08796699968596576","distance":"18","postalCode":"Ec4r 3tn","cc":"GB","city":"London","state":"Greater London","country":"United Kingdom"},"categories":[{"id":"4bf58dd8d48988d16d941735","name":"Caf\u00e9","pluralName":"Caf\u00e9s","shortName":"Caf\u00e9","icon":{"prefix":"https:\/\/ss1.4sqi.net\/img\/categories_v2\/food\/cafe_","suffix":".png"},"primary":"true"}],"verified":"false","restricted":"true","stats":{"checkinsCount":"33","usersCount":"6","tipCount":"0"},"specials":{"count":"0"},"hereNow":{"count":"0"},"referralId":"v-1392478033"},{"id":"4b910457f964a5203f9f33e3","name":"Mugen","location":{"address":"26 King William St.","lat":"51.510512","lng":"-0.086593","distance":"159","cc":"GB","city":"London","state":"Greater London","country":"United Kingdom"},"categories":[{"id":"4bf58dd8d48988d111941735","name":"Japanese Restaurant","pluralName":"Japanese Restaurants","shortName":"Japanese","icon":{"prefix":"https:\/\/ss1.4sqi.net\/img\/categories_v2\/food\/japanese_","suffix":".png"},"primary":"true"}],"verified":"false","restricted":"true","stats":{"checkinsCount":"237","usersCount":"162","tipCount":"3"},"menu":{"type":"Menu","label":"Menu","anchor":"View Menu","url":"https:\/\/foursquare.com\/v\/mugen\/4b910457f964a5203f9f33e3\/menu","mobileUrl":"https:\/\/foursquare.com\/v\/4b910457f964a5203f9f33e3\/device_menu"},"specials":{"count":"0"},"hereNow":{"count":"0"},"referralId":"v-1392478033"},{"id":"4cdc3ae6c409b60c8154d91a","name":"Monument Bus Stop Q","location":{"address":"King William St.","lat":"51.509613","lng":"-0.087106","distance":"60","cc":"GB","city":"London","state":"Greater London","country":"United Kingdom"},"categories":[{"id":"4bf58dd8d48988d1fe931735","name":"Bus Station","pluralName":"Bus Stations","shortName":"Bus Station","icon":{"prefix":"https:\/\/ss1.4sqi.net\/img\/categories_v2\/travel\/busstation_","suffix":".png"},"primary":"true"}],"verified":"false","restricted":"true","stats":{"checkinsCount":"69","usersCount":"42","tipCount":"1"},"specials":{"count":"0"},"hereNow":{"count":"0"},"referralId":"v-1392478033"},{"id":"4defc0f8d4c0e9e23b85bd72","name":"Riverbank House","location":{"address":"2 Swan Lane","lat":"51.509952","lng":"-0.088764","distance":"99","postalCode":"EC4R 3AD","cc":"GB","city":"London","state":"Greater London","country":"United Kingdom"},"categories":[{"id":"4bf58dd8d48988d124941735","name":"Office","pluralName":"Offices","shortName":"Office","icon":{"prefix":"https:\/\/ss1.4sqi.net\/img\/categories_v2\/building\/default_","suffix":".png"},"primary":"true"}],"verified":"false","restricted":"true","stats":{"checkinsCount":"72","usersCount":"26","tipCount":"0"},"specials":{"count":"0"},"hereNow":{"count":"0"},"referralId":"v-1392478033"},{"id":"516d4bfde4b06c0caa89ef95","name":"Fishmongers Hall","location":{"lat":"51.509146699636936","lng":"-0.08736293057343404","distance":"34","cc":"GB","country":"United Kingdom"},"categories":[{"id":"4bf58dd8d48988d130941735","name":"Building","pluralName":"Buildings","shortName":"Building","icon":{"prefix":"https:\/\/ss1.4sqi.net\/img\/categories_v2\/building\/default_","suffix":".png"},"primary":"true"}],"verified":"false","restricted":"true","stats":{"checkinsCount":"10","usersCount":"10","tipCount":"0"},"specials":{"count":"0"},"hereNow":{"count":"0"},"referralId":"v-1392478033"},{"id":"4dc260757d8b686fa47af995","name":"Caf\u00e9 Mezz","location":{"address":"St Magnus House","crossStreet":"3 Lower Thames St.","lat":"51.509031263059924","lng":"-0.08559465408325195","distance":"155","postalCode":"EC3R 6HE","cc":"GB","city":"London","state":"Greater London","country":"United Kingdom"},"categories":[{"id":"4bf58dd8d48988d16d941735","name":"Caf\u00e9","pluralName":"Caf\u00e9s","shortName":"Caf\u00e9","icon":{"prefix":"https:\/\/ss1.4sqi.net\/img\/categories_v2\/food\/cafe_","suffix":".png"},"primary":"true"}],"verified":"false","restricted":"true","stats":{"checkinsCount":"248","usersCount":"11","tipCount":"0"},"specials":{"count":"0"},"hereNow":{"count":"0"},"referralId":"v-1392478033"},{"id":"5170ddd3498ee5db23f78372","name":"HCL Technologies","location":{"address":"68 King William Street","lat":"51.51054330695107","lng":"-0.08674813753155976","distance":"157","postalCode":"EC4N 7DZ","cc":"GB","city":"London","state":"Greater London","country":"United Kingdom"},"categories":[{"id":"4bf58dd8d48988d124941735","name":"Office","pluralName":"Offices","shortName":"Office","icon":{"prefix":"https:\/\/ss1.4sqi.net\/img\/categories_v2\/building\/default_","suffix":".png"},"primary":"true"}],"verified":"false","restricted":"true","stats":{"checkinsCount":"12","usersCount":"8","tipCount":"0"},"specials":{"count":"0"},"hereNow":{"count":"0"},"referralId":"v-1392478033"},{"id":"51025959e4b06b4b132fa1df","name":"Swan Lane Cafe","location":{"lat":"51.50944453370557","lng":"-0.08720940229884888","distance":"44","cc":"GB","country":"United Kingdom"},"categories":[{"id":"4bf58dd8d48988d16d941735","name":"Caf\u00e9","pluralName":"Caf\u00e9s","shortName":"Caf\u00e9","icon":{"prefix":"https:\/\/ss1.4sqi.net\/img\/categories_v2\/food\/cafe_","suffix":".png"},"primary":"true"}],"verified":"false","restricted":"true","stats":{"checkinsCount":"4","usersCount":"3","tipCount":"0"},"specials":{"count":"0"},"hereNow":{"count":"0"},"referralId":"v-1392478033"},{"id":"4caae343a6e08cfa61c9a094","name":"Benugo","contact":{"twitter":"benugo"},"location":{"address":"Nomura","crossStreet":"One Angel Lane","lat":"51.50945837389896","lng":"-0.08928621793330441","distance":"104","postalCode":"EC4R 3AB","cc":"GB","city":"London","state":"Greater London","country":"United Kingdom"},"categories":[{"id":"4bf58dd8d48988d16a941735","name":"Bakery","pluralName":"Bakeries","shortName":"Bakery","icon":{"prefix":"https:\/\/ss1.4sqi.net\/img\/categories_v2\/food\/bakery_","suffix":".png"},"primary":"true"}],"verified":"false","restricted":"true","stats":{"checkinsCount":"61","usersCount":"9","tipCount":"1"},"url":"http:\/\/www.benugo.com\/corporate-fm","specials":{"count":"0"},"hereNow":{"count":"0"},"referralId":"v-1392478033"}],"confident":"true"}}