{"meta":{"code":"200"},"response":{"venues":[{"id":"4c1516997f7f2d7f72d9e168","name":"Argyle Square Gardens","contact":{"phone":"+447717516353","formattedPhone":"+44 7717 516353"},"location":{"address":"Argyle Square","lat":"51.529024419246404","lng":"-0.12232482433319092","distance":"44","postalCode":"WC1H","cc":"GB","city":"Camden Town","state":"Greater London","country":"United Kingdom"},"categories":[{"id":"4bf58dd8d48988d163941735","name":"Park","pluralName":"Parks","shortName":"Park","icon":{"prefix":"https:\/\/ss1.4sqi.net\/img\/categories_v2\/parks_outdoors\/park_","suffix":".png"},"primary":"true"}],"verified":"false","restricted":"true","stats":{"checkinsCount":"994","usersCount":"363","tipCount":"3"},"specials":{"count":"0"},"hereNow":{"count":"0"},"referralId":"v-1392477977"},{"id":"4c16048fa1010f4718cc4e18","name":"California Hotel","location":{"address":"4-8 Belgrove St","lat":"51.529477","lng":"-0.123473","distance":"50","postalCode":"WC1H 8AB","cc":"GB","city":"London","state":"Greater London","country":"United Kingdom"},"categories":[{"id":"4bf58dd8d48988d1fa931735","name":"Hotel","pluralName":"Hotels","shortName":"Hotel","icon":{"prefix":"https:\/\/ss1.4sqi.net\/img\/categories_v2\/travel\/hotel_","suffix":".png"},"primary":"true"}],"verified":"false","restricted":"true","stats":{"checkinsCount":"336","usersCount":"164","tipCount":"4"},"specials":{"count":"0"},"hereNow":{"count":"0"},"referralId":"v-1392477977"},{"id":"4fff1c5de4b018897fe4e69a","name":"Kings Cross - Hammersmith & City, Circle, and Metropolitan Lines - Westbound Platform","contact":{"phone":"+448457114141","formattedPhone":"+44 845 711 4141"},"location":{"address":"King's Cross Station","lat":"51.53032676714331","lng":"-0.12403731601326821","distance":"143","postalCode":"N1 9AP","cc":"GB","city":"London","state":"Greater London","country":"United Kingdom"},"categories":[{"id":"4f4531504b9074f6e4fb0102","name":"Platform","pluralName":"Platforms","shortName":"Platform","icon":{"prefix":"https:\/\/ss1.4sqi.net\/img\/categories_v2\/travel\/trainstation_","suffix":".png"},"primary":"true"}],"verified":"false","restricted":"true","stats":{"checkinsCount":"1918","usersCount":"1276","tipCount":"4"},"specials":{"count":"0"},"hereNow":{"count":"0"},"referralId":"v-1392477977"},{"id":"4c48a85196abd13a5b1f7501","name":"Crestfield Hotel St Pancras","contact":{"phone":"+442078370500","formattedPhone":"+44 20 7837 0500"},"location":{"address":"3-4 Crestfield Street","crossStreet":"Euston Road","lat":"51.529786","lng":"-0.122445","distance":"60","postalCode":"WC1H 8AT","cc":"GB","city":"London","state":"Greater London","country":"United Kingdom"},"categories":[{"id":"4bf58dd8d48988d1fa931735","name":"Hotel","pluralName":"Hotels","shortName":"Hotel","icon":{"prefix":"https:\/\/ss1.4sqi.net\/img\/categories_v2\/travel\/hotel_","suffix":".png"},"primary":"true"}],"verified":"false","restricted":"true","stats":{"checkinsCount":"462","usersCount":"206","tipCount":"11"},"url":"http:\/\/www.crestfieldhotel.co.uk","specials":{"count":"0"},"hereNow":{"count":"0"},"referralId":"v-1392477977"},{"id":"4ffada62d86ca0c9393a93e8","name":"Comfort Inn and Suites Kings Cross \/ St Pancras","contact":{"phone":"+442078373109","formattedPhone":"+44 20 7837 3109","twitter":"cinn_suiteskc"},"location":{"address":"31 - 33 Argyle Street","lat":"51.52871738646354","lng":"-0.12331724166870117","distance":"72","postalCode":"WC1H 8EP","cc":"GB","city":"London","state":"Greater London","country":"United Kingdom"},"categories":[{"id":"4bf58dd8d48988d1fa931735","name":"Hotel","pluralName":"Hotels","shortName":"Hotel","icon":{"prefix":"https:\/\/ss1.4sqi.net\/img\/categories_v2\/travel\/hotel_","suffix":".png"},"primary":"true"}],"verified":"true","restricted":"true","stats":{"checkinsCount":"34","usersCount":"16","tipCount":"5"},"url":"http:\/\/www.comfortinnandsuiteskingscross.co.uk","specials":{"count":"0"},"hereNow":{"count":"1","groups":[{"type":"others","name":"Other people here","count":"1"}]},"storeId":"","referralId":"v-1392477977"},{"id":"4bfd86534cf820a1bb98ecf4","name":"The Princess Hotel","contact":{"phone":"+442072786895","formattedPhone":"+44 20 7278 6895"},"location":{"address":"35\/37 Argyle St","lat":"51.52880201252687","lng":"-0.12312876427242271","distance":"58","postalCode":"WC1 H8EP","cc":"GB","city":"Camden Town","state":"Greater London","country":"United Kingdom"},"categories":[{"id":"4bf58dd8d48988d1f8931735","name":"Bed & Breakfast","pluralName":"Bed & Breakfasts","shortName":"B & B","icon":{"prefix":"https:\/\/ss1.4sqi.net\/img\/categories_v2\/travel\/bedandbreakfast_","suffix":".png"},"primary":"true"}],"verified":"false","restricted":"true","stats":{"checkinsCount":"171","usersCount":"58","tipCount":"5"},"specials":{"count":"0"},"hereNow":{"count":"0"},"referralId":"v-1392477977"},{"id":"51b3ba15498e537e1903a0bf","name":"Angus Hotel","location":{"lat":"51.528674499587105","lng":"-0.12224984866501752","distance":"78","cc":"GB","country":"United Kingdom"},"categories":[{"id":"4bf58dd8d48988d1fa931735","name":"Hotel","pluralName":"Hotels","shortName":"Hotel","icon":{"prefix":"https:\/\/ss1.4sqi.net\/img\/categories_v2\/travel\/hotel_","suffix":".png"},"primary":"true"}],"verified":"false","restricted":"true","stats":{"checkinsCount":"101","usersCount":"46","tipCount":"0"},"specials":{"count":"0"},"hereNow":{"count":"0"},"referralId":"v-1392477977"},{"id":"4b6c7595f964a520d73b2ce3","name":"Burger King","location":{"address":"King's Cross Station","lat":"51.52978531765366","lng":"-0.12432575225830078","distance":"119","postalCode":"WC1H","cc":"GB","city":"Camden Town","state":"Greater London","country":"United Kingdom"},"categories":[{"id":"4bf58dd8d48988d16e941735","name":"Fast Food Restaurant","pluralName":"Fast Food Restaurants","shortName":"Fast Food","icon":{"prefix":"https:\/\/ss1.4sqi.net\/img\/categories_v2\/food\/fastfood_","suffix":".png"},"primary":"true"}],"verified":"true","restricted":"true","stats":{"checkinsCount":"1081","usersCount":"898","tipCount":"9"},"url":"http:\/\/www.burgerking.co.uk","specials":{"count":"0"},"hereNow":{"count":"0"},"referralId":"v-1392477977"},{"id":"4cdc3d1cdf986ea800bece16","name":"Fairway Hotel","contact":{"phone":"+442078373134","formattedPhone":"+44 20 7837 3134"},"location":{"address":"13\/18 Argyle St","lat":"51.529389","lng":"-0.123865","distance":"74","postalCode":"WC1H 8EJ","cc":"GB","city":"London","state":"Greater London","country":"United Kingdom"},"categories":[{"id":"4bf58dd8d48988d1fa931735","name":"Hotel","pluralName":"Hotels","shortName":"Hotel","icon":{"prefix":"https:\/\/ss1.4sqi.net\/img\/categories_v2\/travel\/hotel_","suffix":".png"},"primary":"true"}],"verified":"false","restricted":"true","stats":{"checkinsCount":"155","usersCount":"73","tipCount":"3"},"specials":{"count":"0"},"hereNow":{"count":"0"},"referralId":"v-1392477977"},{"id":"4ac518b8f964a5207da120e3","name":"Wardonia Hotel","location":{"address":"46-54 Argyle St","lat":"51.5286148","lng":"-0.1231592","distance":"79","postalCode":"WC1H 8ER","cc":"GB","city":"London","state":"Greater London","country":"United Kingdom"},"categories":[{"id":"4bf58dd8d48988d1fa931735","name":"Hotel","pluralName":"Hotels","shortName":"Hotel","icon":{"prefix":"https:\/\/ss1.4sqi.net\/img\/categories_v2\/travel\/hotel_","suffix":".png"},"primary":"true"}],"verified":"false","restricted":"true","stats":{"checkinsCount":"568","usersCount":"256","tipCount":"19"},"specials":{"count":"0"},"hereNow":{"count":"0"},"referralId":"v-1392477977"},{"id":"4b5e09d4f964a5206b7a29e3","name":"Alhambra Hotel","contact":{"twitter":"alhambrahotel"},"location":{"address":"17-19 Argyle Street","lat":"51.52927873","lng":"-0.123752","distance":"65","postalCode":"WC1H 8EJ","cc":"GB","city":"London","state":"Greater London","country":"United Kingdom"},"categories":[{"id":"4bf58dd8d48988d1fa931735","name":"Hotel","pluralName":"Hotels","shortName":"Hotel","icon":{"prefix":"https:\/\/ss1.4sqi.net\/img\/categories_v2\/travel\/hotel_","suffix":".png"},"primary":"true"}],"verified":"false","restricted":"true","stats":{"checkinsCount":"352","usersCount":"149","tipCount":"6"},"url":"http:\/\/www.alhambrahotel.com","specials":{"count":"0"},"hereNow":{"count":"0"},"referralId":"v-1392477977"},{"id":"4bc78afe93bdeee1727f37ae","name":"Jesmond Dene Hotel London","location":{"address":"27\/29 Argyle St","lat":"51.52900439543239","lng":"-0.12336015701293945","distance":"49","cc":"GB","city":"London","state":"Greater London","country":"United Kingdom"},"categories":[{"id":"4bf58dd8d48988d1fa931735","name":"Hotel","pluralName":"Hotels","shortName":"Hotel","icon":{"prefix":"https:\/\/ss1.4sqi.net\/img\/categories_v2\/travel\/hotel_","suffix":".png"},"primary":"true"}],"verified":"false","restricted":"true","stats":{"checkinsCount":"143","usersCount":"73","tipCount":"6"},"specials":{"count":"0"},"hereNow":{"count":"0"},"referralId":"v-1392477977"},{"id":"4b96b6d0f964a520c9df34e3","name":"Elmwood Hotel","contact":{"phone":"+442078379361","formattedPhone":"+44 20 7837 9361"},"location":{"address":"19 Argyle Square","lat":"51.528905817386786","lng":"-0.1218466510261349","distance":"78","postalCode":"WC1H 8AS","cc":"GB","city":"Camden Town","state":"Greater London","country":"United Kingdom"},"categories":[{"id":"4bf58dd8d48988d1fa931735","name":"Hotel","pluralName":"Hotels","shortName":"Hotel","icon":{"prefix":"https:\/\/ss1.4sqi.net\/img\/categories_v2\/travel\/hotel_","suffix":".png"},"primary":"true"}],"verified":"false","restricted":"true","stats":{"checkinsCount":"189","usersCount":"112","tipCount":"2"},"specials":{"count":"0"},"hereNow":{"count":"0"},"referralId":"v-1392477977"},{"id":"4dcecc14ae603b786d38d683","name":"Comfort Inn Kings Cross Hotel","contact":{"phone":"+442078371940","formattedPhone":"+44 20 7837 1940","twitter":"comfortinnkx"},"location":{"address":"2-5 St Chad's St.","lat":"51.530025385928525","lng":"-0.12146188040320803","distance":"123","postalCode":"WC1H 8BD","cc":"GB","city":"London","state":"Greater London","country":"United Kingdom"},"categories":[{"id":"4bf58dd8d48988d1fa931735","name":"Hotel","pluralName":"Hotels","shortName":"Hotel","icon":{"prefix":"https:\/\/ss1.4sqi.net\/img\/categories_v2\/travel\/hotel_","suffix":".png"},"primary":"true"}],"verified":"false","restricted":"true","stats":{"checkinsCount":"258","usersCount":"134","tipCount":"8"},"url":"http:\/\/www.comfortinnkingscross.co.uk","specials":{"count":"0"},"hereNow":{"count":"0"},"referralId":"v-1392477977"},{"id":"4cc93ba0e7926dcb770c5b77","name":"TFL Barclay's Cycle Hire","location":{"address":"Belgrove St.","crossStreet":"Euston Rd.","lat":"51.52997887750022","lng":"-0.12355327606201172","distance":"92","cc":"GB","city":"London","state":"Greater London","country":"United Kingdom"},"categories":[{"id":"4e4c9077bd41f78e849722f9","name":"Bike Rental \/ Bike Share","pluralName":"Bike Rentals \/ Bike Shares","shortName":"Bike","icon":{"prefix":"https:\/\/ss1.4sqi.net\/img\/categories_v2\/shops\/bikeshop_","suffix":".png"},"primary":"true"}],"verified":"false","restricted":"true","stats":{"checkinsCount":"209","usersCount":"54","tipCount":"3"},"specials":{"count":"0"},"hereNow":{"count":"0"},"referralId":"v-1392477977"},{"id":"4b9d35fdf964a520cd9936e3","name":"Megaro","contact":{"phone":"+442078432222","formattedPhone":"+44 20 7843 2222","twitter":"hotelmegaro"},"location":{"address":"23 - 27 Euston Rd.","crossStreet":"at Belgrove St.","lat":"51.52987368230242","lng":"-0.12407598187393487","distance":"109","postalCode":"WC1H 8AB","cc":"GB","city":"London","state":"Greater London","country":"United Kingdom"},"categories":[{"id":"4bf58dd8d48988d1fa931735","name":"Hotel","pluralName":"Hotels","shortName":"Hotel","icon":{"prefix":"https:\/\/ss1.4sqi.net\/img\/categories_v2\/travel\/hotel_","suffix":".png"},"primary":"true"}],"verified":"false","restricted":"true","stats":{"checkinsCount":"551","usersCount":"308","tipCount":"10"},"url":"http:\/\/www.hotelmegaro.co.uk","menu":{"type":"Menu","label":"Menu","anchor":"View Menu","url":"https:\/\/foursquare.com\/v\/megaro\/4b9d35fdf964a520cd9936e3\/menu","mobileUrl":"https:\/\/foursquare.com\/v\/4b9d35fdf964a520cd9936e3\/device_menu"},"specials":{"count":"0"},"hereNow":{"count":"0"},"referralId":"v-1392477977"},{"id":"4c85550247cc224b8132a09f","name":"Hotel Montana","location":{"lat":"51.529067","lng":"-0.121857","distance":"70","cc":"GB","country":"United Kingdom"},"categories":[{"id":"4bf58dd8d48988d1fa931735","name":"Hotel","pluralName":"Hotels","shortName":"Hotel","icon":{"prefix":"https:\/\/ss1.4sqi.net\/img\/categories_v2\/travel\/hotel_","suffix":".png"},"primary":"true"}],"verified":"false","restricted":"true","stats":{"checkinsCount":"271","usersCount":"144","tipCount":"7"},"specials":{"count":"0"},"hereNow":{"count":"0"},"referralId":"v-1392477977"},{"id":"4c08f3dfa1b32d7f00c396f0","name":"McDonald's","contact":{"phone":"+442077135099","formattedPhone":"+44 20 7713 5099"},"location":{"address":"Belgrove House","crossStreet":"Euston Rd.","lat":"51.53035229476553","lng":"-0.12333081224015897","distance":"123","postalCode":"NW1 2RY","cc":"GB","city":"King's Cross","state":"Greater London","country":"United Kingdom"},"categories":[{"id":"4bf58dd8d48988d16e941735","name":"Fast Food Restaurant","pluralName":"Fast Food Restaurants","shortName":"Fast Food","icon":{"prefix":"https:\/\/ss1.4sqi.net\/img\/categories_v2\/food\/fastfood_","suffix":".png"},"primary":"true"}],"verified":"false","restricted":"true","stats":{"checkinsCount":"1326","usersCount":"981","tipCount":"13"},"url":"http:\/\/www.mcdonalds.co.uk","specials":{"count":"0"},"hereNow":{"count":"0"},"referralId":"v-1392477977"},{"id":"4bcf487e0ffdce72b258b2c0","name":"Meridiana Hotel London","location":{"address":"43\/44 Argyle Square","lat":"51.52898685362658","lng":"-0.12303191356483226","distance":"37","cc":"GB","city":"London","state":"Greater London","country":"United Kingdom"},"categories":[{"id":"4bf58dd8d48988d1f8931735","name":"Bed & Breakfast","pluralName":"Bed & Breakfasts","shortName":"B & B","icon":{"prefix":"https:\/\/ss1.4sqi.net\/img\/categories_v2\/travel\/bedandbreakfast_","suffix":".png"},"primary":"true"}],"verified":"false","restricted":"true","stats":{"checkinsCount":"108","usersCount":"61","tipCount":"2"},"specials":{"count":"0"},"hereNow":{"count":"0"},"referralId":"v-1392477977"},{"id":"4bc78af593bdeee16f7f37ae","name":"Howard Winchester Hotel London","location":{"address":"9-10 Argyle Square","lat":"51.529404","lng":"-0.122169","distance":"45","cc":"GB","city":"London","state":"Greater London","country":"United Kingdom"},"categories":[{"id":"4bf58dd8d48988d1f8931735","name":"Bed & Breakfast","pluralName":"Bed & Breakfasts","shortName":"B & B","icon":{"prefix":"https:\/\/ss1.4sqi.net\/img\/categories_v2\/travel\/bedandbreakfast_","suffix":".png"},"primary":"true"}],"verified":"false","restricted":"true","stats":{"checkinsCount":"117","usersCount":"51","tipCount":"3"},"specials":{"count":"0"},"hereNow":{"count":"0"},"referralId":"v-1392477977"},{"id":"4bc4ac9f74a9a593d029d6f6","name":"Costa Coffee","contact":{"phone":"+442078334568","formattedPhone":"+44 20 7833 4568"},"location":{"address":"Unit 3, King's Cross St. Pancras Underground Station","crossStreet":"Euston Road","lat":"51.53000557534549","lng":"-0.12454032897949219","distance":"144","postalCode":"N1 9AL","cc":"GB","city":"Camden","state":"Greater London","country":"United Kingdom"},"categories":[{"id":"4bf58dd8d48988d1e0931735","name":"Coffee Shop","pluralName":"Coffee Shops","shortName":"Coffee Shop","icon":{"prefix":"https:\/\/ss1.4sqi.net\/img\/categories_v2\/food\/coffeeshop_","suffix":".png"},"primary":"true"}],"verified":"false","restricted":"true","stats":{"checkinsCount":"1108","usersCount":"728","tipCount":"12"},"specials":{"count":"0"},"hereNow":{"count":"0"},"referralId":"v-1392477977"},{"id":"50eb075ee4b09c3853fe15e4","name":"Kings Cross Victoria Line","location":{"lat":"51.529992","lng":"-0.124622","distance":"148","cc":"GB","country":"United Kingdom"},"categories":[{"id":"4bf58dd8d48988d1fc931735","name":"Light Rail","pluralName":"Light Rails","shortName":"Light Rail","icon":{"prefix":"https:\/\/ss1.4sqi.net\/img\/categories_v2\/travel\/lightrail_","suffix":".png"},"primary":"true"}],"verified":"false","restricted":"true","stats":{"checkinsCount":"340","usersCount":"192","tipCount":"1"},"specials":{"count":"0"},"hereNow":{"count":"0"},"referralId":"v-1392477977"},{"id":"4ca3894c5720b1f73fa832ef","name":"Belgrove Hotel","contact":{"phone":"+442078379973","formattedPhone":"+44 20 7837 9973"},"location":{"address":"1-3 Belgrove St.","lat":"51.5299175","lng":"-0.1236503","distance":"91","postalCode":"WC1H 8AB","cc":"GB","city":"London","state":"Greater London","country":"United Kingdom"},"categories":[{"id":"4bf58dd8d48988d1fa931735","name":"Hotel","pluralName":"Hotels","shortName":"Hotel","icon":{"prefix":"https:\/\/ss1.4sqi.net\/img\/categories_v2\/travel\/hotel_","suffix":".png"},"primary":"true"}],"verified":"false","restricted":"true","stats":{"checkinsCount":"102","usersCount":"50","tipCount":"0"},"url":"http:\/\/www.belgrovehotel.com","specials":{"count":"0"},"hereNow":{"count":"0"},"referralId":"v-1392477977"},{"id":"4f31a5d0e4b0f41ae7cb4822","name":"Karpo Restaurant","location":{"address":"23 Euston Road","lat":"51.52997136924571","lng":"-0.12403553600031061","distance":"114","postalCode":"NW1 2SD","cc":"GB","city":"London","state":"Greater London","country":"United Kingdom"},"categories":[{"id":"4bf58dd8d48988d1c4941735","name":"Restaurant","pluralName":"Restaurants","shortName":"Restaurant","icon":{"prefix":"https:\/\/ss1.4sqi.net\/img\/categories_v2\/food\/default_","suffix":".png"},"primary":"true"}],"verified":"false","restricted":"true","stats":{"checkinsCount":"499","usersCount":"416","tipCount":"18"},"url":"http:\/\/www.karpo.co.uk","reservations":{"url":"http:\/\/www.toptable.co.uk\/single.aspx?rid=87286&ref=9601"},"menu":{"type":"Menu","label":"Menu","anchor":"View Menu","url":"https:\/\/foursquare.com\/v\/karpo-restaurant\/4f31a5d0e4b0f41ae7cb4822\/menu","mobileUrl":"https:\/\/foursquare.com\/v\/4f31a5d0e4b0f41ae7cb4822\/device_menu"},"specials":{"count":"0"},"hereNow":{"count":"0"},"referralId":"v-1392477977"},{"id":"4ac3ba25f964a520919c20e3","name":"Macdonald Hotel","location":{"address":"Argyle Square, King's Cross","lat":"51.52911507937108","lng":"-0.12310746014863845","distance":"28","cc":"GB","city":"London","state":"Greater London","country":"United Kingdom"},"categories":[{"id":"4bf58dd8d48988d1fa931735","name":"Hotel","pluralName":"Hotels","shortName":"Hotel","icon":{"prefix":"https:\/\/ss1.4sqi.net\/img\/categories_v2\/travel\/hotel_","suffix":".png"},"primary":"true"}],"verified":"false","restricted":"true","stats":{"checkinsCount":"235","usersCount":"118","tipCount":"7"},"specials":{"count":"0"},"hereNow":{"count":"0"},"referralId":"v-1392477977"},{"id":"4d0b3dba6d26a09338f6762d","name":"European Hotel","location":{"lat":"51.529309","lng":"-0.121799","distance":"69","cc":"GB","country":"United Kingdom"},"categories":[{"id":"4bf58dd8d48988d1f8931735","name":"Bed & Breakfast","pluralName":"Bed & Breakfasts","shortName":"B & B","icon":{"prefix":"https:\/\/ss1.4sqi.net\/img\/categories_v2\/travel\/bedandbreakfast_","suffix":".png"},"primary":"true"}],"verified":"false","restricted":"true","stats":{"checkinsCount":"236","usersCount":"120","tipCount":"7"},"specials":{"count":"0"},"hereNow":{"count":"0"},"referralId":"v-1392477977"},{"id":"4b6e0c97f964a52063a62ce3","name":"Excelsior Hotel","location":{"address":"42 Argyle Square","lat":"51.52878413289683","lng":"-0.12270033359527588","distance":"56","postalCode":"Wc1H 8al","cc":"GB","city":"London","state":"Greater London","country":"United Kingdom"},"categories":[{"id":"4bf58dd8d48988d1fa931735","name":"Hotel","pluralName":"Hotels","shortName":"Hotel","icon":{"prefix":"https:\/\/ss1.4sqi.net\/img\/categories_v2\/travel\/hotel_","suffix":".png"},"primary":"true"}],"verified":"false","restricted":"true","stats":{"checkinsCount":"120","usersCount":"51","tipCount":"2"},"specials":{"count":"0"},"hereNow":{"count":"0"},"referralId":"v-1392477977"},{"id":"4daf2a264b2290767876f086","name":"Central Hotel Argyle Street","location":{"lat":"51.529261","lng":"-0.123811","distance":"69","cc":"GB","city":"Camden Town","state":"Greater London","country":"United Kingdom"},"categories":[{"id":"4bf58dd8d48988d1fa931735","name":"Hotel","pluralName":"Hotels","shortName":"Hotel","icon":{"prefix":"https:\/\/ss1.4sqi.net\/img\/categories_v2\/travel\/hotel_","suffix":".png"},"primary":"true"}],"verified":"false","restricted":"true","stats":{"checkinsCount":"137","usersCount":"74","tipCount":"1"},"specials":{"count":"0"},"hereNow":{"count":"0"},"referralId":"v-1392477977"},{"id":"4e799f817d8b5741b89f4653","name":"Melville Hotel","location":{"lat":"51.52879248687215","lng":"-0.12244474895286277","distance":"60","cc":"GB","city":"Camden Town","state":"Greater London","country":"United Kingdom"},"categories":[{"id":"4bf58dd8d48988d1fa931735","name":"Hotel","pluralName":"Hotels","shortName":"Hotel","icon":{"prefix":"https:\/\/ss1.4sqi.net\/img\/categories_v2\/travel\/hotel_","suffix":".png"},"primary":"true"}],"verified":"false","restricted":"true","stats":{"checkinsCount":"116","usersCount":"61","tipCount":"3"},"specials":{"count":"0"},"hereNow":{"count":"0"},"referralId":"v-1392477977"},{"id":"4c3a1a0d3849c928fa62c2b1","name":"The Dolphin","contact":{"phone":"+442079163191","formattedPhone":"+44 20 7916 3191"},"location":{"address":"47 Tonbridge St.","crossStreet":"at Bidborough St.","lat":"51.528991046218145","lng":"-0.12463688850402832","distance":"131","postalCode":"WC1H 9DW","cc":"GB","city":"Euston","state":"Greater London","country":"United Kingdom"},"categories":[{"id":"4bf58dd8d48988d11b941735","name":"Pub","pluralName":"Pubs","shortName":"Pub","icon":{"prefix":"https:\/\/ss1.4sqi.net\/img\/categories_v2\/nightlife\/pub_","suffix":".png"},"primary":"true"}],"verified":"false","restricted":"true","stats":{"checkinsCount":"223","usersCount":"156","tipCount":"8"},"specials":{"count":"0"},"hereNow":{"count":"0"},"referralId":"v-1392477977"}],"confident":"true"}}