{"meta":{"code":"200"},"response":{"venues":[{"id":"4bbc979ced7776b0eacc3f51","name":"Cafe La Divina","contact":{"phone":"+442086164149","formattedPhone":"+44 20 8616 4149","twitter":"cafeladivina"},"location":{"address":"134-137 Upper St.","lat":"51.5393154940675","lng":"-0.10269641876220703","distance":"7","postalCode":"N1 1QP","cc":"GB","city":"Islington","state":"Greater London","country":"United Kingdom"},"categories":[{"id":"4bf58dd8d48988d110941735","name":"Italian Restaurant","pluralName":"Italian Restaurants","shortName":"Italian","icon":{"prefix":"https:\/\/ss1.4sqi.net\/img\/categories_v2\/food\/italian_","suffix":".png"},"primary":"true"}],"verified":"false","restricted":"true","stats":{"checkinsCount":"516","usersCount":"355","tipCount":"18"},"url":"http:\/\/www.ladivina.co.uk","reservations":{"url":"http:\/\/www.toptable.co.uk\/single.aspx?rid=89929&ref=9601"},"menu":{"type":"Menu","label":"Menu","anchor":"View Menu","url":"https:\/\/foursquare.com\/v\/cafe-la-divina\/4bbc979ced7776b0eacc3f51\/menu","mobileUrl":"https:\/\/foursquare.com\/v\/4bbc979ced7776b0eacc3f51\/device_menu"},"specials":{"count":"0"},"hereNow":{"count":"0"},"referralId":"v-1392477953"},{"id":"4bb3d49e42959c74b583222c","name":"Almeida Theatre","location":{"address":"Almeida Street","crossStreet":"Off Upper Street","lat":"51.539644","lng":"-0.10301796","distance":"42","cc":"GB","city":"London","state":"Greater London","country":"United Kingdom"},"categories":[{"id":"4bf58dd8d48988d137941735","name":"Theater","pluralName":"Theaters","shortName":"Theater","icon":{"prefix":"https:\/\/ss1.4sqi.net\/img\/categories_v2\/arts_entertainment\/performingarts_theater_","suffix":".png"},"primary":"true"}],"verified":"false","restricted":"true","stats":{"checkinsCount":"849","usersCount":"589","tipCount":"10"},"reservations":{"url":"http:\/\/www.toptable.co.uk\/single.aspx?rid=80959&ref=9601"},"specials":{"count":"0"},"hereNow":{"count":"1","groups":[{"type":"others","name":"Other people here","count":"1"}]},"referralId":"v-1392477953"},{"id":"4acde945f964a52084cd20e3","name":"Ottolenghi","contact":{"phone":"+442072881454","formattedPhone":"+44 20 7288 1454","twitter":"ottolenghi"},"location":{"address":"287 Upper St.","lat":"51.53968204","lng":"-0.102426","distance":"50","postalCode":"N1 2TZ","cc":"GB","city":"London","state":"Greater London","country":"United Kingdom"},"categories":[{"id":"4bf58dd8d48988d115941735","name":"Middle Eastern Restaurant","pluralName":"Middle Eastern Restaurants","shortName":"Middle Eastern","icon":{"prefix":"https:\/\/ss1.4sqi.net\/img\/categories_v2\/food\/default_","suffix":".png"},"primary":"true"}],"verified":"false","restricted":"true","stats":{"checkinsCount":"2506","usersCount":"1708","tipCount":"66"},"url":"http:\/\/www.ottolenghi.co.uk","reservations":{"url":"http:\/\/www.toptable.co.uk\/single.aspx?rid=54205&ref=9601"},"menu":{"type":"Menu","label":"Menu","anchor":"View Menu","url":"https:\/\/foursquare.com\/v\/ottolenghi\/4acde945f964a52084cd20e3\/menu","mobileUrl":"https:\/\/foursquare.com\/v\/4acde945f964a52084cd20e3\/device_menu"},"specials":{"count":"0"},"hereNow":{"count":"2","groups":[{"type":"others","name":"Other people here","count":"2"}]},"referralId":"v-1392477953"},{"id":"509d4cbde4b070da092ea6dc","name":"John Salt","contact":{"phone":"+442077048955","formattedPhone":"+44 20 7704 8955"},"location":{"address":"131 Upper St","lat":"51.53902968305654","lng":"-0.10232772153097938","distance":"43","postalCode":"N1 1QP","cc":"GB","city":"Islington","state":"Greater London","country":"United Kingdom"},"categories":[{"id":"4bf58dd8d48988d155941735","name":"Gastropub","pluralName":"Gastropubs","shortName":"Gastropub","icon":{"prefix":"https:\/\/ss1.4sqi.net\/img\/categories_v2\/food\/gastropub_","suffix":".png"},"primary":"true"}],"verified":"false","restricted":"true","stats":{"checkinsCount":"1110","usersCount":"810","tipCount":"24"},"url":"http:\/\/john-salt.com","menu":{"type":"Menu","label":"Menu","anchor":"View Menu","url":"https:\/\/foursquare.com\/v\/john-salt-islington-greater-london\/509d4cbde4b070da092ea6dc\/menu","mobileUrl":"https:\/\/foursquare.com\/v\/509d4cbde4b070da092ea6dc\/device_menu"},"specials":{"count":"0"},"hereNow":{"count":"0"},"referralId":"v-1392477953"},{"id":"4acdb001f964a520afcc20e3","name":"Le Mercury","contact":{"phone":"+442073544088","formattedPhone":"+44 20 7354 4088"},"location":{"address":"140A Upper St.","lat":"51.53969702922686","lng":"-0.10252573879356315","distance":"49","postalCode":"N1 1QY","cc":"GB","city":"Islington","state":"Greater London","country":"United Kingdom"},"categories":[{"id":"4bf58dd8d48988d10c941735","name":"French Restaurant","pluralName":"French Restaurants","shortName":"French","icon":{"prefix":"https:\/\/ss1.4sqi.net\/img\/categories_v2\/food\/french_","suffix":".png"},"primary":"true"}],"verified":"false","restricted":"true","stats":{"checkinsCount":"845","usersCount":"699","tipCount":"25"},"menu":{"type":"Menu","label":"Menu","anchor":"View Menu","url":"https:\/\/foursquare.com\/v\/le-mercury\/4acdb001f964a520afcc20e3\/menu","mobileUrl":"https:\/\/foursquare.com\/v\/4acdb001f964a520afcc20e3\/device_menu"},"specials":{"count":"0"},"hereNow":{"count":"0"},"referralId":"v-1392477953"},{"id":"4c82ac14d4e2370412fe6988","name":"Antepliler","contact":{"phone":"+442072265441","formattedPhone":"+44 20 7226 5441"},"location":{"address":"139 Upper St.","lat":"51.539504","lng":"-0.102319","distance":"41","postalCode":"N1 1QP","cc":"GB","city":"London","state":"Greater London","country":"United Kingdom"},"categories":[{"id":"4f04af1f2fb6e1c99f3db0bb","name":"Turkish Restaurant","pluralName":"Turkish Restaurants","shortName":"Turkish","icon":{"prefix":"https:\/\/ss1.4sqi.net\/img\/categories_v2\/food\/turkish_","suffix":".png"},"primary":"true"}],"verified":"false","restricted":"true","stats":{"checkinsCount":"637","usersCount":"409","tipCount":"22"},"url":"http:\/\/www.anteplilerrestaurant.com","menu":{"type":"Menu","label":"Menu","anchor":"View Menu","url":"https:\/\/foursquare.com\/v\/antepliler-london-greater-london\/4c82ac14d4e2370412fe6988\/menu","mobileUrl":"https:\/\/foursquare.com\/v\/4c82ac14d4e2370412fe6988\/device_menu"},"specials":{"count":"0"},"hereNow":{"count":"0"},"referralId":"v-1392477953"},{"id":"514dddcde4b02509490f4b50","name":"Be At One","contact":{"phone":"+442072267660","formattedPhone":"+44 20 7226 7660","twitter":"beatonebar"},"location":{"address":"144-145 Upper Street","lat":"51.539946","lng":"-0.102538","distance":"75","postalCode":"N1 1QY","cc":"GB","city":"Islington","state":"Greater London","country":"United Kingdom"},"categories":[{"id":"4bf58dd8d48988d11e941735","name":"Cocktail Bar","pluralName":"Cocktail Bars","shortName":"Cocktail","icon":{"prefix":"https:\/\/ss1.4sqi.net\/img\/categories_v2\/nightlife\/cocktails_","suffix":".png"},"primary":"true"}],"verified":"false","restricted":"true","stats":{"checkinsCount":"231","usersCount":"164","tipCount":"2"},"specials":{"count":"0"},"hereNow":{"count":"0"},"referralId":"v-1392477953"},{"id":"4c7bbd923badb1f728af5554","name":"Antonio's Ristorante","location":{"address":"134-137 Upper St","lat":"51.539184","lng":"-0.102583","distance":"19","postalCode":"N1 1QP","cc":"GB","city":"Islington","state":"Greater London","country":"United Kingdom"},"categories":[{"id":"4bf58dd8d48988d110941735","name":"Italian Restaurant","pluralName":"Italian Restaurants","shortName":"Italian","icon":{"prefix":"https:\/\/ss1.4sqi.net\/img\/categories_v2\/food\/italian_","suffix":".png"},"primary":"true"}],"verified":"false","restricted":"true","stats":{"checkinsCount":"207","usersCount":"170","tipCount":"8"},"url":"http:\/\/www.antoniosristorante.co.uk","reservations":{"url":"http:\/\/www.toptable.co.uk\/single.aspx?rid=57931&ref=9601"},"menu":{"type":"Menu","label":"Menu","anchor":"View Menu","url":"https:\/\/foursquare.com\/v\/antonios-ristorante\/4c7bbd923badb1f728af5554\/menu","mobileUrl":"https:\/\/foursquare.com\/v\/4c7bbd923badb1f728af5554\/device_menu"},"specials":{"count":"0"},"hereNow":{"count":"0"},"referralId":"v-1392477953"},{"id":"4bc06d34abf495210233bf93","name":"Gallipoli Again","location":{"address":"120 Upper St.","lat":"51.53847503467213","lng":"-0.10242336431951593","distance":"94","postalCode":"N1 1QP","cc":"GB","city":"London","state":"Greater London","country":"United Kingdom"},"categories":[{"id":"4bf58dd8d48988d115941735","name":"Middle Eastern Restaurant","pluralName":"Middle Eastern Restaurants","shortName":"Middle Eastern","icon":{"prefix":"https:\/\/ss1.4sqi.net\/img\/categories_v2\/food\/default_","suffix":".png"},"primary":"true"}],"verified":"true","restricted":"true","stats":{"checkinsCount":"542","usersCount":"370","tipCount":"7"},"menu":{"type":"Menu","label":"Menu","anchor":"View Menu","url":"https:\/\/foursquare.com\/v\/gallipoli-again\/4bc06d34abf495210233bf93\/menu","mobileUrl":"https:\/\/foursquare.com\/v\/4bc06d34abf495210233bf93\/device_menu"},"specials":{"count":"0"},"hereNow":{"count":"1","groups":[{"type":"others","name":"Other people here","count":"1"}]},"referralId":"v-1392477953"},{"id":"4d3ab75fbf6d548194b9cfe1","name":"Paul","location":{"address":"302 Upper Street","lat":"51.538845","lng":"-0.102328","distance":"59","postalCode":"N1 2TU","cc":"GB","city":"London","state":"Greater London","country":"United Kingdom"},"categories":[{"id":"4bf58dd8d48988d16a941735","name":"Bakery","pluralName":"Bakeries","shortName":"Bakery","icon":{"prefix":"https:\/\/ss1.4sqi.net\/img\/categories_v2\/food\/bakery_","suffix":".png"},"primary":"true"}],"verified":"false","restricted":"true","stats":{"checkinsCount":"335","usersCount":"213","tipCount":"3"},"specials":{"count":"0"},"hereNow":{"count":"0"},"referralId":"v-1392477953"},{"id":"4ce30359fd6859418330da4e","name":"King's Head Theatre Pub","contact":{"phone":"+442072264443","formattedPhone":"+44 20 7226 4443"},"location":{"address":"115 Upper St.","lat":"51.53829051719008","lng":"-0.10244556967974415","distance":"113","postalCode":"N1 1QN","cc":"GB","city":"Islington","state":"Greater London","country":"United Kingdom"},"categories":[{"id":"4bf58dd8d48988d116941735","name":"Bar","pluralName":"Bars","shortName":"Bar","icon":{"prefix":"https:\/\/ss1.4sqi.net\/img\/categories_v2\/nightlife\/bar_","suffix":".png"},"primary":"true"}],"verified":"true","restricted":"true","stats":{"checkinsCount":"1395","usersCount":"980","tipCount":"23"},"specials":{"count":"0"},"hereNow":{"count":"0"},"referralId":"v-1392477953"},{"id":"4c011559de3376b00138f9a4","name":"Whistles","contact":{"phone":"+442072267551","formattedPhone":"+44 20 7226 7551","twitter":"thisiswhistles"},"location":{"address":"135-136 Upper St.","lat":"51.539255502819486","lng":"-0.10235164197715127","distance":"31","postalCode":"N1 1QP","cc":"GB","city":"Islington","state":"Greater London","country":"United Kingdom"},"categories":[{"id":"4bf58dd8d48988d104951735","name":"Boutique","pluralName":"Boutiques","shortName":"Boutique","icon":{"prefix":"https:\/\/ss1.4sqi.net\/img\/categories_v2\/shops\/apparel_boutique_","suffix":".png"},"primary":"true"}],"verified":"false","restricted":"true","stats":{"checkinsCount":"39","usersCount":"26","tipCount":"2"},"specials":{"count":"0"},"hereNow":{"count":"0"},"referralId":"v-1392477953"},{"id":"507054dbe4b083d7cdddf510","name":"Aesop","location":{"address":"56 Cross Street","crossStreet":"Islington","lat":"51.53918368124126","lng":"-0.10253052136194968","distance":"22","postalCode":"N1 2BA","cc":"GB","city":"London","state":"Greater London","country":"United Kingdom"},"categories":[{"id":"4bf58dd8d48988d10c951735","name":"Cosmetics Shop","pluralName":"Cosmetics Shops","shortName":"Cosmetics","icon":{"prefix":"https:\/\/ss1.4sqi.net\/img\/categories_v2\/shops\/beauty_cosmetic_","suffix":".png"},"primary":"true"}],"verified":"false","restricted":"true","stats":{"checkinsCount":"22","usersCount":"15","tipCount":"2"},"specials":{"count":"0"},"hereNow":{"count":"0"},"referralId":"v-1392477953"},{"id":"4c0603695753c92836523af1","name":"St Mary's Church","contact":{"phone":"+442072263400","formattedPhone":"+44 20 7226 3400","twitter":"stmaryislington","facebook":"165414930139639"},"location":{"address":"Upper St.","lat":"51.53837457803422","lng":"-0.10196685791015625","distance":"117","postalCode":"N1 2TX","cc":"GB","city":"Islington","state":"Greater London","country":"United Kingdom"},"categories":[{"id":"4bf58dd8d48988d132941735","name":"Church","pluralName":"Churches","shortName":"Church","icon":{"prefix":"https:\/\/ss1.4sqi.net\/img\/categories_v2\/building\/religious_church_","suffix":".png"},"primary":"true"}],"verified":"true","restricted":"true","stats":{"checkinsCount":"385","usersCount":"90","tipCount":"4"},"url":"http:\/\/stmaryislington.org","specials":{"count":"0"},"hereNow":{"count":"1","groups":[{"type":"others","name":"Other people here","count":"1"}]},"venuePage":{"id":"73961546"},"storeId":"","referralId":"v-1392477953"},{"id":"4ad8bacef964a520191421e3","name":"Rabieng","contact":{"phone":"+442072262014","formattedPhone":"+44 20 7226 2014"},"location":{"address":"143 Upper St","lat":"51.539866544510794","lng":"-0.10250876835163476","distance":"67","postalCode":"N1 1QY","cc":"GB","city":"Islington","state":"Greater London","country":"United Kingdom"},"categories":[{"id":"4bf58dd8d48988d149941735","name":"Thai Restaurant","pluralName":"Thai Restaurants","shortName":"Thai","icon":{"prefix":"https:\/\/ss1.4sqi.net\/img\/categories_v2\/food\/thai_","suffix":".png"},"primary":"true"}],"verified":"false","restricted":"true","stats":{"checkinsCount":"153","usersCount":"116","tipCount":"5"},"specials":{"count":"0"},"hereNow":{"count":"0"},"referralId":"v-1392477953"},{"id":"4bdebc88ffdec9284864e9a1","name":"La Petite Auberge","contact":{"phone":"+442073591046","formattedPhone":"+44 20 7359 1046"},"location":{"address":"283 Upper Street","lat":"51.53991269590606","lng":"-0.1025031555336822","distance":"72","postalCode":"N1 2TZ","cc":"GB","city":"Islington","state":"Greater London","country":"United Kingdom"},"categories":[{"id":"4bf58dd8d48988d10c941735","name":"French Restaurant","pluralName":"French Restaurants","shortName":"French","icon":{"prefix":"https:\/\/ss1.4sqi.net\/img\/categories_v2\/food\/french_","suffix":".png"},"primary":"true"}],"verified":"false","restricted":"true","stats":{"checkinsCount":"359","usersCount":"281","tipCount":"12"},"reservations":{"url":"http:\/\/www.toptable.co.uk\/single.aspx?rid=96222&ref=9601"},"specials":{"count":"0"},"hereNow":{"count":"0"},"referralId":"v-1392477953"},{"id":"4b16d783f964a5203fbe23e3","name":"Fig & Olive","contact":{"phone":"+442073542605","formattedPhone":"+44 20 7354 2605"},"location":{"address":"151 Upper St.","lat":"51.540226301844235","lng":"-0.10251174897126397","distance":"106","postalCode":"N1 1RA","cc":"GB","city":"London","state":"Greater London","country":"United Kingdom"},"categories":[{"id":"4bf58dd8d48988d1d0941735","name":"Dessert Shop","pluralName":"Dessert Shops","shortName":"Desserts","icon":{"prefix":"https:\/\/ss1.4sqi.net\/img\/categories_v2\/food\/dessert_","suffix":".png"},"primary":"true"}],"verified":"false","restricted":"true","stats":{"checkinsCount":"741","usersCount":"556","tipCount":"17"},"url":"http:\/\/figolive.co.uk","reservations":{"url":"http:\/\/www.toptable.co.uk\/single.aspx?rid=63532&ref=9601"},"menu":{"type":"Menu","label":"Menu","anchor":"View Menu","url":"https:\/\/foursquare.com\/v\/fig--olive\/4b16d783f964a5203fbe23e3\/menu","mobileUrl":"https:\/\/foursquare.com\/v\/4b16d783f964a5203fbe23e3\/device_menu"},"specials":{"count":"0"},"hereNow":{"count":"0"},"referralId":"v-1392477953"},{"id":"4ac518c7f964a5203aa520e3","name":"Slim Jim's Liquor Store","contact":{"phone":"+442073544364","formattedPhone":"+44 20 7354 4364"},"location":{"address":"112 Upper St.","crossStreet":"near Theberton St.","lat":"51.53809482636176","lng":"-0.10264594869873266","distance":"133","postalCode":"N1 1QN","cc":"GB","city":"Islington","state":"Greater London","country":"United Kingdom"},"categories":[{"id":"4bf58dd8d48988d116941735","name":"Bar","pluralName":"Bars","shortName":"Bar","icon":{"prefix":"https:\/\/ss1.4sqi.net\/img\/categories_v2\/nightlife\/bar_","suffix":".png"},"primary":"true"}],"verified":"false","restricted":"true","stats":{"checkinsCount":"1273","usersCount":"787","tipCount":"25"},"specials":{"count":"0"},"hereNow":{"count":"0"},"referralId":"v-1392477953"},{"id":"4ac518e2f964a52084aa20e3","name":"Isarn","location":{"address":"119 Upper Street","lat":"51.538515779541","lng":"-0.10257281779917793","distance":"87","postalCode":"N1 1QP","cc":"GB","city":"London","state":"Greater London","country":"United Kingdom"},"categories":[{"id":"4bf58dd8d48988d149941735","name":"Thai Restaurant","pluralName":"Thai Restaurants","shortName":"Thai","icon":{"prefix":"https:\/\/ss1.4sqi.net\/img\/categories_v2\/food\/thai_","suffix":".png"},"primary":"true"}],"verified":"false","restricted":"true","stats":{"checkinsCount":"433","usersCount":"311","tipCount":"31"},"menu":{"type":"Menu","label":"Menu","anchor":"View Menu","url":"https:\/\/foursquare.com\/v\/isarn\/4ac518e2f964a52084aa20e3\/menu","mobileUrl":"https:\/\/foursquare.com\/v\/4ac518e2f964a52084aa20e3\/device_menu"},"specials":{"count":"0"},"hereNow":{"count":"0"},"referralId":"v-1392477953"},{"id":"4c06433791d776b06a88f8f9","name":"Pasha Restaurant","location":{"address":"301 Upper Street","lat":"51.53885002474093","lng":"-0.10225226934781192","distance":"61","postalCode":"N1 2TU","cc":"GB","city":"London","state":"Greater London","country":"United Kingdom"},"categories":[{"id":"4bf58dd8d48988d1c0941735","name":"Mediterranean Restaurant","pluralName":"Mediterranean Restaurants","shortName":"Mediterranean","icon":{"prefix":"https:\/\/ss1.4sqi.net\/img\/categories_v2\/food\/mediterranean_","suffix":".png"},"primary":"true"}],"verified":"false","restricted":"true","stats":{"checkinsCount":"207","usersCount":"170","tipCount":"4"},"specials":{"count":"0"},"hereNow":{"count":"0"},"referralId":"v-1392477953"},{"id":"4c936d60332c3704fb879064","name":"Space NK","contact":{"phone":"+442077042822","formattedPhone":"+44 20 7704 2822","twitter":"space_nk"},"location":{"address":"299 Upper Street","crossStreet":"Islington","lat":"51.53908860829318","lng":"-0.10239601135253906","distance":"35","postalCode":"N1 2TU","cc":"GB","city":"London","state":"Greater London","country":"United Kingdom"},"categories":[{"id":"4bf58dd8d48988d10c951735","name":"Cosmetics Shop","pluralName":"Cosmetics Shops","shortName":"Cosmetics","icon":{"prefix":"https:\/\/ss1.4sqi.net\/img\/categories_v2\/shops\/beauty_cosmetic_","suffix":".png"},"primary":"true"}],"verified":"true","restricted":"true","stats":{"checkinsCount":"96","usersCount":"63","tipCount":"0"},"url":"http:\/\/www.spacenk.com","specials":{"count":"0"},"hereNow":{"count":"0"},"storeId":"Islington (S37)","referralId":"v-1392477953"},{"id":"4ac518e8f964a52082ab20e3","name":"Almeida Restaurant & Bar","contact":{"phone":"+442073544777","formattedPhone":"+44 20 7354 4777","twitter":"danddlondon"},"location":{"address":"30 Almeida Street","lat":"51.53966121331318","lng":"-0.10294456511629566","distance":"42","postalCode":"N1 1TA","cc":"GB","city":"London","state":"Greater London","country":"United Kingdom"},"categories":[{"id":"4bf58dd8d48988d10c941735","name":"French Restaurant","pluralName":"French Restaurants","shortName":"French","icon":{"prefix":"https:\/\/ss1.4sqi.net\/img\/categories_v2\/food\/french_","suffix":".png"},"primary":"true"}],"verified":"true","restricted":"true","stats":{"checkinsCount":"306","usersCount":"223","tipCount":"2"},"url":"http:\/\/www.almeida-restaurant.co.uk","menu":{"type":"Menu","label":"Menu","anchor":"View Menu","url":"https:\/\/foursquare.com\/v\/almeida-restaurant--bar\/4ac518e8f964a52082ab20e3\/menu","mobileUrl":"https:\/\/foursquare.com\/v\/4ac518e8f964a52082ab20e3\/device_menu"},"specials":{"count":"0"},"hereNow":{"count":"0"},"storeId":"","referralId":"v-1392477953"},{"id":"4b75782ff964a5203f0e2ee3","name":"After Noah","contact":{"phone":"+442073594281","formattedPhone":"+44 20 7359 4281"},"location":{"address":"121 Upper Street","crossStreet":"Cross Street","lat":"51.538941799248235","lng":"-0.10273933410644531","distance":"38","postalCode":"N1 1QP","cc":"GB","city":"London","state":"Greater London","country":"United Kingdom"},"categories":[{"id":"4bf58dd8d48988d128951735","name":"Gift Shop","pluralName":"Gift Shops","shortName":"Gift Shop","icon":{"prefix":"https:\/\/ss1.4sqi.net\/img\/categories_v2\/shops\/giftshop_","suffix":".png"},"primary":"true"}],"verified":"false","restricted":"true","stats":{"checkinsCount":"148","usersCount":"123","tipCount":"2"},"specials":{"count":"0"},"hereNow":{"count":"0"},"referralId":"v-1392477953"},{"id":"4d8ce24bcb9b224b22965f41","name":"Sano Hair","contact":{"phone":"+442073545152","formattedPhone":"+44 20 7354 5152","twitter":"sanohair"},"location":{"address":"62 Cross St","lat":"51.539486823322655","lng":"-0.10218001494177834","distance":"48","postalCode":"N1 2BA","cc":"GB","city":"Islington","state":"Greater London","country":"United Kingdom"},"categories":[{"id":"4bf58dd8d48988d110951735","name":"Salon \/ Barbershop","pluralName":"Salons \/ Barbershops","shortName":"Salon \/ Barbershop","icon":{"prefix":"https:\/\/ss1.4sqi.net\/img\/categories_v2\/shops\/salon_barber_","suffix":".png"},"primary":"true"}],"verified":"false","restricted":"true","stats":{"checkinsCount":"41","usersCount":"19","tipCount":"1"},"specials":{"count":"0"},"hereNow":{"count":"0"},"referralId":"v-1392477953"},{"id":"4b82d1a4f964a5200ae730e3","name":"La Porchetta","location":{"address":"141 Upper Street","lat":"51.53975","lng":"-0.102474","distance":"56","postalCode":"N1 1QY","cc":"GB","city":"Islington","state":"Greater London","country":"United Kingdom"},"categories":[{"id":"4bf58dd8d48988d1ca941735","name":"Pizza Place","pluralName":"Pizza Places","shortName":"Pizza","icon":{"prefix":"https:\/\/ss1.4sqi.net\/img\/categories_v2\/food\/pizza_","suffix":".png"},"primary":"true"}],"verified":"false","restricted":"true","stats":{"checkinsCount":"281","usersCount":"238","tipCount":"3"},"menu":{"type":"Menu","label":"Menu","anchor":"View Menu","url":"https:\/\/foursquare.com\/v\/la-porchetta\/4b82d1a4f964a5200ae730e3\/menu","mobileUrl":"https:\/\/foursquare.com\/v\/4b82d1a4f964a5200ae730e3\/device_menu"},"specials":{"count":"0"},"hereNow":{"count":"0"},"referralId":"v-1392477953"},{"id":"5230b78411d284e53f40dd01","name":"Hoxley and Porter","contact":{"twitter":"hoxleyandporter"},"location":{"address":"153 Upper St","lat":"51.54030799974619","lng":"-0.10270577614531831","distance":"113","postalCode":"N1 1RA","cc":"GB","city":"London","state":"Greater London","country":"United Kingdom"},"categories":[{"id":"4bf58dd8d48988d11e941735","name":"Cocktail Bar","pluralName":"Cocktail Bars","shortName":"Cocktail","icon":{"prefix":"https:\/\/ss1.4sqi.net\/img\/categories_v2\/nightlife\/cocktails_","suffix":".png"},"primary":"true"}],"verified":"false","restricted":"true","stats":{"checkinsCount":"112","usersCount":"96","tipCount":"4"},"specials":{"count":"0"},"hereNow":{"count":"0"},"referralId":"v-1392477953"},{"id":"4bcae38e68f976b0e61e6083","name":"Angel Delicatessen","contact":{"phone":"+442072261951","formattedPhone":"+44 20 7226 1951"},"location":{"address":"48 Cross Street","lat":"51.539436","lng":"-0.101558","distance":"87","postalCode":"N1 2BA","cc":"GB","city":"Islington","state":"Greater London","country":"United Kingdom"},"categories":[{"id":"4bf58dd8d48988d146941735","name":"Deli \/ Bodega","pluralName":"Delis \/ Bodegas","shortName":"Deli \/ Bodega","icon":{"prefix":"https:\/\/ss1.4sqi.net\/img\/categories_v2\/food\/deli_","suffix":".png"},"primary":"true"}],"verified":"false","restricted":"true","stats":{"checkinsCount":"163","usersCount":"105","tipCount":"9"},"specials":{"count":"0"},"hereNow":{"count":"0"},"referralId":"v-1392477953"},{"id":"4b1039a0f964a520b26b23e3","name":"Carluccio's","contact":{"phone":"+442073598167","formattedPhone":"+44 20 7359 8167","twitter":"carluccioscaffe"},"location":{"address":"305-307 Upper St","lat":"51.538036","lng":"-0.102476","distance":"141","postalCode":"N1 2TU","cc":"GB","city":"London","state":"Greater London","country":"United Kingdom"},"categories":[{"id":"4bf58dd8d48988d110941735","name":"Italian Restaurant","pluralName":"Italian Restaurants","shortName":"Italian","icon":{"prefix":"https:\/\/ss1.4sqi.net\/img\/categories_v2\/food\/italian_","suffix":".png"},"primary":"true"}],"verified":"false","restricted":"true","stats":{"checkinsCount":"650","usersCount":"439","tipCount":"14"},"url":"http:\/\/www.carluccios.com","specials":{"count":"0"},"hereNow":{"count":"0"},"referralId":"v-1392477953"},{"id":"4c822e3f51ada1cd63a91910","name":"Royal Mail Islington","location":{"address":"Almeida Street","lat":"51.53932107581799","lng":"-0.10374642848711027","distance":"65","postalCode":"N1","cc":"GB","city":"Islington","state":"Greater London","country":"United Kingdom"},"categories":[{"id":"4bf58dd8d48988d172941735","name":"Post Office","pluralName":"Post Offices","shortName":"Post Office","icon":{"prefix":"https:\/\/ss1.4sqi.net\/img\/categories_v2\/building\/postoffice_","suffix":".png"},"primary":"true"}],"verified":"false","restricted":"true","stats":{"checkinsCount":"112","usersCount":"62","tipCount":"3"},"specials":{"count":"0"},"hereNow":{"count":"0"},"referralId":"v-1392477953"},{"id":"4b993dd4f964a520d16c35e3","name":"Zaffrani's","location":{"address":"Dagmar Passage","crossStreet":"Cross Street","lat":"51.539282","lng":"-0.101233","distance":"108","cc":"GB","city":"Islington","state":"Greater London","country":"United Kingdom"},"categories":[{"id":"4bf58dd8d48988d10f941735","name":"Indian Restaurant","pluralName":"Indian Restaurants","shortName":"Indian","icon":{"prefix":"https:\/\/ss1.4sqi.net\/img\/categories_v2\/food\/indian_","suffix":".png"},"primary":"true"}],"verified":"false","restricted":"true","stats":{"checkinsCount":"227","usersCount":"132","tipCount":"5"},"menu":{"type":"Menu","label":"Menu","anchor":"View Menu","url":"https:\/\/foursquare.com\/v\/zaffranis\/4b993dd4f964a520d16c35e3\/menu","mobileUrl":"https:\/\/foursquare.com\/v\/4b993dd4f964a520d16c35e3\/device_menu"},"specials":{"count":"0"},"hereNow":{"count":"0"},"referralId":"v-1392477953"}],"confident":"true"}}