{"meta":{"code":"200"},"response":{"venues":[{"id":"4ac518d1f964a520d9a620e3","name":"Potters Fields Park","contact":{"twitter":"lb_southwark"},"location":{"address":"Potters Fields","lat":"51.50440572216699","lng":"-0.07805882456906992","distance":"21","postalCode":"SE1 2TU","cc":"GB","city":"London","state":"Greater London","country":"United Kingdom"},"categories":[{"id":"4bf58dd8d48988d163941735","name":"Park","pluralName":"Parks","shortName":"Park","icon":{"prefix":"https:\/\/ss1.4sqi.net\/img\/categories_v2\/parks_outdoors\/park_","suffix":".png"},"primary":"true"}],"verified":"false","restricted":"true","stats":{"checkinsCount":"3166","usersCount":"1247","tipCount":"8"},"url":"http:\/\/www.southwark.gov.uk","specials":{"count":"0"},"hereNow":{"count":"0"},"referralId":"v-1392478047"},{"id":"4dcfd3c9183899ddfaf59612","name":"The Queen's Walk","location":{"address":"London Bridge to Tower Bridge","crossStreet":"Tooley St.","lat":"51.50470902423732","lng":"-0.07741928100585938","distance":"53","postalCode":"SE1 2JH","cc":"GB","city":"Southwark","state":"Greater London","country":"United Kingdom"},"categories":[{"id":"4bf58dd8d48988d164941735","name":"Plaza","pluralName":"Plazas","shortName":"Plaza","icon":{"prefix":"https:\/\/ss1.4sqi.net\/img\/categories_v2\/parks_outdoors\/plaza_","suffix":".png"},"primary":"true"}],"verified":"false","restricted":"true","stats":{"checkinsCount":"3077","usersCount":"1651","tipCount":"8"},"specials":{"count":"0"},"hereNow":{"count":"0"},"referralId":"v-1392478047"},{"id":"4b460230f964a520131426e3","name":"City Hall (Greater London Authority)","contact":{"phone":"+442079834000","formattedPhone":"+44 20 7983 4000","twitter":"mayoroflondon"},"location":{"address":"The Queen's Walk","lat":"51.50481587478995","lng":"-0.0787496566772461","distance":"87","postalCode":"SE1 2AA","cc":"GB","city":"Southwark","state":"Greater London","country":"United Kingdom"},"categories":[{"id":"4bf58dd8d48988d129941735","name":"City Hall","pluralName":"City Halls","shortName":"City Hall","icon":{"prefix":"https:\/\/ss1.4sqi.net\/img\/categories_v2\/building\/cityhall_","suffix":".png"},"primary":"true"}],"verified":"false","restricted":"true","stats":{"checkinsCount":"4240","usersCount":"2425","tipCount":"21"},"url":"http:\/\/www.london.gov.uk\/city-hall","specials":{"count":"0"},"hereNow":{"count":"1","groups":[{"type":"others","name":"Other people here","count":"1"}]},"referralId":"v-1392478047"},{"id":"4b5d5774f964a5205a5a29e3","name":"Starbucks","contact":{"twitter":"starbucksuk"},"location":{"address":"49 Shad Thames, Tower Bridge Piazza","crossStreet":"At Tower Bridge Piazza","lat":"51.503907637106174","lng":"-0.0757455825805664","distance":"148","postalCode":"SE1 2NJ","cc":"GB","city":"London","state":"Greater London","country":"United Kingdom"},"categories":[{"id":"4bf58dd8d48988d1e0931735","name":"Coffee Shop","pluralName":"Coffee Shops","shortName":"Coffee Shop","icon":{"prefix":"https:\/\/ss1.4sqi.net\/img\/categories_v2\/food\/coffeeshop_","suffix":".png"},"primary":"true"}],"verified":"true","restricted":"true","stats":{"checkinsCount":"2676","usersCount":"1215","tipCount":"8"},"url":"http:\/\/starbucks.co.uk","specials":{"count":"0"},"hereNow":{"count":"0"},"storeId":"12179","referralId":"v-1392478047"},{"id":"4b7015f5f964a52067062de3","name":"Dim T","contact":{"phone":"+442074037000","formattedPhone":"+44 20 7403 7000","twitter":"dim_t"},"location":{"address":"2 More London Place","crossStreet":"Tooley St","lat":"51.50508732872548","lng":"-0.07906773499180646","distance":"124","postalCode":"SE1 2DB","cc":"GB","city":"London","state":"Greater London","country":"United Kingdom"},"categories":[{"id":"4bf58dd8d48988d1f5931735","name":"Dim Sum Restaurant","pluralName":"Dim Sum Restaurants","shortName":"Dim Sum","icon":{"prefix":"https:\/\/ss1.4sqi.net\/img\/categories_v2\/food\/dimsum_","suffix":".png"},"primary":"true"}],"verified":"false","restricted":"true","stats":{"checkinsCount":"1051","usersCount":"872","tipCount":"28"},"url":"http:\/\/www.dimt.co.uk","menu":{"type":"Menu","label":"Menu","anchor":"View Menu","url":"https:\/\/foursquare.com\/v\/dim-t-london-greater-london\/4b7015f5f964a52067062de3\/menu","mobileUrl":"https:\/\/foursquare.com\/v\/4b7015f5f964a52067062de3\/device_menu"},"specials":{"count":"0"},"hereNow":{"count":"0"},"referralId":"v-1392478047"},{"id":"4aeb3d5ef964a520ffbf21e3","name":"Gaucho","contact":{"phone":"+442074075222","formattedPhone":"+44 20 7407 5222","twitter":"gauchogroup"},"location":{"address":"2 More London Riverside","lat":"51.505005305955514","lng":"-0.07940130762306837","distance":"136","postalCode":"SE1 2AP","cc":"GB","city":"London","state":"Greater London","country":"United Kingdom"},"categories":[{"id":"4bf58dd8d48988d107941735","name":"Argentinian Restaurant","pluralName":"Argentinian Restaurants","shortName":"Argentinian","icon":{"prefix":"https:\/\/ss1.4sqi.net\/img\/categories_v2\/food\/argentinian_","suffix":".png"},"primary":"true"}],"verified":"false","restricted":"true","stats":{"checkinsCount":"1488","usersCount":"1221","tipCount":"42"},"url":"http:\/\/www.gauchorestaurants.co.uk\/restaurants\/restaurant.php?id=towerbridge","reservations":{"url":"http:\/\/www.toptable.co.uk\/single.aspx?rid=17683&ref=9601"},"menu":{"type":"Menu","label":"Menu","anchor":"View Menu","url":"https:\/\/foursquare.com\/v\/gaucho\/4aeb3d5ef964a520ffbf21e3\/menu","mobileUrl":"https:\/\/foursquare.com\/v\/4aeb3d5ef964a520ffbf21e3\/device_menu"},"specials":{"count":"0"},"hereNow":{"count":"0"},"referralId":"v-1392478047"},{"id":"4bd865455cf276b0c61e9d00","name":"37 Degrees Health & Fitness","contact":{"phone":"+442079404937","formattedPhone":"+44 20 7940 4937"},"location":{"address":"2b More London Riverside","lat":"51.505287522398326","lng":"-0.07933844172807641","distance":"153","postalCode":"SE1 2AP","cc":"GB","city":"London","state":"Greater London","country":"United Kingdom"},"categories":[{"id":"4bf58dd8d48988d176941735","name":"Gym","pluralName":"Gyms","shortName":"Gym","icon":{"prefix":"https:\/\/ss1.4sqi.net\/img\/categories_v2\/building\/gym_","suffix":".png"},"primary":"true"}],"verified":"false","restricted":"true","stats":{"checkinsCount":"2743","usersCount":"210","tipCount":"6"},"url":"http:\/\/tower.thirtysevendegrees.co.uk","specials":{"count":"0"},"hereNow":{"count":"0"},"referralId":"v-1392478047"},{"id":"4c741edcc219224b79f39e28","name":"Draft House Tower Bridge","contact":{"phone":"+442073789995","formattedPhone":"+44 20 7378 9995","twitter":"drafthouseuk"},"location":{"address":"206-208 Tower Bridge Rd","crossStreet":"at Queen Elizabeth St","lat":"51.50282908134451","lng":"-0.07710814476013184","distance":"169","postalCode":"SE1 2UP","cc":"GB","city":"Bermondsey","state":"Greater London","country":"United Kingdom"},"categories":[{"id":"4bf58dd8d48988d155941735","name":"Gastropub","pluralName":"Gastropubs","shortName":"Gastropub","icon":{"prefix":"https:\/\/ss1.4sqi.net\/img\/categories_v2\/food\/gastropub_","suffix":".png"},"primary":"true"}],"verified":"true","restricted":"true","stats":{"checkinsCount":"2531","usersCount":"1507","tipCount":"49"},"url":"http:\/\/www.drafthouse.co.uk","specials":{"count":"0"},"hereNow":{"count":"0"},"referralId":"v-1392478047"},{"id":"4fa91369e4b0e117740e3dc4","name":"Caffe Fratelli","contact":{"phone":"+442074079751","formattedPhone":"+44 20 7407 9751","twitter":"caffefratelli"},"location":{"address":"More London","crossStreet":"off Weaver's Lane","lat":"51.50450307081016","lng":"-0.07846030420529837","distance":"51","postalCode":"SE1 2RL","cc":"GB","city":"London","state":"Greater London","country":"United Kingdom"},"categories":[{"id":"4bf58dd8d48988d16d941735","name":"Caf\u00e9","pluralName":"Caf\u00e9s","shortName":"Caf\u00e9","icon":{"prefix":"https:\/\/ss1.4sqi.net\/img\/categories_v2\/food\/cafe_","suffix":".png"},"primary":"true"}],"verified":"true","restricted":"true","stats":{"checkinsCount":"229","usersCount":"134","tipCount":"4"},"url":"http:\/\/caffefratelli.co.uk","specials":{"count":"0"},"hereNow":{"count":"0"},"storeId":"","referralId":"v-1392478047"},{"id":"4af34658f964a52045ec21e3","name":"The Bridge House","contact":{"phone":"+442077407818","formattedPhone":"+44 20 7740 7818","twitter":"bridgehousebar"},"location":{"address":"218 Tower Bridge Rd","lat":"51.50318502823046","lng":"-0.07662065618767655","distance":"147","postalCode":"SE1 2UP","cc":"GB","city":"Bermondsey","state":"Greater London","country":"United Kingdom"},"categories":[{"id":"4bf58dd8d48988d11b941735","name":"Pub","pluralName":"Pubs","shortName":"Pub","icon":{"prefix":"https:\/\/ss1.4sqi.net\/img\/categories_v2\/nightlife\/pub_","suffix":".png"},"primary":"true"}],"verified":"false","restricted":"true","stats":{"checkinsCount":"872","usersCount":"477","tipCount":"8"},"url":"http:\/\/www.bridgehousebar.co.uk","specials":{"count":"0"},"hereNow":{"count":"0"},"referralId":"v-1392478047"},{"id":"4b6c1568f964a520f2222ce3","name":"Tower Bridge Piazza","location":{"address":"Shad Thames","crossStreet":"at Horselydown Ln","lat":"51.50369393149093","lng":"-0.07557392120361328","distance":"168","postalCode":"SE1 2LH","cc":"GB","city":"Butler's Wharf","state":"Greater London","country":"United Kingdom"},"categories":[{"id":"4bf58dd8d48988d165941735","name":"Scenic Lookout","pluralName":"Scenic Lookouts","shortName":"Scenic Lookout","icon":{"prefix":"https:\/\/ss1.4sqi.net\/img\/categories_v2\/parks_outdoors\/sceniclookout_","suffix":".png"},"primary":"true"}],"verified":"false","restricted":"true","stats":{"checkinsCount":"2397","usersCount":"531","tipCount":"2"},"specials":{"count":"0"},"hereNow":{"count":"0"},"referralId":"v-1392478047"},{"id":"4c26328af1272d7f6a1286c5","name":"Strada","contact":{"phone":"+442074048321","formattedPhone":"+44 20 7404 8321","twitter":"stradatweet"},"location":{"address":"2 More London Place","crossStreet":"The Riverside","lat":"51.50547729288914","lng":"-0.07988934147218538","distance":"195","postalCode":"SE1 2JP","cc":"GB","city":"London","state":"Greater London","country":"United Kingdom"},"categories":[{"id":"4bf58dd8d48988d110941735","name":"Italian Restaurant","pluralName":"Italian Restaurants","shortName":"Italian","icon":{"prefix":"https:\/\/ss1.4sqi.net\/img\/categories_v2\/food\/italian_","suffix":".png"},"primary":"true"}],"verified":"true","restricted":"true","stats":{"checkinsCount":"1274","usersCount":"1076","tipCount":"25"},"url":"http:\/\/www.strada.co.uk","specials":{"count":"0"},"hereNow":{"count":"0"},"storeId":"","referralId":"v-1392478047"},{"id":"4ac518eaf964a52009ac20e3","name":"The Scoop at More London","contact":{"phone":"+442074034866","formattedPhone":"+44 20 7403 4866"},"location":{"address":"More London Riverside","crossStreet":"btwn London Bridge and Tower Bridge","lat":"51.505092635091586","lng":"-0.07922921486774558","distance":"133","postalCode":"SE1 2DB","cc":"GB","city":"Southwark","state":"Greater London","country":"United Kingdom"},"categories":[{"id":"4bf58dd8d48988d137941735","name":"Theater","pluralName":"Theaters","shortName":"Theater","icon":{"prefix":"https:\/\/ss1.4sqi.net\/img\/categories_v2\/arts_entertainment\/performingarts_theater_","suffix":".png"},"primary":"true"}],"verified":"false","restricted":"true","stats":{"checkinsCount":"1276","usersCount":"683","tipCount":"5"},"url":"http:\/\/www.morelondon.com\/scoop.html","menu":{"type":"Menu","label":"Menu","anchor":"View Menu","url":"https:\/\/foursquare.com\/v\/the-scoop-at-more-london-southwark-greater-london\/4ac518eaf964a52009ac20e3\/menu","mobileUrl":"https:\/\/foursquare.com\/v\/4ac518eaf964a52009ac20e3\/device_menu"},"specials":{"count":"0"},"hereNow":{"count":"0"},"referralId":"v-1392478047"},{"id":"4bb2f8704019a593f47637b8","name":"Norton Rose Fulbright","location":{"address":"3 More London Riverside","lat":"51.50458141037825","lng":"-0.07974295884233072","distance":"138","postalCode":"SE1 2AQ","cc":"GB","city":"London","state":"Greater London","country":"United Kingdom"},"categories":[{"id":"4bf58dd8d48988d124941735","name":"Office","pluralName":"Offices","shortName":"Office","icon":{"prefix":"https:\/\/ss1.4sqi.net\/img\/categories_v2\/building\/default_","suffix":".png"},"primary":"true"}],"verified":"false","restricted":"true","stats":{"checkinsCount":"526","usersCount":"182","tipCount":"2"},"specials":{"count":"0"},"hereNow":{"count":"0"},"referralId":"v-1392478047"},{"id":"4ae59febf964a52021a121e3","name":"The Bridge Lounge","contact":{"phone":"+442074034112","formattedPhone":"+44 20 7403 4112"},"location":{"address":"186 Tooley St","lat":"51.503438","lng":"-0.07949","distance":"150","postalCode":"SE1 2TZ","cc":"GB","city":"London","state":"Greater London","country":"United Kingdom"},"categories":[{"id":"4bf58dd8d48988d11b941735","name":"Pub","pluralName":"Pubs","shortName":"Pub","icon":{"prefix":"https:\/\/ss1.4sqi.net\/img\/categories_v2\/nightlife\/pub_","suffix":".png"},"primary":"true"}],"verified":"false","restricted":"true","stats":{"checkinsCount":"516","usersCount":"400","tipCount":"8"},"url":"http:\/\/thebridgelounge.co.uk","specials":{"count":"0"},"hereNow":{"count":"0"},"referralId":"v-1392478047"},{"id":"4cf789a7d3a8a1cd8746d743","name":"Tower Bridge, North Tower Lounge","location":{"lat":"51.505190329254866","lng":"-0.07850090994903487","distance":"111","cc":"GB","country":"United Kingdom"},"categories":[{"id":"4bf58dd8d48988d190941735","name":"History Museum","pluralName":"History Museums","shortName":"History Museum","icon":{"prefix":"https:\/\/ss1.4sqi.net\/img\/categories_v2\/arts_entertainment\/museum_history_","suffix":".png"},"primary":"true"}],"verified":"false","restricted":"true","stats":{"checkinsCount":"392","usersCount":"372","tipCount":"2"},"specials":{"count":"0"},"hereNow":{"count":"0"},"referralId":"v-1392478047"},{"id":"4f53e13ee4b063296e9a4364","name":"The Vault","contact":{"phone":"+442074078782","formattedPhone":"+44 20 7407 8782"},"location":{"address":"Horace Jones Vault","crossStreet":"at Tower Bridge","lat":"51.504494122028326","lng":"-0.07595989834386344","distance":"129","postalCode":"SE1 2JG","cc":"GB","city":"London","state":"Greater London","country":"United Kingdom"},"categories":[{"id":"4bf58dd8d48988d11e941735","name":"Cocktail Bar","pluralName":"Cocktail Bars","shortName":"Cocktail","icon":{"prefix":"https:\/\/ss1.4sqi.net\/img\/categories_v2\/nightlife\/cocktails_","suffix":".png"},"primary":"true"}],"verified":"false","restricted":"true","stats":{"checkinsCount":"265","usersCount":"248","tipCount":"3"},"url":"http:\/\/www.thevault1894.com","specials":{"count":"0"},"hereNow":{"count":"0"},"referralId":"v-1392478047"},{"id":"50697a3ce4b0d34396a0b022","name":"Red Bull Studios London","contact":{"twitter":"rbstudioslondon"},"location":{"address":"151 - 172 Tooley Street","crossStreet":"Weaver's Lane","lat":"51.50369125001551","lng":"-0.08006815293278843","distance":"170","postalCode":"Se1 2jp","cc":"GB","city":"London","state":"Greater London","country":"United Kingdom"},"categories":[{"id":"4bf58dd8d48988d1e5931735","name":"Music Venue","pluralName":"Music Venues","shortName":"Music Venue","icon":{"prefix":"https:\/\/ss1.4sqi.net\/img\/categories_v2\/arts_entertainment\/musicvenue_","suffix":".png"},"primary":"true"}],"verified":"false","restricted":"true","stats":{"checkinsCount":"227","usersCount":"155","tipCount":"0"},"specials":{"count":"0"},"hereNow":{"count":"0"},"referralId":"v-1392478047"},{"id":"4bfa6c3c508c0f47c70c4031","name":"TfL Bus 47","contact":{"phone":"+443432221234","formattedPhone":"+44 343 222 1234","twitter":"tflbusalerts"},"location":{"address":"Moving Target!","lat":"51.509193094719166","lng":"-0.07930245102416793","distance":"555","cc":"GB","city":"London","state":"Greater London","country":"United Kingdom"},"categories":[{"id":"4bf58dd8d48988d12b951735","name":"Bus Line","pluralName":"Bus Lines","shortName":"Bus","icon":{"prefix":"https:\/\/ss1.4sqi.net\/img\/categories_v2\/travel\/busstation_","suffix":".png"},"primary":"true"}],"verified":"false","restricted":"true","stats":{"checkinsCount":"543","usersCount":"139","tipCount":"1"},"url":"http:\/\/tfl.gov.uk","specials":{"count":"0"},"hereNow":{"count":"0"},"referralId":"v-1392478047"},{"id":"4bc9bdd60687ef3b785cdacc","name":"Anchor Tap","contact":{"phone":"+442074034637","formattedPhone":"+44 20 7403 4637"},"location":{"address":"28 Horsleydown Ln.","lat":"51.50358707830748","lng":"-0.07591724395751953","distance":"152","postalCode":"SE1 2LN","cc":"GB","city":"Bermondsey","state":"Greater London","country":"United Kingdom"},"categories":[{"id":"4bf58dd8d48988d11b941735","name":"Pub","pluralName":"Pubs","shortName":"Pub","icon":{"prefix":"https:\/\/ss1.4sqi.net\/img\/categories_v2\/nightlife\/pub_","suffix":".png"},"primary":"true"}],"verified":"false","restricted":"true","stats":{"checkinsCount":"512","usersCount":"289","tipCount":"6"},"specials":{"count":"0"},"hereNow":{"count":"0"},"referralId":"v-1392478047"},{"id":"4bfa690d4a67c928542728cf","name":"The Don","location":{"address":"224a Tower Bridge Road","lat":"51.50341626253963","lng":"-0.07673672454692541","distance":"122","postalCode":"London SE1 2","cc":"GB","city":"London","state":"Greater London","country":"United Kingdom"},"categories":[{"id":"4bf58dd8d48988d110941735","name":"Italian Restaurant","pluralName":"Italian Restaurants","shortName":"Italian","icon":{"prefix":"https:\/\/ss1.4sqi.net\/img\/categories_v2\/food\/italian_","suffix":".png"},"primary":"true"}],"verified":"false","restricted":"true","stats":{"checkinsCount":"76","usersCount":"63","tipCount":"2"},"specials":{"count":"0"},"hereNow":{"count":"0"},"referralId":"v-1392478047"},{"id":"4adf1642f964a520777721e3","name":"Red Bull Records","location":{"address":"151 Tooley St.","lat":"51.503680459643064","lng":"-0.08008566645225061","distance":"172","cc":"GB","city":"London","state":"Greater London","country":"United Kingdom"},"categories":[{"id":"4bf58dd8d48988d124941735","name":"Office","pluralName":"Offices","shortName":"Office","icon":{"prefix":"https:\/\/ss1.4sqi.net\/img\/categories_v2\/building\/default_","suffix":".png"},"primary":"true"}],"verified":"false","restricted":"true","stats":{"checkinsCount":"688","usersCount":"219","tipCount":"5"},"specials":{"count":"0"},"hereNow":{"count":"0"},"referralId":"v-1392478047"},{"id":"523598ed11d2a776023bcf0a","name":"Luardos","contact":{"twitter":"luardos"},"location":{"address":"At Thames Festival","lat":"51.504206","lng":"-0.077623","distance":"15","cc":"GB","country":"United Kingdom"},"categories":[{"id":"4bf58dd8d48988d153941735","name":"Burrito Place","pluralName":"Burrito Places","shortName":"Burritos","icon":{"prefix":"https:\/\/ss1.4sqi.net\/img\/categories_v2\/food\/burrito_","suffix":".png"},"primary":"true"}],"verified":"false","restricted":"true","stats":{"checkinsCount":"1","usersCount":"1","tipCount":"0"},"specials":{"count":"0"},"hereNow":{"count":"0"},"referralId":"v-1392478047"},{"id":"4ad46254f964a520b5e720e3","name":"Shades Piazza","location":{"address":"47 Shad Thames","crossStreet":"Lafone Street","lat":"51.50397090185747","lng":"-0.07548100627093789","distance":"164","postalCode":"Se1","cc":"GB","city":"London","state":"Greater London","country":"United Kingdom"},"categories":[{"id":"4bf58dd8d48988d16d941735","name":"Caf\u00e9","pluralName":"Caf\u00e9s","shortName":"Caf\u00e9","icon":{"prefix":"https:\/\/ss1.4sqi.net\/img\/categories_v2\/food\/cafe_","suffix":".png"},"primary":"true"}],"verified":"false","restricted":"true","stats":{"checkinsCount":"667","usersCount":"121","tipCount":"4"},"specials":{"count":"0"},"hereNow":{"count":"0"},"referralId":"v-1392478047"},{"id":"516803b445b0b8bf1182fd81","name":"Restaurant Story","contact":{"phone":"+442071832117","formattedPhone":"+44 20 7183 2117","twitter":"rest_story"},"location":{"address":"201 Tooley Street","lat":"51.50276897531896","lng":"-0.07776260375976562","distance":"169","postalCode":"SE1 2UE","cc":"GB","city":"London","state":"Greater London","country":"United Kingdom"},"categories":[{"id":"4bf58dd8d48988d1c4941735","name":"Restaurant","pluralName":"Restaurants","shortName":"Restaurant","icon":{"prefix":"https:\/\/ss1.4sqi.net\/img\/categories_v2\/food\/default_","suffix":".png"},"primary":"true"}],"verified":"true","restricted":"true","stats":{"checkinsCount":"216","usersCount":"155","tipCount":"6"},"url":"http:\/\/www.resturantstory.co.uk","specials":{"count":"0"},"hereNow":{"count":"0"},"venuePage":{"id":"53219398"},"storeId":"","referralId":"v-1392478047"},{"id":"4ee10fb530f810becb46b2cf","name":"Indian Fusion","location":{"address":"214 Tower Bridge Rd","lat":"51.50332311673029","lng":"-0.07698149220467841","distance":"121","postalCode":"SE1 2UP","cc":"GB","city":"London","state":"Greater London","country":"United Kingdom"},"categories":[{"id":"4bf58dd8d48988d10f941735","name":"Indian Restaurant","pluralName":"Indian Restaurants","shortName":"Indian","icon":{"prefix":"https:\/\/ss1.4sqi.net\/img\/categories_v2\/food\/indian_","suffix":".png"},"primary":"true"}],"verified":"false","restricted":"true","stats":{"checkinsCount":"75","usersCount":"70","tipCount":"1"},"url":"http:\/\/www.theindianfusion.com","reservations":{"url":"http:\/\/www.toptable.co.uk\/single.aspx?rid=81535&ref=9601"},"menu":{"type":"Menu","label":"Menu","anchor":"View Menu","url":"https:\/\/foursquare.com\/v\/indian-fusion\/4ee10fb530f810becb46b2cf\/menu","mobileUrl":"https:\/\/foursquare.com\/v\/4ee10fb530f810becb46b2cf\/device_menu"},"specials":{"count":"0"},"hereNow":{"count":"0"},"referralId":"v-1392478047"},{"id":"4dda4e1dd4c05d50972cf5cb","name":"Sleepers Corner, Potters Field","location":{"lat":"51.504129","lng":"-0.077832","distance":"17","cc":"GB","city":"Camberwell","state":"Greater London","country":"United Kingdom"},"categories":[{"id":"4bf58dd8d48988d163941735","name":"Park","pluralName":"Parks","shortName":"Park","icon":{"prefix":"https:\/\/ss1.4sqi.net\/img\/categories_v2\/parks_outdoors\/park_","suffix":".png"},"primary":"true"}],"verified":"false","restricted":"true","stats":{"checkinsCount":"6","usersCount":"3","tipCount":"0"},"specials":{"count":"0"},"hereNow":{"count":"0"},"referralId":"v-1392478047"},{"id":"4af560b1f964a520f9f821e3","name":"Amano Tower Bridge","location":{"address":"More London","lat":"51.5042549065934","lng":"-0.07814884185791016","distance":"24","cc":"GB","city":"London","state":"Greater London","country":"United Kingdom"},"categories":[{"id":"4bf58dd8d48988d16d941735","name":"Caf\u00e9","pluralName":"Caf\u00e9s","shortName":"Caf\u00e9","icon":{"prefix":"https:\/\/ss1.4sqi.net\/img\/categories_v2\/food\/cafe_","suffix":".png"},"primary":"true"}],"verified":"false","restricted":"true","stats":{"checkinsCount":"137","usersCount":"90","tipCount":"3"},"specials":{"count":"0"},"hereNow":{"count":"0"},"referralId":"v-1392478047"},{"id":"519d17bf498e29f3742c8c0e","name":"Hipsta Bar","location":{"lat":"51.503536224365234","lng":"-0.07669519633054733","distance":"113","cc":"GB","country":"United Kingdom"},"categories":[{"id":"4bf58dd8d48988d116941735","name":"Bar","pluralName":"Bars","shortName":"Bar","icon":{"prefix":"https:\/\/ss1.4sqi.net\/img\/categories_v2\/nightlife\/bar_","suffix":".png"},"primary":"true"}],"verified":"false","restricted":"true","stats":{"checkinsCount":"25","usersCount":"21","tipCount":"4"},"specials":{"count":"0"},"hereNow":{"count":"0"},"referralId":"v-1392478047"},{"id":"52c6b5ec498e59d83cbdc1c3","name":"WatchGuard UK, London","location":{"address":"3 More London Riverside","lat":"51.504034","lng":"-0.079803","distance":"141","postalCode":"SE1 2RE","cc":"GB","city":"London","state":"Greater London","country":"United Kingdom"},"categories":[{"id":"4bf58dd8d48988d124941735","name":"Office","pluralName":"Offices","shortName":"Office","icon":{"prefix":"https:\/\/ss1.4sqi.net\/img\/categories_v2\/building\/default_","suffix":".png"},"primary":"true"}],"verified":"false","restricted":"true","stats":{"checkinsCount":"5","usersCount":"0","tipCount":"0"},"specials":{"count":"0"},"hereNow":{"count":"0"},"referralId":"v-1392478047"}],"confident":"true"}}