{"meta":{"code":"200"},"response":{"venues":[{"id":"4b9d06fbf964a520978936e3","name":"Vue Cinema","contact":{"phone":"+448712240240","formattedPhone":"+44 871 224 0240","twitter":"vuecinemas","facebook":"147114011989238"},"location":{"address":"36 Parkfield St","lat":"51.534072158289945","lng":"-0.10641337354274194","distance":"99","postalCode":"N1 0PS","cc":"GB","city":"Islington","state":"Greater London","country":"United Kingdom"},"categories":[{"id":"4bf58dd8d48988d17f941735","name":"Movie Theater","pluralName":"Movie Theaters","shortName":"Movie Theater","icon":{"prefix":"https:\/\/ss1.4sqi.net\/img\/categories_v2\/arts_entertainment\/movietheater_","suffix":".png"},"primary":"true"}],"verified":"true","restricted":"true","stats":{"checkinsCount":"7367","usersCount":"3506","tipCount":"28"},"url":"http:\/\/www.myvue.com","specials":{"count":"0"},"events":{"count":"19","summary":"19 movies"},"hereNow":{"count":"1","groups":[{"type":"others","name":"Other people here","count":"1"}]},"storeId":"31","referralId":"v-1392477965"},{"id":"4ad79cddf964a520c60c21e3","name":"Sainsbury's","location":{"address":"31-41 Liverpool Rd.","lat":"51.534083487367624","lng":"-0.10698795318603516","distance":"60","postalCode":"N1 0RW","cc":"GB","city":"Islington","state":"Greater London","country":"United Kingdom"},"categories":[{"id":"4bf58dd8d48988d118951735","name":"Grocery Store","pluralName":"Grocery Stores","shortName":"Grocery Store","icon":{"prefix":"https:\/\/ss1.4sqi.net\/img\/categories_v2\/shops\/food_grocery_","suffix":".png"},"primary":"true"}],"verified":"false","restricted":"true","stats":{"checkinsCount":"3464","usersCount":"987","tipCount":"11"},"specials":{"count":"0"},"hereNow":{"count":"0"},"referralId":"v-1392477965"},{"id":"4ac518c4f964a52073a420e3","name":"The Angelic","contact":{"phone":"+442072788433","formattedPhone":"+44 20 7278 8433"},"location":{"address":"57 Liverpool Rd","crossStreet":"at Ritchie St","lat":"51.53475086862483","lng":"-0.10696649551391602","distance":"77","postalCode":"N1 0RJ","cc":"GB","city":"Islington","state":"Greater London","country":"United Kingdom"},"categories":[{"id":"4bf58dd8d48988d155941735","name":"Gastropub","pluralName":"Gastropubs","shortName":"Gastropub","icon":{"prefix":"https:\/\/ss1.4sqi.net\/img\/categories_v2\/food\/gastropub_","suffix":".png"},"primary":"true"}],"verified":"false","restricted":"true","stats":{"checkinsCount":"2715","usersCount":"1710","tipCount":"39"},"url":"http:\/\/theangelic.co.uk","menu":{"type":"Menu","label":"Menu","anchor":"View Menu","url":"https:\/\/foursquare.com\/v\/the-angelic\/4ac518c4f964a52073a420e3\/menu","mobileUrl":"https:\/\/foursquare.com\/v\/4ac518c4f964a52073a420e3\/device_menu"},"specials":{"count":"0"},"hereNow":{"count":"2","groups":[{"type":"others","name":"Other people here","count":"2"}]},"referralId":"v-1392477966"},{"id":"4ad74066f964a5201c0921e3","name":"Waitrose","contact":{"phone":"+442072782207","formattedPhone":"+44 20 7278 2207","twitter":"waitroseuk"},"location":{"address":"21 Liverpool Rd.","lat":"51.53386324940544","lng":"-0.1066446304321289","distance":"93","postalCode":"N1 9EN","cc":"GB","city":"Islington","state":"Greater London","country":"United Kingdom"},"categories":[{"id":"4bf58dd8d48988d118951735","name":"Grocery Store","pluralName":"Grocery Stores","shortName":"Grocery Store","icon":{"prefix":"https:\/\/ss1.4sqi.net\/img\/categories_v2\/shops\/food_grocery_","suffix":".png"},"primary":"true"}],"verified":"false","restricted":"true","stats":{"checkinsCount":"1924","usersCount":"594","tipCount":"6"},"url":"http:\/\/www.waitrose.com","specials":{"count":"0"},"hereNow":{"count":"1","groups":[{"type":"others","name":"Other people here","count":"1"}]},"referralId":"v-1392477966"},{"id":"4bc1ca70920eb713bb211b2c","name":"'Round Midnight","contact":{"phone":"+442078378758","formattedPhone":"+44 20 7837 8758"},"location":{"address":"13 Liverpool Rd","lat":"51.53373644524688","lng":"-0.10720252990722656","distance":"74","postalCode":"N1 0RW","cc":"GB","city":"Islington","state":"Greater London","country":"United Kingdom"},"categories":[{"id":"4bf58dd8d48988d1e7931735","name":"Jazz Club","pluralName":"Jazz Clubs","shortName":"Jazz Club","icon":{"prefix":"https:\/\/ss1.4sqi.net\/img\/categories_v2\/arts_entertainment\/musicvenue_jazzclub_","suffix":".png"},"primary":"true"}],"verified":"false","restricted":"true","stats":{"checkinsCount":"1002","usersCount":"677","tipCount":"21"},"url":"http:\/\/www.roundmidnightbar.com","specials":{"count":"0"},"hereNow":{"count":"0"},"referralId":"v-1392477966"},{"id":"4bbc8321afe1b7134672304b","name":"Wagamama","contact":{"phone":"+442072262664","formattedPhone":"+44 20 7226 2664"},"location":{"address":"N1 Centre","crossStreet":"Parkfield St.","lat":"51.534216964401864","lng":"-0.10664999485015869","distance":"80","postalCode":"N1 0PS","cc":"GB","city":"London","state":"Greater London","country":"United Kingdom"},"categories":[{"id":"4bf58dd8d48988d1d1941735","name":"Ramen \/ Noodle House","pluralName":"Ramen \/ Noodle House","shortName":"Ramen \/ Noodles","icon":{"prefix":"https:\/\/ss1.4sqi.net\/img\/categories_v2\/food\/ramen_","suffix":".png"},"primary":"true"}],"verified":"false","restricted":"true","stats":{"checkinsCount":"1939","usersCount":"1247","tipCount":"24"},"url":"http:\/\/wagamama.com","specials":{"count":"0"},"hereNow":{"count":"0"},"referralId":"v-1392477966"},{"id":"4ad9c332f964a520ab1a21e3","name":"N1 Centre","contact":{"phone":"+442072267518","formattedPhone":"+44 20 7226 7518","twitter":"n1centre"},"location":{"address":"21 Parkfield St","lat":"51.53399005321076","lng":"-0.10606527328491211","distance":"124","postalCode":"N1 0PS","cc":"GB","city":"Islington","state":"Greater London","country":"United Kingdom"},"categories":[{"id":"4bf58dd8d48988d1fd941735","name":"Mall","pluralName":"Malls","shortName":"Mall","icon":{"prefix":"https:\/\/ss1.4sqi.net\/img\/categories_v2\/shops\/mall_","suffix":".png"},"primary":"true"}],"verified":"true","restricted":"true","stats":{"checkinsCount":"2627","usersCount":"848","tipCount":"8"},"url":"http:\/\/www.n1inslington.com","specials":{"count":"0"},"hereNow":{"count":"0"},"venuePage":{"id":"33626346"},"storeId":"","referralId":"v-1392477966"},{"id":"4bc76e872f94d13a36ea117f","name":"O2 Academy Islington","location":{"address":"16 Parkfield St","lat":"51.53407013964267","lng":"-0.10619401931762695","distance":"114","postalCode":"N1","cc":"GB","city":"London","state":"Greater London","country":"United Kingdom"},"categories":[{"id":"4bf58dd8d48988d1e5931735","name":"Music Venue","pluralName":"Music Venues","shortName":"Music Venue","icon":{"prefix":"https:\/\/ss1.4sqi.net\/img\/categories_v2\/arts_entertainment\/musicvenue_","suffix":".png"},"primary":"true"}],"verified":"false","restricted":"true","stats":{"checkinsCount":"3450","usersCount":"2225","tipCount":"28"},"specials":{"count":"0"},"events":{"count":"1","summary":"Old School Indie","items":[{"id":"51ccef2e2d4eaa655b6c35d0","name":"Old School Indie","categories":[{"id":"4e0a4b91bd41eda0d6092f89","name":"Concert","pluralName":"Concerts","shortName":"Concert","icon":{"prefix":"https:\/\/ss1.4sqi.net\/img\/categories_v2\/arts_entertainment\/musicvenue_","suffix":".png"},"primary":"true"}],"startAt":"1392503400","endAt":"1392525000","allDay":"false","timeZone":"Europe\/London","text":"","url":"http:\/\/www.songkick.com\/concerts\/18784684-old-school-indie-at-o2-academy-2-islington?utm_source=4436&utm_medium=partner","provider":{"name":"songkick","iconUrl":{"prefix":"https:\/\/playfoursquare.s3.amazonaws.com\/events\/images\/partners\/sk\/","sizes":["20","40"],"name":"\/logo.png"},"urlText":"more info"},"stats":{"checkinsCount":"0","usersCount":"0"},"participants":[{"participant":{"id":"4e6805be196b01a6e91966ad","displayName":"Cash Band London","totalEvents":"0"},"role":"headline"},{"participant":{"id":"4e55909d196bd3a8a962ab13","displayName":"CA$H:","totalEvents":"0"},"role":"headline"}]}]},"hereNow":{"count":"0"},"referralId":"v-1392477966"},{"id":"512776e7e4b048ef91ec198c","name":"Gourmet Burger Kitchen","contact":{"phone":"+442076549134","formattedPhone":"+44 20 7654 9134","twitter":"gbkburgers","facebook":"109876765711105"},"location":{"address":"39 Parkfield St","crossStreet":"N1 Centre","lat":"51.53411","lng":"-0.106663","distance":"81","postalCode":"N1 0PS","cc":"GB","city":"Islington","state":"Greater London","country":"United Kingdom"},"categories":[{"id":"4bf58dd8d48988d16c941735","name":"Burger Joint","pluralName":"Burger Joints","shortName":"Burgers","icon":{"prefix":"https:\/\/ss1.4sqi.net\/img\/categories_v2\/food\/burger_","suffix":".png"},"primary":"true"}],"verified":"true","restricted":"true","stats":{"checkinsCount":"324","usersCount":"240","tipCount":"6"},"url":"http:\/\/www.gbk.co.uk","specials":{"count":"0"},"hereNow":{"count":"0"},"storeId":"Angel","referralId":"v-1392477966"},{"id":"4ebc8058f9f48676cf72dc0c","name":"The Islington","contact":{"twitter":"theislington"},"location":{"address":"1 Tolpuddle Street","lat":"51.53445722207716","lng":"-0.10869383811950684","distance":"64","postalCode":"N1 0XT","cc":"GB","city":"London","state":"Greater London","country":"United Kingdom"},"categories":[{"id":"4bf58dd8d48988d116941735","name":"Bar","pluralName":"Bars","shortName":"Bar","icon":{"prefix":"https:\/\/ss1.4sqi.net\/img\/categories_v2\/nightlife\/bar_","suffix":".png"},"primary":"true"}],"verified":"false","restricted":"true","stats":{"checkinsCount":"318","usersCount":"260","tipCount":"8"},"specials":{"count":"0"},"events":{"count":"1","summary":"The Actions","items":[{"id":"52db3292498e6c65ac2673da","name":"The Actions","categories":[{"id":"4e0a4b91bd41eda0d6092f89","name":"Concert","pluralName":"Concerts","shortName":"Concert","icon":{"prefix":"https:\/\/ss1.4sqi.net\/img\/categories_v2\/arts_entertainment\/musicvenue_","suffix":".png"},"primary":"true"}],"startAt":"1392494400","endAt":"1392516000","allDay":"false","timeZone":"Europe\/London","text":"","url":"http:\/\/www.songkick.com\/concerts\/19261134-actions-at-islington?utm_source=4436&utm_medium=partner","provider":{"name":"songkick","iconUrl":{"prefix":"https:\/\/playfoursquare.s3.amazonaws.com\/events\/images\/partners\/sk\/","sizes":["20","40"],"name":"\/logo.png"},"urlText":"more info"},"stats":{"checkinsCount":"0","usersCount":"0"}}]},"hereNow":{"count":"0"},"referralId":"v-1392477966"},{"id":"4c84af4374d7b60c321695d8","name":"McDonald's","location":{"address":"Chapel Market","lat":"51.533654124916666","lng":"-0.1084478921248478","distance":"83","cc":"GB","city":"Islington","state":"Greater London","country":"United Kingdom"},"categories":[{"id":"4bf58dd8d48988d16e941735","name":"Fast Food Restaurant","pluralName":"Fast Food Restaurants","shortName":"Fast Food","icon":{"prefix":"https:\/\/ss1.4sqi.net\/img\/categories_v2\/food\/fastfood_","suffix":".png"},"primary":"true"}],"verified":"false","restricted":"true","stats":{"checkinsCount":"685","usersCount":"345","tipCount":"5"},"specials":{"count":"0"},"hereNow":{"count":"1","groups":[{"type":"others","name":"Other people here","count":"1"}]},"referralId":"v-1392477966"},{"id":"4ac518c4f964a52072a420e3","name":"Tinderbox Espresso Bar","contact":{"phone":"+442073548929","formattedPhone":"+44 20 7354 8929"},"location":{"address":"21 Upper St","lat":"51.53404077094123","lng":"-0.10583316861646481","distance":"139","postalCode":"N1 0PQ","cc":"GB","city":"Islington","state":"Greater London","country":"United Kingdom"},"categories":[{"id":"4bf58dd8d48988d1e0931735","name":"Coffee Shop","pluralName":"Coffee Shops","shortName":"Coffee Shop","icon":{"prefix":"https:\/\/ss1.4sqi.net\/img\/categories_v2\/food\/coffeeshop_","suffix":".png"},"primary":"true"}],"verified":"false","restricted":"true","stats":{"checkinsCount":"2541","usersCount":"1119","tipCount":"59"},"specials":{"count":"0"},"hereNow":{"count":"2","groups":[{"type":"others","name":"Other people here","count":"2"}]},"referralId":"v-1392477966"},{"id":"4ae2c0bcf964a5206a8f21e3","name":"Marks & Spencer","contact":{"phone":"+442078372744","formattedPhone":"+44 20 7837 2744"},"location":{"address":"5 Liverpool Rd.","crossStreet":"Chapel Market","lat":"51.53348950981908","lng":"-0.10683774948120117","distance":"111","postalCode":"N1 0RR","cc":"GB","city":"Islington","state":"Greater London","country":"United Kingdom"},"categories":[{"id":"4bf58dd8d48988d1f6941735","name":"Department Store","pluralName":"Department Stores","shortName":"Department Store","icon":{"prefix":"https:\/\/ss1.4sqi.net\/img\/categories_v2\/shops\/departmentstore_","suffix":".png"},"primary":"true"}],"verified":"true","restricted":"true","stats":{"checkinsCount":"1194","usersCount":"407","tipCount":"5"},"url":"http:\/\/www.marksandspencer.com","specials":{"count":"0"},"hereNow":{"count":"0"},"storeId":"Islington","referralId":"v-1392477966"},{"id":"4af81593f964a520e90a22e3","name":"hmv","contact":{"phone":"+448456027819","formattedPhone":"+44 845 602 7819"},"location":{"address":"Unit MSU 3, Parkfield","lat":"51.53403009644432","lng":"-0.10668754577636719","distance":"82","postalCode":"N1 0PS","cc":"GB","city":"Islington","state":"Greater London","country":"United Kingdom"},"categories":[{"id":"4bf58dd8d48988d1fe941735","name":"Music Store","pluralName":"Music Stores","shortName":"Music Store","icon":{"prefix":"https:\/\/ss1.4sqi.net\/img\/categories_v2\/shops\/music_instruments_","suffix":".png"},"primary":"true"}],"verified":"true","restricted":"true","stats":{"checkinsCount":"538","usersCount":"303","tipCount":"4"},"url":"http:\/\/www.hmv.com","specials":{"count":"0"},"hereNow":{"count":"0"},"storeId":"ISLINGTON","referralId":"v-1392477966"},{"id":"4b6dce65f964a52097912ce3","name":"The Glass Works (Wetherspoon)","contact":{"phone":"+442073546100","formattedPhone":"+44 20 7354 6100"},"location":{"address":"The N1 Centre","crossStreet":"Parkfield St.","lat":"51.533835","lng":"-0.106288","distance":"116","postalCode":"N1 6NP","cc":"GB","city":"Islington","state":"Greater London","country":"United Kingdom"},"categories":[{"id":"4bf58dd8d48988d11b941735","name":"Pub","pluralName":"Pubs","shortName":"Pub","icon":{"prefix":"https:\/\/ss1.4sqi.net\/img\/categories_v2\/nightlife\/pub_","suffix":".png"},"primary":"true"}],"verified":"true","restricted":"true","stats":{"checkinsCount":"1044","usersCount":"634","tipCount":"5"},"url":"http:\/\/www.jdwetherspoon.co.uk","specials":{"count":"0"},"hereNow":{"count":"0"},"referralId":"v-1392477966"},{"id":"4f366ae3e4b0653d498dc2d3","name":"Bill's","contact":{"twitter":"billsrestaurant"},"location":{"address":"58 White Lion St.","lat":"51.53279113769531","lng":"-0.1069670021533966","distance":"176","postalCode":"N1 9PP","cc":"GB","city":"London","state":"Greater London","country":"United Kingdom"},"categories":[{"id":"4bf58dd8d48988d1c4941735","name":"Restaurant","pluralName":"Restaurants","shortName":"Restaurant","icon":{"prefix":"https:\/\/ss1.4sqi.net\/img\/categories_v2\/food\/default_","suffix":".png"},"primary":"true"}],"verified":"true","restricted":"true","stats":{"checkinsCount":"998","usersCount":"659","tipCount":"22"},"specials":{"count":"0"},"hereNow":{"count":"1","groups":[{"type":"others","name":"Other people here","count":"1"}]},"referralId":"v-1392477966"},{"id":"4edba2bef790c045472b749d","name":"Itsu","contact":{"phone":"+442073599005","formattedPhone":"+44 20 7359 9005","twitter":"itsuofficial","facebook":"115164458642981"},"location":{"address":"Parkfield St (N1 Center)","crossStreet":"Upper St","lat":"51.534111802328226","lng":"-0.10637030984657651","distance":"101","postalCode":"N1 0PS","cc":"GB","city":"London","state":"Greater London","country":"United Kingdom"},"categories":[{"id":"4bf58dd8d48988d1d2941735","name":"Sushi Restaurant","pluralName":"Sushi Restaurants","shortName":"Sushi","icon":{"prefix":"https:\/\/ss1.4sqi.net\/img\/categories_v2\/food\/sushi_","suffix":".png"},"primary":"true"}],"verified":"true","restricted":"true","stats":{"checkinsCount":"943","usersCount":"423","tipCount":"8"},"url":"http:\/\/www.itsu.com","specials":{"count":"0"},"hereNow":{"count":"0"},"storeId":"","referralId":"v-1392477966"},{"id":"4c653793e0c4be9a4e798758","name":"Delhi Grill","contact":{"phone":"+442072788882","formattedPhone":"+44 20 7278 8882"},"location":{"address":"21 Chapel Market","lat":"51.533498329625836","lng":"-0.10924034724769817","distance":"132","postalCode":"N1","cc":"GB","city":"Islington","state":"Greater London","country":"United Kingdom"},"categories":[{"id":"4bf58dd8d48988d10f941735","name":"Indian Restaurant","pluralName":"Indian Restaurants","shortName":"Indian","icon":{"prefix":"https:\/\/ss1.4sqi.net\/img\/categories_v2\/food\/indian_","suffix":".png"},"primary":"true"}],"verified":"false","restricted":"true","stats":{"checkinsCount":"569","usersCount":"336","tipCount":"22"},"url":"http:\/\/www.delhigrill.com","specials":{"count":"0"},"hereNow":{"count":"0"},"referralId":"v-1392477966"},{"id":"4bf6794994b2a5936d77adee","name":"Thai-An","contact":{"phone":"+442078377587","formattedPhone":"+44 20 7837 7587"},"location":{"address":"23 White Conduit St","lat":"51.53354491958959","lng":"-0.1087870457304513","distance":"107","postalCode":"N1 9HA","cc":"GB","city":"Islington","state":"Greater London","country":"United Kingdom"},"categories":[{"id":"4bf58dd8d48988d142941735","name":"Asian Restaurant","pluralName":"Asian Restaurants","shortName":"Asian","icon":{"prefix":"https:\/\/ss1.4sqi.net\/img\/categories_v2\/food\/asian_","suffix":".png"},"primary":"true"}],"verified":"false","restricted":"true","stats":{"checkinsCount":"280","usersCount":"92","tipCount":"7"},"url":"http:\/\/www.thai-an.co.uk","menu":{"type":"Menu","label":"Menu","anchor":"View Menu","url":"https:\/\/foursquare.com\/v\/thaian\/4bf6794994b2a5936d77adee\/menu","mobileUrl":"https:\/\/foursquare.com\/v\/4bf6794994b2a5936d77adee\/device_menu"},"specials":{"count":"0"},"hereNow":{"count":"0"},"referralId":"v-1392477966"},{"id":"4c6f1150d274b60c438ad50d","name":"H&M","contact":{"phone":"+442032270950","formattedPhone":"+44 20 3227 0950","twitter":"hmunitedkingdom"},"location":{"address":"Parkfield Street","crossStreet":"Liverpool Street","lat":"51.53414755266471","lng":"-0.10657135466000806","distance":"86","postalCode":"N1 0PS","cc":"GB","city":"Islington","state":"Greater London","country":"United Kingdom"},"categories":[{"id":"4bf58dd8d48988d103951735","name":"Clothing Store","pluralName":"Clothing Stores","shortName":"Apparel","icon":{"prefix":"https:\/\/ss1.4sqi.net\/img\/categories_v2\/shops\/apparel_","suffix":".png"},"primary":"true"}],"verified":"true","restricted":"true","stats":{"checkinsCount":"515","usersCount":"312","tipCount":"4"},"url":"http:\/\/www.hm.com","specials":{"count":"0"},"hereNow":{"count":"0"},"storeId":"739","referralId":"v-1392477966"},{"id":"4b87a9a1f964a5203ac631e3","name":"Euphorium Bakery","location":{"address":"Chapel Market","crossStreet":"White Conduit St.","lat":"51.533599","lng":"-0.10878","distance":"102","postalCode":"N1","cc":"GB","city":"Islington","state":"Greater London","country":"United Kingdom"},"categories":[{"id":"4bf58dd8d48988d16d941735","name":"Caf\u00e9","pluralName":"Caf\u00e9s","shortName":"Caf\u00e9","icon":{"prefix":"https:\/\/ss1.4sqi.net\/img\/categories_v2\/food\/cafe_","suffix":".png"},"primary":"true"}],"verified":"false","restricted":"true","stats":{"checkinsCount":"497","usersCount":"224","tipCount":"2"},"specials":{"count":"0"},"hereNow":{"count":"0"},"referralId":"v-1392477966"},{"id":"4c59615cf346c92866554cca","name":"Gap","contact":{"phone":"+442073597998","formattedPhone":"+44 20 7359 7998","twitter":"ukgap"},"location":{"address":"Unit 5 Parkfield Street, Islington, London N1 0PS","crossStreet":"Islington","lat":"51.5339828500714","lng":"-0.10677133942199868","distance":"79","postalCode":"N1 0PS","cc":"GB","city":"London","state":"Greater London","country":"United Kingdom"},"categories":[{"id":"4bf58dd8d48988d103951735","name":"Clothing Store","pluralName":"Clothing Stores","shortName":"Apparel","icon":{"prefix":"https:\/\/ss1.4sqi.net\/img\/categories_v2\/shops\/apparel_","suffix":".png"},"primary":"true"}],"verified":"true","restricted":"true","stats":{"checkinsCount":"417","usersCount":"267","tipCount":"3"},"url":"http:\/\/www.gap.eu","specials":{"count":"0"},"hereNow":{"count":"0"},"storeId":"944 \/ 9073","referralId":"v-1392477966"},{"id":"5137c383e4b0a7f3ae4656c5","name":"GBK Angel","location":{"address":"N1 Centre","crossStreet":"39 Parkfield St","lat":"51.533988470335714","lng":"-0.10665732072806343","distance":"86","postalCode":"N1 0PS","cc":"GB","city":"Islington","country":"United Kingdom"},"categories":[{"id":"4bf58dd8d48988d16c941735","name":"Burger Joint","pluralName":"Burger Joints","shortName":"Burgers","icon":{"prefix":"https:\/\/ss1.4sqi.net\/img\/categories_v2\/food\/burger_","suffix":".png"},"primary":"true"}],"verified":"false","restricted":"true","stats":{"checkinsCount":"57","usersCount":"41","tipCount":"2"},"specials":{"count":"0"},"hereNow":{"count":"0"},"referralId":"v-1392477966"},{"id":"52f012aa11d2b55c562e7213","name":"Jamie Oliver Italian restaurant","location":{"lat":"51.53480398334865","lng":"-0.10718104690338119","distance":"71","cc":"GB","city":"London","state":"Greater London","country":"United Kingdom"},"categories":[{"id":"4bf58dd8d48988d110941735","name":"Italian Restaurant","pluralName":"Italian Restaurants","shortName":"Italian","icon":{"prefix":"https:\/\/ss1.4sqi.net\/img\/categories_v2\/food\/italian_","suffix":".png"},"primary":"true"}],"verified":"false","restricted":"true","stats":{"checkinsCount":"3","usersCount":"3","tipCount":"0"},"specials":{"count":"0"},"hereNow":{"count":"0"},"referralId":"v-1392477966"},{"id":"4b02ef30f964a520294b22e3","name":"Paperchase","contact":{"phone":"+442072266064","formattedPhone":"+44 20 7226 6064","twitter":"frompaperchase"},"location":{"address":"21 Parkfield St.","crossStreet":"N1 Centre, Unit 3","lat":"51.534107","lng":"-0.106624","distance":"84","postalCode":"N1 0PS","cc":"GB","city":"Islington","state":"Greater London","country":"United Kingdom"},"categories":[{"id":"4bf58dd8d48988d121951735","name":"Paper \/ Office Supplies Store","pluralName":"Paper \/ Office Supplies Stores","shortName":"Office Supplies","icon":{"prefix":"https:\/\/ss1.4sqi.net\/img\/categories_v2\/shops\/papergoods_","suffix":".png"},"primary":"true"}],"verified":"true","restricted":"true","stats":{"checkinsCount":"313","usersCount":"181","tipCount":"3"},"url":"http:\/\/www.paperchase.co.uk","specials":{"count":"0"},"hereNow":{"count":"0"},"storeId":"Islington","referralId":"v-1392477966"},{"id":"4e4699b514959d51c164b4f1","name":"s&s cycles","location":{"lat":"51.534368","lng":"-0.106954","distance":"59","cc":"GB","city":"Islington","state":"Greater London","country":"United Kingdom"},"categories":[{"id":"4bf58dd8d48988d115951735","name":"Bike Shop","pluralName":"Bike Shops","shortName":"Bike shop","icon":{"prefix":"https:\/\/ss1.4sqi.net\/img\/categories_v2\/shops\/bikeshop_","suffix":".png"},"primary":"true"}],"verified":"false","restricted":"true","stats":{"checkinsCount":"3","usersCount":"3","tipCount":"0"},"specials":{"count":"0"},"hereNow":{"count":"0"},"referralId":"v-1392477966"},{"id":"4acf2f9ef964a520a4d220e3","name":"Gourmet Buffet","contact":{"phone":"+442073598804","formattedPhone":"+44 20 7359 8804"},"location":{"address":"Islington N1 Centre Unit Parkfield Street","lat":"51.534138","lng":"-0.1065888","distance":"85","postalCode":"N1 0PS","cc":"GB","city":"London","state":"Greater London","country":"United Kingdom"},"categories":[{"id":"4bf58dd8d48988d142941735","name":"Asian Restaurant","pluralName":"Asian Restaurants","shortName":"Asian","icon":{"prefix":"https:\/\/ss1.4sqi.net\/img\/categories_v2\/food\/asian_","suffix":".png"},"primary":"true"}],"verified":"false","restricted":"true","stats":{"checkinsCount":"262","usersCount":"169","tipCount":"9"},"specials":{"count":"0"},"hereNow":{"count":"0"},"referralId":"v-1392477966"},{"id":"507e89e3e4b0d17b700692de","name":"Islington Centre For English Language School","location":{"lat":"51.53289432735076","lng":"-0.10711352400639836","distance":"162","cc":"GB","country":"United Kingdom"},"categories":[{"id":"4bf58dd8d48988d1a8941735","name":"General College & University","pluralName":"General Colleges & Universities","shortName":"Education","icon":{"prefix":"https:\/\/ss1.4sqi.net\/img\/categories_v2\/education\/other_","suffix":".png"},"primary":"true"}],"verified":"false","restricted":"true","stats":{"checkinsCount":"169","usersCount":"30","tipCount":"0"},"specials":{"count":"0"},"hereNow":{"count":"0"},"referralId":"v-1392477966"},{"id":"52ed0e93498e284de2ff4e9a","name":"S. Cohen","location":{"lat":"51.53374","lng":"-0.108757","distance":"89","cc":"GB","country":"United Kingdom"},"categories":[{"id":"4bf58dd8d48988d101951735","name":"Thrift \/ Vintage Store","pluralName":"Thrift \/ Vintage Stores","shortName":"Thrift \/ Vintage","icon":{"prefix":"https:\/\/ss1.4sqi.net\/img\/categories_v2\/shops\/default_","suffix":".png"},"primary":"true"}],"verified":"false","restricted":"true","stats":{"checkinsCount":"2","usersCount":"2","tipCount":"0"},"specials":{"count":"0"},"hereNow":{"count":"0"},"referralId":"v-1392477966"},{"id":"4b094cb7f964a520641523e3","name":"Butlers","contact":{"phone":"+442032270025","formattedPhone":"+44 20 3227 0025"},"location":{"address":"N1 Shopping Centre","crossStreet":"21 Parkfield Street","lat":"51.534162685364606","lng":"-0.10649677875214672","distance":"91","postalCode":"N1 0PS","cc":"GB","city":"Islington","state":"Greater London","country":"United Kingdom"},"categories":[{"id":"4bf58dd8d48988d1f8941735","name":"Furniture \/ Home Store","pluralName":"Furniture \/ Home Stores","shortName":"Furniture \/ Home","icon":{"prefix":"https:\/\/ss1.4sqi.net\/img\/categories_v2\/shops\/furniture_","suffix":".png"},"primary":"true"}],"verified":"false","restricted":"true","stats":{"checkinsCount":"213","usersCount":"112","tipCount":"1"},"specials":{"count":"0"},"hereNow":{"count":"0"},"referralId":"v-1392477966"}],"confident":"false"}}