{"meta":{"code":"200"},"response":{"venues":[{"id":"4c332c9a16adc928d724c39c","name":"The Caesar Hotel","contact":{"phone":"+442072620022","formattedPhone":"+44 20 7262 0022"},"location":{"address":"26-33 Queen's Gardens","lat":"51.5134208616077","lng":"-0.1834397481391079","distance":"106","postalCode":"W2 3BD","cc":"GB","city":"Paddington","state":"Greater London","country":"United Kingdom"},"categories":[{"id":"4bf58dd8d48988d1fa931735","name":"Hotel","pluralName":"Hotels","shortName":"Hotel","icon":{"prefix":"https:\/\/ss1.4sqi.net\/img\/categories_v2\/travel\/hotel_","suffix":".png"},"primary":"true"}],"verified":"false","restricted":"true","stats":{"checkinsCount":"1027","usersCount":"493","tipCount":"11"},"url":"http:\/\/www.derbyhotels.com\/en\/hotel-the-caesar\/","menu":{"type":"Menu","label":"Menu","anchor":"View Menu","url":"https:\/\/foursquare.com\/v\/the-caesar-hotel\/4c332c9a16adc928d724c39c\/menu","mobileUrl":"https:\/\/foursquare.com\/v\/4c332c9a16adc928d724c39c\/device_menu"},"specials":{"count":"0"},"hereNow":{"count":"0"},"referralId":"v-1392478010"},{"id":"4f5acc96e4b075ad7902788a","name":"12 Leinster Gardens","location":{"lat":"51.514260733649415","lng":"-0.18392322005309497","distance":"77","cc":"GB","country":"United Kingdom"},"verified":"false","restricted":"true","stats":{"checkinsCount":"40","usersCount":"24","tipCount":"0"},"specials":{"count":"0"},"hereNow":{"count":"0"},"referralId":"v-1392478010"},{"id":"51674183e4b0dfab1dda2df1","name":"Hyde Park Boutique Hotel","location":{"address":"47-48 Leinster Gardens","lat":"51.51409665273984","lng":"-0.1839514927575092","distance":"82","postalCode":"W2 3AT","cc":"GB","city":"London","state":"Greater London","country":"United Kingdom"},"categories":[{"id":"4bf58dd8d48988d1fa931735","name":"Hotel","pluralName":"Hotels","shortName":"Hotel","icon":{"prefix":"https:\/\/ss1.4sqi.net\/img\/categories_v2\/travel\/hotel_","suffix":".png"},"primary":"true"}],"verified":"false","restricted":"true","stats":{"checkinsCount":"145","usersCount":"71","tipCount":"4"},"specials":{"count":"0"},"hereNow":{"count":"0"},"referralId":"v-1392478010"},{"id":"4f8921a7e4b00a62619b5da1","name":"Cleveland Square","location":{"lat":"51.514705137903334","lng":"-0.18241497715218066","distance":"53","cc":"GB","country":"United Kingdom"},"categories":[{"id":"4bf58dd8d48988d15a941735","name":"Garden","pluralName":"Gardens","shortName":"Garden","icon":{"prefix":"https:\/\/ss1.4sqi.net\/img\/categories_v2\/parks_outdoors\/garden_","suffix":".png"},"primary":"true"}],"verified":"false","restricted":"true","stats":{"checkinsCount":"190","usersCount":"96","tipCount":"1"},"specials":{"count":"0"},"hereNow":{"count":"0"},"referralId":"v-1392478010"},{"id":"505e09f3e4b0643abadd6ece","name":"Holiday Villa Hotel","location":{"lat":"51.513511683997585","lng":"-0.18368239952273976","distance":"105","cc":"GB","country":"United Kingdom"},"categories":[{"id":"4d954b06a243a5684965b473","name":"Residential Building (Apartment \/ Condo)","pluralName":"Residential Buildings (Apartments \/ Condos)","shortName":"Residential","icon":{"prefix":"https:\/\/ss1.4sqi.net\/img\/categories_v2\/building\/apartment_","suffix":".png"},"primary":"true"}],"verified":"false","restricted":"true","stats":{"checkinsCount":"305","usersCount":"172","tipCount":"3"},"specials":{"count":"0"},"hereNow":{"count":"0"},"referralId":"v-1392478010"},{"id":"51379fbbe4b0488eb8806592","name":"Queens Gardens","location":{"address":"Queens gardens","lat":"51.513388938408724","lng":"-0.18302999754037347","distance":"101","cc":"GB","country":"United Kingdom"},"categories":[{"id":"4f2a210c4b9023bd5841ed28","name":"Housing Development","pluralName":"Housing Developments","shortName":"Housing Development","icon":{"prefix":"https:\/\/ss1.4sqi.net\/img\/categories_v2\/building\/housingdevelopment_","suffix":".png"},"primary":"true"}],"verified":"false","restricted":"true","stats":{"checkinsCount":"141","usersCount":"66","tipCount":"0"},"specials":{"count":"0"},"hereNow":{"count":"0"},"referralId":"v-1392478010"},{"id":"4ac518b6f964a520faa020e3","name":"Best Western Shaftesbury Paddington Court London","location":{"address":"27 Devonshire Terrace","lat":"51.5136406371015","lng":"-0.1801881778409867","distance":"194","postalCode":"W2 3DP","cc":"GB","city":"London","state":"Greater London","country":"United Kingdom"},"categories":[{"id":"4bf58dd8d48988d1fa931735","name":"Hotel","pluralName":"Hotels","shortName":"Hotel","icon":{"prefix":"https:\/\/ss1.4sqi.net\/img\/categories_v2\/travel\/hotel_","suffix":".png"},"primary":"true"}],"verified":"false","restricted":"true","stats":{"checkinsCount":"1087","usersCount":"544","tipCount":"17"},"specials":{"count":"0"},"hereNow":{"count":"0"},"referralId":"v-1392478010"},{"id":"52765e3711d2e7fabc236b37","name":"The Blakemore Hotel, Hyde Park, London","location":{"lat":"51.513039189528534","lng":"-0.18384026345617993","distance":"156","cc":"GB","country":"United Kingdom"},"categories":[{"id":"4bf58dd8d48988d1fa931735","name":"Hotel","pluralName":"Hotels","shortName":"Hotel","icon":{"prefix":"https:\/\/ss1.4sqi.net\/img\/categories_v2\/travel\/hotel_","suffix":".png"},"primary":"true"}],"verified":"false","restricted":"true","stats":{"checkinsCount":"4","usersCount":"4","tipCount":"0"},"specials":{"count":"0"},"hereNow":{"count":"2","groups":[{"type":"others","name":"Other people here","count":"2"}]},"referralId":"v-1392478010"},{"id":"4ac518b6f964a52011a120e3","name":"The Blakemore Hotel","location":{"address":"30 Leinster Gardens","lat":"51.51290633158613","lng":"-0.1836554175596332","distance":"164","postalCode":"W2 3AN","cc":"GB","city":"London","state":"Greater London","country":"United Kingdom"},"categories":[{"id":"4bf58dd8d48988d1fa931735","name":"Hotel","pluralName":"Hotels","shortName":"Hotel","icon":{"prefix":"https:\/\/ss1.4sqi.net\/img\/categories_v2\/travel\/hotel_","suffix":".png"},"primary":"true"}],"verified":"false","restricted":"true","stats":{"checkinsCount":"1091","usersCount":"513","tipCount":"20"},"url":"http:\/\/www.starcrown.com\/blakemore\/default-en.html","reservations":{"url":"http:\/\/www.toptable.co.uk\/single.aspx?rid=74224&ref=9601"},"menu":{"type":"Menu","label":"Menu","anchor":"View Menu","url":"https:\/\/foursquare.com\/v\/the-blakemore-hotel\/4ac518b6f964a52011a120e3\/menu","mobileUrl":"https:\/\/foursquare.com\/v\/4ac518b6f964a52011a120e3\/device_menu"},"specials":{"count":"0"},"hereNow":{"count":"0"},"referralId":"v-1392478010"},{"id":"4b0b1cd9f964a520172d23e3","name":"The Cleveland Hotel","location":{"address":"Cleveland Square 38","lat":"51.513907010000004","lng":"-0.183149","distance":"48","cc":"GB","city":"London","state":"Greater London","country":"United Kingdom"},"categories":[{"id":"4bf58dd8d48988d1fa931735","name":"Hotel","pluralName":"Hotels","shortName":"Hotel","icon":{"prefix":"https:\/\/ss1.4sqi.net\/img\/categories_v2\/travel\/hotel_","suffix":".png"},"primary":"true"}],"verified":"false","restricted":"true","stats":{"checkinsCount":"273","usersCount":"133","tipCount":"4"},"specials":{"count":"0"},"hereNow":{"count":"0"},"referralId":"v-1392478010"},{"id":"4b60b10df964a5204bf429e3","name":"Park Grand Hotel Paddington","contact":{"phone":"+442072989800","formattedPhone":"+44 20 7298 9800"},"location":{"address":"1-3 Queens Gardens","lat":"51.514505912085255","lng":"-0.18088251798537425","distance":"135","postalCode":"W2 3BA","cc":"GB","city":"London","state":"Greater London","country":"United Kingdom"},"categories":[{"id":"4bf58dd8d48988d1fa931735","name":"Hotel","pluralName":"Hotels","shortName":"Hotel","icon":{"prefix":"https:\/\/ss1.4sqi.net\/img\/categories_v2\/travel\/hotel_","suffix":".png"},"primary":"true"}],"verified":"false","restricted":"true","stats":{"checkinsCount":"1599","usersCount":"731","tipCount":"35"},"url":"http:\/\/www.parkgrandlondon.co.uk","specials":{"count":"0"},"hereNow":{"count":"0"},"referralId":"v-1392478010"},{"id":"4bd31b65caff9521a4fed3f0","name":"Cleveland Arms","contact":{"phone":"+442077061759","formattedPhone":"+44 20 7706 1759"},"location":{"address":"28 Chilworth St","lat":"51.514797","lng":"-0.180822","distance":"148","postalCode":"W2 6DT","cc":"GB","city":"Paddington","state":"Greater London","country":"United Kingdom"},"categories":[{"id":"4bf58dd8d48988d11b941735","name":"Pub","pluralName":"Pubs","shortName":"Pub","icon":{"prefix":"https:\/\/ss1.4sqi.net\/img\/categories_v2\/nightlife\/pub_","suffix":".png"},"primary":"true"}],"verified":"false","restricted":"true","stats":{"checkinsCount":"451","usersCount":"221","tipCount":"8"},"specials":{"count":"0"},"hereNow":{"count":"0"},"referralId":"v-1392478010"},{"id":"4c2a25369fb5d13af73a9c57","name":"The Pavilion Holiday Villa Hotel","contact":{"phone":"+442072580269","formattedPhone":"+44 20 7258 0269"},"location":{"address":"37 Leinster Gardens Bayswater","lat":"51.51341883011282","lng":"-0.18382561962258862","distance":"120","postalCode":"W2 3AR","cc":"GB","city":"London","state":"Greater London","country":"United Kingdom"},"categories":[{"id":"4bf58dd8d48988d1fa931735","name":"Hotel","pluralName":"Hotels","shortName":"Hotel","icon":{"prefix":"https:\/\/ss1.4sqi.net\/img\/categories_v2\/travel\/hotel_","suffix":".png"},"primary":"true"}],"verified":"false","restricted":"true","stats":{"checkinsCount":"475","usersCount":"222","tipCount":"9"},"specials":{"count":"0"},"hereNow":{"count":"0"},"referralId":"v-1392478010"},{"id":"50421f93e4b02607d0a788d3","name":"26 Cleveland Gardens","location":{"address":"26 Cleveland Gardens","lat":"51.515026","lng":"-0.183571","distance":"97","postalCode":"W2 6DE","cc":"GB","city":"London","state":"Greater London","country":"United Kingdom"},"categories":[{"id":"4d954b06a243a5684965b473","name":"Residential Building (Apartment \/ Condo)","pluralName":"Residential Buildings (Apartments \/ Condos)","shortName":"Residential","icon":{"prefix":"https:\/\/ss1.4sqi.net\/img\/categories_v2\/building\/apartment_","suffix":".png"},"primary":"true"}],"verified":"false","restricted":"true","stats":{"checkinsCount":"26","usersCount":"9","tipCount":"0"},"specials":{"count":"0"},"hereNow":{"count":"0"},"referralId":"v-1392478010"},{"id":"4ac518b6f964a5200ea120e3","name":"Henry VIII Hotel","location":{"address":"19 Leinster Gardens","lat":"51.512398341139836","lng":"-0.1834041318904678","distance":"214","postalCode":"W2 3AN","cc":"GB","city":"London","state":"Greater London","country":"United Kingdom"},"categories":[{"id":"4bf58dd8d48988d1fa931735","name":"Hotel","pluralName":"Hotels","shortName":"Hotel","icon":{"prefix":"https:\/\/ss1.4sqi.net\/img\/categories_v2\/travel\/hotel_","suffix":".png"},"primary":"true"}],"verified":"false","restricted":"true","stats":{"checkinsCount":"633","usersCount":"297","tipCount":"9"},"specials":{"count":"0"},"hereNow":{"count":"0"},"referralId":"v-1392478010"},{"id":"52bb37d0498e04ca882d51bc","name":"49-50 Leinster Gardens","location":{"address":"49-50 Leinster Gardens","lat":"51.514114","lng":"-0.184168","distance":"96","cc":"GB","city":"London","state":"Greater London","country":"United Kingdom"},"categories":[{"id":"4d954b06a243a5684965b473","name":"Residential Building (Apartment \/ Condo)","pluralName":"Residential Buildings (Apartments \/ Condos)","shortName":"Residential","icon":{"prefix":"https:\/\/ss1.4sqi.net\/img\/categories_v2\/building\/apartment_","suffix":".png"},"primary":"true"}],"verified":"false","restricted":"true","stats":{"checkinsCount":"6","usersCount":"2","tipCount":"0"},"specials":{"count":"0"},"hereNow":{"count":"0"},"referralId":"v-1392478010"},{"id":"4d2ffda62748b60c81bcd7a0","name":"Lagenda Malaysian & Chinese Restaurant","location":{"address":"37 Leinster Gardens","crossStreet":"Holiday Villa Hotel","lat":"51.51346995409652","lng":"-0.18381533847211917","distance":"115","postalCode":"W2 3AR","cc":"GB","city":"Paddington","state":"Greater London","country":"United Kingdom"},"categories":[{"id":"4bf58dd8d48988d156941735","name":"Malaysian Restaurant","pluralName":"Malaysian Restaurants","shortName":"Malaysian","icon":{"prefix":"https:\/\/ss1.4sqi.net\/img\/categories_v2\/food\/default_","suffix":".png"},"primary":"true"}],"verified":"false","restricted":"true","stats":{"checkinsCount":"350","usersCount":"153","tipCount":"6"},"menu":{"type":"Menu","label":"Menu","anchor":"View Menu","url":"https:\/\/foursquare.com\/v\/lagenda-malaysian--chinese-restaurant\/4d2ffda62748b60c81bcd7a0\/menu","mobileUrl":"https:\/\/foursquare.com\/v\/4d2ffda62748b60c81bcd7a0\/device_menu"},"specials":{"count":"0"},"hereNow":{"count":"0"},"referralId":"v-1392478010"},{"id":"51ce8801498e476cf2814e67","name":"33 Cleveland Square","location":{"address":"33 Cleveland Square","lat":"51.51416778564453","lng":"-0.1831662952899933","distance":"28","postalCode":"W2 6DDF","cc":"GB","city":"London","state":"Greater London","country":"United Kingdom"},"categories":[{"id":"4d954b06a243a5684965b473","name":"Residential Building (Apartment \/ Condo)","pluralName":"Residential Buildings (Apartments \/ Condos)","shortName":"Residential","icon":{"prefix":"https:\/\/ss1.4sqi.net\/img\/categories_v2\/building\/apartment_","suffix":".png"},"primary":"true"}],"verified":"false","restricted":"true","stats":{"checkinsCount":"17","usersCount":"5","tipCount":"0"},"specials":{"count":"0"},"hereNow":{"count":"0"},"referralId":"v-1392478010"},{"id":"501391e7e4b0c3be974338e1","name":"Xo Restaurant","location":{"lat":"51.51355854548077","lng":"-0.18331338094139735","distance":"88","cc":"GB","country":"United Kingdom"},"categories":[{"id":"4bf58dd8d48988d1c4941735","name":"Restaurant","pluralName":"Restaurants","shortName":"Restaurant","icon":{"prefix":"https:\/\/ss1.4sqi.net\/img\/categories_v2\/food\/default_","suffix":".png"},"primary":"true"}],"verified":"false","restricted":"true","stats":{"checkinsCount":"48","usersCount":"29","tipCount":"1"},"specials":{"count":"0"},"hereNow":{"count":"0"},"referralId":"v-1392478010"},{"id":"4ca17f09d3c2b60c995ae6bc","name":"Cleveland Square Apartment","location":{"address":"39","lat":"51.514158","lng":"-0.182838","distance":"14","postalCode":"W2","cc":"GB","city":"Paddington","state":"Greater London","country":"United Kingdom"},"categories":[{"id":"4bf58dd8d48988d1fa931735","name":"Hotel","pluralName":"Hotels","shortName":"Hotel","icon":{"prefix":"https:\/\/ss1.4sqi.net\/img\/categories_v2\/travel\/hotel_","suffix":".png"},"primary":"true"}],"verified":"false","restricted":"true","stats":{"checkinsCount":"2","usersCount":"1","tipCount":"0"},"specials":{"count":"0"},"hereNow":{"count":"0"},"referralId":"v-1392478010"},{"id":"523cd64c11d2b11adafe2453","name":"6 Leinster Gardens","location":{"lat":"51.514617","lng":"-0.184065","distance":"94","cc":"GB","country":"United Kingdom"},"categories":[{"id":"4d954b06a243a5684965b473","name":"Residential Building (Apartment \/ Condo)","pluralName":"Residential Buildings (Apartments \/ Condos)","shortName":"Residential","icon":{"prefix":"https:\/\/ss1.4sqi.net\/img\/categories_v2\/building\/apartment_","suffix":".png"},"primary":"true"}],"verified":"false","restricted":"true","stats":{"checkinsCount":"9","usersCount":"8","tipCount":"0"},"specials":{"count":"0"},"hereNow":{"count":"0"},"referralId":"v-1392478010"},{"id":"4c913899490376b084dedd36","name":"The Duke of Leinster","contact":{"phone":"+442072983850","formattedPhone":"+44 20 7298 3850"},"location":{"address":"20 Leinster Gardens","lat":"51.51303","lng":"-0.1834637","distance":"147","postalCode":"W2 3AN","cc":"GB","city":"London","state":"Greater London","country":"United Kingdom"},"categories":[{"id":"4bf58dd8d48988d1fa931735","name":"Hotel","pluralName":"Hotels","shortName":"Hotel","icon":{"prefix":"https:\/\/ss1.4sqi.net\/img\/categories_v2\/travel\/hotel_","suffix":".png"},"primary":"true"}],"verified":"false","restricted":"true","stats":{"checkinsCount":"303","usersCount":"145","tipCount":"12"},"specials":{"count":"0"},"hereNow":{"count":"0"},"referralId":"v-1392478010"},{"id":"4dd528ff45ddd7035526ce32","name":"Leisure Inn","location":{"address":"linser gardens 40-41","lat":"51.51366055287392","lng":"-0.18376386680973797","distance":"96","postalCode":"W2 5","cc":"GB","city":"Paddington","state":"Greater London","country":"United Kingdom"},"categories":[{"id":"4bf58dd8d48988d1fa931735","name":"Hotel","pluralName":"Hotels","shortName":"Hotel","icon":{"prefix":"https:\/\/ss1.4sqi.net\/img\/categories_v2\/travel\/hotel_","suffix":".png"},"primary":"true"}],"verified":"false","restricted":"true","stats":{"checkinsCount":"124","usersCount":"85","tipCount":"3"},"specials":{"count":"0"},"hereNow":{"count":"0"},"referralId":"v-1392478010"},{"id":"51ab77f6498e055c6f8ef481","name":"Queen's Gardens - Private Terrace","location":{"address":"12 Queens Gardens","lat":"51.51416147568402","lng":"-0.18077933665342114","distance":"140","cc":"GB","city":"London","state":"Greater London","country":"United Kingdom"},"categories":[{"id":"4bf58dd8d48988d162941735","name":"Other Great Outdoors","pluralName":"Other Great Outdoors","shortName":"Other Outdoors","icon":{"prefix":"https:\/\/ss1.4sqi.net\/img\/categories_v2\/parks_outdoors\/outdoors_","suffix":".png"},"primary":"true"}],"verified":"false","restricted":"true","stats":{"checkinsCount":"21","usersCount":"17","tipCount":"1"},"specials":{"count":"0"},"hereNow":{"count":"0"},"referralId":"v-1392478010"},{"id":"4f36a909e4b0cc4ce29f4bdf","name":"23-24 Leinster Gardens","location":{"address":"Leinster Gardens","crossStreet":"Craven Hill Gardens","lat":"51.51335341887318","lng":"-0.18358327163329463","distance":"117","postalCode":"W2 3TR","cc":"GB","city":"London","state":"Greater London","country":"United Kingdom"},"categories":[{"id":"4deefb944765f83613cdba6e","name":"Historic Site","pluralName":"Historic Sites","shortName":"Historic Site","icon":{"prefix":"https:\/\/ss1.4sqi.net\/img\/categories_v2\/arts_entertainment\/historicsite_","suffix":".png"},"primary":"true"}],"verified":"false","restricted":"true","stats":{"checkinsCount":"70","usersCount":"39","tipCount":"1"},"specials":{"count":"0"},"hereNow":{"count":"0"},"referralId":"v-1392478010"},{"id":"4eef26084901dff3093289bc","name":"Reading House","location":{"lat":"51.51477806699315","lng":"-0.1847252626012286","distance":"143","cc":"GB","country":"United Kingdom"},"categories":[{"id":"4e52adeebd41615f56317744","name":"Military Base","pluralName":"Military Bases","shortName":"Military Base","icon":{"prefix":"https:\/\/ss1.4sqi.net\/img\/categories_v2\/building\/militarybase_","suffix":".png"},"primary":"true"}],"verified":"false","restricted":"true","stats":{"checkinsCount":"30","usersCount":"11","tipCount":"0"},"specials":{"count":"0"},"hereNow":{"count":"0"},"referralId":"v-1392478010"},{"id":"4d10fdfeb765224bcf42ee32","name":"Chilworth Court Apartments","contact":{"phone":"+442079385930","formattedPhone":"+44 20 7938 5930"},"location":{"address":"125-129 Gloucester Tce.","lat":"51.514994901006844","lng":"-0.18061158610328143","distance":"170","postalCode":"W2 6DX","cc":"GB","city":"London","state":"Greater London","country":"United Kingdom"},"categories":[{"id":"4d954b06a243a5684965b473","name":"Residential Building (Apartment \/ Condo)","pluralName":"Residential Buildings (Apartments \/ Condos)","shortName":"Residential","icon":{"prefix":"https:\/\/ss1.4sqi.net\/img\/categories_v2\/building\/apartment_","suffix":".png"},"primary":"true"}],"verified":"false","restricted":"true","stats":{"checkinsCount":"163","usersCount":"40","tipCount":"1"},"url":"http:\/\/www.chilworth-court.co.uk","specials":{"count":"0"},"hereNow":{"count":"0"},"referralId":"v-1392478010"},{"id":"4dc9c83f7d8bc0c0b86ee8a4","name":"Craven Hill Pleasure Palace","location":{"address":"Craven Hill Gardens","lat":"51.512937","lng":"-0.181734","distance":"167","cc":"GB","city":"Paddington","state":"Greater London","country":"United Kingdom"},"categories":[{"id":"4bf58dd8d48988d1d4941735","name":"Speakeasy","pluralName":"Speakeasies","shortName":"Speakeasy","icon":{"prefix":"https:\/\/ss1.4sqi.net\/img\/categories_v2\/nightlife\/secretbar_","suffix":".png"},"primary":"true"}],"verified":"false","restricted":"true","stats":{"checkinsCount":"86","usersCount":"28","tipCount":"0"},"specials":{"count":"0"},"hereNow":{"count":"0"},"referralId":"v-1392478010"},{"id":"4c27663e3703d13a17e1a636","name":"Lounge Lover HQ","location":{"lat":"51.513939","lng":"-0.18297","distance":"40","cc":"GB","country":"United Kingdom"},"verified":"false","restricted":"true","stats":{"checkinsCount":"3","usersCount":"1","tipCount":"0"},"specials":{"count":"0"},"hereNow":{"count":"0"},"referralId":"v-1392478010"},{"id":"4e1f4a251838e9f93a4a5653","name":"Shaftesbury Hotels London","location":{"address":"27 Devonshire Terrace","lat":"51.51371249182328","lng":"-0.1799525147157948","distance":"207","cc":"GB","city":"London","state":"Greater London","country":"United Kingdom"},"categories":[{"id":"4bf58dd8d48988d1fa931735","name":"Hotel","pluralName":"Hotels","shortName":"Hotel","icon":{"prefix":"https:\/\/ss1.4sqi.net\/img\/categories_v2\/travel\/hotel_","suffix":".png"},"primary":"true"}],"verified":"false","restricted":"true","stats":{"checkinsCount":"460","usersCount":"268","tipCount":"7"},"specials":{"count":"0"},"hereNow":{"count":"0"},"referralId":"v-1392478010"}],"confident":"false"}}