{"meta":{"code":"200"},"response":{"venues":[{"id":"4ac518b9f964a520bea120e3","name":"Duke of Cambridge","contact":{"phone":"+442073593066","formattedPhone":"+44 20 7359 3066","twitter":"dukeorganic"},"location":{"address":"30 St Peter's St","lat":"51.53463210641542","lng":"-0.09872180958915178","distance":"74","postalCode":"N1 8JT","cc":"GB","city":"London","state":"Greater London","country":"United Kingdom"},"categories":[{"id":"4bf58dd8d48988d11b941735","name":"Pub","pluralName":"Pubs","shortName":"Pub","icon":{"prefix":"https:\/\/ss1.4sqi.net\/img\/categories_v2\/nightlife\/pub_","suffix":".png"},"primary":"true"}],"verified":"false","restricted":"true","stats":{"checkinsCount":"1596","usersCount":"1015","tipCount":"30"},"url":"http:\/\/sloeberry.co.uk","menu":{"type":"Menu","label":"Menu","anchor":"View Menu","url":"https:\/\/foursquare.com\/v\/duke-of-cambridge\/4ac518b9f964a520bea120e3\/menu","mobileUrl":"https:\/\/foursquare.com\/v\/4ac518b9f964a520bea120e3\/device_menu"},"specials":{"count":"0"},"hereNow":{"count":"1","groups":[{"type":"others","name":"Other people here","count":"1"}]},"referralId":"v-1392477966"},{"id":"4ad84bb7f964a520f81021e3","name":"Earl of Essex","contact":{"phone":"+442074245828","formattedPhone":"+44 20 7424 5828","twitter":"theearlofessex1"},"location":{"address":"25 Danbury St.","crossStreet":"btwn Gerrard Rd. & St Peter's St.","lat":"51.53380968774602","lng":"-0.09972383991673993","distance":"143","postalCode":"N1 8LE","cc":"GB","city":"Islington","state":"Greater London","country":"United Kingdom"},"categories":[{"id":"4bf58dd8d48988d11b941735","name":"Pub","pluralName":"Pubs","shortName":"Pub","icon":{"prefix":"https:\/\/ss1.4sqi.net\/img\/categories_v2\/nightlife\/pub_","suffix":".png"},"primary":"true"}],"verified":"false","restricted":"true","stats":{"checkinsCount":"1412","usersCount":"711","tipCount":"18"},"url":"http:\/\/www.earlofessex.net","menu":{"type":"Menu","label":"Menu","anchor":"View Menu","url":"https:\/\/foursquare.com\/v\/earl-of-essex\/4ad84bb7f964a520f81021e3\/menu","mobileUrl":"https:\/\/foursquare.com\/v\/4ad84bb7f964a520f81021e3\/device_menu"},"specials":{"count":"0"},"hereNow":{"count":"2","groups":[{"type":"others","name":"Other people here","count":"2"}]},"referralId":"v-1392477966"},{"id":"4ace1828f964a52059ce20e3","name":"The Narrowboat","contact":{"phone":"+442072880572","formattedPhone":"+44 20 7288 0572","twitter":"narrowboatpub"},"location":{"address":"119 St. Peter's St.","crossStreet":"near Noel Rd.","lat":"51.5330008955146","lng":"-0.09678069793652844","distance":"159","postalCode":"N1 8PZ","cc":"GB","city":"Islington","state":"Greater London","country":"United Kingdom"},"categories":[{"id":"4bf58dd8d48988d11b941735","name":"Pub","pluralName":"Pubs","shortName":"Pub","icon":{"prefix":"https:\/\/ss1.4sqi.net\/img\/categories_v2\/nightlife\/pub_","suffix":".png"},"primary":"true"}],"verified":"false","restricted":"true","stats":{"checkinsCount":"1874","usersCount":"1200","tipCount":"29"},"url":"http:\/\/thenarrowboatpub.com","menu":{"type":"Menu","label":"Menu","anchor":"View Menu","url":"https:\/\/foursquare.com\/v\/the-narrowboat\/4ace1828f964a52059ce20e3\/menu","mobileUrl":"https:\/\/foursquare.com\/v\/4ace1828f964a52059ce20e3\/device_menu"},"specials":{"count":"0"},"hereNow":{"count":"1","groups":[{"type":"others","name":"Other people here","count":"1"}]},"referralId":"v-1392477966"},{"id":"4ac518c7f964a52069a520e3","name":"Island Queen","contact":{"phone":"+442073548741","formattedPhone":"+44 20 7354 8741","twitter":"islandqueenpub"},"location":{"address":"87 Noel Rd.","crossStreet":"at St Peter's St.","lat":"51.53309183147232","lng":"-0.09846941099291495","distance":"141","postalCode":"N1 8HD","cc":"GB","city":"Islington","state":"Greater London","country":"United Kingdom"},"categories":[{"id":"4bf58dd8d48988d11b941735","name":"Pub","pluralName":"Pubs","shortName":"Pub","icon":{"prefix":"https:\/\/ss1.4sqi.net\/img\/categories_v2\/nightlife\/pub_","suffix":".png"},"primary":"true"}],"verified":"false","restricted":"true","stats":{"checkinsCount":"1821","usersCount":"1085","tipCount":"28"},"url":"http:\/\/www.theislandqueenislington.co.uk","menu":{"type":"Menu","label":"Menu","anchor":"View Menu","url":"https:\/\/foursquare.com\/v\/island-queen\/4ac518c7f964a52069a520e3\/menu","mobileUrl":"https:\/\/foursquare.com\/v\/4ac518c7f964a52069a520e3\/device_menu"},"specials":{"count":"0"},"hereNow":{"count":"0"},"referralId":"v-1392477966"},{"id":"516fa20ce4b0ea41cb6744b8","name":"The Pump House Cafe","contact":{"phone":"+447883168376","formattedPhone":"+44 7883 168376"},"location":{"address":"Regent's Canal towpath","lat":"51.53276300821063","lng":"-0.09866362020822732","distance":"180","cc":"GB","city":"Islington","state":"Greater London","country":"United Kingdom"},"categories":[{"id":"4bf58dd8d48988d16d941735","name":"Caf\u00e9","pluralName":"Caf\u00e9s","shortName":"Caf\u00e9","icon":{"prefix":"https:\/\/ss1.4sqi.net\/img\/categories_v2\/food\/cafe_","suffix":".png"},"primary":"true"}],"verified":"false","restricted":"true","stats":{"checkinsCount":"173","usersCount":"102","tipCount":"3"},"specials":{"count":"0"},"hereNow":{"count":"1","groups":[{"type":"others","name":"Other people here","count":"1"}]},"referralId":"v-1392477966"},{"id":"4d8b9ed5ace98cfa8ad7599a","name":"Wenlock Building","location":{"address":"56 Wharf Road","lat":"51.53233910068835","lng":"-0.09626713164328193","distance":"241","postalCode":"N1 7EW","cc":"GB","city":"London","state":"Greater London","country":"United Kingdom"},"categories":[{"id":"4bf58dd8d48988d130941735","name":"Building","pluralName":"Buildings","shortName":"Building","icon":{"prefix":"https:\/\/ss1.4sqi.net\/img\/categories_v2\/building\/default_","suffix":".png"},"primary":"true"}],"verified":"false","restricted":"true","stats":{"checkinsCount":"681","usersCount":"49","tipCount":"0"},"specials":{"count":"0"},"hereNow":{"count":"0"},"referralId":"v-1392477966"},{"id":"4c8622cf2f1c236a172b5a43","name":"Business In The Community","location":{"address":"137 Shepherdess Walk","lat":"51.53318670585308","lng":"-0.09499684307424214","distance":"229","postalCode":"N1 7RQ","cc":"GB","city":"Camden Town","state":"Greater London","country":"United Kingdom"},"categories":[{"id":"4bf58dd8d48988d124941735","name":"Office","pluralName":"Offices","shortName":"Office","icon":{"prefix":"https:\/\/ss1.4sqi.net\/img\/categories_v2\/building\/default_","suffix":".png"},"primary":"true"}],"verified":"false","restricted":"true","stats":{"checkinsCount":"121","usersCount":"16","tipCount":"0"},"specials":{"count":"0"},"hereNow":{"count":"0"},"referralId":"v-1392477966"},{"id":"508d6c22e4b09ddc7f6cc91f","name":"What Are You Looking At","location":{"lat":"51.534252","lng":"-0.098188","distance":"26","cc":"GB","country":"United Kingdom"},"categories":[{"id":"4bf58dd8d48988d1e2931735","name":"Art Gallery","pluralName":"Art Galleries","shortName":"Art Gallery","icon":{"prefix":"https:\/\/ss1.4sqi.net\/img\/categories_v2\/arts_entertainment\/artgallery_","suffix":".png"},"primary":"true"}],"verified":"false","restricted":"true","stats":{"checkinsCount":"1","usersCount":"1","tipCount":"0"},"specials":{"count":"0"},"hereNow":{"count":"0"},"referralId":"v-1392477966"},{"id":"52d44fc6498e4082e352b396","name":"Jun H. Kingdom N1 8PT","location":{"address":"Prebend Street","crossStreet":"Packington Street","lat":"51.536258697509766","lng":"-0.09667769819498062","distance":"232","postalCode":"N1 8PT","cc":"GB","city":"London","state":"Greater London","country":"United Kingdom"},"categories":[{"id":"4d954b06a243a5684965b473","name":"Residential Building (Apartment \/ Condo)","pluralName":"Residential Buildings (Apartments \/ Condos)","shortName":"Residential","icon":{"prefix":"https:\/\/ss1.4sqi.net\/img\/categories_v2\/building\/apartment_","suffix":".png"},"primary":"true"}],"verified":"false","restricted":"true","stats":{"checkinsCount":"9","usersCount":"2","tipCount":"0"},"specials":{"count":"0"},"hereNow":{"count":"0"},"referralId":"v-1392477966"},{"id":"4ad8e420f964a520bc1521e3","name":"The Mucky Pup","contact":{"phone":"+442072262572","formattedPhone":"+44 20 7226 2572"},"location":{"address":"39 Queen's Head St.","crossStreet":"at Raleigh St.","lat":"51.53628580838298","lng":"-0.09894132614135742","distance":"235","postalCode":"N1 8NQ","cc":"GB","city":"Islington","state":"Greater London","country":"United Kingdom"},"categories":[{"id":"4bf58dd8d48988d11b941735","name":"Pub","pluralName":"Pubs","shortName":"Pub","icon":{"prefix":"https:\/\/ss1.4sqi.net\/img\/categories_v2\/nightlife\/pub_","suffix":".png"},"primary":"true"}],"verified":"false","restricted":"true","stats":{"checkinsCount":"572","usersCount":"304","tipCount":"12"},"specials":{"count":"0"},"hereNow":{"count":"0"},"referralId":"v-1392477966"},{"id":"4cb84e9690c9a143ed547ed6","name":"Rheidol Cafe","location":{"lat":"51.5347323","lng":"-0.098649","distance":"76","cc":"GB","country":"United Kingdom"},"categories":[{"id":"4bf58dd8d48988d16d941735","name":"Caf\u00e9","pluralName":"Caf\u00e9s","shortName":"Caf\u00e9","icon":{"prefix":"https:\/\/ss1.4sqi.net\/img\/categories_v2\/food\/cafe_","suffix":".png"},"primary":"true"}],"verified":"false","restricted":"true","stats":{"checkinsCount":"68","usersCount":"17","tipCount":"1"},"specials":{"count":"0"},"hereNow":{"count":"0"},"referralId":"v-1392477966"},{"id":"4f535e33e4b092980edabb08","name":"City Road Lock","location":{"address":"Regent's Canal","lat":"51.53262188823504","lng":"-0.0986945629119873","distance":"195","cc":"GB","city":"Islington","state":"Greater London","country":"United Kingdom"},"categories":[{"id":"4eb1d4dd4b900d56c88a45fd","name":"River","pluralName":"Rivers","shortName":"River","icon":{"prefix":"https:\/\/ss1.4sqi.net\/img\/categories_v2\/parks_outdoors\/river_","suffix":".png"},"primary":"true"}],"verified":"false","restricted":"true","stats":{"checkinsCount":"157","usersCount":"105","tipCount":"1"},"specials":{"count":"0"},"hereNow":{"count":"0"},"referralId":"v-1392477966"},{"id":"4ca9971a76d3a0930603216b","name":"Made by Many","contact":{"phone":"+442081338510","formattedPhone":"+44 20 8133 8510","twitter":"madebymany"},"location":{"address":"38 Graham St","crossStreet":"Diespeker Wharf","lat":"51.532345","lng":"-0.099157","distance":"235","postalCode":"N1 8JX","cc":"GB","city":"Islington","state":"Greater London","country":"United Kingdom"},"categories":[{"id":"4bf58dd8d48988d124941735","name":"Office","pluralName":"Offices","shortName":"Office","icon":{"prefix":"https:\/\/ss1.4sqi.net\/img\/categories_v2\/building\/default_","suffix":".png"},"primary":"true"}],"verified":"false","restricted":"true","stats":{"checkinsCount":"1937","usersCount":"225","tipCount":"5"},"url":"http:\/\/madebymany.com","specials":{"count":"0"},"hereNow":{"count":"0"},"referralId":"v-1392477966"},{"id":"51b1d01d498e0447e85111cd","name":"St. Peter's Rooftop Lounge","location":{"lat":"51.5341682434082","lng":"-0.09831810742616653","distance":"38","cc":"GB","country":"United Kingdom"},"categories":[{"id":"4bf58dd8d48988d165941735","name":"Scenic Lookout","pluralName":"Scenic Lookouts","shortName":"Scenic Lookout","icon":{"prefix":"https:\/\/ss1.4sqi.net\/img\/categories_v2\/parks_outdoors\/sceniclookout_","suffix":".png"},"primary":"true"}],"verified":"false","restricted":"true","stats":{"checkinsCount":"2","usersCount":"1","tipCount":"0"},"specials":{"count":"0"},"hereNow":{"count":"0"},"referralId":"v-1392477966"},{"id":"52d2dfb011d2e6d9af753ff1","name":"St Peter's Church","location":{"lat":"51.53525253815277","lng":"-0.1005543023529898","distance":"218","cc":"GB","country":"United Kingdom"},"categories":[{"id":"4bf58dd8d48988d132941735","name":"Church","pluralName":"Churches","shortName":"Church","icon":{"prefix":"https:\/\/ss1.4sqi.net\/img\/categories_v2\/building\/religious_church_","suffix":".png"},"primary":"true"}],"verified":"false","restricted":"true","stats":{"checkinsCount":"13","usersCount":"13","tipCount":"0"},"specials":{"count":"0"},"hereNow":{"count":"0"},"referralId":"v-1392477966"},{"id":"4dc8e9add164033c5734677a","name":"Burgh.st","location":{"lat":"51.533638","lng":"-0.099719","distance":"151","cc":"GB","country":"United Kingdom"},"verified":"false","restricted":"true","stats":{"checkinsCount":"11","usersCount":"3","tipCount":"0"},"specials":{"count":"0"},"hereNow":{"count":"0"},"referralId":"v-1392477966"},{"id":"4cb44eb2562d224b81203388","name":"Nibbles","location":{"address":"St.Peter's Street","lat":"51.53444","lng":"-0.098416","distance":"45","cc":"GB","city":"Islington","state":"Greater London","country":"United Kingdom"},"categories":[{"id":"4bf58dd8d48988d16d941735","name":"Caf\u00e9","pluralName":"Caf\u00e9s","shortName":"Caf\u00e9","icon":{"prefix":"https:\/\/ss1.4sqi.net\/img\/categories_v2\/food\/cafe_","suffix":".png"},"primary":"true"}],"verified":"false","restricted":"true","stats":{"checkinsCount":"45","usersCount":"6","tipCount":"0"},"specials":{"count":"0"},"hereNow":{"count":"0"},"referralId":"v-1392477966"},{"id":"4c3edb866faac9b690c00e76","name":"Rheidol Rooms Cafe","location":{"address":"Rheidol Terrace","lat":"51.534692","lng":"-0.098615","distance":"71","cc":"GB","city":"Islington","state":"Greater London","country":"United Kingdom"},"categories":[{"id":"4bf58dd8d48988d130941735","name":"Building","pluralName":"Buildings","shortName":"Building","icon":{"prefix":"https:\/\/ss1.4sqi.net\/img\/categories_v2\/building\/default_","suffix":".png"},"primary":"true"}],"verified":"false","restricted":"true","stats":{"checkinsCount":"24","usersCount":"14","tipCount":"0"},"specials":{"count":"0"},"hereNow":{"count":"0"},"referralId":"v-1392477966"},{"id":"4d4d6a83b887a1cd4a87bba0","name":"Jan's Kkingdom","location":{"address":"Market road 32","lat":"51.534057","lng":"-0.098573","distance":"59","cc":"GB","city":"London","state":"Greater London","country":"United Kingdom"},"verified":"false","restricted":"true","stats":{"checkinsCount":"1","usersCount":"1","tipCount":"0"},"specials":{"count":"0"},"hereNow":{"count":"0"},"referralId":"v-1392477966"},{"id":"4bc5de966c26b71308daebf3","name":"St. Peter's Pharmacy","contact":{"phone":"+442072262939","formattedPhone":"+44 20 7226 2939"},"location":{"address":"St. Peter's Street","lat":"51.534872","lng":"-0.098113","distance":"68","postalCode":"N18JR","cc":"GB","city":"Islington","state":"Greater London","country":"United Kingdom"},"categories":[{"id":"4bf58dd8d48988d10f951735","name":"Drugstore \/ Pharmacy","pluralName":"Drugstores \/ Pharmacies","shortName":"Pharmacy","icon":{"prefix":"https:\/\/ss1.4sqi.net\/img\/categories_v2\/shops\/pharmacy_","suffix":".png"},"primary":"true"}],"verified":"false","restricted":"true","stats":{"checkinsCount":"6","usersCount":"3","tipCount":"2"},"specials":{"count":"0"},"hereNow":{"count":"0"},"referralId":"v-1392477966"},{"id":"4e9808b7d22d4d655a8f61b5","name":"Devonia Road","location":{"lat":"51.53466622255759","lng":"-0.1008757394494956","distance":"216","cc":"GB","city":"London","state":"Greater London","country":"United Kingdom"},"categories":[{"id":"4bf58dd8d48988d171941735","name":"Event Space","pluralName":"Event Spaces","shortName":"Event Space","icon":{"prefix":"https:\/\/ss1.4sqi.net\/img\/categories_v2\/building\/eventspace_","suffix":".png"},"primary":"true"}],"verified":"false","restricted":"true","stats":{"checkinsCount":"18","usersCount":"4","tipCount":"0"},"specials":{"count":"0"},"hereNow":{"count":"0"},"referralId":"v-1392477966"},{"id":"524eab1211d2775d5f03f9e8","name":"Eggquarters","location":{"lat":"51.532689","lng":"-0.096181","distance":"210","cc":"GB","country":"United Kingdom"},"categories":[{"id":"4eb1bea83b7b6f98df247e06","name":"Factory","pluralName":"Factories","shortName":"Factory","icon":{"prefix":"https:\/\/ss1.4sqi.net\/img\/categories_v2\/building\/factory_","suffix":".png"},"primary":"true"}],"verified":"false","restricted":"true","stats":{"checkinsCount":"14","usersCount":"1","tipCount":"0"},"specials":{"count":"0"},"hereNow":{"count":"0"},"referralId":"v-1392477966"},{"id":"5162b6dde4b09f3a7102e220","name":"56 Wharf Road","location":{"address":"56 Wharf Road, Angel, London","lat":"51.532058","lng":"-0.096321","distance":"268","postalCode":"N1 7ew","cc":"GB","city":"London","state":"Greater London","country":"United Kingdom"},"categories":[{"id":"4d954b06a243a5684965b473","name":"Residential Building (Apartment \/ Condo)","pluralName":"Residential Buildings (Apartments \/ Condos)","shortName":"Residential","icon":{"prefix":"https:\/\/ss1.4sqi.net\/img\/categories_v2\/building\/apartment_","suffix":".png"},"primary":"true"}],"verified":"false","restricted":"true","stats":{"checkinsCount":"2","usersCount":"1","tipCount":"0"},"specials":{"count":"0"},"hereNow":{"count":"0"},"referralId":"v-1392477966"},{"id":"4f96a8eee4b0306856775310","name":"Illuminas","location":{"address":"Eversholt St","lat":"51.53434130766133","lng":"-0.09645223232346671","distance":"93","postalCode":"NW1","cc":"GB","city":"London","state":"Greater London","country":"United Kingdom"},"categories":[{"id":"4bf58dd8d48988d124941735","name":"Office","pluralName":"Offices","shortName":"Office","icon":{"prefix":"https:\/\/ss1.4sqi.net\/img\/categories_v2\/building\/default_","suffix":".png"},"primary":"true"}],"verified":"false","restricted":"true","stats":{"checkinsCount":"2","usersCount":"1","tipCount":"0"},"specials":{"count":"0"},"hereNow":{"count":"0"},"referralId":"v-1392477966"},{"id":"4f1dc73de4b0bf762ba9fa26","name":"Boom! Shoreditch","location":{"address":"Scrutton Street 16","lat":"51.53340590199031","lng":"-0.09752866403576148","distance":"100","cc":"GB","city":"London","state":"Greater London","country":"United Kingdom"},"categories":[{"id":"4bf58dd8d48988d176941735","name":"Gym","pluralName":"Gyms","shortName":"Gym","icon":{"prefix":"https:\/\/ss1.4sqi.net\/img\/categories_v2\/building\/gym_","suffix":".png"},"primary":"true"}],"verified":"false","restricted":"true","stats":{"checkinsCount":"4","usersCount":"3","tipCount":"1"},"specials":{"count":"0"},"hereNow":{"count":"0"},"referralId":"v-1392477966"},{"id":"518d230b498e8beacffdec06","name":"city fried chicken","location":{"lat":"51.53625954563793","lng":"-0.09899841693214799","distance":"234","cc":"GB","country":"United Kingdom"},"categories":[{"id":"4d4ae6fc7a7b7dea34424761","name":"Fried Chicken Joint","pluralName":"Fried Chicken Joints","shortName":"Fried Chicken","icon":{"prefix":"https:\/\/ss1.4sqi.net\/img\/categories_v2\/food\/friedchicken_","suffix":".png"},"primary":"true"}],"verified":"false","restricted":"true","stats":{"checkinsCount":"5","usersCount":"4","tipCount":"0"},"specials":{"count":"0"},"hereNow":{"count":"0"},"referralId":"v-1392477966"},{"id":"4ea1427af5b96e3ac31db18d","name":"Grantbridge Street N1","location":{"lat":"51.534231326083315","lng":"-0.09948763372030837","distance":"116","cc":"GB","city":"London","state":"Greater London","country":"United Kingdom"},"categories":[{"id":"4d954b06a243a5684965b473","name":"Residential Building (Apartment \/ Condo)","pluralName":"Residential Buildings (Apartments \/ Condos)","shortName":"Residential","icon":{"prefix":"https:\/\/ss1.4sqi.net\/img\/categories_v2\/building\/apartment_","suffix":".png"},"primary":"true"}],"verified":"false","restricted":"true","stats":{"checkinsCount":"25","usersCount":"7","tipCount":"0"},"specials":{"count":"0"},"hereNow":{"count":"0"},"referralId":"v-1392477966"},{"id":"4c15fd847f7f2d7fef37e368","name":"Travelfusion","contact":{"twitter":"travelfusion"},"location":{"address":"50-52 wharf road","crossStreet":"Noel road","lat":"51.532566","lng":"-0.096452","distance":"213","postalCode":"N17eu","cc":"GB","city":"Islington","state":"Greater London","country":"United Kingdom"},"categories":[{"id":"4bf58dd8d48988d124941735","name":"Office","pluralName":"Offices","shortName":"Office","icon":{"prefix":"https:\/\/ss1.4sqi.net\/img\/categories_v2\/building\/default_","suffix":".png"},"primary":"true"}],"verified":"false","restricted":"true","stats":{"checkinsCount":"54","usersCount":"5","tipCount":"0"},"specials":{"count":"0"},"hereNow":{"count":"0"},"referralId":"v-1392477966"},{"id":"4d4843294c9ef04d7a016915","name":"1977 Design","contact":{"twitter":"1977design"},"location":{"address":"5 Hanover yard","crossStreet":"Noel road","lat":"51.533334","lng":"-0.098746","distance":"124","postalCode":"N1 8YA","cc":"GB","city":"Islington","state":"Greater London","country":"United Kingdom"},"categories":[{"id":"4bf58dd8d48988d124941735","name":"Office","pluralName":"Offices","shortName":"Office","icon":{"prefix":"https:\/\/ss1.4sqi.net\/img\/categories_v2\/building\/default_","suffix":".png"},"primary":"true"}],"verified":"false","restricted":"true","stats":{"checkinsCount":"9","usersCount":"2","tipCount":"0"},"specials":{"count":"0"},"hereNow":{"count":"0"},"referralId":"v-1392477966"},{"id":"4e4ad8bdfa7671a85ce280be","name":"Heaven","location":{"lat":"51.535185","lng":"-0.099058","distance":"132","cc":"GB","city":"Islington","state":"Greater London","country":"United Kingdom"},"verified":"false","restricted":"true","stats":{"checkinsCount":"20","usersCount":"8","tipCount":"0"},"specials":{"count":"0"},"hereNow":{"count":"0"},"referralId":"v-1392477966"}],"confident":"true"}}