{"meta":{"code":"200"},"response":{"venues":[{"id":"4ac518d2f964a52026a720e3","name":"Hyde Park","location":{"address":"Serpentine Rd","lat":"51.50849","lng":"-0.167862","distance":"353","postalCode":"W2 2TP","cc":"GB","city":"London","state":"Greater London","country":"United Kingdom"},"categories":[{"id":"4bf58dd8d48988d163941735","name":"Park","pluralName":"Parks","shortName":"Park","icon":{"prefix":"https:\/\/ss1.4sqi.net\/img\/categories_v2\/parks_outdoors\/park_","suffix":".png"},"primary":"true"}],"verified":"false","restricted":"true","stats":{"checkinsCount":"51896","usersCount":"31326","tipCount":"281"},"specials":{"count":"0"},"hereNow":{"count":"9","groups":[{"type":"others","name":"Other people here","count":"9"}]},"storeId":"","referralId":"v-1392478024"},{"id":"4bd31b92caff952119ffd3f0","name":"Serpentine Bridge","location":{"address":"The Serpentine","lat":"51.50615816351301","lng":"-0.17261624336242676","distance":"348","postalCode":"2UH 2UH","cc":"GB","city":"London","state":"Greater London","country":"United Kingdom"},"categories":[{"id":"4bf58dd8d48988d1df941735","name":"Bridge","pluralName":"Bridges","shortName":"Bridge","icon":{"prefix":"https:\/\/ss1.4sqi.net\/img\/categories_v2\/parks_outdoors\/bridge_","suffix":".png"},"primary":"true"}],"verified":"false","restricted":"true","stats":{"checkinsCount":"1036","usersCount":"507","tipCount":"1"},"specials":{"count":"0"},"hereNow":{"count":"0"},"referralId":"v-1392478024"},{"id":"4ac518d1f964a52000a720e3","name":"Peter Pan Statue","location":{"address":"Kensington Gardens","lat":"51.50872449860815","lng":"-0.17584482432415235","distance":"219","postalCode":"W11 1PN","cc":"GB","city":"London","state":"Greater London","country":"United Kingdom"},"categories":[{"id":"4bf58dd8d48988d12d941735","name":"Monument \/ Landmark","pluralName":"Monuments \/ Landmarks","shortName":"Landmark","icon":{"prefix":"https:\/\/ss1.4sqi.net\/img\/categories_v2\/building\/government_monument_","suffix":".png"},"primary":"true"}],"verified":"false","restricted":"true","stats":{"checkinsCount":"673","usersCount":"577","tipCount":"7"},"specials":{"count":"0"},"hereNow":{"count":"0"},"referralId":"v-1392478024"},{"id":"4c39e6ffdfb0e21e3022b1a8","name":"Italian Fountains","location":{"lat":"51.51068491940156","lng":"-0.1757054190274169","distance":"254","cc":"GB","country":"United Kingdom"},"categories":[{"id":"4bf58dd8d48988d161941735","name":"Lake","pluralName":"Lakes","shortName":"Lake","icon":{"prefix":"https:\/\/ss1.4sqi.net\/img\/categories_v2\/parks_outdoors\/lake_","suffix":".png"},"primary":"true"}],"verified":"false","restricted":"true","stats":{"checkinsCount":"1409","usersCount":"737","tipCount":"3"},"specials":{"count":"0"},"hereNow":{"count":"0"},"referralId":"v-1392478024"},{"id":"4f9e78d4e4b0606431023f10","name":"Serpentine Sackler Gallery","contact":{"phone":"+442074026075","formattedPhone":"+44 20 7402 6075"},"location":{"address":"West Carriage Drive","lat":"51.50703751683369","lng":"-0.17151300628909863","distance":"266","postalCode":"W2 2AR","cc":"GB","city":"London","state":"Greater London","country":"United Kingdom"},"categories":[{"id":"4bf58dd8d48988d1e2931735","name":"Art Gallery","pluralName":"Art Galleries","shortName":"Art Gallery","icon":{"prefix":"https:\/\/ss1.4sqi.net\/img\/categories_v2\/arts_entertainment\/artgallery_","suffix":".png"},"primary":"true"}],"verified":"false","restricted":"true","stats":{"checkinsCount":"454","usersCount":"381","tipCount":"10"},"url":"http:\/\/www.serpentinegalleries.org","specials":{"count":"0"},"hereNow":{"count":"0"},"referralId":"v-1392478024"},{"id":"4c39e5c31e06d13a4b467a3e","name":"Italian Gardens","location":{"lat":"51.51095279945388","lng":"-0.1757344157991217","distance":"274","cc":"GB","country":"United Kingdom"},"categories":[{"id":"4bf58dd8d48988d15a941735","name":"Garden","pluralName":"Gardens","shortName":"Garden","icon":{"prefix":"https:\/\/ss1.4sqi.net\/img\/categories_v2\/parks_outdoors\/garden_","suffix":".png"},"primary":"true"}],"verified":"false","restricted":"true","stats":{"checkinsCount":"1440","usersCount":"860","tipCount":"3"},"specials":{"count":"0"},"hereNow":{"count":"0"},"referralId":"v-1392478024"},{"id":"4bcdf67ecc8cd13ad679c3cf","name":"The Swan","contact":{"phone":"+442072625204","formattedPhone":"+44 20 7262 5204"},"location":{"address":"Lancaster Gate 48","crossStreet":"at Elms Mews","lat":"51.51147","lng":"-0.176818","distance":"369","postalCode":"W2 3NA","cc":"GB","city":"London","state":"Greater London","country":"United Kingdom"},"categories":[{"id":"4bf58dd8d48988d11b941735","name":"Pub","pluralName":"Pubs","shortName":"Pub","icon":{"prefix":"https:\/\/ss1.4sqi.net\/img\/categories_v2\/nightlife\/pub_","suffix":".png"},"primary":"true"}],"verified":"false","restricted":"true","stats":{"checkinsCount":"2340","usersCount":"1700","tipCount":"28"},"specials":{"count":"0"},"hereNow":{"count":"0"},"referralId":"v-1392478024"},{"id":"502b5a95e4b0b2dbe8cb8143","name":"Lancaster Gate","location":{"address":"Bayswater Road","lat":"51.51175728471771","lng":"-0.17515897750854492","distance":"319","cc":"GB","city":"London","state":"Greater London","country":"United Kingdom"},"categories":[{"id":"4bf58dd8d48988d15a941735","name":"Garden","pluralName":"Gardens","shortName":"Garden","icon":{"prefix":"https:\/\/ss1.4sqi.net\/img\/categories_v2\/parks_outdoors\/garden_","suffix":".png"},"primary":"true"}],"verified":"false","restricted":"true","stats":{"checkinsCount":"774","usersCount":"488","tipCount":"6"},"specials":{"count":"0"},"hereNow":{"count":"0"},"referralId":"v-1392478024"},{"id":"4bab2ca2f964a520e7973ae3","name":"Lancaster Hotel","contact":{"phone":"+442072626737","formattedPhone":"+44 20 7262 6737"},"location":{"address":"1 Lancaster Terrace","lat":"51.512226249917","lng":"-0.1752751756513036","distance":"369","postalCode":"W2 2TY","cc":"GB","city":"Paddington","state":"Greater London","country":"United Kingdom"},"categories":[{"id":"4bf58dd8d48988d1fa931735","name":"Hotel","pluralName":"Hotels","shortName":"Hotel","icon":{"prefix":"https:\/\/ss1.4sqi.net\/img\/categories_v2\/travel\/hotel_","suffix":".png"},"primary":"true"}],"verified":"false","restricted":"true","stats":{"checkinsCount":"3553","usersCount":"1943","tipCount":"25"},"menu":{"type":"Menu","label":"Menu","anchor":"View Menu","url":"https:\/\/foursquare.com\/v\/lancaster-hotel\/4bab2ca2f964a520e7973ae3\/menu","mobileUrl":"https:\/\/foursquare.com\/v\/4bab2ca2f964a520e7973ae3\/device_menu"},"specials":{"count":"0"},"hereNow":{"count":"0"},"storeId":"","referralId":"v-1392478024"},{"id":"4f0d480fe4b03544974d26ac","name":"The Magazine","contact":{"phone":"+442072987541","formattedPhone":"+44 20 7298 7541"},"location":{"address":"West Carriage Drive, Hyde Park","lat":"51.50692826498451","lng":"-0.1724619154021758","distance":"263","postalCode":"W2 2AR","cc":"GB","city":"London","state":"Greater London","country":"United Kingdom"},"categories":[{"id":"4bf58dd8d48988d1c4941735","name":"Restaurant","pluralName":"Restaurants","shortName":"Restaurant","icon":{"prefix":"https:\/\/ss1.4sqi.net\/img\/categories_v2\/food\/default_","suffix":".png"},"primary":"true"}],"verified":"false","restricted":"true","stats":{"checkinsCount":"190","usersCount":"69","tipCount":"2"},"url":"http:\/\/www.magazine-restaurant.co.uk","specials":{"count":"0"},"hereNow":{"count":"0"},"referralId":"v-1392478024"},{"id":"50964af2e4b02377e2ff510f","name":"Lancaster London","location":{"address":"Lancaster Terrace","lat":"51.51240576820793","lng":"-0.17509275958028048","distance":"381","cc":"GB","city":"London","state":"Greater London","country":"United Kingdom"},"categories":[{"id":"4bf58dd8d48988d1fa931735","name":"Hotel","pluralName":"Hotels","shortName":"Hotel","icon":{"prefix":"https:\/\/ss1.4sqi.net\/img\/categories_v2\/travel\/hotel_","suffix":".png"},"primary":"true"}],"verified":"false","restricted":"true","stats":{"checkinsCount":"759","usersCount":"431","tipCount":"4"},"specials":{"count":"0"},"hereNow":{"count":"0"},"referralId":"v-1392478024"},{"id":"4ac518b6f964a520f2a020e3","name":"Corus Hotel Hyde Park","contact":{"phone":"+448447368601","formattedPhone":"+44 844 736 8601","twitter":"corushotelsuk"},"location":{"address":"1 Lancaster Gate","lat":"51.51184266248235","lng":"-0.17749760429284323","distance":"431","postalCode":"W2 3LG","cc":"GB","city":"London","state":"Greater London","country":"United Kingdom"},"categories":[{"id":"4bf58dd8d48988d1fa931735","name":"Hotel","pluralName":"Hotels","shortName":"Hotel","icon":{"prefix":"https:\/\/ss1.4sqi.net\/img\/categories_v2\/travel\/hotel_","suffix":".png"},"primary":"true"}],"verified":"false","restricted":"true","stats":{"checkinsCount":"2364","usersCount":"1050","tipCount":"32"},"url":"http:\/\/www.corushotels.com\/london","specials":{"count":"0"},"hereNow":{"count":"0"},"referralId":"v-1392478024"},{"id":"4fffe501e4b014305fe5cf68","name":"Henry Moore's Travertine Arch","location":{"address":"Hyde Park","lat":"51.507681351146054","lng":"-0.17302240875638902","distance":"179","cc":"GB","country":"United Kingdom"},"categories":[{"id":"4bf58dd8d48988d166941735","name":"Sculpture Garden","pluralName":"Sculpture Gardens","shortName":"Sculpture","icon":{"prefix":"https:\/\/ss1.4sqi.net\/img\/categories_v2\/parks_outdoors\/sculpture_","suffix":".png"},"primary":"true"}],"verified":"false","restricted":"true","stats":{"checkinsCount":"51","usersCount":"26","tipCount":"0"},"specials":{"count":"0"},"hereNow":{"count":"0"},"referralId":"v-1392478024"},{"id":"4ac518f8f964a520f4af20e3","name":"Hyde Park Stables","contact":{"phone":"+442077232813","formattedPhone":"+44 20 7723 2813"},"location":{"address":"63 Bathurst Mews","crossStreet":"at Bayswater Rd.","lat":"51.51152964114112","lng":"-0.17502600661254344","distance":"293","postalCode":"W2 2SB","cc":"GB","city":"London","state":"Greater London","country":"United Kingdom"},"categories":[{"id":"4eb1baf03b7b2c5b1d4306ca","name":"Stables","pluralName":"Stables","shortName":"Stables","icon":{"prefix":"https:\/\/ss1.4sqi.net\/img\/categories_v2\/parks_outdoors\/stable_","suffix":".png"},"primary":"true"}],"verified":"false","restricted":"true","stats":{"checkinsCount":"282","usersCount":"233","tipCount":"5"},"url":"https:\/\/www.hydeparkstables.com","specials":{"count":"0"},"hereNow":{"count":"0"},"referralId":"v-1392478024"},{"id":"4ac518ddf964a5206ca920e3","name":"Island Grill","location":{"address":"Lancaster Terrace","lat":"51.51165610452652","lng":"-0.17579738839183046","distance":"335","postalCode":"W2 2TY","cc":"GB","city":"London","state":"Greater London","country":"United Kingdom"},"categories":[{"id":"4bf58dd8d48988d1c4941735","name":"Restaurant","pluralName":"Restaurants","shortName":"Restaurant","icon":{"prefix":"https:\/\/ss1.4sqi.net\/img\/categories_v2\/food\/default_","suffix":".png"},"primary":"true"}],"verified":"false","restricted":"true","stats":{"checkinsCount":"451","usersCount":"328","tipCount":"15"},"url":"http:\/\/www.islandrestaurant.co.uk","menu":{"type":"Menu","label":"Menu","anchor":"View Menu","url":"https:\/\/foursquare.com\/v\/island-grill\/4ac518ddf964a5206ca920e3\/menu","mobileUrl":"https:\/\/foursquare.com\/v\/4ac518ddf964a5206ca920e3\/device_menu"},"specials":{"count":"0"},"hereNow":{"count":"0"},"referralId":"v-1392478024"},{"id":"51778ba8e4b016f35acbff33","name":"Bus Stop LA (Lancaster Gate)","location":{"address":"Lancaster Terrace","lat":"51.512209358611614","lng":"-0.17583258686481257","distance":"386","cc":"GB","city":"London","state":"Greater London","country":"United Kingdom"},"categories":[{"id":"4bf58dd8d48988d1fe931735","name":"Bus Station","pluralName":"Bus Stations","shortName":"Bus Station","icon":{"prefix":"https:\/\/ss1.4sqi.net\/img\/categories_v2\/travel\/busstation_","suffix":".png"},"primary":"true"}],"verified":"false","restricted":"true","stats":{"checkinsCount":"120","usersCount":"31","tipCount":"0"},"specials":{"count":"0"},"hereNow":{"count":"0"},"referralId":"v-1392478024"},{"id":"4ac518b6f964a5201ca120e3","name":"Best Western Mornington Hotel","location":{"address":"12 Lancaster Gate","lat":"51.512098128976156","lng":"-0.17836802102706675","distance":"496","postalCode":"W2 3LG","cc":"GB","city":"London","state":"Greater London","country":"United Kingdom"},"categories":[{"id":"4bf58dd8d48988d1fa931735","name":"Hotel","pluralName":"Hotels","shortName":"Hotel","icon":{"prefix":"https:\/\/ss1.4sqi.net\/img\/categories_v2\/travel\/hotel_","suffix":".png"},"primary":"true"}],"verified":"false","restricted":"true","stats":{"checkinsCount":"680","usersCount":"297","tipCount":"16"},"specials":{"count":"0"},"hereNow":{"count":"0"},"referralId":"v-1392478024"},{"id":"4ac518b8f964a5207fa120e3","name":"London Elizabeth Hotel","location":{"address":"Lancaster Terrace","lat":"51.511825","lng":"-0.175944","distance":"356","postalCode":"W2 3PF","cc":"GB","city":"London","state":"Greater London","country":"United Kingdom"},"categories":[{"id":"4bf58dd8d48988d1fa931735","name":"Hotel","pluralName":"Hotels","shortName":"Hotel","icon":{"prefix":"https:\/\/ss1.4sqi.net\/img\/categories_v2\/travel\/hotel_","suffix":".png"},"primary":"true"}],"verified":"false","restricted":"true","stats":{"checkinsCount":"375","usersCount":"176","tipCount":"6"},"specials":{"count":"0"},"hereNow":{"count":"0"},"referralId":"v-1392478024"},{"id":"4faf99dfe4b0f4503aa61b96","name":"The Allotment In Kensington Gardens","location":{"lat":"51.50779695302524","lng":"-0.1712595253597621","distance":"197","cc":"GB","country":"United Kingdom"},"categories":[{"id":"4bf58dd8d48988d15a941735","name":"Garden","pluralName":"Gardens","shortName":"Garden","icon":{"prefix":"https:\/\/ss1.4sqi.net\/img\/categories_v2\/parks_outdoors\/garden_","suffix":".png"},"primary":"true"}],"verified":"false","restricted":"true","stats":{"checkinsCount":"24","usersCount":"6","tipCount":"0"},"specials":{"count":"0"},"hereNow":{"count":"0"},"referralId":"v-1392478024"},{"id":"4ac518dbf964a5200ca920e3","name":"Nipa","contact":{"phone":"+442075516039","formattedPhone":"+44 20 7551 6039"},"location":{"address":"12 Lancaster Terrace","lat":"51.511983","lng":"-0.17535965000000003","distance":"348","postalCode":"W2 2TY","cc":"GB","city":"London","state":"Greater London","country":"United Kingdom"},"categories":[{"id":"4bf58dd8d48988d149941735","name":"Thai Restaurant","pluralName":"Thai Restaurants","shortName":"Thai","icon":{"prefix":"https:\/\/ss1.4sqi.net\/img\/categories_v2\/food\/thai_","suffix":".png"},"primary":"true"}],"verified":"false","restricted":"true","stats":{"checkinsCount":"147","usersCount":"117","tipCount":"4"},"url":"http:\/\/www.niparestaurant.co.uk","reservations":{"url":"http:\/\/www.toptable.co.uk\/single.aspx?rid=72832&ref=9601"},"menu":{"type":"Menu","label":"Menu","anchor":"View Menu","url":"https:\/\/foursquare.com\/v\/nipa-london-uk\/4ac518dbf964a5200ca920e3\/menu","mobileUrl":"https:\/\/foursquare.com\/v\/4ac518dbf964a5200ca920e3\/device_menu"},"specials":{"count":"0"},"hereNow":{"count":"0"},"referralId":"v-1392478024"},{"id":"4c16079482a3c9b6c99bfff8","name":"Angelus Restaurant","contact":{"phone":"+442074020083","formattedPhone":"+44 20 7402 0083"},"location":{"address":"4 Bathurst Street","lat":"51.512882367963456","lng":"-0.17460644245147705","distance":"419","postalCode":"W2 2SB","cc":"GB","city":"London","state":"Greater London","country":"United Kingdom"},"categories":[{"id":"4bf58dd8d48988d10c941735","name":"French Restaurant","pluralName":"French Restaurants","shortName":"French","icon":{"prefix":"https:\/\/ss1.4sqi.net\/img\/categories_v2\/food\/french_","suffix":".png"},"primary":"true"}],"verified":"false","restricted":"true","stats":{"checkinsCount":"263","usersCount":"188","tipCount":"15"},"url":"http:\/\/www.angelusrestaurant.co.uk","reservations":{"url":"http:\/\/www.toptable.co.uk\/single.aspx?rid=14125&ref=9601"},"menu":{"type":"Menu","label":"Menu","anchor":"View Menu","url":"https:\/\/foursquare.com\/v\/angelus-restaurant\/4c16079482a3c9b6c99bfff8\/menu","mobileUrl":"https:\/\/foursquare.com\/v\/4c16079482a3c9b6c99bfff8\/device_menu"},"specials":{"count":"0"},"hereNow":{"count":"0"},"referralId":"v-1392478024"},{"id":"4ccb2a68ee23a143a87515a8","name":"Bel Canto","location":{"address":"Corus Hotel","lat":"51.51150438150984","lng":"-0.1770863386121916","distance":"385","postalCode":"W2 3LG","cc":"GB","city":"Paddington","state":"Greater London","country":"United Kingdom"},"categories":[{"id":"4bf58dd8d48988d10c941735","name":"French Restaurant","pluralName":"French Restaurants","shortName":"French","icon":{"prefix":"https:\/\/ss1.4sqi.net\/img\/categories_v2\/food\/french_","suffix":".png"},"primary":"true"}],"verified":"false","restricted":"true","stats":{"checkinsCount":"189","usersCount":"141","tipCount":"4"},"url":"http:\/\/www.lebelcanto.com\/page.php?id=56&langue=1","reservations":{"url":"http:\/\/www.toptable.co.uk\/single.aspx?rid=73612&ref=9601"},"menu":{"type":"Menu","label":"Menu","anchor":"View Menu","url":"https:\/\/foursquare.com\/v\/bel-canto\/4ccb2a68ee23a143a87515a8\/menu","mobileUrl":"https:\/\/foursquare.com\/v\/4ccb2a68ee23a143a87515a8\/device_menu"},"specials":{"count":"0"},"hereNow":{"count":"0"},"referralId":"v-1392478024"},{"id":"52419a8c498e693f5139f04b","name":"Averade Hotel","location":{"lat":"51.511961","lng":"-0.178117","distance":"473","cc":"GB","country":"United Kingdom"},"categories":[{"id":"4d954b06a243a5684965b473","name":"Residential Building (Apartment \/ Condo)","pluralName":"Residential Buildings (Apartments \/ Condos)","shortName":"Residential","icon":{"prefix":"https:\/\/ss1.4sqi.net\/img\/categories_v2\/building\/apartment_","suffix":".png"},"primary":"true"}],"verified":"false","restricted":"true","stats":{"checkinsCount":"4","usersCount":"2","tipCount":"0"},"specials":{"count":"0"},"hereNow":{"count":"0"},"referralId":"v-1392478024"},{"id":"4c7be20f97028cfa7e2ce2fe","name":"So Chic","location":{"address":"Westfield","lat":"51.508844","lng":"-0.171098","distance":"128","postalCode":"W12","cc":"GB","city":"Hammersmith","state":"Greater London","country":"United Kingdom"},"verified":"false","restricted":"true","stats":{"checkinsCount":"1","usersCount":"1","tipCount":"0"},"specials":{"count":"0"},"hereNow":{"count":"0"},"referralId":"v-1392478024"},{"id":"4bd3378acaff9521ea4fd4f0","name":"TfL Bus 148","location":{"address":"Moving Target!","lat":"51.51184074882071","lng":"-0.16805648803710938","distance":"434","cc":"GB","city":"London","state":"Greater London","country":"United Kingdom"},"categories":[{"id":"4bf58dd8d48988d12b951735","name":"Bus Line","pluralName":"Bus Lines","shortName":"Bus","icon":{"prefix":"https:\/\/ss1.4sqi.net\/img\/categories_v2\/travel\/busstation_","suffix":".png"},"primary":"true"}],"verified":"false","restricted":"true","stats":{"checkinsCount":"517","usersCount":"192","tipCount":"1"},"specials":{"count":"0"},"hereNow":{"count":"0"},"referralId":"v-1392478024"},{"id":"52da60a4498e599e1630a234","name":"@MarinePhys, Hyde Park","location":{"lat":"51.506249","lng":"-0.169947","distance":"392","cc":"GB","country":"United Kingdom"},"categories":[{"id":"4f4528bc4b90abdf24c9de85","name":"Athletics & Sports","pluralName":"Athletics & Sports","shortName":"Athletics & Sports","icon":{"prefix":"https:\/\/ss1.4sqi.net\/img\/categories_v2\/shops\/sports_outdoors_","suffix":".png"},"primary":"true"}],"verified":"false","restricted":"true","stats":{"checkinsCount":"4","usersCount":"1","tipCount":"0"},"specials":{"count":"0"},"hereNow":{"count":"0"},"referralId":"v-1392478024"},{"id":"502a3d40e4b07084b69fa5ed","name":"Rudolf Steiner's bench (Hyde Park)","location":{"address":"the Long Water East Pathway","lat":"51.50909423828125","lng":"-0.17466199398040771","distance":"130","cc":"GB","country":"United Kingdom"},"categories":[{"id":"4bf58dd8d48988d165941735","name":"Scenic Lookout","pluralName":"Scenic Lookouts","shortName":"Scenic Lookout","icon":{"prefix":"https:\/\/ss1.4sqi.net\/img\/categories_v2\/parks_outdoors\/sceniclookout_","suffix":".png"},"primary":"true"}],"verified":"false","restricted":"true","stats":{"checkinsCount":"2","usersCount":"2","tipCount":"0"},"specials":{"count":"0"},"hereNow":{"count":"0"},"referralId":"v-1392478024"},{"id":"51eaf3e3498edeb0972c5301","name":"Maxi Mini","location":{"lat":"51.511939","lng":"-0.175478","distance":"348","cc":"GB","country":"United Kingdom"},"categories":[{"id":"4bf58dd8d48988d145941735","name":"Chinese Restaurant","pluralName":"Chinese Restaurants","shortName":"Chinese","icon":{"prefix":"https:\/\/ss1.4sqi.net\/img\/categories_v2\/food\/chinese_","suffix":".png"},"primary":"true"}],"verified":"false","restricted":"true","stats":{"checkinsCount":"3","usersCount":"3","tipCount":"0"},"specials":{"count":"0"},"hereNow":{"count":"0"},"referralId":"v-1392478024"},{"id":"4d0e45ce903d37048401c955","name":"St James Church","location":{"address":"Sussex Gardens","lat":"51.51297910596952","lng":"-0.17582691153124272","distance":"461","postalCode":"W2","cc":"GB","city":"London","state":"Greater London","country":"United Kingdom"},"categories":[{"id":"4bf58dd8d48988d132941735","name":"Church","pluralName":"Churches","shortName":"Church","icon":{"prefix":"https:\/\/ss1.4sqi.net\/img\/categories_v2\/building\/religious_church_","suffix":".png"},"primary":"true"}],"verified":"false","restricted":"true","stats":{"checkinsCount":"468","usersCount":"131","tipCount":"2"},"specials":{"count":"0"},"hereNow":{"count":"0"},"referralId":"v-1392478024"},{"id":"4dedcb6d8877aa0c3ca72d69","name":"Buckhill","location":{"lat":"51.50849724371586","lng":"-0.1733678035222338","distance":"96","cc":"GB","city":"London","state":"Greater London","country":"United Kingdom"},"categories":[{"id":"4bf58dd8d48988d165941735","name":"Scenic Lookout","pluralName":"Scenic Lookouts","shortName":"Scenic Lookout","icon":{"prefix":"https:\/\/ss1.4sqi.net\/img\/categories_v2\/parks_outdoors\/sceniclookout_","suffix":".png"},"primary":"true"}],"verified":"false","restricted":"true","stats":{"checkinsCount":"301","usersCount":"21","tipCount":"0"},"specials":{"count":"0"},"hereNow":{"count":"0"},"referralId":"v-1392478024"}],"confident":"true"}}