{"meta":{"code":"200"},"response":{"venues":[{"id":"4ac518cff964a52066a620e3","name":"Mayfair","location":{"address":"Anywhere!","lat":"51.50911640153762","lng":"-0.14634132385253903","distance":"103","cc":"GB","city":"London","state":"Greater London","country":"United Kingdom"},"categories":[{"id":"4f2a25ac4b909258e854f55f","name":"Neighborhood","pluralName":"Neighborhoods","shortName":"Neighborhood","icon":{"prefix":"https:\/\/ss1.4sqi.net\/img\/categories_v2\/parks_outdoors\/neighborhood_","suffix":".png"},"primary":"true"}],"verified":"false","restricted":"true","stats":{"checkinsCount":"1337","usersCount":"580","tipCount":"9"},"menu":{"type":"Menu","label":"Menu","anchor":"View Menu","url":"https:\/\/foursquare.com\/v\/mayfair\/4ac518cff964a52066a620e3\/menu","mobileUrl":"https:\/\/foursquare.com\/v\/4ac518cff964a52066a620e3\/device_menu"},"specials":{"count":"0"},"hereNow":{"count":"0"},"referralId":"v-1392478027"},{"id":"4bfa6d138f32ef3bc5e004aa","name":"Berkeley Square","location":{"address":"Berkeley Sq.","lat":"51.50959718054336","lng":"-0.1458907127380371","distance":"136","postalCode":"W1J 6BD","cc":"GB","city":"London","state":"Greater London","country":"United Kingdom"},"categories":[{"id":"4bf58dd8d48988d163941735","name":"Park","pluralName":"Parks","shortName":"Park","icon":{"prefix":"https:\/\/ss1.4sqi.net\/img\/categories_v2\/parks_outdoors\/park_","suffix":".png"},"primary":"true"}],"verified":"false","restricted":"true","stats":{"checkinsCount":"4943","usersCount":"2173","tipCount":"17"},"specials":{"count":"0"},"hereNow":{"count":"0"},"referralId":"v-1392478027"},{"id":"4ad20635f964a520e5de20e3","name":"The Punch Bowl","contact":{"phone":"+442074936841","formattedPhone":"+44 20 7493 6841"},"location":{"address":"41 Farm St.","crossStreet":"at Chesterfield Hill","lat":"51.508982195331434","lng":"-0.14926683600559304","distance":"107","postalCode":"W1J 5RP","cc":"GB","city":"Mayfair","state":"Greater London","country":"United Kingdom"},"categories":[{"id":"4bf58dd8d48988d11b941735","name":"Pub","pluralName":"Pubs","shortName":"Pub","icon":{"prefix":"https:\/\/ss1.4sqi.net\/img\/categories_v2\/nightlife\/pub_","suffix":".png"},"primary":"true"}],"verified":"false","restricted":"true","stats":{"checkinsCount":"1410","usersCount":"1141","tipCount":"23"},"url":"http:\/\/www.punchbowllondon.com","menu":{"type":"Menu","label":"Menu","anchor":"View Menu","url":"https:\/\/foursquare.com\/v\/the-punch-bowl-mayfair-greater-london\/4ad20635f964a520e5de20e3\/menu","mobileUrl":"https:\/\/foursquare.com\/v\/4ad20635f964a520e5de20e3\/device_menu"},"specials":{"count":"0"},"hereNow":{"count":"0"},"referralId":"v-1392478027"},{"id":"4b82c6b8f964a5203de430e3","name":"Connaught Hotel","contact":{"phone":"+442074997070","formattedPhone":"+44 20 7499 7070"},"location":{"address":"Carlos Pl","crossStreet":"at Mount St","lat":"51.510234031019976","lng":"-0.14940664207500062","distance":"153","postalCode":"W1K 2AL","cc":"GB","city":"Mayfair","state":"Greater London","country":"United Kingdom"},"categories":[{"id":"4bf58dd8d48988d1fa931735","name":"Hotel","pluralName":"Hotels","shortName":"Hotel","icon":{"prefix":"https:\/\/ss1.4sqi.net\/img\/categories_v2\/travel\/hotel_","suffix":".png"},"primary":"true"}],"verified":"false","restricted":"true","stats":{"checkinsCount":"1837","usersCount":"1180","tipCount":"20"},"specials":{"count":"0"},"hereNow":{"count":"0"},"referralId":"v-1392478027"},{"id":"4bc466bf920eb71373a41e2c","name":"Connaught Bar","contact":{"phone":"+442074997070","formattedPhone":"+44 20 7499 7070"},"location":{"address":"At The Connaught Hotel","crossStreet":"Carlos Pl.","lat":"51.510141420727024","lng":"-0.14953931242909846","distance":"153","postalCode":"W1K 2AL","cc":"GB","city":"Mayfair","state":"Greater London","country":"United Kingdom"},"categories":[{"id":"4bf58dd8d48988d11e941735","name":"Cocktail Bar","pluralName":"Cocktail Bars","shortName":"Cocktail","icon":{"prefix":"https:\/\/ss1.4sqi.net\/img\/categories_v2\/nightlife\/cocktails_","suffix":".png"},"primary":"true"}],"verified":"false","restricted":"true","stats":{"checkinsCount":"1165","usersCount":"866","tipCount":"24"},"specials":{"count":"0"},"hereNow":{"count":"0"},"referralId":"v-1392478027"},{"id":"4d63e1dda45b5481109f062d","name":"Strutt and Parker","location":{"address":"13 Hill St.","lat":"51.508976","lng":"-0.14775397","distance":"35","cc":"GB","city":"London","state":"Greater London","country":"United Kingdom"},"categories":[{"id":"4bf58dd8d48988d124941735","name":"Office","pluralName":"Offices","shortName":"Office","icon":{"prefix":"https:\/\/ss1.4sqi.net\/img\/categories_v2\/building\/default_","suffix":".png"},"primary":"true"}],"verified":"false","restricted":"true","stats":{"checkinsCount":"283","usersCount":"12","tipCount":"0"},"specials":{"count":"0"},"hereNow":{"count":"0"},"referralId":"v-1392478027"},{"id":"4ac518e1f964a52073aa20e3","name":"Delfino","location":{"address":"121a Mount St","lat":"51.510205","lng":"-0.148259","distance":"106","postalCode":"W1K 3NW","cc":"GB","city":"London","state":"Greater London","country":"United Kingdom"},"categories":[{"id":"4bf58dd8d48988d110941735","name":"Italian Restaurant","pluralName":"Italian Restaurants","shortName":"Italian","icon":{"prefix":"https:\/\/ss1.4sqi.net\/img\/categories_v2\/food\/italian_","suffix":".png"},"primary":"true"}],"verified":"false","restricted":"true","stats":{"checkinsCount":"495","usersCount":"346","tipCount":"10"},"url":"http:\/\/www.finos.co.uk\/delfino\/index.htm","reservations":{"url":"http:\/\/www.toptable.co.uk\/single.aspx?rid=69919&ref=9601"},"menu":{"type":"Menu","label":"Menu","anchor":"View Menu","url":"https:\/\/foursquare.com\/v\/delfino\/4ac518e1f964a52073aa20e3\/menu","mobileUrl":"https:\/\/foursquare.com\/v\/4ac518e1f964a52073aa20e3\/device_menu"},"specials":{"count":"0"},"hereNow":{"count":"0"},"referralId":"v-1392478027"},{"id":"4ac518c4f964a5205ba420e3","name":"Annabel's","contact":{"phone":"+442074935587","formattedPhone":"+44 20 7493 5587"},"location":{"address":"44 Berkeley Square","lat":"51.50942256739043","lng":"-0.14650296806006538","distance":"91","postalCode":"W1X 5DB","cc":"GB","city":"London","state":"Greater London","country":"United Kingdom"},"categories":[{"id":"4bf58dd8d48988d121941735","name":"Lounge","pluralName":"Lounges","shortName":"Lounge","icon":{"prefix":"https:\/\/ss1.4sqi.net\/img\/categories_v2\/nightlife\/lounge_","suffix":".png"},"primary":"true"}],"verified":"false","restricted":"true","stats":{"checkinsCount":"500","usersCount":"333","tipCount":"7"},"menu":{"type":"Menu","label":"Menu","anchor":"View Menu","url":"https:\/\/foursquare.com\/v\/annabels\/4ac518c4f964a5205ba420e3\/menu","mobileUrl":"https:\/\/foursquare.com\/v\/4ac518c4f964a5205ba420e3\/device_menu"},"specials":{"count":"0"},"hereNow":{"count":"0"},"referralId":"v-1392478027"},{"id":"4ac518c4f964a5205ca420e3","name":"The Only Running Footman","contact":{"phone":"+442074992988","formattedPhone":"+44 20 7499 2988","twitter":"theorfootman"},"location":{"address":"5 Charles St","crossStreet":"at Hay's Mews","lat":"51.50847245234378","lng":"-0.14609893505401547","distance":"149","postalCode":"W1J 5DF","cc":"GB","city":"Mayfair","state":"Greater London","country":"United Kingdom"},"categories":[{"id":"4bf58dd8d48988d155941735","name":"Gastropub","pluralName":"Gastropubs","shortName":"Gastropub","icon":{"prefix":"https:\/\/ss1.4sqi.net\/img\/categories_v2\/food\/gastropub_","suffix":".png"},"primary":"true"}],"verified":"true","restricted":"true","stats":{"checkinsCount":"1112","usersCount":"788","tipCount":"19"},"url":"http:\/\/www.therunningfootmanmayfair.com","reservations":{"url":"http:\/\/www.toptable.co.uk\/single.aspx?rid=49621&ref=9601"},"menu":{"type":"Menu","label":"Menu","anchor":"View Menu","url":"https:\/\/foursquare.com\/v\/the-only-running-footman\/4ac518c4f964a5205ca420e3\/menu","mobileUrl":"https:\/\/foursquare.com\/v\/4ac518c4f964a5205ca420e3\/device_menu"},"specials":{"count":"0"},"hereNow":{"count":"0"},"referralId":"v-1392478027"},{"id":"4b6d4507f964a520846e2ce3","name":"Goyard","location":{"address":"116 Mount St","lat":"51.510228810587286","lng":"-0.14900024681207294","distance":"133","postalCode":"W1K 3NH","cc":"GB","city":"London","state":"Greater London","country":"United Kingdom"},"categories":[{"id":"4bf58dd8d48988d1ff941735","name":"Miscellaneous Shop","pluralName":"Miscellaneous Shops","shortName":"Shop","icon":{"prefix":"https:\/\/ss1.4sqi.net\/img\/categories_v2\/shops\/default_","suffix":".png"},"primary":"true"}],"verified":"false","restricted":"true","stats":{"checkinsCount":"245","usersCount":"189","tipCount":"5"},"specials":{"count":"0"},"hereNow":{"count":"0"},"referralId":"v-1392478027"},{"id":"4e1436dd52b1695f992cddf2","name":"Berger House, Berkeley Square","location":{"lat":"51.509830922323054","lng":"-0.147391255488897","distance":"66","cc":"GB","city":"London","state":"Greater London","country":"United Kingdom"},"categories":[{"id":"4bf58dd8d48988d124941735","name":"Office","pluralName":"Offices","shortName":"Office","icon":{"prefix":"https:\/\/ss1.4sqi.net\/img\/categories_v2\/building\/default_","suffix":".png"},"primary":"true"}],"verified":"false","restricted":"true","stats":{"checkinsCount":"75","usersCount":"28","tipCount":"0"},"specials":{"count":"0"},"hereNow":{"count":"0"},"referralId":"v-1392478027"},{"id":"50293ef5e4b0ca628ae675e6","name":"Hedonism Wines","location":{"address":"3-7 Davies St","lat":"51.51072419043054","lng":"-0.1473757033859762","distance":"162","cc":"GB","city":"London","state":"Greater London","country":"United Kingdom"},"categories":[{"id":"4bf58dd8d48988d123941735","name":"Wine Bar","pluralName":"Wine Bars","shortName":"Wine Bar","icon":{"prefix":"https:\/\/ss1.4sqi.net\/img\/categories_v2\/nightlife\/wine_","suffix":".png"},"primary":"true"}],"verified":"false","restricted":"true","stats":{"checkinsCount":"388","usersCount":"318","tipCount":"10"},"specials":{"count":"0"},"hereNow":{"count":"0"},"referralId":"v-1392478027"},{"id":"4fa7ec68e4b0d6f4be7227a7","name":"Mount Street Jesuit Community","location":{"lat":"51.5098184974024","lng":"-0.1491681339937786","distance":"111","cc":"GB","country":"United Kingdom"},"categories":[{"id":"4bf58dd8d48988d131941735","name":"Spiritual Center","pluralName":"Spiritual Centers","shortName":"Spiritual","icon":{"prefix":"https:\/\/ss1.4sqi.net\/img\/categories_v2\/building\/religious_","suffix":".png"},"primary":"true"}],"verified":"false","restricted":"true","stats":{"checkinsCount":"28","usersCount":"7","tipCount":"0"},"specials":{"count":"0"},"hereNow":{"count":"0"},"referralId":"v-1392478027"},{"id":"520ce8b711d234d1edb2200a","name":"Jesuits In Britain - Curia","contact":{"twitter":"jesuitsbritain"},"location":{"lat":"51.509787649471384","lng":"-0.14926039830768514","distance":"115","cc":"GB","country":"United Kingdom"},"categories":[{"id":"50328a8e91d4c4b30a586d6c","name":"Non-Profit","pluralName":"Non-Profits","shortName":"Non-Profit","icon":{"prefix":"https:\/\/ss1.4sqi.net\/img\/categories_v2\/building\/default_","suffix":".png"},"primary":"true"}],"verified":"false","restricted":"true","stats":{"checkinsCount":"24","usersCount":"1","tipCount":"0"},"specials":{"count":"0"},"hereNow":{"count":"0"},"referralId":"v-1392478027"},{"id":"4df2585618386ecb4e2c1bb9","name":"Coach & Horses - Shepherd Neame","contact":{"phone":"+442073551055","formattedPhone":"+44 20 7355 1055","facebook":"8029823489"},"location":{"address":"5 Hill Street","lat":"51.509084683299825","lng":"-0.14732301235198975","distance":"40","postalCode":"W1J 5LD","cc":"GB","city":"Mayfair","state":"Greater London","country":"United Kingdom"},"categories":[{"id":"4bf58dd8d48988d11b941735","name":"Pub","pluralName":"Pubs","shortName":"Pub","icon":{"prefix":"https:\/\/ss1.4sqi.net\/img\/categories_v2\/nightlife\/pub_","suffix":".png"},"primary":"true"}],"verified":"true","restricted":"true","stats":{"checkinsCount":"187","usersCount":"128","tipCount":"5"},"url":"http:\/\/www.coachandhorsesmayfair.co.uk","specials":{"count":"0"},"hereNow":{"count":"0"},"storeId":"","referralId":"v-1392478027"},{"id":"4f85be5de4b0a3bc16493d7d","name":"Forsters LLP","location":{"lat":"51.508316187559835","lng":"-0.1479978012580898","distance":"109","cc":"GB","country":"United Kingdom"},"categories":[{"id":"4bf58dd8d48988d124941735","name":"Office","pluralName":"Offices","shortName":"Office","icon":{"prefix":"https:\/\/ss1.4sqi.net\/img\/categories_v2\/building\/default_","suffix":".png"},"primary":"true"}],"verified":"false","restricted":"true","stats":{"checkinsCount":"138","usersCount":"7","tipCount":"0"},"specials":{"count":"0"},"hereNow":{"count":"0"},"referralId":"v-1392478027"},{"id":"4c39dcc918e72d7f81d11af5","name":"Church of the Immaculate Conception","contact":{"phone":"+442074937811","formattedPhone":"+44 20 7493 7811"},"location":{"address":"114 Mount Street","lat":"51.50949034120275","lng":"-0.1492166519165039","distance":"100","postalCode":"W1K 3AH","cc":"GB","city":"London","state":"Greater London","country":"United Kingdom"},"categories":[{"id":"4bf58dd8d48988d132941735","name":"Church","pluralName":"Churches","shortName":"Church","icon":{"prefix":"https:\/\/ss1.4sqi.net\/img\/categories_v2\/building\/religious_church_","suffix":".png"},"primary":"true"}],"verified":"false","restricted":"true","stats":{"checkinsCount":"150","usersCount":"79","tipCount":"2"},"specials":{"count":"0"},"hereNow":{"count":"0"},"referralId":"v-1392478027"},{"id":"4b7a7a85f964a5200b2e2fe3","name":"WPP HQ UK","location":{"address":"27 farm street","lat":"51.509747401637235","lng":"-0.1485828290001601","distance":"74","postalCode":"W1J 5","cc":"GB","city":"London","state":"Greater London","country":"United Kingdom"},"categories":[{"id":"4bf58dd8d48988d124941735","name":"Office","pluralName":"Offices","shortName":"Office","icon":{"prefix":"https:\/\/ss1.4sqi.net\/img\/categories_v2\/building\/default_","suffix":".png"},"primary":"true"}],"verified":"false","restricted":"true","stats":{"checkinsCount":"555","usersCount":"89","tipCount":"0"},"specials":{"count":"0"},"hereNow":{"count":"0"},"referralId":"v-1392478027"},{"id":"4ac518c6f964a520f8a420e3","name":"The Coburg Bar","location":{"address":"Carlos Place","lat":"51.510303","lng":"-0.149405","distance":"158","postalCode":"W1K 2AL","cc":"GB","city":"London","state":"Greater London","country":"United Kingdom"},"categories":[{"id":"4bf58dd8d48988d1fa931735","name":"Hotel","pluralName":"Hotels","shortName":"Hotel","icon":{"prefix":"https:\/\/ss1.4sqi.net\/img\/categories_v2\/travel\/hotel_","suffix":".png"},"primary":"true"}],"verified":"false","restricted":"true","stats":{"checkinsCount":"144","usersCount":"109","tipCount":"6"},"specials":{"count":"0"},"hereNow":{"count":"0"},"referralId":"v-1392478027"},{"id":"4bdbb79dc712b713f8ad63b4","name":"Farm Street Church","contact":{"phone":"+442074937811","formattedPhone":"+44 20 7493 7811"},"location":{"address":"Farm Street","crossStreet":"Mount Street","lat":"51.50945517994698","lng":"-0.14883242542616087","distance":"73","postalCode":"W1K 3AH","cc":"GB","city":"London","state":"Greater London","country":"United Kingdom"},"categories":[{"id":"4bf58dd8d48988d132941735","name":"Church","pluralName":"Churches","shortName":"Church","icon":{"prefix":"https:\/\/ss1.4sqi.net\/img\/categories_v2\/building\/religious_church_","suffix":".png"},"primary":"true"}],"verified":"false","restricted":"true","stats":{"checkinsCount":"65","usersCount":"53","tipCount":"1"},"specials":{"count":"0"},"hereNow":{"count":"0"},"referralId":"v-1392478027"},{"id":"5134334ce4b008f27489d9f7","name":"The Clermont Club","location":{"address":"Berkeley Square","lat":"51.50919495916202","lng":"-0.14710321923337016","distance":"49","postalCode":"W1J 5AR","cc":"GB","city":"London","state":"Greater London","country":"United Kingdom"},"categories":[{"id":"4bf58dd8d48988d17c941735","name":"Casino","pluralName":"Casinos","shortName":"Casino","icon":{"prefix":"https:\/\/ss1.4sqi.net\/img\/categories_v2\/arts_entertainment\/casino_","suffix":".png"},"primary":"true"}],"verified":"false","restricted":"true","stats":{"checkinsCount":"10","usersCount":"7","tipCount":"0"},"specials":{"count":"0"},"hereNow":{"count":"0"},"referralId":"v-1392478027"},{"id":"4f268fe6e4b0acaffa41b3b1","name":"Loewe","location":{"address":"Mount St","lat":"51.51024059587131","lng":"-0.14795445748997113","distance":"106","cc":"GB","country":"United Kingdom"},"categories":[{"id":"4bf58dd8d48988d103951735","name":"Clothing Store","pluralName":"Clothing Stores","shortName":"Apparel","icon":{"prefix":"https:\/\/ss1.4sqi.net\/img\/categories_v2\/shops\/apparel_","suffix":".png"},"primary":"true"}],"verified":"false","restricted":"true","stats":{"checkinsCount":"30","usersCount":"16","tipCount":"1"},"specials":{"count":"0"},"hereNow":{"count":"0"},"referralId":"v-1392478027"},{"id":"4d9ecdb1ded9a093b6e2f606","name":"Heritable Bank Plc","location":{"address":"Hill Street","lat":"51.509079","lng":"-0.147741","distance":"23","cc":"GB","city":"London","state":"Greater London","country":"United Kingdom"},"categories":[{"id":"4bf58dd8d48988d10a951735","name":"Bank","pluralName":"Banks","shortName":"Bank","icon":{"prefix":"https:\/\/ss1.4sqi.net\/img\/categories_v2\/shops\/financial_","suffix":".png"},"primary":"true"}],"verified":"false","restricted":"true","stats":{"checkinsCount":"2","usersCount":"1","tipCount":"0"},"specials":{"count":"0"},"hereNow":{"count":"0"},"referralId":"v-1392478027"},{"id":"4df7517322717445a0b53e08","name":"Itsu","contact":{"phone":"+442074994938","formattedPhone":"+44 20 7499 4938","twitter":"itsuofficial","facebook":"115164458642981"},"location":{"address":"Unit 4 Lansdowne House, 55 Berkeley Square","lat":"51.50914048496949","lng":"-0.14539302307592616","distance":"167","postalCode":"W1J 6ER","cc":"GB","city":"London","state":"Greater London","country":"United Kingdom"},"categories":[{"id":"4bf58dd8d48988d1d2941735","name":"Sushi Restaurant","pluralName":"Sushi Restaurants","shortName":"Sushi","icon":{"prefix":"https:\/\/ss1.4sqi.net\/img\/categories_v2\/food\/sushi_","suffix":".png"},"primary":"true"}],"verified":"true","restricted":"true","stats":{"checkinsCount":"454","usersCount":"156","tipCount":"1"},"url":"http:\/\/www.itsu.com","specials":{"count":"0"},"hereNow":{"count":"0"},"storeId":"","referralId":"v-1392478027"},{"id":"4ac518f4f964a520efae20e3","name":"Lanvin","location":{"address":"128 Mount Street","lat":"51.51031351008319","lng":"-0.14788544523063482","distance":"114","postalCode":"W1K 3NU","cc":"GB","city":"London","state":"Greater London","country":"United Kingdom"},"categories":[{"id":"4bf58dd8d48988d108951735","name":"Women's Store","pluralName":"Women's Stores","shortName":"Women's Store","icon":{"prefix":"https:\/\/ss1.4sqi.net\/img\/categories_v2\/shops\/apparel_women_","suffix":".png"},"primary":"true"}],"verified":"false","restricted":"true","stats":{"checkinsCount":"80","usersCount":"56","tipCount":"1"},"specials":{"count":"0"},"hereNow":{"count":"0"},"referralId":"v-1392478027"},{"id":"51bef133498e60a6cb3ddeb3","name":"Blain|Southern","location":{"address":"6","crossStreet":"Hill Street","lat":"51.509343327743885","lng":"-0.1474888458934409","distance":"22","postalCode":"W1J 5NF","cc":"GB","city":"London","state":"Greater London","country":"United Kingdom"},"categories":[{"id":"4bf58dd8d48988d1e2931735","name":"Art Gallery","pluralName":"Art Galleries","shortName":"Art Gallery","icon":{"prefix":"https:\/\/ss1.4sqi.net\/img\/categories_v2\/arts_entertainment\/artgallery_","suffix":".png"},"primary":"true"}],"verified":"false","restricted":"true","stats":{"checkinsCount":"22","usersCount":"3","tipCount":"0"},"specials":{"count":"0"},"hereNow":{"count":"0"},"referralId":"v-1392478027"},{"id":"50489b9ee4b084ad46195c06","name":"Carter Jonas","location":{"lat":"51.510104","lng":"-0.148069","distance":"92","cc":"GB","country":"United Kingdom"},"categories":[{"id":"4bf58dd8d48988d124941735","name":"Office","pluralName":"Offices","shortName":"Office","icon":{"prefix":"https:\/\/ss1.4sqi.net\/img\/categories_v2\/building\/default_","suffix":".png"},"primary":"true"}],"verified":"false","restricted":"true","stats":{"checkinsCount":"3","usersCount":"3","tipCount":"0"},"specials":{"count":"0"},"hereNow":{"count":"0"},"referralId":"v-1392478027"},{"id":"51532f76e4b01a3ce557a144","name":"Carolina Herrera","location":{"lat":"51.51009658628213","lng":"-0.14849805930791413","distance":"101","cc":"GB","country":"United Kingdom"},"categories":[{"id":"4bf58dd8d48988d104951735","name":"Boutique","pluralName":"Boutiques","shortName":"Boutique","icon":{"prefix":"https:\/\/ss1.4sqi.net\/img\/categories_v2\/shops\/apparel_boutique_","suffix":".png"},"primary":"true"}],"verified":"false","restricted":"true","stats":{"checkinsCount":"16","usersCount":"10","tipCount":"0"},"specials":{"count":"0"},"hereNow":{"count":"0"},"referralId":"v-1392478027"},{"id":"4f92c829e4b0f888dca9e9f3","name":"The Connaught Fountain","location":{"address":"Carlos Place","lat":"51.510133","lng":"-0.149235","distance":"136","cc":"GB","city":"London W1","country":"United Kingdom"},"categories":[{"id":"4bf58dd8d48988d12d941735","name":"Monument \/ Landmark","pluralName":"Monuments \/ Landmarks","shortName":"Landmark","icon":{"prefix":"https:\/\/ss1.4sqi.net\/img\/categories_v2\/building\/government_monument_","suffix":".png"},"primary":"true"}],"verified":"false","restricted":"true","stats":{"checkinsCount":"64","usersCount":"43","tipCount":"1"},"specials":{"count":"0"},"hereNow":{"count":"0"},"referralId":"v-1392478027"},{"id":"4c9251cb238c6dcb937dc755","name":"Alfred Dunhill","contact":{"phone":"+442078534440","formattedPhone":"+44 20 7853 4440","twitter":"alfred_dunhill"},"location":{"address":"2 Davies St.","lat":"51.51067801602762","lng":"-0.14718573871464785","distance":"160","postalCode":"W1K 3DJ","cc":"GB","city":"Mayfair","state":"Greater London","country":"United Kingdom"},"categories":[{"id":"4bf58dd8d48988d104951735","name":"Boutique","pluralName":"Boutiques","shortName":"Boutique","icon":{"prefix":"https:\/\/ss1.4sqi.net\/img\/categories_v2\/shops\/apparel_boutique_","suffix":".png"},"primary":"true"}],"verified":"false","restricted":"true","stats":{"checkinsCount":"318","usersCount":"203","tipCount":"5"},"specials":{"count":"0"},"hereNow":{"count":"0"},"referralId":"v-1392478027"}],"confident":"false"}}