{"meta":{"code":"200"},"response":{"venues":[{"id":"4ae5b238f964a52087a121e3","name":"Selfridges & Co","contact":{"phone":"+44800123400","formattedPhone":"+44 800 123400"},"location":{"address":"400 Oxford St","lat":"51.51435127755928","lng":"-0.1526927947998047","distance":"10","postalCode":"W1A 1AB","cc":"GB","city":"Marylebone","state":"Greater London","country":"United Kingdom"},"categories":[{"id":"4bf58dd8d48988d1f6941735","name":"Department Store","pluralName":"Department Stores","shortName":"Department Store","icon":{"prefix":"https:\/\/ss1.4sqi.net\/img\/categories_v2\/shops\/departmentstore_","suffix":".png"},"primary":"true"}],"verified":"true","restricted":"true","stats":{"checkinsCount":"70287","usersCount":"30989","tipCount":"304"},"url":"http:\/\/www.selfridges.co.uk","specials":{"count":"0"},"hereNow":{"count":"19","groups":[{"type":"others","name":"Other people here","count":"19"}]},"storeId":"","referralId":"v-1392478013"},{"id":"4cd5475776ab721edc016c6a","name":"Starbucks","contact":{"twitter":"starbucksuk"},"location":{"address":"Selfridges, 400 Oxford Street","crossStreet":"400 Oxford St.","lat":"51.514458105500346","lng":"-0.1528322696685791","distance":"18","postalCode":"W1A 1AB","cc":"GB","city":"London","state":"Greater London","country":"United Kingdom"},"categories":[{"id":"4bf58dd8d48988d1e0931735","name":"Coffee Shop","pluralName":"Coffee Shops","shortName":"Coffee Shop","icon":{"prefix":"https:\/\/ss1.4sqi.net\/img\/categories_v2\/food\/coffeeshop_","suffix":".png"},"primary":"true"}],"verified":"true","restricted":"true","stats":{"checkinsCount":"491","usersCount":"332","tipCount":"4"},"url":"http:\/\/starbucks.co.uk","specials":{"count":"0"},"hereNow":{"count":"1","groups":[{"type":"others","name":"Other people here","count":"1"}]},"storeId":"12364","referralId":"v-1392478013"},{"id":"4ad4707df964a520dfe720e3","name":"Wasabi","contact":{"phone":"+442075800062","formattedPhone":"+44 20 7580 0062"},"location":{"address":"439 Oxford St","crossStreet":"Balderton St","lat":"51.51412426735259","lng":"-0.15329360961914062","distance":"38","postalCode":"W1C 2PN","cc":"GB","city":"London","state":"Greater London","country":"United Kingdom"},"categories":[{"id":"4bf58dd8d48988d1d2941735","name":"Sushi Restaurant","pluralName":"Sushi Restaurants","shortName":"Sushi","icon":{"prefix":"https:\/\/ss1.4sqi.net\/img\/categories_v2\/food\/sushi_","suffix":".png"},"primary":"true"}],"verified":"false","restricted":"true","stats":{"checkinsCount":"1881","usersCount":"1292","tipCount":"28"},"specials":{"count":"0"},"hereNow":{"count":"0"},"referralId":"v-1392478013"},{"id":"4ba4af5ef964a52029ac38e3","name":"LOLA's Cupcake & Coffee Bar","contact":{"phone":"+442073183146","formattedPhone":"+44 20 7318 3146"},"location":{"address":"Selfridges Food Hall, 400 Oxford St","lat":"51.514263809397896","lng":"-0.15347741052588185","distance":"46","postalCode":"W1C 2BU","cc":"GB","city":"London","state":"Greater London","country":"United Kingdom"},"categories":[{"id":"4bf58dd8d48988d1bc941735","name":"Cupcake Shop","pluralName":"Cupcake Shops","shortName":"Cupcakes","icon":{"prefix":"https:\/\/ss1.4sqi.net\/img\/categories_v2\/food\/cupcakes_","suffix":".png"},"primary":"true"}],"verified":"false","restricted":"true","stats":{"checkinsCount":"744","usersCount":"517","tipCount":"21"},"url":"http:\/\/www.lolas-kitchen.co.uk","specials":{"count":"0"},"hereNow":{"count":"0"},"referralId":"v-1392478013"},{"id":"4b608116f964a5203eea29e3","name":"Cobella","location":{"address":"in Selfridges","crossStreet":"400 Oxford St.","lat":"51.514105592003006","lng":"-0.15247824480700548","distance":"30","postalCode":"W1A 1AB","cc":"GB","city":"London","state":"Greater London","country":"United Kingdom"},"categories":[{"id":"4bf58dd8d48988d110951735","name":"Salon \/ Barbershop","pluralName":"Salons \/ Barbershops","shortName":"Salon \/ Barbershop","icon":{"prefix":"https:\/\/ss1.4sqi.net\/img\/categories_v2\/shops\/salon_barber_","suffix":".png"},"primary":"true"}],"verified":"false","restricted":"true","stats":{"checkinsCount":"161","usersCount":"92","tipCount":"1"},"specials":{"count":"0"},"hereNow":{"count":"1","groups":[{"type":"others","name":"Other people here","count":"1"}]},"referralId":"v-1392478013"},{"id":"4dba85d44df0cac21af0cdbd","name":"Dolly's","location":{"address":"400 Oxford St","crossStreet":"Selfridges","lat":"51.51410562178388","lng":"-0.1525524876774349","distance":"26","postalCode":"W1U 1AT","cc":"GB","city":"London","state":"Greater London","country":"United Kingdom"},"categories":[{"id":"4bf58dd8d48988d16d941735","name":"Caf\u00e9","pluralName":"Caf\u00e9s","shortName":"Caf\u00e9","icon":{"prefix":"https:\/\/ss1.4sqi.net\/img\/categories_v2\/food\/cafe_","suffix":".png"},"primary":"true"}],"verified":"false","restricted":"true","stats":{"checkinsCount":"523","usersCount":"424","tipCount":"13"},"specials":{"count":"0"},"hereNow":{"count":"0"},"referralId":"v-1392478013"},{"id":"4b167b7cf964a52091b923e3","name":"Marks & Spencer","contact":{"phone":"+442079357954","formattedPhone":"+44 20 7935 7954"},"location":{"address":"458 Oxford St","lat":"51.514057499429434","lng":"-0.1542806625366211","distance":"105","postalCode":"W1C 1AP","cc":"GB","city":"Marble Arch","state":"Greater London","country":"United Kingdom"},"categories":[{"id":"4bf58dd8d48988d1f6941735","name":"Department Store","pluralName":"Department Stores","shortName":"Department Store","icon":{"prefix":"https:\/\/ss1.4sqi.net\/img\/categories_v2\/shops\/departmentstore_","suffix":".png"},"primary":"true"}],"verified":"true","restricted":"true","stats":{"checkinsCount":"6250","usersCount":"3720","tipCount":"24"},"url":"http:\/\/www.marksandspencer.com","specials":{"count":"0"},"hereNow":{"count":"0"},"storeId":"Marble Arch","referralId":"v-1392478013"},{"id":"4af2e5d9f964a5200de921e3","name":"Brass Rail Salt Beef Bar","contact":{"phone":"+442073183115","formattedPhone":"+44 20 7318 3115"},"location":{"address":"400 Oxford St.","crossStreet":"Inside Selfridges Food Hall","lat":"51.51435127755928","lng":"-0.15380859375","distance":"70","postalCode":"W1C 1AB","cc":"GB","city":"London","state":"Greater London","country":"United Kingdom"},"categories":[{"id":"4bf58dd8d48988d146941735","name":"Deli \/ Bodega","pluralName":"Delis \/ Bodegas","shortName":"Deli \/ Bodega","icon":{"prefix":"https:\/\/ss1.4sqi.net\/img\/categories_v2\/food\/deli_","suffix":".png"},"primary":"true"}],"verified":"false","restricted":"true","stats":{"checkinsCount":"621","usersCount":"477","tipCount":"15"},"specials":{"count":"0"},"hereNow":{"count":"1","groups":[{"type":"others","name":"Other people here","count":"1"}]},"referralId":"v-1392478013"},{"id":"4d6d2119183a236aa4525c3a","name":"Christian Dior","location":{"address":"in Selfridges","crossStreet":"400 Oxford St.","lat":"51.51443139853858","lng":"-0.15282154083251953","distance":"15","postalCode":"W1A 1AB","cc":"GB","city":"London","state":"Greater London","country":"United Kingdom"},"categories":[{"id":"4bf58dd8d48988d1f6941735","name":"Department Store","pluralName":"Department Stores","shortName":"Department Store","icon":{"prefix":"https:\/\/ss1.4sqi.net\/img\/categories_v2\/shops\/departmentstore_","suffix":".png"},"primary":"true"}],"verified":"false","restricted":"true","stats":{"checkinsCount":"83","usersCount":"54","tipCount":"0"},"specials":{"count":"0"},"hereNow":{"count":"0"},"referralId":"v-1392478013"},{"id":"51471134e4b0a40e4f4adb75","name":"The Corner Restaurant & Champagne Bar","location":{"address":"Selfridges & Co","lat":"51.51417046778512","lng":"-0.15385147109139072","distance":"73","postalCode":"W1A 1AB","cc":"GB","city":"London","state":"Greater London","country":"United Kingdom"},"categories":[{"id":"4bf58dd8d48988d16d941735","name":"Caf\u00e9","pluralName":"Caf\u00e9s","shortName":"Caf\u00e9","icon":{"prefix":"https:\/\/ss1.4sqi.net\/img\/categories_v2\/food\/cafe_","suffix":".png"},"primary":"true"}],"verified":"false","restricted":"true","stats":{"checkinsCount":"43","usersCount":"38","tipCount":"2"},"menu":{"type":"Menu","label":"Menu","anchor":"View Menu","url":"https:\/\/foursquare.com\/v\/the-corner-restaurant--champagne-bar\/51471134e4b0a40e4f4adb75\/menu","mobileUrl":"https:\/\/foursquare.com\/v\/51471134e4b0a40e4f4adb75\/device_menu"},"specials":{"count":"0"},"hereNow":{"count":"2","groups":[{"type":"others","name":"Other people here","count":"2"}]},"referralId":"v-1392478013"},{"id":"525c12d9498e426b7c1e2b59","name":"The Selfridges Kitchen","location":{"address":"Selfridges & Co.","crossStreet":"400 oxford st","lat":"51.514414302734146","lng":"-0.1515066437547252","distance":"90","cc":"GB","city":"London","state":"Greater London","country":"United Kingdom"},"categories":[{"id":"4bf58dd8d48988d1c4941735","name":"Restaurant","pluralName":"Restaurants","shortName":"Restaurant","icon":{"prefix":"https:\/\/ss1.4sqi.net\/img\/categories_v2\/food\/default_","suffix":".png"},"primary":"true"}],"verified":"false","restricted":"true","stats":{"checkinsCount":"51","usersCount":"44","tipCount":"0"},"specials":{"count":"0"},"hereNow":{"count":"2","groups":[{"type":"others","name":"Other people here","count":"2"}]},"referralId":"v-1392478013"},{"id":"52ab80f8498e6c2d5f950b13","name":"Godiva","contact":{"phone":"+442073183798","formattedPhone":"+44 20 7318 3798"},"location":{"address":"400 Oxford Street","crossStreet":"Oxford Street","lat":"51.5142052","lng":"-0.1528","distance":"9","postalCode":"W1A 1AB","cc":"GB","city":"London","state":"Greater London","country":"United Kingdom"},"categories":[{"id":"4bf58dd8d48988d128951735","name":"Gift Shop","pluralName":"Gift Shops","shortName":"Gift Shop","icon":{"prefix":"https:\/\/ss1.4sqi.net\/img\/categories_v2\/shops\/giftshop_","suffix":".png"},"primary":"true"}],"verified":"true","restricted":"true","stats":{"checkinsCount":"2","usersCount":"2","tipCount":"0"},"url":"http:\/\/www.godiva.be","specials":{"count":"0"},"hereNow":{"count":"0"},"storeId":"godiva-be_28_en","referralId":"v-1392478013"},{"id":"4bd462419854d13a0573ff4d","name":"Selfridges Food Hall","location":{"address":"400 Oxford St","lat":"51.51465266276434","lng":"-0.15405285945190111","distance":"95","postalCode":"WC","cc":"GB","city":"London","state":"Greater London","country":"United Kingdom"},"categories":[{"id":"4bf58dd8d48988d1f5941735","name":"Gourmet Shop","pluralName":"Gourmet Shops","shortName":"Gourmet","icon":{"prefix":"https:\/\/ss1.4sqi.net\/img\/categories_v2\/shops\/food_gourmet_","suffix":".png"},"primary":"true"}],"verified":"false","restricted":"true","stats":{"checkinsCount":"1547","usersCount":"1035","tipCount":"8"},"specials":{"count":"0"},"hereNow":{"count":"0"},"referralId":"v-1392478013"},{"id":"4c5d85117735c9b690358f72","name":"Christian Louboutin","contact":{"phone":"+442074938882","formattedPhone":"+44 20 7493 8882"},"location":{"address":"in Selfridges","crossStreet":"400 Oxford St.","lat":"51.51422497548911","lng":"-0.15183213322918426","distance":"67","postalCode":"W1A 1AB","cc":"GB","city":"London","state":"Greater London","country":"United Kingdom"},"categories":[{"id":"4bf58dd8d48988d107951735","name":"Shoe Store","pluralName":"Shoe Stores","shortName":"Shoes","icon":{"prefix":"https:\/\/ss1.4sqi.net\/img\/categories_v2\/shops\/apparel_shoestore_","suffix":".png"},"primary":"true"}],"verified":"false","restricted":"true","stats":{"checkinsCount":"487","usersCount":"353","tipCount":"0"},"specials":{"count":"0"},"hereNow":{"count":"0"},"referralId":"v-1392478013"},{"id":"4fbb9cf97beb19fa662165b8","name":"Waterstones","contact":{"phone":"+448432908541","formattedPhone":"+44 843 290 8541","twitter":"waterstones","facebook":"63895785952"},"location":{"address":"421 Oxford St","lat":"51.51407600302163","lng":"-0.1519200946349472","distance":"65","postalCode":"W1C 2PQ","cc":"GB","city":"London","state":"Greater London","country":"United Kingdom"},"categories":[{"id":"4bf58dd8d48988d114951735","name":"Bookstore","pluralName":"Bookstores","shortName":"Bookstore","icon":{"prefix":"https:\/\/ss1.4sqi.net\/img\/categories_v2\/shops\/bookstore_","suffix":".png"},"primary":"true"}],"verified":"true","restricted":"true","stats":{"checkinsCount":"876","usersCount":"703","tipCount":"5"},"url":"http:\/\/www.waterstones.com","specials":{"count":"0"},"hereNow":{"count":"0"},"storeId":"437","referralId":"v-1392478013"},{"id":"4e33e4951f6efba2411b96f4","name":"Pinkberry","contact":{"phone":"+442070000000","formattedPhone":"+44 20 7000 0000"},"location":{"address":"Selfridges","crossStreet":"400 Oxford St.","lat":"51.51463735350149","lng":"-0.1541064073815971","distance":"98","postalCode":"W1","cc":"GB","city":"Maryelbone","state":"Greater London","country":"United Kingdom"},"categories":[{"id":"4bf58dd8d48988d1d0941735","name":"Dessert Shop","pluralName":"Dessert Shops","shortName":"Desserts","icon":{"prefix":"https:\/\/ss1.4sqi.net\/img\/categories_v2\/food\/dessert_","suffix":".png"},"primary":"true"}],"verified":"false","restricted":"true","stats":{"checkinsCount":"2035","usersCount":"1079","tipCount":"17"},"specials":{"count":"0"},"hereNow":{"count":"0"},"referralId":"v-1392478013"},{"id":"4c6191cc69a1c9b6669236a4","name":"Mac","location":{"address":"in Selfridges","crossStreet":"400 Oxford St.","lat":"51.514161026490115","lng":"-0.15286589495154948","distance":"14","postalCode":"W1A 1AB","cc":"GB","city":"London","state":"Greater London","country":"United Kingdom"},"categories":[{"id":"4bf58dd8d48988d10c951735","name":"Cosmetics Shop","pluralName":"Cosmetics Shops","shortName":"Cosmetics","icon":{"prefix":"https:\/\/ss1.4sqi.net\/img\/categories_v2\/shops\/beauty_cosmetic_","suffix":".png"},"primary":"true"}],"verified":"false","restricted":"true","stats":{"checkinsCount":"103","usersCount":"82","tipCount":"1"},"specials":{"count":"0"},"hereNow":{"count":"0"},"referralId":"v-1392478013"},{"id":"4b895770f964a520202d32e3","name":"adidas Store","contact":{"phone":"+442074931886","formattedPhone":"+44 20 7493 1886","twitter":"adidas","facebook":"182162001806727"},"location":{"address":"415-419 Oxford St","lat":"51.51417852543979","lng":"-0.1515246655468048","distance":"89","postalCode":"W1C 2PG","cc":"GB","city":"London","state":"Greater London","country":"United Kingdom"},"categories":[{"id":"4bf58dd8d48988d1f2941735","name":"Sporting Goods Shop","pluralName":"Sporting Goods Shops","shortName":"Sporting Goods","icon":{"prefix":"https:\/\/ss1.4sqi.net\/img\/categories_v2\/shops\/sports_outdoors_","suffix":".png"},"primary":"true"}],"verified":"true","restricted":"true","stats":{"checkinsCount":"1466","usersCount":"1224","tipCount":"7"},"url":"http:\/\/www.adidas.co.uk","specials":{"count":"0"},"hereNow":{"count":"0"},"storeId":"GB11vJ6wQcvhC0qcq6u38_VNWg","referralId":"v-1392478013"},{"id":"503caa42e4b0da8e19a3ca70","name":"Louis Vuitton","contact":{"phone":"+442072976801","formattedPhone":"+44 20 7297 6801","twitter":"louisvuitton"},"location":{"address":"Selfridges Ground Floor, 400 Oxford Street","lat":"51.51402877339381","lng":"-0.15351243489055347","distance":"57","postalCode":"W1A 1AB","cc":"GB","city":"London","state":"Greater London","country":"United Kingdom"},"categories":[{"id":"4bf58dd8d48988d1e2931735","name":"Art Gallery","pluralName":"Art Galleries","shortName":"Art Gallery","icon":{"prefix":"https:\/\/ss1.4sqi.net\/img\/categories_v2\/arts_entertainment\/artgallery_","suffix":".png"},"primary":"true"}],"verified":"true","restricted":"true","stats":{"checkinsCount":"247","usersCount":"216","tipCount":"3"},"specials":{"count":"0"},"hereNow":{"count":"0"},"storeId":"","referralId":"v-1392478013"},{"id":"4b6abb48f964a520f7dd2be3","name":"YO! Sushi","contact":{"phone":"+442073183944","formattedPhone":"+44 20 7318 3944","twitter":"yosushi"},"location":{"address":"Selfridges Food Hall","crossStreet":"400 Oxford St.","lat":"51.514483","lng":"-0.15401657500000002","distance":"86","postalCode":"W1A 1AB","cc":"GB","city":"London","state":"Greater London","country":"United Kingdom"},"categories":[{"id":"4bf58dd8d48988d1d2941735","name":"Sushi Restaurant","pluralName":"Sushi Restaurants","shortName":"Sushi","icon":{"prefix":"https:\/\/ss1.4sqi.net\/img\/categories_v2\/food\/sushi_","suffix":".png"},"primary":"true"}],"verified":"false","restricted":"true","stats":{"checkinsCount":"783","usersCount":"616","tipCount":"10"},"url":"http:\/\/www.yosushi.com","specials":{"count":"0"},"hereNow":{"count":"0"},"referralId":"v-1392478013"},{"id":"4bee67722c082d7f09663042","name":"Starbucks","contact":{"twitter":"starbucksuk"},"location":{"address":"425-427 Oxford St","lat":"51.51395067054886","lng":"-0.1522207260131836","distance":"55","postalCode":"W1C 2PJ","cc":"GB","city":"London","state":"Greater London","country":"United Kingdom"},"categories":[{"id":"4bf58dd8d48988d1e0931735","name":"Coffee Shop","pluralName":"Coffee Shops","shortName":"Coffee Shop","icon":{"prefix":"https:\/\/ss1.4sqi.net\/img\/categories_v2\/food\/coffeeshop_","suffix":".png"},"primary":"true"}],"verified":"true","restricted":"true","stats":{"checkinsCount":"3374","usersCount":"2544","tipCount":"33"},"url":"http:\/\/starbucks.co.uk","menu":{"type":"Menu","label":"Menu","anchor":"View Menu","url":"https:\/\/foursquare.com\/v\/starbucks\/4bee67722c082d7f09663042\/menu","mobileUrl":"https:\/\/foursquare.com\/v\/4bee67722c082d7f09663042\/device_menu"},"specials":{"count":"0"},"hereNow":{"count":"0"},"storeId":"12233","referralId":"v-1392478013"},{"id":"4d00eba9ffcea143dc373091","name":"Aubaine","contact":{"phone":"+442073183738","formattedPhone":"+44 20 7318 3738","twitter":"aubaine_uk"},"location":{"address":"2nd Floor, Selfridges, 400 Oxford St.","lat":"51.51516367640813","lng":"-0.1517825727218162","distance":"120","postalCode":"W1A 1AB","cc":"GB","city":"London","state":"Greater London","country":"United Kingdom"},"categories":[{"id":"4bf58dd8d48988d10c941735","name":"French Restaurant","pluralName":"French Restaurants","shortName":"French","icon":{"prefix":"https:\/\/ss1.4sqi.net\/img\/categories_v2\/food\/french_","suffix":".png"},"primary":"true"}],"verified":"true","restricted":"true","stats":{"checkinsCount":"968","usersCount":"716","tipCount":"19"},"url":"http:\/\/www.aubaine.co.uk","specials":{"count":"0"},"hereNow":{"count":"0"},"storeId":"","referralId":"v-1392478013"},{"id":"4c9c94e49975a143b32833cf","name":"The Shoe Galleries","location":{"address":"in Selfridges","crossStreet":"400 Oxford St.","lat":"51.51511448456289","lng":"-0.1521182369610307","distance":"103","postalCode":"W1A 1AB","cc":"GB","city":"London","state":"Greater London","country":"United Kingdom"},"categories":[{"id":"4bf58dd8d48988d107951735","name":"Shoe Store","pluralName":"Shoe Stores","shortName":"Shoes","icon":{"prefix":"https:\/\/ss1.4sqi.net\/img\/categories_v2\/shops\/apparel_shoestore_","suffix":".png"},"primary":"true"}],"verified":"false","restricted":"true","stats":{"checkinsCount":"804","usersCount":"536","tipCount":"3"},"specials":{"count":"0"},"hereNow":{"count":"0"},"referralId":"v-1392478013"},{"id":"5187849b498e26a61e8242af","name":"Harry Gordon's Bar","location":{"address":"Selfridges (400 Oxford St)","lat":"51.51429388147987","lng":"-0.15226700534439333","distance":"37","cc":"GB","city":"London","state":"Greater London","country":"United Kingdom"},"categories":[{"id":"4bf58dd8d48988d116941735","name":"Bar","pluralName":"Bars","shortName":"Bar","icon":{"prefix":"https:\/\/ss1.4sqi.net\/img\/categories_v2\/nightlife\/bar_","suffix":".png"},"primary":"true"}],"verified":"false","restricted":"true","stats":{"checkinsCount":"51","usersCount":"48","tipCount":"0"},"specials":{"count":"0"},"hereNow":{"count":"0"},"referralId":"v-1392478013"},{"id":"4cb73767304576b02968b0c2","name":"Apres","contact":{"phone":"+442072243452","formattedPhone":"+44 20 7224 3452","twitter":"apreslondon"},"location":{"address":"31 Duke St","lat":"51.51517934311318","lng":"-0.15170852128917514","distance":"124","postalCode":"W1U 1LG","cc":"GB","city":"London","state":"Greater London","country":"United Kingdom"},"categories":[{"id":"4bf58dd8d48988d11e941735","name":"Cocktail Bar","pluralName":"Cocktail Bars","shortName":"Cocktail","icon":{"prefix":"https:\/\/ss1.4sqi.net\/img\/categories_v2\/nightlife\/cocktails_","suffix":".png"},"primary":"true"}],"verified":"true","restricted":"true","stats":{"checkinsCount":"979","usersCount":"597","tipCount":"13"},"url":"http:\/\/www.apres-london.com","menu":{"type":"Menu","label":"Menu","anchor":"View Menu","url":"https:\/\/foursquare.com\/v\/apres\/4cb73767304576b02968b0c2\/menu","mobileUrl":"https:\/\/foursquare.com\/v\/4cb73767304576b02968b0c2\/device_menu"},"specials":{"count":"0"},"hereNow":{"count":"0"},"venuePage":{"id":"36096925"},"storeId":"","referralId":"v-1392478013"},{"id":"4dadd23e4df0522cc562c3d0","name":"Blink","contact":{"facebook":"102536933141900"},"location":{"address":"in Selfridges","crossStreet":"400 Oxford St.","lat":"51.514217742280586","lng":"-0.15260696411132812","distance":"15","postalCode":"W1A 1AB","cc":"GB","city":"London","state":"Greater London","country":"United Kingdom"},"categories":[{"id":"4bf58dd8d48988d110951735","name":"Salon \/ Barbershop","pluralName":"Salons \/ Barbershops","shortName":"Salon \/ Barbershop","icon":{"prefix":"https:\/\/ss1.4sqi.net\/img\/categories_v2\/shops\/salon_barber_","suffix":".png"},"primary":"true"}],"verified":"true","restricted":"true","stats":{"checkinsCount":"77","usersCount":"44","tipCount":"0"},"specials":{"count":"0"},"hereNow":{"count":"0"},"venuePage":{"id":"36095787"},"storeId":"","referralId":"v-1392478013"},{"id":"4b6ef00df964a5200bd22ce3","name":"French Connection","contact":{"phone":"+442076297766","formattedPhone":"+44 20 7629 7766","twitter":"fcuk"},"location":{"address":"396 Oxford St","lat":"51.51424444936763","lng":"-0.1513516902923584","distance":"100","postalCode":"W1C 1JX","cc":"GB","city":"Marylebone","state":"Greater London","country":"United Kingdom"},"categories":[{"id":"4bf58dd8d48988d103951735","name":"Clothing Store","pluralName":"Clothing Stores","shortName":"Apparel","icon":{"prefix":"https:\/\/ss1.4sqi.net\/img\/categories_v2\/shops\/apparel_","suffix":".png"},"primary":"true"}],"verified":"false","restricted":"true","stats":{"checkinsCount":"758","usersCount":"626","tipCount":"5"},"url":"http:\/\/www.frenchconnection.com","specials":{"count":"0"},"hereNow":{"count":"0"},"referralId":"v-1392478013"},{"id":"4c751116db52b1f7cd9a77dc","name":"H&M","contact":{"phone":"+448447369000","formattedPhone":"+44 844 736 9000","twitter":"hmunitedkingdom"},"location":{"address":"400 Oxford St","crossStreet":"Selfridges","lat":"51.51424444936763","lng":"-0.15357255935668945","distance":"53","postalCode":"W1A 1AB","cc":"GB","city":"London","state":"Greater London","country":"United Kingdom"},"categories":[{"id":"4bf58dd8d48988d103951735","name":"Clothing Store","pluralName":"Clothing Stores","shortName":"Apparel","icon":{"prefix":"https:\/\/ss1.4sqi.net\/img\/categories_v2\/shops\/apparel_","suffix":".png"},"primary":"true"}],"verified":"false","restricted":"true","stats":{"checkinsCount":"236","usersCount":"197","tipCount":"0"},"url":"http:\/\/www.hm.com","specials":{"count":"0"},"hereNow":{"count":"0"},"referralId":"v-1392478013"},{"id":"4ba61e1ef964a520dd3439e3","name":"Hix Restaurant & Champagne Bar","contact":{"phone":"+442074995400","formattedPhone":"+44 20 7499 5400","twitter":"hixrestaurants"},"location":{"address":"Selfridges","crossStreet":"400 Oxford St.","lat":"51.51431","lng":"-0.151519","distance":"88","postalCode":"W1A 1AB","cc":"GB","city":"Marylebone","state":"Greater London","country":"United Kingdom"},"categories":[{"id":"4bf58dd8d48988d1c4941735","name":"Restaurant","pluralName":"Restaurants","shortName":"Restaurant","icon":{"prefix":"https:\/\/ss1.4sqi.net\/img\/categories_v2\/food\/default_","suffix":".png"},"primary":"true"}],"verified":"false","restricted":"true","stats":{"checkinsCount":"715","usersCount":"586","tipCount":"7"},"menu":{"type":"Menu","label":"Menu","anchor":"View Menu","url":"https:\/\/foursquare.com\/v\/hix-restaurant--champagne-bar\/4ba61e1ef964a520dd3439e3\/menu","mobileUrl":"https:\/\/foursquare.com\/v\/4ba61e1ef964a520dd3439e3\/device_menu"},"specials":{"count":"0"},"hereNow":{"count":"0"},"referralId":"v-1392478013"},{"id":"52ecf034498e20d60bd7de6f","name":"Selfridges Imaginarium","location":{"lat":"51.514128","lng":"-0.152441","distance":"30","cc":"GB","country":"United Kingdom"},"categories":[{"id":"5267e4d9e4b0ec79466e48c7","name":"Festival","pluralName":"Festivals","shortName":"Festival","icon":{"prefix":"https:\/\/ss1.4sqi.net\/img\/categories_v2\/event\/default_","suffix":".png"},"primary":"true"}],"verified":"false","restricted":"true","stats":{"checkinsCount":"2","usersCount":"2","tipCount":"0"},"specials":{"count":"0"},"hereNow":{"count":"0"},"referralId":"v-1392478013"}],"confident":"true"}}