{"meta":{"code":"200"},"response":{"venues":[{"id":"4ac518d2f964a52026a720e3","name":"Hyde Park","location":{"address":"Serpentine Rd","lat":"51.50849","lng":"-0.167862","distance":"89","postalCode":"W2 2TP","cc":"GB","city":"London","state":"Greater London","country":"United Kingdom"},"categories":[{"id":"4bf58dd8d48988d163941735","name":"Park","pluralName":"Parks","shortName":"Park","icon":{"prefix":"https:\/\/ss1.4sqi.net\/img\/categories_v2\/parks_outdoors\/park_","suffix":".png"},"primary":"true"}],"verified":"false","restricted":"true","stats":{"checkinsCount":"51896","usersCount":"31326","tipCount":"281"},"specials":{"count":"0"},"hereNow":{"count":"9","groups":[{"type":"others","name":"Other people here","count":"9"}]},"storeId":"","referralId":"v-1392478025"},{"id":"4bf925ddabdaef3ba4d0a184","name":"The Serpentine","contact":{"phone":"+443000612000","formattedPhone":"+44 300 061 2000","twitter":"rpfoundation"},"location":{"address":"Serpentine Rd","crossStreet":"at Hyde Park","lat":"51.505223240223344","lng":"-0.16741275787353516","distance":"453","postalCode":"W2 2UH","cc":"GB","city":"London","state":"Greater London","country":"United Kingdom"},"categories":[{"id":"4bf58dd8d48988d161941735","name":"Lake","pluralName":"Lakes","shortName":"Lake","icon":{"prefix":"https:\/\/ss1.4sqi.net\/img\/categories_v2\/parks_outdoors\/lake_","suffix":".png"},"primary":"true"}],"verified":"false","restricted":"true","stats":{"checkinsCount":"3772","usersCount":"2991","tipCount":"36"},"url":"http:\/\/www.royalparks.org.uk\/parks\/hyde-park","specials":{"count":"0"},"hereNow":{"count":"0"},"referralId":"v-1392478025"},{"id":"4c30b6183896e21eb8e8e590","name":"Diana, Princess of Wales Memorial Fountain","location":{"address":"The Old Police Hse","crossStreet":"Hyde Park","lat":"51.50456210431835","lng":"-0.1714789867401123","distance":"584","postalCode":"W2 2UH","cc":"GB","city":"London","state":"Greater London","country":"United Kingdom"},"categories":[{"id":"4bf58dd8d48988d12d941735","name":"Monument \/ Landmark","pluralName":"Monuments \/ Landmarks","shortName":"Landmark","icon":{"prefix":"https:\/\/ss1.4sqi.net\/img\/categories_v2\/building\/government_monument_","suffix":".png"},"primary":"true"}],"verified":"false","restricted":"true","stats":{"checkinsCount":"2584","usersCount":"2041","tipCount":"9"},"specials":{"count":"0"},"hereNow":{"count":"0"},"referralId":"v-1392478025"},{"id":"4f9e78d4e4b0606431023f10","name":"Serpentine Sackler Gallery","contact":{"phone":"+442074026075","formattedPhone":"+44 20 7402 6075"},"location":{"address":"West Carriage Drive","lat":"51.50703751683369","lng":"-0.17151300628909863","distance":"359","postalCode":"W2 2AR","cc":"GB","city":"London","state":"Greater London","country":"United Kingdom"},"categories":[{"id":"4bf58dd8d48988d1e2931735","name":"Art Gallery","pluralName":"Art Galleries","shortName":"Art Gallery","icon":{"prefix":"https:\/\/ss1.4sqi.net\/img\/categories_v2\/arts_entertainment\/artgallery_","suffix":".png"},"primary":"true"}],"verified":"false","restricted":"true","stats":{"checkinsCount":"454","usersCount":"381","tipCount":"10"},"url":"http:\/\/www.serpentinegalleries.org","specials":{"count":"0"},"hereNow":{"count":"0"},"referralId":"v-1392478025"},{"id":"4bd31b92caff952119ffd3f0","name":"Serpentine Bridge","location":{"address":"The Serpentine","lat":"51.50615816351301","lng":"-0.17261624336242676","distance":"482","postalCode":"2UH 2UH","cc":"GB","city":"London","state":"Greater London","country":"United Kingdom"},"categories":[{"id":"4bf58dd8d48988d1df941735","name":"Bridge","pluralName":"Bridges","shortName":"Bridge","icon":{"prefix":"https:\/\/ss1.4sqi.net\/img\/categories_v2\/parks_outdoors\/bridge_","suffix":".png"},"primary":"true"}],"verified":"false","restricted":"true","stats":{"checkinsCount":"1036","usersCount":"507","tipCount":"1"},"specials":{"count":"0"},"hereNow":{"count":"0"},"referralId":"v-1392478025"},{"id":"4b892b07f964a520922032e3","name":"Lido Cafe","location":{"address":"Hyde Park","lat":"51.504822618757885","lng":"-0.16962071656929548","distance":"512","cc":"GB","city":"London","state":"Greater London","country":"United Kingdom"},"categories":[{"id":"4bf58dd8d48988d16d941735","name":"Caf\u00e9","pluralName":"Caf\u00e9s","shortName":"Caf\u00e9","icon":{"prefix":"https:\/\/ss1.4sqi.net\/img\/categories_v2\/food\/cafe_","suffix":".png"},"primary":"true"}],"verified":"false","restricted":"true","stats":{"checkinsCount":"1257","usersCount":"1082","tipCount":"30"},"specials":{"count":"0"},"hereNow":{"count":"0"},"referralId":"v-1392478025"},{"id":"4f0d480fe4b03544974d26ac","name":"The Magazine","contact":{"phone":"+442072987541","formattedPhone":"+44 20 7298 7541"},"location":{"address":"West Carriage Drive, Hyde Park","lat":"51.50692826498451","lng":"-0.1724619154021758","distance":"416","postalCode":"W2 2AR","cc":"GB","city":"London","state":"Greater London","country":"United Kingdom"},"categories":[{"id":"4bf58dd8d48988d1c4941735","name":"Restaurant","pluralName":"Restaurants","shortName":"Restaurant","icon":{"prefix":"https:\/\/ss1.4sqi.net\/img\/categories_v2\/food\/default_","suffix":".png"},"primary":"true"}],"verified":"false","restricted":"true","stats":{"checkinsCount":"190","usersCount":"69","tipCount":"2"},"url":"http:\/\/www.magazine-restaurant.co.uk","specials":{"count":"0"},"hereNow":{"count":"0"},"referralId":"v-1392478025"},{"id":"4cfae5d1c6cca35d67448932","name":"Albion Gate","location":{"address":"Hyde Pk.","lat":"51.51250368550415","lng":"-0.16688557324176556","distance":"363","cc":"GB","city":"London","state":"Greater London","country":"United Kingdom"},"categories":[{"id":"4bf58dd8d48988d130941735","name":"Building","pluralName":"Buildings","shortName":"Building","icon":{"prefix":"https:\/\/ss1.4sqi.net\/img\/categories_v2\/building\/default_","suffix":".png"},"primary":"true"}],"verified":"false","restricted":"true","stats":{"checkinsCount":"271","usersCount":"75","tipCount":"0"},"specials":{"count":"0"},"hereNow":{"count":"0"},"referralId":"v-1392478025"},{"id":"4bcfeb3b41b9ef3b3757f9e5","name":"Connaught Square","location":{"address":"Connaught Sq.","lat":"51.51450320015944","lng":"-0.16432144062663553","distance":"628","postalCode":"W2 2","cc":"GB","city":"Paddington","state":"Greater London","country":"United Kingdom"},"categories":[{"id":"4bf58dd8d48988d15a941735","name":"Garden","pluralName":"Gardens","shortName":"Garden","icon":{"prefix":"https:\/\/ss1.4sqi.net\/img\/categories_v2\/parks_outdoors\/garden_","suffix":".png"},"primary":"true"}],"verified":"false","restricted":"true","stats":{"checkinsCount":"586","usersCount":"144","tipCount":"4"},"specials":{"count":"0"},"hereNow":{"count":"0"},"referralId":"v-1392478025"},{"id":"4b69ead9f964a52007bc2be3","name":"Colbeh Restaurant","location":{"address":"6 Porchester Pl.","lat":"51.51482254950908","lng":"-0.16511257171152832","distance":"643","postalCode":"W2 2BS","cc":"GB","city":"Paddington","state":"Greater London","country":"United Kingdom"},"categories":[{"id":"4bf58dd8d48988d115941735","name":"Middle Eastern Restaurant","pluralName":"Middle Eastern Restaurants","shortName":"Middle Eastern","icon":{"prefix":"https:\/\/ss1.4sqi.net\/img\/categories_v2\/food\/default_","suffix":".png"},"primary":"true"}],"verified":"false","restricted":"true","stats":{"checkinsCount":"522","usersCount":"362","tipCount":"24"},"specials":{"count":"0"},"hereNow":{"count":"0"},"referralId":"v-1392478025"},{"id":"4b867384f964a520aa8a31e3","name":"Cocomaya","contact":{"phone":"+442077062770","formattedPhone":"+44 20 7706 2770"},"location":{"address":"35 Connaught St","lat":"51.51475","lng":"-0.165159","distance":"634","postalCode":"W2 2az","cc":"GB","city":"Paddington","state":"Greater London","country":"United Kingdom"},"categories":[{"id":"4bf58dd8d48988d16a941735","name":"Bakery","pluralName":"Bakeries","shortName":"Bakery","icon":{"prefix":"https:\/\/ss1.4sqi.net\/img\/categories_v2\/food\/bakery_","suffix":".png"},"primary":"true"}],"verified":"false","restricted":"true","stats":{"checkinsCount":"502","usersCount":"283","tipCount":"16"},"specials":{"count":"0"},"hereNow":{"count":"0"},"referralId":"v-1392478025"},{"id":"4f450c7fe4b025d843e8a99b","name":"Le Pain Quotidien","contact":{"phone":"+442074866154","formattedPhone":"+44 20 7486 6154"},"location":{"address":"30-31 Kendal St.","lat":"51.51437847539266","lng":"-0.1669890395460027","distance":"569","postalCode":"W2 2AW","cc":"GB","city":"London","state":"Greater London","country":"United Kingdom"},"categories":[{"id":"4bf58dd8d48988d16d941735","name":"Caf\u00e9","pluralName":"Caf\u00e9s","shortName":"Caf\u00e9","icon":{"prefix":"https:\/\/ss1.4sqi.net\/img\/categories_v2\/food\/cafe_","suffix":".png"},"primary":"true"}],"verified":"false","restricted":"true","stats":{"checkinsCount":"462","usersCount":"250","tipCount":"6"},"specials":{"count":"0"},"hereNow":{"count":"0"},"referralId":"v-1392478025"},{"id":"4bd3378acaff9521ea4fd4f0","name":"TfL Bus 148","location":{"address":"Moving Target!","lat":"51.51184074882071","lng":"-0.16805648803710938","distance":"284","cc":"GB","city":"London","state":"Greater London","country":"United Kingdom"},"categories":[{"id":"4bf58dd8d48988d12b951735","name":"Bus Line","pluralName":"Bus Lines","shortName":"Bus","icon":{"prefix":"https:\/\/ss1.4sqi.net\/img\/categories_v2\/travel\/busstation_","suffix":".png"},"primary":"true"}],"verified":"false","restricted":"true","stats":{"checkinsCount":"517","usersCount":"192","tipCount":"1"},"specials":{"count":"0"},"hereNow":{"count":"0"},"referralId":"v-1392478025"},{"id":"51ceb57d498ed8dfb6bdad7e","name":"Ealing Park","location":{"lat":"51.50927311992818","lng":"-0.16553362604754898","distance":"157","cc":"GB","country":"United Kingdom"},"verified":"false","restricted":"true","stats":{"checkinsCount":"1","usersCount":"1","tipCount":"0"},"specials":{"count":"0"},"hereNow":{"count":"0"},"referralId":"v-1392478025"},{"id":"52485482498e17fa18adc1a0","name":"Pardis Shisha Garden","location":{"address":"29 Connaught Street","lat":"51.51426760059494","lng":"-0.16552858407972976","distance":"576","cc":"GB","city":"London","state":"Greater London","country":"United Kingdom"},"categories":[{"id":"4bf58dd8d48988d119941735","name":"Hookah Bar","pluralName":"Hookah Bars","shortName":"Hookah Bar","icon":{"prefix":"https:\/\/ss1.4sqi.net\/img\/categories_v2\/nightlife\/hookahbar_","suffix":".png"},"primary":"true"}],"verified":"false","restricted":"true","stats":{"checkinsCount":"85","usersCount":"33","tipCount":"0"},"specials":{"count":"0"},"hereNow":{"count":"0"},"referralId":"v-1392478025"},{"id":"4bd1ec059854d13a1189fa4d","name":"Duke of Kendal","location":{"address":"38 Connaught St.","lat":"51.5145946391238","lng":"-0.16628968157516746","distance":"599","postalCode":"W2 2AF","cc":"GB","city":"City of Westminster","state":"Greater London","country":"United Kingdom"},"categories":[{"id":"4bf58dd8d48988d11b941735","name":"Pub","pluralName":"Pubs","shortName":"Pub","icon":{"prefix":"https:\/\/ss1.4sqi.net\/img\/categories_v2\/nightlife\/pub_","suffix":".png"},"primary":"true"}],"verified":"false","restricted":"true","stats":{"checkinsCount":"537","usersCount":"342","tipCount":"10"},"url":"http:\/\/dukeofkendal.tripod.com","specials":{"count":"0"},"hereNow":{"count":"0"},"referralId":"v-1392478025"},{"id":"52cfe4be11d21771d68b2c17","name":"Old Trafford Stadium","location":{"address":"Sir Mat Busby Way","lat":"51.506572","lng":"-0.166487","distance":"315","cc":"GB","country":"United Kingdom"},"categories":[{"id":"4bf58dd8d48988d188941735","name":"Soccer Stadium","pluralName":"Soccer Stadiums","shortName":"Soccer","icon":{"prefix":"https:\/\/ss1.4sqi.net\/img\/categories_v2\/arts_entertainment\/stadium_soccer_","suffix":".png"},"primary":"true"}],"verified":"false","restricted":"true","stats":{"checkinsCount":"3","usersCount":"3","tipCount":"0"},"specials":{"count":"0"},"hereNow":{"count":"0"},"referralId":"v-1392478025"},{"id":"4faf99dfe4b0f4503aa61b96","name":"The Allotment In Kensington Gardens","location":{"lat":"51.50779695302524","lng":"-0.1712595253597621","distance":"291","cc":"GB","country":"United Kingdom"},"categories":[{"id":"4bf58dd8d48988d15a941735","name":"Garden","pluralName":"Gardens","shortName":"Garden","icon":{"prefix":"https:\/\/ss1.4sqi.net\/img\/categories_v2\/parks_outdoors\/garden_","suffix":".png"},"primary":"true"}],"verified":"false","restricted":"true","stats":{"checkinsCount":"24","usersCount":"6","tipCount":"0"},"specials":{"count":"0"},"hereNow":{"count":"0"},"referralId":"v-1392478025"},{"id":"4fffe501e4b014305fe5cf68","name":"Henry Moore's Travertine Arch","location":{"address":"Hyde Park","lat":"51.507681351146054","lng":"-0.17302240875638902","distance":"403","cc":"GB","country":"United Kingdom"},"categories":[{"id":"4bf58dd8d48988d166941735","name":"Sculpture Garden","pluralName":"Sculpture Gardens","shortName":"Sculpture","icon":{"prefix":"https:\/\/ss1.4sqi.net\/img\/categories_v2\/parks_outdoors\/sculpture_","suffix":".png"},"primary":"true"}],"verified":"false","restricted":"true","stats":{"checkinsCount":"51","usersCount":"26","tipCount":"0"},"specials":{"count":"0"},"hereNow":{"count":"0"},"referralId":"v-1392478025"},{"id":"52001bdf498e0959bb386b18","name":"Tuk Tuk Thai Oriental Noodle Bar","location":{"address":"54 London W2 3RY","crossStreet":"Queensway","lat":"51.512123446586564","lng":"-0.1689797122060508","distance":"325","cc":"GB","country":"United Kingdom"},"categories":[{"id":"4bf58dd8d48988d149941735","name":"Thai Restaurant","pluralName":"Thai Restaurants","shortName":"Thai","icon":{"prefix":"https:\/\/ss1.4sqi.net\/img\/categories_v2\/food\/thai_","suffix":".png"},"primary":"true"}],"verified":"false","restricted":"true","stats":{"checkinsCount":"18","usersCount":"15","tipCount":"1"},"specials":{"count":"0"},"hereNow":{"count":"0"},"referralId":"v-1392478025"},{"id":"4fa559d3e4b089a95a441dab","name":"WH Hudson Bird Sanctuary","location":{"address":"at Hyde Park","lat":"51.508349465728024","lng":"-0.1685672183034418","distance":"117","cc":"GB","city":"London","state":"Greater London","country":"United Kingdom"},"categories":[{"id":"4bf58dd8d48988d166941735","name":"Sculpture Garden","pluralName":"Sculpture Gardens","shortName":"Sculpture","icon":{"prefix":"https:\/\/ss1.4sqi.net\/img\/categories_v2\/parks_outdoors\/sculpture_","suffix":".png"},"primary":"true"}],"verified":"false","restricted":"true","stats":{"checkinsCount":"12","usersCount":"5","tipCount":"0"},"specials":{"count":"0"},"hereNow":{"count":"0"},"referralId":"v-1392478025"},{"id":"522ef5cb11d23a0e89c09c67","name":"PruHealth World Triathlon London Grand Final and World Championships","contact":{"twitter":"worldtrilondon"},"location":{"lat":"51.5063221881432","lng":"-0.16737083291034457","distance":"331","cc":"GB","country":"United Kingdom"},"categories":[{"id":"4bf58dd8d48988d1f4931735","name":"Racetrack","pluralName":"Racetracks","shortName":"Racetrack","icon":{"prefix":"https:\/\/ss1.4sqi.net\/img\/categories_v2\/arts_entertainment\/racetrack_","suffix":".png"},"primary":"true"}],"verified":"false","restricted":"true","stats":{"checkinsCount":"78","usersCount":"58","tipCount":"0"},"url":"http:\/\/london.triathlon.org","specials":{"count":"0"},"hereNow":{"count":"0"},"referralId":"v-1392478025"},{"id":"513e72dce4b07f4fa16c3aad","name":"\u0627\u0644\u063a\u0631\u0641\u0647 \u0627\u0644\u0627\u0646\u062c\u0644\u064a\u0632\u064a\u0647","location":{"lat":"51.50861","lng":"-0.169159","distance":"120","cc":"GB","country":"United Kingdom"},"categories":[{"id":"4bf58dd8d48988d11f941735","name":"Nightclub","pluralName":"Nightclubs","shortName":"Nightclub","icon":{"prefix":"https:\/\/ss1.4sqi.net\/img\/categories_v2\/nightlife\/nightclub_","suffix":".png"},"primary":"true"}],"verified":"false","restricted":"true","stats":{"checkinsCount":"0","usersCount":"0","tipCount":"0"},"specials":{"count":"0"},"hereNow":{"count":"0"},"referralId":"v-1392478025"},{"id":"52da60a4498e599e1630a234","name":"@MarinePhys, Hyde Park","location":{"lat":"51.506249","lng":"-0.169947","distance":"369","cc":"GB","country":"United Kingdom"},"categories":[{"id":"4f4528bc4b90abdf24c9de85","name":"Athletics & Sports","pluralName":"Athletics & Sports","shortName":"Athletics & Sports","icon":{"prefix":"https:\/\/ss1.4sqi.net\/img\/categories_v2\/shops\/sports_outdoors_","suffix":".png"},"primary":"true"}],"verified":"false","restricted":"true","stats":{"checkinsCount":"4","usersCount":"1","tipCount":"0"},"specials":{"count":"0"},"hereNow":{"count":"0"},"referralId":"v-1392478025"},{"id":"4fa95133e4b09ce165945802","name":"Isis","location":{"address":"Hyde Park","lat":"51.50516320781466","lng":"-0.17157676009352707","distance":"528","cc":"GB","city":"London","state":"Greater London","country":"United Kingdom"},"categories":[{"id":"52e81612bcbc57f1066b79ed","name":"Outdoor Sculpture","pluralName":"Outdoor Sculptures","shortName":"Outdoor Sculpture","icon":{"prefix":"https:\/\/ss1.4sqi.net\/img\/categories_v2\/parks_outdoors\/sculpture_","suffix":".png"},"primary":"true"}],"verified":"false","restricted":"true","stats":{"checkinsCount":"102","usersCount":"80","tipCount":"0"},"specials":{"count":"0"},"hereNow":{"count":"0"},"referralId":"v-1392478025"},{"id":"4bc78b5593bdeee1a37f37ae","name":"Griffin House Hotel","location":{"address":"10 Connaught St.","lat":"51.514828","lng":"-0.164849","distance":"649","cc":"GB","city":"London","state":"Greater London","country":"United Kingdom"},"categories":[{"id":"4bf58dd8d48988d1fa931735","name":"Hotel","pluralName":"Hotels","shortName":"Hotel","icon":{"prefix":"https:\/\/ss1.4sqi.net\/img\/categories_v2\/travel\/hotel_","suffix":".png"},"primary":"true"}],"verified":"false","restricted":"true","stats":{"checkinsCount":"130","usersCount":"57","tipCount":"4"},"specials":{"count":"0"},"hereNow":{"count":"0"},"referralId":"v-1392478025"},{"id":"4ebfcf728231b62f425d9070","name":"Pardis Restaurant","contact":{"phone":"+442074028933","formattedPhone":"+44 20 7402 8933"},"location":{"address":"29 Connaught Street","lat":"51.514508195519944","lng":"-0.1655873339684042","distance":"600","postalCode":"W22AY","cc":"GB","city":"London","state":"Greater London","country":"United Kingdom"},"categories":[{"id":"4bf58dd8d48988d115941735","name":"Middle Eastern Restaurant","pluralName":"Middle Eastern Restaurants","shortName":"Middle Eastern","icon":{"prefix":"https:\/\/ss1.4sqi.net\/img\/categories_v2\/food\/default_","suffix":".png"},"primary":"true"}],"verified":"false","restricted":"true","stats":{"checkinsCount":"242","usersCount":"144","tipCount":"5"},"specials":{"count":"0"},"hereNow":{"count":"0"},"referralId":"v-1392478025"},{"id":"52d532d1498ed305989d1ccd","name":"Lunch @ Hyde Park","location":{"lat":"51.506048","lng":"-0.169341","distance":"376","cc":"GB","country":"United Kingdom"},"categories":[{"id":"4bf58dd8d48988d128941735","name":"Cafeteria","pluralName":"Cafeterias","shortName":"Cafeteria","icon":{"prefix":"https:\/\/ss1.4sqi.net\/img\/categories_v2\/food\/cafeteria_","suffix":".png"},"primary":"true"}],"verified":"false","restricted":"true","stats":{"checkinsCount":"1","usersCount":"1","tipCount":"0"},"specials":{"count":"0"},"hereNow":{"count":"0"},"referralId":"v-1392478025"},{"id":"4fcceac1e4b07d10e1b5cc70","name":"Serpentine Swimming Club","contact":{"phone":"+447941846566","formattedPhone":"+44 7941 846566","twitter":"serpsswimclub"},"location":{"address":"The Serpentine","crossStreet":"Hyde Park","lat":"51.50475625305392","lng":"-0.16937930755490577","distance":"516","postalCode":"W2 2UH","cc":"GB","city":"London","state":"Greater London","country":"United Kingdom"},"categories":[{"id":"4bf58dd8d48988d15e941735","name":"Pool","pluralName":"Pools","shortName":"Pool","icon":{"prefix":"https:\/\/ss1.4sqi.net\/img\/categories_v2\/parks_outdoors\/pool_","suffix":".png"},"primary":"true"}],"verified":"false","restricted":"true","stats":{"checkinsCount":"227","usersCount":"93","tipCount":"4"},"url":"http:\/\/www.serpentineswimmingclub.com","specials":{"count":"0"},"hereNow":{"count":"0"},"referralId":"v-1392478025"},{"id":"521e1b2811d243e1d10a5238","name":"Afternoon Tea - Park Room","location":{"address":"Grovner Hotel","crossStreet":"Park Lane","lat":"51.508624","lng":"-0.16006","distance":"541","cc":"GB","city":"London","state":"Greater London","country":"United Kingdom"},"categories":[{"id":"4bf58dd8d48988d16d941735","name":"Caf\u00e9","pluralName":"Caf\u00e9s","shortName":"Caf\u00e9","icon":{"prefix":"https:\/\/ss1.4sqi.net\/img\/categories_v2\/food\/cafe_","suffix":".png"},"primary":"true"}],"verified":"false","restricted":"true","stats":{"checkinsCount":"5","usersCount":"5","tipCount":"0"},"specials":{"count":"0"},"hereNow":{"count":"0"},"referralId":"v-1392478025"}],"confident":"true"}}