{"meta":{"code":"200"},"response":{"venues":[{"id":"4ac518ebf964a52036ac20e3","name":"Conway Hall","contact":{"phone":"+442074051818","formattedPhone":"+44 20 7405 1818","twitter":"conwayhall"},"location":{"address":"25 Red Lion Square","lat":"51.5196122559892","lng":"-0.1184248924255371","distance":"56","postalCode":"WC1R 4RL","cc":"GB","city":"London","state":"Greater London","country":"United Kingdom"},"categories":[{"id":"4bf58dd8d48988d1f1931735","name":"General Entertainment","pluralName":"General Entertainment","shortName":"Entertainment","icon":{"prefix":"https:\/\/ss1.4sqi.net\/img\/categories_v2\/arts_entertainment\/default_","suffix":".png"},"primary":"true"}],"verified":"true","restricted":"true","stats":{"checkinsCount":"1528","usersCount":"999","tipCount":"12"},"url":"http:\/\/www.conwayhall.org.uk","specials":{"count":"0"},"hereNow":{"count":"0"},"venuePage":{"id":"53579081"},"storeId":"","referralId":"v-1392478004"},{"id":"505a370de4b034c534cd8d67","name":"Eat Tokyo","contact":{"phone":"+442072423490","formattedPhone":"+44 20 7242 3490"},"location":{"address":"50 Red Lion St","lat":"51.519817","lng":"-0.117533","distance":"61","postalCode":"WC1R 4PF","cc":"GB","city":"London","state":"Greater London","country":"United Kingdom"},"categories":[{"id":"4bf58dd8d48988d111941735","name":"Japanese Restaurant","pluralName":"Japanese Restaurants","shortName":"Japanese","icon":{"prefix":"https:\/\/ss1.4sqi.net\/img\/categories_v2\/food\/japanese_","suffix":".png"},"primary":"true"}],"verified":"false","restricted":"true","stats":{"checkinsCount":"355","usersCount":"229","tipCount":"11"},"specials":{"count":"0"},"hereNow":{"count":"0"},"referralId":"v-1392478004"},{"id":"4f9a96a9e4b033dc2989932e","name":"The Bull Steak Expert","contact":{"phone":"+442072420708","formattedPhone":"+44 20 7242 0708","twitter":"thebullsteakexp"},"location":{"address":"54 Red Lion St.","lat":"51.519566787052234","lng":"-0.11724758099914573","distance":"49","postalCode":"WC1R 4PD","cc":"GB","city":"London","state":"Greater London","country":"United Kingdom"},"categories":[{"id":"4bf58dd8d48988d107941735","name":"Argentinian Restaurant","pluralName":"Argentinian Restaurants","shortName":"Argentinian","icon":{"prefix":"https:\/\/ss1.4sqi.net\/img\/categories_v2\/food\/argentinian_","suffix":".png"},"primary":"true"}],"verified":"false","restricted":"true","stats":{"checkinsCount":"161","usersCount":"113","tipCount":"7"},"url":"http:\/\/www.thebullsteakexpert.com","reservations":{"url":"http:\/\/www.toptable.co.uk\/single.aspx?rid=87478&ref=9601"},"menu":{"type":"Menu","label":"Menu","anchor":"View Menu","url":"https:\/\/foursquare.com\/v\/the-bull-steak-expert\/4f9a96a9e4b033dc2989932e\/menu","mobileUrl":"https:\/\/foursquare.com\/v\/4f9a96a9e4b033dc2989932e\/device_menu"},"specials":{"count":"0"},"hereNow":{"count":"0"},"referralId":"v-1392478004"},{"id":"4bc9cdc0fb84c9b6509d1b3e","name":"Red Lion Square Gardens","location":{"address":"Red Lion Square","lat":"51.519196","lng":"-0.118827223777771","distance":"71","postalCode":"WC1","cc":"GB","city":"London","state":"Greater London","country":"United Kingdom"},"categories":[{"id":"4bf58dd8d48988d164941735","name":"Plaza","pluralName":"Plazas","shortName":"Plaza","icon":{"prefix":"https:\/\/ss1.4sqi.net\/img\/categories_v2\/parks_outdoors\/plaza_","suffix":".png"},"primary":"true"}],"verified":"false","restricted":"true","stats":{"checkinsCount":"1220","usersCount":"410","tipCount":"7"},"specials":{"count":"0"},"hereNow":{"count":"0"},"referralId":"v-1392478004"},{"id":"52f230e2498e9cd689a1202e","name":"Giqi's","location":{"lat":"51.5195611888964","lng":"-0.11771269966401376","distance":"30","cc":"GB","country":"United Kingdom"},"categories":[{"id":"4bf58dd8d48988d16d941735","name":"Caf\u00e9","pluralName":"Caf\u00e9s","shortName":"Caf\u00e9","icon":{"prefix":"https:\/\/ss1.4sqi.net\/img\/categories_v2\/food\/cafe_","suffix":".png"},"primary":"true"}],"verified":"false","restricted":"true","stats":{"checkinsCount":"2","usersCount":"1","tipCount":"0"},"specials":{"count":"0"},"hereNow":{"count":"0"},"referralId":"v-1392478004"},{"id":"50de251f29a6a40b78bc00ff","name":"Fairly Square","contact":{"phone":"+442074309276","formattedPhone":"+44 20 7430 9276","twitter":"fairly_sq"},"location":{"address":"51 Red Lion St","lat":"51.51974577545329","lng":"-0.1174163818359375","distance":"57","postalCode":"WC1R 4PF","cc":"GB","city":"Holborn","state":"Greater London","country":"United Kingdom"},"categories":[{"id":"4bf58dd8d48988d116941735","name":"Bar","pluralName":"Bars","shortName":"Bar","icon":{"prefix":"https:\/\/ss1.4sqi.net\/img\/categories_v2\/nightlife\/bar_","suffix":".png"},"primary":"true"}],"verified":"false","restricted":"true","stats":{"checkinsCount":"96","usersCount":"55","tipCount":"6"},"specials":{"count":"0"},"hereNow":{"count":"0"},"referralId":"v-1392478004"},{"id":"4bfe32b1f7c82d7fa6418f04","name":"City Snacks","contact":{"phone":"+442072425912","formattedPhone":"+44 20 7242 5912"},"location":{"address":"29 Theobald's Rd.","lat":"51.520186386907454","lng":"-0.11810302734375","distance":"102","postalCode":"WC1X 8SP","cc":"GB","city":"Holborn","state":"Greater London","country":"United Kingdom"},"categories":[{"id":"4bf58dd8d48988d16d941735","name":"Caf\u00e9","pluralName":"Caf\u00e9s","shortName":"Caf\u00e9","icon":{"prefix":"https:\/\/ss1.4sqi.net\/img\/categories_v2\/food\/cafe_","suffix":".png"},"primary":"true"}],"verified":"false","restricted":"true","stats":{"checkinsCount":"663","usersCount":"103","tipCount":"3"},"specials":{"count":"0"},"hereNow":{"count":"0"},"referralId":"v-1392478004"},{"id":"4b4f1c82f964a52087fa26e3","name":"Bacco","contact":{"phone":"+442072427900","formattedPhone":"+44 20 7242 7900"},"location":{"address":"25-26 Red Lion St","lat":"51.51946409824875","lng":"-0.11709778225309683","distance":"52","postalCode":"WC1R 4PS","cc":"GB","city":"London","state":"Greater London","country":"United Kingdom"},"categories":[{"id":"4bf58dd8d48988d110941735","name":"Italian Restaurant","pluralName":"Italian Restaurants","shortName":"Italian","icon":{"prefix":"https:\/\/ss1.4sqi.net\/img\/categories_v2\/food\/italian_","suffix":".png"},"primary":"true"}],"verified":"false","restricted":"true","stats":{"checkinsCount":"115","usersCount":"93","tipCount":"5"},"url":"http:\/\/www.baccolondon.co.uk","menu":{"type":"Menu","label":"Menu","anchor":"View Menu","url":"https:\/\/foursquare.com\/v\/bacco\/4b4f1c82f964a52087fa26e3\/menu","mobileUrl":"https:\/\/foursquare.com\/v\/4b4f1c82f964a52087fa26e3\/device_menu"},"specials":{"count":"0"},"hereNow":{"count":"0"},"referralId":"v-1392478004"},{"id":"4b1bd29cf964a520c1fd23e3","name":"BPP Law School","location":{"address":"Red Lion Street","lat":"51.51861232990302","lng":"-0.11680698892517673","distance":"102","cc":"GB","city":"London","state":"Greater London","country":"United Kingdom"},"categories":[{"id":"4bf58dd8d48988d1a6941735","name":"Law School","pluralName":"Law Schools","shortName":"Law School","icon":{"prefix":"https:\/\/ss1.4sqi.net\/img\/categories_v2\/education\/lawschool_","suffix":".png"},"primary":"true"}],"verified":"false","restricted":"true","stats":{"checkinsCount":"1171","usersCount":"160","tipCount":"2"},"specials":{"count":"0"},"hereNow":{"count":"0"},"referralId":"v-1392478004"},{"id":"4ce2d05df8cdb1f75441a412","name":"City Law School","contact":{"phone":"+442074045787","formattedPhone":"+44 20 7404 5787"},"location":{"address":"4 Grays Inn Place","lat":"51.51979868834979","lng":"-0.11654061962164679","distance":"104","postalCode":"WC1R 5DX","cc":"GB","city":"London","state":"Greater London","country":"United Kingdom"},"categories":[{"id":"4bf58dd8d48988d1a6941735","name":"Law School","pluralName":"Law Schools","shortName":"Law School","icon":{"prefix":"https:\/\/ss1.4sqi.net\/img\/categories_v2\/education\/lawschool_","suffix":".png"},"primary":"true"}],"verified":"false","restricted":"true","stats":{"checkinsCount":"287","usersCount":"55","tipCount":"2"},"specials":{"count":"0"},"hereNow":{"count":"0"},"referralId":"v-1392478004"},{"id":"4c628e46e1349521340db3f0","name":"Kozzy","location":{"address":"53a Red Lion Street","lat":"51.519528","lng":"-0.117254","distance":"46","postalCode":"WC1R 4PD","cc":"GB","city":"London","state":"Greater London","country":"United Kingdom"},"categories":[{"id":"4bf58dd8d48988d1c5941735","name":"Sandwich Place","pluralName":"Sandwich Places","shortName":"Sandwiches","icon":{"prefix":"https:\/\/ss1.4sqi.net\/img\/categories_v2\/food\/sandwiches_","suffix":".png"},"primary":"true"}],"verified":"false","restricted":"true","stats":{"checkinsCount":"131","usersCount":"53","tipCount":"2"},"specials":{"count":"0"},"hereNow":{"count":"0"},"referralId":"v-1392478004"},{"id":"4c7ffd8cd8086dcbf3bb5f52","name":"Beck's Cafe","contact":{"phone":"+442074058565","formattedPhone":"+44 20 7405 8565"},"location":{"address":"28 Red Lion St","lat":"51.51968492829301","lng":"-0.11725938941964724","distance":"57","postalCode":"WC1R 4","cc":"GB","city":"Camden Town","state":"Greater London","country":"United Kingdom"},"categories":[{"id":"4bf58dd8d48988d16d941735","name":"Caf\u00e9","pluralName":"Caf\u00e9s","shortName":"Caf\u00e9","icon":{"prefix":"https:\/\/ss1.4sqi.net\/img\/categories_v2\/food\/cafe_","suffix":".png"},"primary":"true"}],"verified":"false","restricted":"true","stats":{"checkinsCount":"242","usersCount":"110","tipCount":"3"},"specials":{"count":"0"},"hereNow":{"count":"0"},"referralId":"v-1392478004"},{"id":"4b216741f964a520593b24e3","name":"Kam Fung","location":{"address":"27 Red Lion Street","lat":"51.519453","lng":"-0.117121","distance":"50","postalCode":"WC1","cc":"GB","city":"London","state":"Greater London","country":"United Kingdom"},"categories":[{"id":"4bf58dd8d48988d145941735","name":"Chinese Restaurant","pluralName":"Chinese Restaurants","shortName":"Chinese","icon":{"prefix":"https:\/\/ss1.4sqi.net\/img\/categories_v2\/food\/chinese_","suffix":".png"},"primary":"true"}],"verified":"false","restricted":"true","stats":{"checkinsCount":"171","usersCount":"95","tipCount":"6"},"specials":{"count":"0"},"hereNow":{"count":"0"},"referralId":"v-1392478004"},{"id":"4ae06b5ff964a520267f21e3","name":"The Bountiful Cow","contact":{"phone":"+442074040200","formattedPhone":"+44 20 7404 0200"},"location":{"address":"51 Eagle St","lat":"51.51858522735032","lng":"-0.11845515588213626","distance":"90","postalCode":"WC1R 4AP","cc":"GB","city":"London","state":"Greater London","country":"United Kingdom"},"categories":[{"id":"4bf58dd8d48988d1cc941735","name":"Steakhouse","pluralName":"Steakhouses","shortName":"Steakhouse","icon":{"prefix":"https:\/\/ss1.4sqi.net\/img\/categories_v2\/food\/steakhouse_","suffix":".png"},"primary":"true"}],"verified":"false","restricted":"true","stats":{"checkinsCount":"479","usersCount":"334","tipCount":"13"},"url":"http:\/\/www.thebountifulcow.co.uk","reservations":{"url":"http:\/\/www.toptable.co.uk\/single.aspx?rid=79132&ref=9601"},"menu":{"type":"Menu","label":"Menu","anchor":"View Menu","url":"https:\/\/foursquare.com\/v\/the-bountiful-cow\/4ae06b5ff964a520267f21e3\/menu","mobileUrl":"https:\/\/foursquare.com\/v\/4ae06b5ff964a520267f21e3\/device_menu"},"specials":{"count":"0"},"hereNow":{"count":"0"},"referralId":"v-1392478004"},{"id":"4bf53406ed30b7134731f49a","name":"Sams Chinese Express","contact":{"twitter":"samschinese"},"location":{"address":"61 Red Lion Street","lat":"51.51923808888889","lng":"-0.117024444044","distance":"54","postalCode":"WC1R 4PD","cc":"GB","city":"Holborn","state":"Greater London","country":"United Kingdom"},"categories":[{"id":"4bf58dd8d48988d145941735","name":"Chinese Restaurant","pluralName":"Chinese Restaurants","shortName":"Chinese","icon":{"prefix":"https:\/\/ss1.4sqi.net\/img\/categories_v2\/food\/chinese_","suffix":".png"},"primary":"true"}],"verified":"false","restricted":"true","stats":{"checkinsCount":"112","usersCount":"39","tipCount":"0"},"menu":{"type":"Menu","label":"Menu","anchor":"View Menu","url":"https:\/\/foursquare.com\/v\/sams-chinese-express\/4bf53406ed30b7134731f49a\/menu","mobileUrl":"https:\/\/foursquare.com\/v\/4bf53406ed30b7134731f49a\/device_menu"},"specials":{"count":"0"},"hereNow":{"count":"0"},"referralId":"v-1392478004"},{"id":"4de8cc53d1648c97963aca76","name":"Isolabella","contact":{"phone":"+442074056830","formattedPhone":"+44 20 7405 6830"},"location":{"address":"45-46 Red Lion Street","crossStreet":"Theobalds Road","lat":"51.520002988602734","lng":"-0.11748485868331157","distance":"82","postalCode":"WC1R 4PF","cc":"GB","city":"London","state":"Greater London","country":"United Kingdom"},"categories":[{"id":"4bf58dd8d48988d110941735","name":"Italian Restaurant","pluralName":"Italian Restaurants","shortName":"Italian","icon":{"prefix":"https:\/\/ss1.4sqi.net\/img\/categories_v2\/food\/italian_","suffix":".png"},"primary":"true"}],"verified":"false","restricted":"true","stats":{"checkinsCount":"177","usersCount":"130","tipCount":"9"},"url":"http:\/\/www.isolabellarestaurant.co.uk","reservations":{"url":"http:\/\/www.toptable.co.uk\/single.aspx?rid=77731&ref=9601"},"menu":{"type":"Menu","label":"Menu","anchor":"View Menu","url":"https:\/\/foursquare.com\/v\/isolabella\/4de8cc53d1648c97963aca76\/menu","mobileUrl":"https:\/\/foursquare.com\/v\/4de8cc53d1648c97963aca76\/device_menu"},"specials":{"count":"0"},"hereNow":{"count":"0"},"referralId":"v-1392478004"},{"id":"4aeb22aaf964a520d5be21e3","name":"The Dolphin Tavern","location":{"address":"Lambs Conduit passage","lat":"51.520169","lng":"-0.117644","distance":"98","cc":"GB","city":"London","state":"Greater London","country":"United Kingdom"},"categories":[{"id":"4bf58dd8d48988d11b941735","name":"Pub","pluralName":"Pubs","shortName":"Pub","icon":{"prefix":"https:\/\/ss1.4sqi.net\/img\/categories_v2\/nightlife\/pub_","suffix":".png"},"primary":"true"}],"verified":"false","restricted":"true","stats":{"checkinsCount":"497","usersCount":"191","tipCount":"4"},"specials":{"count":"0"},"hereNow":{"count":"0"},"referralId":"v-1392478004"},{"id":"5260ef75498eda1e8cbc86b2","name":"Amigos","location":{"address":"37 Eagle street","lat":"51.51886866889261","lng":"-0.11675068374213146","distance":"86","postalCode":"WC1R","cc":"GB","city":"London","state":"Greater London","country":"United Kingdom"},"categories":[{"id":"4bf58dd8d48988d110941735","name":"Italian Restaurant","pluralName":"Italian Restaurants","shortName":"Italian","icon":{"prefix":"https:\/\/ss1.4sqi.net\/img\/categories_v2\/food\/italian_","suffix":".png"},"primary":"true"}],"verified":"false","restricted":"true","stats":{"checkinsCount":"16","usersCount":"4","tipCount":"0"},"specials":{"count":"0"},"hereNow":{"count":"0"},"referralId":"v-1392478004"},{"id":"4ea5b8c86da1455cadbac7e3","name":"Warner Bros Screening Room","location":{"address":"98 Theobald's Road","lat":"51.52017043317767","lng":"-0.11893355945393484","distance":"125","cc":"GB","city":"Camden Town","state":"Greater London","country":"United Kingdom"},"categories":[{"id":"4bf58dd8d48988d17f941735","name":"Movie Theater","pluralName":"Movie Theaters","shortName":"Movie Theater","icon":{"prefix":"https:\/\/ss1.4sqi.net\/img\/categories_v2\/arts_entertainment\/movietheater_","suffix":".png"},"primary":"true"}],"verified":"false","restricted":"true","stats":{"checkinsCount":"135","usersCount":"72","tipCount":"0"},"specials":{"count":"0"},"hereNow":{"count":"0"},"referralId":"v-1392478004"},{"id":"4d9301c6f10ea093b3cb1e1e","name":"First*Clarity","location":{"address":"72-75 Red Lion Street","lat":"51.51839642574252","lng":"-0.11689086429833913","distance":"117","cc":"GB","city":"Camden Town","state":"Greater London","country":"United Kingdom"},"categories":[{"id":"4bf58dd8d48988d124941735","name":"Office","pluralName":"Offices","shortName":"Office","icon":{"prefix":"https:\/\/ss1.4sqi.net\/img\/categories_v2\/building\/default_","suffix":".png"},"primary":"true"}],"verified":"false","restricted":"true","stats":{"checkinsCount":"104","usersCount":"13","tipCount":"1"},"specials":{"count":"0"},"hereNow":{"count":"0"},"referralId":"v-1392478004"},{"id":"4c5adfaeaeb7b7136cf373cd","name":"Leukaemia & Lymphoma Research - head office","contact":{"phone":"+442074050101","formattedPhone":"+44 20 7405 0101","twitter":"beatbloodcancer"},"location":{"address":"39-40 Eagle Street","crossStreet":"btw red lion street & procter street","lat":"51.518917948465955","lng":"-0.11737346649169922","distance":"50","postalCode":"WC1R 4TH","cc":"GB","city":"London","country":"United Kingdom"},"categories":[{"id":"50328a8e91d4c4b30a586d6c","name":"Non-Profit","pluralName":"Non-Profits","shortName":"Non-Profit","icon":{"prefix":"https:\/\/ss1.4sqi.net\/img\/categories_v2\/building\/default_","suffix":".png"},"primary":"true"}],"verified":"false","restricted":"true","stats":{"checkinsCount":"66","usersCount":"11","tipCount":"2"},"url":"http:\/\/www.leukaemialymphomaresearch.org.uk","specials":{"count":"0"},"hereNow":{"count":"0"},"referralId":"v-1392478004"},{"id":"4f8a018ae4b07efb9e65c9ab","name":"the bull","location":{"address":"red lion road","crossStreet":"princeton street","lat":"51.5198","lng":"-0.1173","distance":"66","cc":"GB","city":"London","state":"Greater London","country":"United Kingdom"},"categories":[{"id":"4bf58dd8d48988d107941735","name":"Argentinian Restaurant","pluralName":"Argentinian Restaurants","shortName":"Argentinian","icon":{"prefix":"https:\/\/ss1.4sqi.net\/img\/categories_v2\/food\/argentinian_","suffix":".png"},"primary":"true"}],"verified":"false","restricted":"true","stats":{"checkinsCount":"5","usersCount":"5","tipCount":"0"},"specials":{"count":"0"},"hereNow":{"count":"0"},"referralId":"v-1392478004"},{"id":"4ede1e7f29c2b9122cc1b255","name":"Sawadika","location":{"address":"71 Red Lion St.","lat":"51.5185610803495","lng":"-0.11677249284726658","distance":"107","postalCode":"WC1R 4NA","cc":"GB","city":"London","state":"Greater London","country":"United Kingdom"},"categories":[{"id":"4bf58dd8d48988d149941735","name":"Thai Restaurant","pluralName":"Thai Restaurants","shortName":"Thai","icon":{"prefix":"https:\/\/ss1.4sqi.net\/img\/categories_v2\/food\/thai_","suffix":".png"},"primary":"true"}],"verified":"false","restricted":"true","stats":{"checkinsCount":"74","usersCount":"68","tipCount":"4"},"url":"http:\/\/www.sawadika.co.uk","menu":{"type":"Menu","label":"Menu","anchor":"View Menu","url":"https:\/\/foursquare.com\/v\/sawadika\/4ede1e7f29c2b9122cc1b255\/menu","mobileUrl":"https:\/\/foursquare.com\/v\/4ede1e7f29c2b9122cc1b255\/device_menu"},"specials":{"count":"0"},"hereNow":{"count":"0"},"referralId":"v-1392478004"},{"id":"4f0c7564e4b0e4e35c2a57c1","name":"Marcello Hair Design","location":{"address":"55a Red Lion Street","lat":"51.518667386644054","lng":"-0.11755703759454772","distance":"71","postalCode":"WC1R 4PD","cc":"GB","city":"London","state":"Greater London","country":"United Kingdom"},"categories":[{"id":"4bf58dd8d48988d110951735","name":"Salon \/ Barbershop","pluralName":"Salons \/ Barbershops","shortName":"Salon \/ Barbershop","icon":{"prefix":"https:\/\/ss1.4sqi.net\/img\/categories_v2\/shops\/salon_barber_","suffix":".png"},"primary":"true"}],"verified":"true","restricted":"true","stats":{"checkinsCount":"18","usersCount":"2","tipCount":"0"},"specials":{"count":"0"},"hereNow":{"count":"0"},"venuePage":{"id":"71907546"},"referralId":"v-1392478004"},{"id":"529dbac0498e188cbf41db19","name":"Bacco London \u0130talian Restaurant","location":{"address":"25-26","crossStreet":"Red Lion Street","lat":"51.519497","lng":"-0.117138","distance":"51","postalCode":"WC1R 4PS","cc":"GB","city":"Holborn","state":"Greater London","country":"United Kingdom"},"categories":[{"id":"4bf58dd8d48988d110941735","name":"Italian Restaurant","pluralName":"Italian Restaurants","shortName":"Italian","icon":{"prefix":"https:\/\/ss1.4sqi.net\/img\/categories_v2\/food\/italian_","suffix":".png"},"primary":"true"}],"verified":"false","restricted":"true","stats":{"checkinsCount":"6","usersCount":"1","tipCount":"0"},"specials":{"count":"0"},"hereNow":{"count":"0"},"referralId":"v-1392478004"},{"id":"52eb640e498effee77c8cf5e","name":"HaysMacintyre","location":{"address":"26 Red Lion Square","crossStreet":"Proctor Street","lat":"51.519678","lng":"-0.118543","distance":"67","postalCode":"WC1R 4AG","cc":"GB","city":"Camden","country":"United Kingdom"},"categories":[{"id":"4bf58dd8d48988d124941735","name":"Office","pluralName":"Offices","shortName":"Office","icon":{"prefix":"https:\/\/ss1.4sqi.net\/img\/categories_v2\/building\/default_","suffix":".png"},"primary":"true"}],"verified":"false","restricted":"true","stats":{"checkinsCount":"2","usersCount":"1","tipCount":"0"},"specials":{"count":"0"},"hereNow":{"count":"0"},"referralId":"v-1392478004"},{"id":"50165425e4b0e259d40fe4bc","name":"London School Of Beauty And Makeup","location":{"address":"18-19 Long Lane, London","lat":"51.51960900007299","lng":"-0.11710613584075245","distance":"59","postalCode":"EC1A 9PL","cc":"GB","country":"United Kingdom"},"categories":[{"id":"4bf58dd8d48988d1a8941735","name":"General College & University","pluralName":"General Colleges & Universities","shortName":"Education","icon":{"prefix":"https:\/\/ss1.4sqi.net\/img\/categories_v2\/education\/other_","suffix":".png"},"primary":"true"}],"verified":"false","restricted":"true","stats":{"checkinsCount":"6","usersCount":"6","tipCount":"0"},"specials":{"count":"0"},"hereNow":{"count":"0"},"referralId":"v-1392478004"},{"id":"4c19f3c2838020a14a71e661","name":"The Legends Barber Shop","contact":{"phone":"+442074301850","formattedPhone":"+44 20 7430 1850","twitter":"the_legends_"},"location":{"address":"12 Lambs Conduit Passage","lat":"51.51976580333915","lng":"-0.11813521385192871","distance":"57","postalCode":"WC1R 4RH","cc":"GB","city":"London","state":"Greater London","country":"United Kingdom"},"categories":[{"id":"4bf58dd8d48988d110951735","name":"Salon \/ Barbershop","pluralName":"Salons \/ Barbershops","shortName":"Salon \/ Barbershop","icon":{"prefix":"https:\/\/ss1.4sqi.net\/img\/categories_v2\/shops\/salon_barber_","suffix":".png"},"primary":"true"}],"verified":"true","restricted":"true","stats":{"checkinsCount":"110","usersCount":"38","tipCount":"4"},"url":"http:\/\/www.thelegendsbarbershop.com","specials":{"count":"0"},"hereNow":{"count":"0"},"venuePage":{"id":"70436762"},"referralId":"v-1392478004"},{"id":"4f159bc0e4b0044a275be161","name":"Finnish Institute","location":{"address":"2 Eagle St","lat":"51.518711","lng":"-0.117009","distance":"84","cc":"GB","country":"United Kingdom"},"categories":[{"id":"4bf58dd8d48988d126941735","name":"Government Building","pluralName":"Government Buildings","shortName":"Government","icon":{"prefix":"https:\/\/ss1.4sqi.net\/img\/categories_v2\/building\/government_","suffix":".png"},"primary":"true"}],"verified":"false","restricted":"true","stats":{"checkinsCount":"114","usersCount":"20","tipCount":"0"},"specials":{"count":"0"},"hereNow":{"count":"0"},"referralId":"v-1392478004"},{"id":"5107f4f6e4b047927857ad5d","name":"West End 5","location":{"address":"55 Red Lion Street","lat":"51.5194094181061","lng":"-0.117486119270325","distance":"25","cc":"GB","city":"WC1","country":"United Kingdom"},"categories":[{"id":"4d954b06a243a5684965b473","name":"Residential Building (Apartment \/ Condo)","pluralName":"Residential Buildings (Apartments \/ Condos)","shortName":"Residential","icon":{"prefix":"https:\/\/ss1.4sqi.net\/img\/categories_v2\/building\/apartment_","suffix":".png"},"primary":"true"}],"verified":"false","restricted":"true","stats":{"checkinsCount":"4","usersCount":"2","tipCount":"0"},"specials":{"count":"0"},"hereNow":{"count":"0"},"referralId":"v-1392478004"}],"confident":"false"}}