{"meta":{"code":"200"},"response":{"venues":[{"id":"4b4c451ff964a5204eb026e3","name":"City University London","contact":{"phone":"+442070405060","formattedPhone":"+44 20 7040 5060","twitter":"cityunilondon"},"location":{"address":"10 Northampton Sq.","lat":"51.5276214488032","lng":"-0.10218219399385078","distance":"190","postalCode":"EC1V 0HB","cc":"GB","city":"London","state":"Greater London","country":"United Kingdom"},"categories":[{"id":"4bf58dd8d48988d1ae941735","name":"University","pluralName":"Universities","shortName":"University","icon":{"prefix":"https:\/\/ss1.4sqi.net\/img\/categories_v2\/education\/default_","suffix":".png"},"primary":"true"}],"verified":"true","restricted":"true","stats":{"checkinsCount":"8897","usersCount":"1470","tipCount":"18"},"url":"http:\/\/www.city.ac.uk","specials":{"count":"0"},"hereNow":{"count":"2","groups":[{"type":"others","name":"Other people here","count":"2"}]},"referralId":"v-1392477979"},{"id":"4ce158db41ed224b6dd1e93c","name":"City University Library","contact":{"phone":"+442070404061","formattedPhone":"+44 20 7040 4061","twitter":"cityunilibrary"},"location":{"address":"Northampton Sq","crossStreet":"Level 2 University Building","lat":"51.527774352341275","lng":"-0.10244718837922483","distance":"170","postalCode":"EC1V 0HB","cc":"GB","city":"Islington","state":"Greater London","country":"United Kingdom"},"categories":[{"id":"4bf58dd8d48988d1a7941735","name":"College Library","pluralName":"College Libraries","shortName":"Library","icon":{"prefix":"https:\/\/ss1.4sqi.net\/img\/categories_v2\/building\/library_","suffix":".png"},"primary":"true"}],"verified":"false","restricted":"true","stats":{"checkinsCount":"1485","usersCount":"247","tipCount":"4"},"specials":{"count":"0"},"hereNow":{"count":"2","groups":[{"type":"others","name":"Other people here","count":"2"}]},"referralId":"v-1392477979"},{"id":"4cf762f35c0e6a31345b4099","name":"Derwent Point student accommodation","contact":{"phone":"+441332644118","formattedPhone":"+44 1332 644118"},"location":{"address":"Goswell Road, Islington","lat":"51.53021248311562","lng":"-0.10261058807373047","distance":"103","postalCode":"EC1V 7AG","cc":"GB","city":"London","state":"Greater London","country":"United Kingdom"},"categories":[{"id":"4bf58dd8d48988d130941735","name":"Building","pluralName":"Buildings","shortName":"Building","icon":{"prefix":"https:\/\/ss1.4sqi.net\/img\/categories_v2\/building\/default_","suffix":".png"},"primary":"true"}],"verified":"true","restricted":"true","stats":{"checkinsCount":"150","usersCount":"36","tipCount":"1"},"specials":{"count":"0"},"hereNow":{"count":"1","groups":[{"type":"others","name":"Other people here","count":"1"}]},"referralId":"v-1392477979"},{"id":"4aef4612f964a5201ed721e3","name":"Fitness First","location":{"address":"361-373 City Rd","lat":"51.531208727056196","lng":"-0.10298228915849991","distance":"214","postalCode":"N1","cc":"GB","city":"London","state":"Greater London","country":"United Kingdom"},"categories":[{"id":"4bf58dd8d48988d176941735","name":"Gym","pluralName":"Gyms","shortName":"Gym","icon":{"prefix":"https:\/\/ss1.4sqi.net\/img\/categories_v2\/building\/gym_","suffix":".png"},"primary":"true"}],"verified":"false","restricted":"true","stats":{"checkinsCount":"2228","usersCount":"244","tipCount":"7"},"specials":{"count":"0"},"hereNow":{"count":"0"},"referralId":"v-1392477979"},{"id":"525523b7498e61d1d7d90def","name":"Angel Gate","location":{"address":"326 City Road","lat":"51.529406207089124","lng":"-0.10342370974237872","distance":"44","postalCode":"EC1V 2PT","cc":"GB","city":"London","state":"Greater London","country":"United Kingdom"},"categories":[{"id":"4bf58dd8d48988d124941735","name":"Office","pluralName":"Offices","shortName":"Office","icon":{"prefix":"https:\/\/ss1.4sqi.net\/img\/categories_v2\/building\/default_","suffix":".png"},"primary":"true"}],"verified":"false","restricted":"true","stats":{"checkinsCount":"8","usersCount":"6","tipCount":"0"},"specials":{"count":"0"},"hereNow":{"count":"0"},"referralId":"v-1392477979"},{"id":"516d3c4a498e02e706889a86","name":"L'Orecchietta","location":{"address":"29-30 Wakley St","lat":"51.53005924235339","lng":"-0.10251268396623396","distance":"88","cc":"GB","city":"Islington","state":"Greater London","country":"United Kingdom"},"categories":[{"id":"4bf58dd8d48988d110941735","name":"Italian Restaurant","pluralName":"Italian Restaurants","shortName":"Italian","icon":{"prefix":"https:\/\/ss1.4sqi.net\/img\/categories_v2\/food\/italian_","suffix":".png"},"primary":"true"}],"verified":"false","restricted":"true","stats":{"checkinsCount":"156","usersCount":"50","tipCount":"3"},"specials":{"count":"0"},"hereNow":{"count":"0"},"referralId":"v-1392477979"},{"id":"4d2ec3a9a6df6dcb2961dc7a","name":"City University Tait Building","contact":{"twitter":"cityunilondon"},"location":{"address":"Northampton square","lat":"51.52785670481941","lng":"-0.1019129631461696","distance":"170","cc":"GB","city":"Islington","state":"Greater London","country":"United Kingdom"},"categories":[{"id":"4bf58dd8d48988d198941735","name":"College Academic Building","pluralName":"College Academic Buildings","shortName":"Academic Building","icon":{"prefix":"https:\/\/ss1.4sqi.net\/img\/categories_v2\/education\/academicbuilding_","suffix":".png"},"primary":"true"}],"verified":"true","restricted":"true","stats":{"checkinsCount":"307","usersCount":"66","tipCount":"0"},"specials":{"count":"0"},"hereNow":{"count":"0"},"referralId":"v-1392477979"},{"id":"4aedb2f9f964a52038ce21e3","name":"Northampton Square","location":{"address":"Northampton Sq.","lat":"51.52760033730127","lng":"-0.10215479808932713","distance":"193","postalCode":"EC1V","cc":"GB","city":"London","state":"Greater London","country":"United Kingdom"},"categories":[{"id":"4bf58dd8d48988d164941735","name":"Plaza","pluralName":"Plazas","shortName":"Plaza","icon":{"prefix":"https:\/\/ss1.4sqi.net\/img\/categories_v2\/parks_outdoors\/plaza_","suffix":".png"},"primary":"true"}],"verified":"false","restricted":"true","stats":{"checkinsCount":"1002","usersCount":"203","tipCount":"6"},"specials":{"count":"0"},"hereNow":{"count":"0"},"referralId":"v-1392477979"},{"id":"4f987562e4b0ef3c7a9f7be4","name":"City University Library Level 5","contact":{"phone":"+442070404061","formattedPhone":"+44 20 7040 4061"},"location":{"address":"Northampton Square","lat":"51.527774252263036","lng":"-0.10255527474164854","distance":"169","postalCode":"EC1V 0HB","cc":"GB","city":"London","state":"Greater London","country":"United Kingdom"},"categories":[{"id":"4bf58dd8d48988d1a7941735","name":"College Library","pluralName":"College Libraries","shortName":"Library","icon":{"prefix":"https:\/\/ss1.4sqi.net\/img\/categories_v2\/building\/library_","suffix":".png"},"primary":"true"}],"verified":"false","restricted":"true","stats":{"checkinsCount":"415","usersCount":"66","tipCount":"3"},"specials":{"count":"0"},"hereNow":{"count":"0"},"referralId":"v-1392477979"},{"id":"52a71e6d11d247be12d80ae6","name":"City University Library Level 6 - Silent Study","location":{"lat":"51.5278210441788","lng":"-0.10249928462143984","distance":"164","cc":"GB","country":"United Kingdom"},"categories":[{"id":"4bf58dd8d48988d1a7941735","name":"College Library","pluralName":"College Libraries","shortName":"Library","icon":{"prefix":"https:\/\/ss1.4sqi.net\/img\/categories_v2\/building\/library_","suffix":".png"},"primary":"true"}],"verified":"false","restricted":"true","stats":{"checkinsCount":"17","usersCount":"4","tipCount":"0"},"specials":{"count":"0"},"hereNow":{"count":"0"},"referralId":"v-1392477979"},{"id":"4b0be6c3f964a520913423e3","name":"City University Centenary Building","location":{"address":"Spencer Street","lat":"51.527894","lng":"-0.104051","distance":"177","cc":"GB","city":"London","state":"Greater London","country":"United Kingdom"},"categories":[{"id":"4bf58dd8d48988d198941735","name":"College Academic Building","pluralName":"College Academic Buildings","shortName":"Academic Building","icon":{"prefix":"https:\/\/ss1.4sqi.net\/img\/categories_v2\/education\/academicbuilding_","suffix":".png"},"primary":"true"}],"verified":"false","restricted":"true","stats":{"checkinsCount":"199","usersCount":"65","tipCount":"0"},"specials":{"count":"0"},"hereNow":{"count":"0"},"referralId":"v-1392477979"},{"id":"4e00fc8dd1647696f12207fd","name":"Brasserie on St John Street","contact":{"phone":"+442078371199","formattedPhone":"+44 20 7837 1199","twitter":"brasserieon"},"location":{"address":"360-362 St John St.","lat":"51.529852","lng":"-0.104866","distance":"156","postalCode":"EC1V 4NR","cc":"GB","city":"Islington","state":"Greater London","country":"United Kingdom"},"categories":[{"id":"4bf58dd8d48988d1c4941735","name":"Restaurant","pluralName":"Restaurants","shortName":"Restaurant","icon":{"prefix":"https:\/\/ss1.4sqi.net\/img\/categories_v2\/food\/default_","suffix":".png"},"primary":"true"}],"verified":"false","restricted":"true","stats":{"checkinsCount":"112","usersCount":"84","tipCount":"6"},"url":"http:\/\/the-brasserie.com","menu":{"type":"Menu","label":"Menu","anchor":"View Menu","url":"https:\/\/foursquare.com\/v\/brasserie-on-st-john-street\/4e00fc8dd1647696f12207fd\/menu","mobileUrl":"https:\/\/foursquare.com\/v\/4e00fc8dd1647696f12207fd\/device_menu"},"specials":{"count":"0"},"hereNow":{"count":"0"},"referralId":"v-1392477979"},{"id":"4f561c69e4b0a3a6d67cd8c6","name":"National Children's Bureau","contact":{"phone":"+442078436000","formattedPhone":"+44 20 7843 6000"},"location":{"address":"8 Wakley Street","lat":"51.530005","lng":"-0.101868","distance":"102","postalCode":"EC1V 7QE","cc":"GB","city":"London","state":"Greater London","country":"United Kingdom"},"categories":[{"id":"4bf58dd8d48988d130941735","name":"Building","pluralName":"Buildings","shortName":"Building","icon":{"prefix":"https:\/\/ss1.4sqi.net\/img\/categories_v2\/building\/default_","suffix":".png"},"primary":"true"}],"verified":"false","restricted":"true","stats":{"checkinsCount":"4","usersCount":"2","tipCount":"0"},"specials":{"count":"0"},"hereNow":{"count":"0"},"referralId":"v-1392477979"},{"id":"4ce945c4f3bda143a7eabee4","name":"City University Library - Level 6","location":{"lat":"51.52796463847737","lng":"-0.10237833645762787","distance":"150","cc":"GB","city":"Islington","state":"Greater London","country":"United Kingdom"},"categories":[{"id":"4bf58dd8d48988d1a1941735","name":"College Cafeteria","pluralName":"College Cafeterias","shortName":"Cafeteria","icon":{"prefix":"https:\/\/ss1.4sqi.net\/img\/categories_v2\/education\/cafeteria_","suffix":".png"},"primary":"true"}],"verified":"false","restricted":"true","stats":{"checkinsCount":"89","usersCount":"25","tipCount":"2"},"specials":{"count":"0"},"hereNow":{"count":"0"},"referralId":"v-1392477979"},{"id":"4f27efb7e4b0279eaad75150","name":"Library Graduate Center","location":{"address":"Northampton Square","lat":"51.527944006785845","lng":"-0.10238968933557706","distance":"152","cc":"GB","city":"London","state":"Greater London","country":"United Kingdom"},"categories":[{"id":"4bf58dd8d48988d1a0941735","name":"College Classroom","pluralName":"College Classrooms","shortName":"Classroom","icon":{"prefix":"https:\/\/ss1.4sqi.net\/img\/categories_v2\/education\/classroom_","suffix":".png"},"primary":"true"}],"verified":"false","restricted":"true","stats":{"checkinsCount":"248","usersCount":"34","tipCount":"1"},"specials":{"count":"0"},"hereNow":{"count":"0"},"referralId":"v-1392477979"},{"id":"4fac34a7e4b03481b4ecb38b","name":"Cass Business School","contact":{"phone":"+442070405060","formattedPhone":"+44 20 7040 5060"},"location":{"address":"Northampton Square","lat":"51.52748148680006","lng":"-0.10312263032742781","distance":"202","postalCode":"EC1V 0HB","cc":"GB","city":"London","state":"Greater London","country":"United Kingdom"},"categories":[{"id":"4bf58dd8d48988d1ae941735","name":"University","pluralName":"Universities","shortName":"University","icon":{"prefix":"https:\/\/ss1.4sqi.net\/img\/categories_v2\/education\/default_","suffix":".png"},"primary":"true"}],"verified":"false","restricted":"true","stats":{"checkinsCount":"159","usersCount":"40","tipCount":"1"},"specials":{"count":"0"},"hereNow":{"count":"0"},"referralId":"v-1392477979"},{"id":"5156f570e4b0001ce3a7a69b","name":"city university library level  3","location":{"address":"Northampton square","lat":"51.52784092711314","lng":"-0.102280490497346","distance":"165","cc":"GB","country":"United Kingdom"},"categories":[{"id":"4bf58dd8d48988d1a7941735","name":"College Library","pluralName":"College Libraries","shortName":"Library","icon":{"prefix":"https:\/\/ss1.4sqi.net\/img\/categories_v2\/building\/library_","suffix":".png"},"primary":"true"}],"verified":"false","restricted":"true","stats":{"checkinsCount":"12","usersCount":"4","tipCount":"0"},"specials":{"count":"0"},"hereNow":{"count":"0"},"referralId":"v-1392477979"},{"id":"50c0f962e4b06538206e311d","name":"Miz en Bouche","contact":{"phone":"+442079980640","formattedPhone":"+44 20 7998 0640","twitter":"mizenbouche"},"location":{"address":"St. Johns St.","lat":"51.52882483866273","lng":"-0.1047356163009298","distance":"143","postalCode":"EC1V 4NT","cc":"GB","city":"London","state":"Greater London","country":"United Kingdom"},"categories":[{"id":"4bf58dd8d48988d10c941735","name":"French Restaurant","pluralName":"French Restaurants","shortName":"French","icon":{"prefix":"https:\/\/ss1.4sqi.net\/img\/categories_v2\/food\/french_","suffix":".png"},"primary":"true"}],"verified":"false","restricted":"true","stats":{"checkinsCount":"77","usersCount":"57","tipCount":"7"},"url":"http:\/\/www.mizenbouche.com","menu":{"type":"Menu","label":"Menu","anchor":"View Menu","url":"https:\/\/foursquare.com\/v\/miz-en-bouche\/50c0f962e4b06538206e311d\/menu","mobileUrl":"https:\/\/foursquare.com\/v\/50c0f962e4b06538206e311d\/device_menu"},"specials":{"count":"0"},"hereNow":{"count":"0"},"referralId":"v-1392477979"},{"id":"4ce6c3e20f196dcb02b839ae","name":"Felix Fables Hq","location":{"address":"Wynyatt street","lat":"51.529105","lng":"-0.1030839","distance":"28","postalCode":"EC1V 7 hy","cc":"GB","city":"Islington","state":"Greater London","country":"United Kingdom"},"categories":[{"id":"5032792091d4c4b30a586d5c","name":"Concert Hall","pluralName":"Concert Halls","shortName":"Concert Hall","icon":{"prefix":"https:\/\/ss1.4sqi.net\/img\/categories_v2\/arts_entertainment\/musicvenue_","suffix":".png"},"primary":"true"}],"verified":"false","restricted":"true","stats":{"checkinsCount":"26","usersCount":"5","tipCount":"1"},"specials":{"count":"0"},"hereNow":{"count":"0"},"referralId":"v-1392477979"},{"id":"4d88a6d2f607a093f54ada86","name":"Bernie's Sandwiches","location":{"address":"249 Goswell Rd","lat":"51.52982307020747","lng":"-0.10244316690052242","distance":"64","postalCode":"EC1","cc":"GB","city":"Islington","state":"Greater London","country":"United Kingdom"},"categories":[{"id":"4bf58dd8d48988d1c5941735","name":"Sandwich Place","pluralName":"Sandwich Places","shortName":"Sandwiches","icon":{"prefix":"https:\/\/ss1.4sqi.net\/img\/categories_v2\/food\/sandwiches_","suffix":".png"},"primary":"true"}],"verified":"false","restricted":"true","stats":{"checkinsCount":"73","usersCount":"25","tipCount":"4"},"specials":{"count":"0"},"hereNow":{"count":"0"},"referralId":"v-1392477979"},{"id":"51d48bf0498ed6595ad3c1be","name":"Niche","contact":{"phone":"+442078375048","formattedPhone":"+44 20 7837 5048","twitter":"nichefooddrink","facebook":"143340189174081"},"location":{"address":"197-199 Rosebery Avenue","crossStreet":"St John's Street","lat":"51.529932156233286","lng":"-0.1053088903427124","distance":"187","postalCode":"EC1R 4TJ","cc":"GB","city":"London","state":"Greater London","country":"United Kingdom"},"categories":[{"id":"4bf58dd8d48988d1c4941735","name":"Restaurant","pluralName":"Restaurants","shortName":"Restaurant","icon":{"prefix":"https:\/\/ss1.4sqi.net\/img\/categories_v2\/food\/default_","suffix":".png"},"primary":"true"}],"verified":"true","restricted":"true","stats":{"checkinsCount":"66","usersCount":"51","tipCount":"2"},"url":"http:\/\/www.nichefoodanddrink.co.uk","specials":{"count":"0"},"hereNow":{"count":"0"},"venuePage":{"id":"69517223"},"storeId":"","referralId":"v-1392477979"},{"id":"4d871b6640a7a35d002041be","name":"Poynton Lecture Theatre","location":{"lat":"51.52781387249389","lng":"-0.10378992937279288","distance":"177","cc":"GB","country":"United Kingdom"},"categories":[{"id":"4bf58dd8d48988d1ac941735","name":"College Theater","pluralName":"College Theaters","shortName":"Theater","icon":{"prefix":"https:\/\/ss1.4sqi.net\/img\/categories_v2\/education\/collegetheater_","suffix":".png"},"primary":"true"}],"verified":"false","restricted":"true","stats":{"checkinsCount":"97","usersCount":"32","tipCount":"1"},"specials":{"count":"0"},"hereNow":{"count":"0"},"referralId":"v-1392477979"},{"id":"4df8a24cb61ce821ebac0348","name":"Wakleys","contact":{"phone":"+442031191013","formattedPhone":"+44 20 3119 1013"},"location":{"address":"10 Wakley St","lat":"51.53048575813667","lng":"-0.10208891835419688","distance":"142","postalCode":"EC1V 7LT","cc":"GB","city":"Islington","state":"Greater London","country":"United Kingdom"},"categories":[{"id":"4bf58dd8d48988d16d941735","name":"Caf\u00e9","pluralName":"Caf\u00e9s","shortName":"Caf\u00e9","icon":{"prefix":"https:\/\/ss1.4sqi.net\/img\/categories_v2\/food\/cafe_","suffix":".png"},"primary":"true"}],"verified":"false","restricted":"true","stats":{"checkinsCount":"54","usersCount":"21","tipCount":"1"},"specials":{"count":"0"},"hereNow":{"count":"0"},"referralId":"v-1392477979"},{"id":"50643361e4b05b4017b09f28","name":"Saddlers Bar","contact":{"twitter":"saddlersbar","facebook":"181281428609290"},"location":{"address":"Wynyatt St.","lat":"51.52802609977441","lng":"-0.10225317086451605","distance":"145","postalCode":"EC1V 7JA","cc":"GB","city":"London","state":"Greater London","country":"United Kingdom"},"categories":[{"id":"4bf58dd8d48988d116941735","name":"Bar","pluralName":"Bars","shortName":"Bar","icon":{"prefix":"https:\/\/ss1.4sqi.net\/img\/categories_v2\/nightlife\/bar_","suffix":".png"},"primary":"true"}],"verified":"true","restricted":"true","stats":{"checkinsCount":"153","usersCount":"72","tipCount":"2"},"specials":{"count":"0"},"hereNow":{"count":"0"},"venuePage":{"id":"41337433"},"storeId":"","referralId":"v-1392477979"},{"id":"4b82616bf964a52009d130e3","name":"Sayer Vincent","location":{"address":"Angel Gate","lat":"51.52995481408269","lng":"-0.10092753973687603","distance":"149","postalCode":"Ec1v 2sj","cc":"GB","country":"United Kingdom"},"verified":"false","restricted":"true","stats":{"checkinsCount":"673","usersCount":"19","tipCount":"0"},"specials":{"count":"0"},"hereNow":{"count":"0"},"referralId":"v-1392477979"},{"id":"5124c1b7e4b07ccd8a6fc9d1","name":"AA Drivetech","location":{"address":"2 Wakley St","lat":"51.530084","lng":"-0.102299","distance":"95","cc":"GB","city":"London","state":"Greater London","country":"United Kingdom"},"categories":[{"id":"4bf58dd8d48988d1a0941735","name":"College Classroom","pluralName":"College Classrooms","shortName":"Classroom","icon":{"prefix":"https:\/\/ss1.4sqi.net\/img\/categories_v2\/education\/classroom_","suffix":".png"},"primary":"true"}],"verified":"false","restricted":"true","stats":{"checkinsCount":"17","usersCount":"17","tipCount":"0"},"specials":{"count":"0"},"hereNow":{"count":"0"},"referralId":"v-1392477979"},{"id":"5283820111d2ca23db1aebf8","name":"ELG19","location":{"address":"City University - Drysdale Building","crossStreet":"Northampton Square","lat":"51.527745","lng":"-0.103323","distance":"175","cc":"GB","country":"United Kingdom"},"categories":[{"id":"4bf58dd8d48988d1a0941735","name":"College Classroom","pluralName":"College Classrooms","shortName":"Classroom","icon":{"prefix":"https:\/\/ss1.4sqi.net\/img\/categories_v2\/education\/classroom_","suffix":".png"},"primary":"true"}],"verified":"false","restricted":"true","stats":{"checkinsCount":"6","usersCount":"1","tipCount":"0"},"specials":{"count":"0"},"hereNow":{"count":"0"},"referralId":"v-1392477979"},{"id":"4d5a674ac88da1cd62554468","name":"Costa","location":{"lat":"51.5277850498505","lng":"-0.10217087857709067","distance":"173","cc":"GB","country":"United Kingdom"},"categories":[{"id":"4bf58dd8d48988d1e0931735","name":"Coffee Shop","pluralName":"Coffee Shops","shortName":"Coffee Shop","icon":{"prefix":"https:\/\/ss1.4sqi.net\/img\/categories_v2\/food\/coffeeshop_","suffix":".png"},"primary":"true"}],"verified":"false","restricted":"true","stats":{"checkinsCount":"280","usersCount":"101","tipCount":"0"},"specials":{"count":"0"},"hereNow":{"count":"0"},"referralId":"v-1392477979"},{"id":"4b7aa048f964a5203a342fe3","name":"The Greenspace","location":{"address":"48 Rawstorne Street","lat":"51.529267","lng":"-0.103547","distance":"51","postalCode":"EC1V 7ND","cc":"GB","city":"Islington","state":"Greater London","country":"United Kingdom"},"categories":[{"id":"4bf58dd8d48988d163941735","name":"Park","pluralName":"Parks","shortName":"Park","icon":{"prefix":"https:\/\/ss1.4sqi.net\/img\/categories_v2\/parks_outdoors\/park_","suffix":".png"},"primary":"true"}],"verified":"false","restricted":"true","stats":{"checkinsCount":"1","usersCount":"1","tipCount":"0"},"specials":{"count":"0"},"hereNow":{"count":"0"},"referralId":"v-1392477979"},{"id":"4d67dfb7fd1b8cfae3a623f0","name":"Pho Thai","contact":{"phone":"+442078373643","formattedPhone":"+44 20 7837 3643"},"location":{"address":"332a Goswell Road","lat":"51.53018654739126","lng":"-0.10323135997258223","distance":"104","postalCode":"EC1V 7LQ","cc":"GB","city":"Islington","state":"Greater London","country":"United Kingdom"},"categories":[{"id":"4bf58dd8d48988d1ed941735","name":"Spa","pluralName":"Spas","shortName":"Spa","icon":{"prefix":"https:\/\/ss1.4sqi.net\/img\/categories_v2\/shops\/spa_","suffix":".png"},"primary":"true"}],"verified":"false","restricted":"true","stats":{"checkinsCount":"44","usersCount":"22","tipCount":"1"},"specials":{"count":"0"},"hereNow":{"count":"0"},"referralId":"v-1392477979"}],"confident":"false"}}