{"meta":{"code":"200"},"response":{"venues":[{"id":"4ba0eb02f964a520f08637e3","name":"Oracle","contact":{"twitter":"oracle"},"location":{"address":"1 South Place","lat":"51.519151053852845","lng":"-0.08748700549661785","distance":"26","cc":"GB","city":"London","state":"Greater London","country":"United Kingdom"},"categories":[{"id":"4bf58dd8d48988d124941735","name":"Office","pluralName":"Offices","shortName":"Office","icon":{"prefix":"https:\/\/ss1.4sqi.net\/img\/categories_v2\/building\/default_","suffix":".png"},"primary":"true"}],"verified":"false","restricted":"true","stats":{"checkinsCount":"2127","usersCount":"315","tipCount":"11"},"url":"http:\/\/oracle.com","specials":{"count":"0"},"hereNow":{"count":"0"},"referralId":"v-1392478007"},{"id":"4b7a9ebef964a520e6332fe3","name":"Marks & Spencer","contact":{"phone":"+442077869494","formattedPhone":"+44 20 7786 9494"},"location":{"address":"70 Finsbury Pavement","lat":"51.51953882011713","lng":"-0.08747220039367676","distance":"36","postalCode":"EC2A 1SA","cc":"GB","city":"London","state":"Greater London","country":"United Kingdom"},"categories":[{"id":"4bf58dd8d48988d118951735","name":"Grocery Store","pluralName":"Grocery Stores","shortName":"Grocery Store","icon":{"prefix":"https:\/\/ss1.4sqi.net\/img\/categories_v2\/shops\/food_grocery_","suffix":".png"},"primary":"true"}],"verified":"true","restricted":"true","stats":{"checkinsCount":"2498","usersCount":"721","tipCount":"8"},"specials":{"count":"0"},"hereNow":{"count":"0"},"storeId":"Finsbury Pavement","referralId":"v-1392478007"},{"id":"504db0e0e4b0548542c26314","name":"Oracle 5th Floor","location":{"lat":"51.519281","lng":"-0.087433","distance":"25","cc":"GB","country":"United Kingdom"},"categories":[{"id":"4bf58dd8d48988d130941735","name":"Building","pluralName":"Buildings","shortName":"Building","icon":{"prefix":"https:\/\/ss1.4sqi.net\/img\/categories_v2\/building\/default_","suffix":".png"},"primary":"true"}],"verified":"false","restricted":"true","stats":{"checkinsCount":"144","usersCount":"10","tipCount":"1"},"specials":{"count":"0"},"hereNow":{"count":"0"},"referralId":"v-1392478007"},{"id":"4f3a79a6e4b0f48edbb3a280","name":"Moorgate","location":{"address":"Everywhere!","lat":"51.51912068314585","lng":"-0.08753331889923043","distance":"26","cc":"GB","city":"London","state":"Greater London","country":"United Kingdom"},"categories":[{"id":"4f2a25ac4b909258e854f55f","name":"Neighborhood","pluralName":"Neighborhoods","shortName":"Neighborhood","icon":{"prefix":"https:\/\/ss1.4sqi.net\/img\/categories_v2\/parks_outdoors\/neighborhood_","suffix":".png"},"primary":"true"}],"verified":"false","restricted":"true","stats":{"checkinsCount":"1190","usersCount":"371","tipCount":"5"},"specials":{"count":"0"},"hereNow":{"count":"0"},"referralId":"v-1392478007"},{"id":"4ba9defbf964a520893b3ae3","name":"Barclays","location":{"address":"128 Moorgate","lat":"51.51911101665141","lng":"-0.08740627569554431","distance":"33","postalCode":"EC2M 6SX","cc":"GB","city":"London","state":"Greater London","country":"United Kingdom"},"categories":[{"id":"4bf58dd8d48988d10a951735","name":"Bank","pluralName":"Banks","shortName":"Bank","icon":{"prefix":"https:\/\/ss1.4sqi.net\/img\/categories_v2\/shops\/financial_","suffix":".png"},"primary":"true"}],"verified":"false","restricted":"true","stats":{"checkinsCount":"305","usersCount":"124","tipCount":"3"},"specials":{"count":"0"},"hereNow":{"count":"0"},"referralId":"v-1392478007"},{"id":"4bfaae7d5efe2d7f85f56d34","name":"EAT.","contact":{"phone":"+442076368372","formattedPhone":"+44 20 7636 8372","twitter":"eat_news"},"location":{"address":"143\/171 Moorgate","lat":"51.518919829827404","lng":"-0.08793332837224639","distance":"42","postalCode":"EC2M 6XB","cc":"GB","city":"London","state":"Greater London","country":"United Kingdom"},"categories":[{"id":"4bf58dd8d48988d1c5941735","name":"Sandwich Place","pluralName":"Sandwich Places","shortName":"Sandwiches","icon":{"prefix":"https:\/\/ss1.4sqi.net\/img\/categories_v2\/food\/sandwiches_","suffix":".png"},"primary":"true"}],"verified":"true","restricted":"true","stats":{"checkinsCount":"788","usersCount":"376","tipCount":"1"},"url":"http:\/\/www.eat.co.uk","specials":{"count":"0"},"hereNow":{"count":"0"},"storeId":"EAT - Moorgate","referralId":"v-1392478007"},{"id":"52f1030c498e3b3d81b59975","name":"The Diana Award","location":{"lat":"51.519231","lng":"-0.087754","distance":"7","cc":"GB","country":"United Kingdom"},"categories":[{"id":"4bf58dd8d48988d124941735","name":"Office","pluralName":"Offices","shortName":"Office","icon":{"prefix":"https:\/\/ss1.4sqi.net\/img\/categories_v2\/building\/default_","suffix":".png"},"primary":"true"}],"verified":"false","restricted":"true","stats":{"checkinsCount":"1","usersCount":"1","tipCount":"0"},"specials":{"count":"0"},"hereNow":{"count":"0"},"referralId":"v-1392478007"},{"id":"4feb4cc38055eff11e08881d","name":"South Place Hotel","contact":{"phone":"+442035030000","formattedPhone":"+44 20 3503 0000","twitter":"southplacehotel"},"location":{"address":"3 South Place","crossStreet":"Dominion Street","lat":"51.518937976715875","lng":"-0.08650660514831543","distance":"97","postalCode":"EC2M 2AF","cc":"GB","city":"London","state":"Greater London","country":"United Kingdom"},"categories":[{"id":"4bf58dd8d48988d1fa931735","name":"Hotel","pluralName":"Hotels","shortName":"Hotel","icon":{"prefix":"https:\/\/ss1.4sqi.net\/img\/categories_v2\/travel\/hotel_","suffix":".png"},"primary":"true"}],"verified":"true","restricted":"true","stats":{"checkinsCount":"989","usersCount":"546","tipCount":"14"},"url":"http:\/\/www.southplacehotel.com","specials":{"count":"0"},"hereNow":{"count":"1","groups":[{"type":"others","name":"Other people here","count":"1"}]},"venuePage":{"id":"45064480"},"storeId":"","referralId":"v-1392478007"},{"id":"4acdb1c2f964a520b2cc20e3","name":"Seatwave","location":{"address":"6th Floor, 120 Moorgate","lat":"51.51910537589947","lng":"-0.08796268586788672","distance":"23","postalCode":"EC2M 6UR","cc":"GB","city":"London","state":"Greater London","country":"United Kingdom"},"categories":[{"id":"4bf58dd8d48988d125941735","name":"Tech Startup","pluralName":"Tech Startups","shortName":"Tech Startup","icon":{"prefix":"https:\/\/ss1.4sqi.net\/img\/categories_v2\/shops\/technology_","suffix":".png"},"primary":"true"}],"verified":"true","restricted":"true","stats":{"checkinsCount":"198","usersCount":"38","tipCount":"3"},"url":"http:\/\/www.seatwave.com","specials":{"count":"0"},"hereNow":{"count":"0"},"venuePage":{"id":"33262096"},"referralId":"v-1392478007"},{"id":"4b6af8eef964a520cee92be3","name":"Starbucks","contact":{"phone":"+442075889286","formattedPhone":"+44 20 7588 9286","twitter":"starbucksuk"},"location":{"address":"Units 4, 74\/78 Finsbury Pavement","crossStreet":"At City Rd.","lat":"51.520188344077134","lng":"-0.0873522776850053","distance":"104","postalCode":"EC2A 1AT","cc":"GB","city":"London","state":"Greater London","country":"United Kingdom"},"categories":[{"id":"4bf58dd8d48988d1e0931735","name":"Coffee Shop","pluralName":"Coffee Shops","shortName":"Coffee Shop","icon":{"prefix":"https:\/\/ss1.4sqi.net\/img\/categories_v2\/food\/coffeeshop_","suffix":".png"},"primary":"true"}],"verified":"true","restricted":"true","stats":{"checkinsCount":"2212","usersCount":"905","tipCount":"12"},"url":"http:\/\/www.starbucks.co.uk","specials":{"count":"0"},"hereNow":{"count":"0"},"storeId":"12207","referralId":"v-1392478007"},{"id":"505049dce4b09d38118aa57b","name":"Mace Global Headquarters","location":{"lat":"51.518909369324064","lng":"-0.08815198795237285","distance":"48","cc":"GB","country":"United Kingdom"},"categories":[{"id":"4bf58dd8d48988d124941735","name":"Office","pluralName":"Offices","shortName":"Office","icon":{"prefix":"https:\/\/ss1.4sqi.net\/img\/categories_v2\/building\/default_","suffix":".png"},"primary":"true"}],"verified":"false","restricted":"true","stats":{"checkinsCount":"70","usersCount":"13","tipCount":"0"},"specials":{"count":"0"},"hereNow":{"count":"0"},"referralId":"v-1392478007"},{"id":"4bfa972c5efe2d7feecc6d34","name":"City Point Health Club","contact":{"phone":"+442079206200","formattedPhone":"+44 20 7920 6200","twitter":"kerb_"},"location":{"address":"1 Ropemaker St.","lat":"51.51947906984878","lng":"-0.08903748824162412","distance":"88","postalCode":"EC2Y 9AW","cc":"GB","city":"London","state":"Greater London","country":"United Kingdom"},"categories":[{"id":"4bf58dd8d48988d176941735","name":"Gym","pluralName":"Gyms","shortName":"Gym","icon":{"prefix":"https:\/\/ss1.4sqi.net\/img\/categories_v2\/building\/gym_","suffix":".png"},"primary":"true"}],"verified":"false","restricted":"true","stats":{"checkinsCount":"1222","usersCount":"117","tipCount":"3"},"url":"http:\/\/www.thecitypointclub.co.uk","menu":{"type":"Menu","label":"Menu","anchor":"View Menu","url":"https:\/\/foursquare.com\/v\/city-point-health-club-london-greater-london\/4bfa972c5efe2d7feecc6d34\/menu","mobileUrl":"https:\/\/foursquare.com\/v\/4bfa972c5efe2d7feecc6d34\/device_menu"},"specials":{"count":"0"},"hereNow":{"count":"0"},"referralId":"v-1392478007"},{"id":"522ece4111d28639770f3a95","name":"Pure","contact":{"phone":"+442076288111","formattedPhone":"+44 20 7628 8111","twitter":"puremadeforyou"},"location":{"address":"100 Moorgate","lat":"51.51886852875758","lng":"-0.08803408508549022","distance":"49","postalCode":"EC2M 6AB","cc":"GB","city":"London","state":"Greater London","country":"United Kingdom"},"categories":[{"id":"4bf58dd8d48988d16d941735","name":"Caf\u00e9","pluralName":"Caf\u00e9s","shortName":"Caf\u00e9","icon":{"prefix":"https:\/\/ss1.4sqi.net\/img\/categories_v2\/food\/cafe_","suffix":".png"},"primary":"true"}],"verified":"false","restricted":"true","stats":{"checkinsCount":"68","usersCount":"46","tipCount":"2"},"url":"http:\/\/www.pure-madeforyou.co.uk","menu":{"type":"Menu","label":"Menu","anchor":"View Menu","url":"https:\/\/foursquare.com\/v\/pure\/522ece4111d28639770f3a95\/menu","mobileUrl":"https:\/\/foursquare.com\/v\/522ece4111d28639770f3a95\/device_menu"},"specials":{"count":"0"},"hereNow":{"count":"0"},"referralId":"v-1392478007"},{"id":"4b62dab5f964a520a9552ae3","name":"HSBC","contact":{"phone":"+448457404404","formattedPhone":"+44 845 740 4404"},"location":{"address":"South Place","crossStreet":"City Road","lat":"51.51917330799236","lng":"-0.0873836874961853","distance":"31","cc":"GB","city":"London","state":"Greater London","country":"United Kingdom"},"categories":[{"id":"4bf58dd8d48988d10a951735","name":"Bank","pluralName":"Banks","shortName":"Bank","icon":{"prefix":"https:\/\/ss1.4sqi.net\/img\/categories_v2\/shops\/financial_","suffix":".png"},"primary":"true"}],"verified":"false","restricted":"true","stats":{"checkinsCount":"310","usersCount":"112","tipCount":"1"},"specials":{"count":"0"},"hereNow":{"count":"0"},"referralId":"v-1392478007"},{"id":"4b8e7b76f964a520c62433e3","name":"Hotel Chocolat","contact":{"phone":"+442072562965","formattedPhone":"+44 20 7256 2965","twitter":"hotel_chocolat"},"location":{"address":"143-171 Moorgate","crossStreet":"Ropemaker St.","lat":"51.51905146996554","lng":"-0.087890625","distance":"27","postalCode":"EC2M 6XB","cc":"GB","city":"London","state":"Greater London","country":"United Kingdom"},"categories":[{"id":"4bf58dd8d48988d1f5941735","name":"Gourmet Shop","pluralName":"Gourmet Shops","shortName":"Gourmet","icon":{"prefix":"https:\/\/ss1.4sqi.net\/img\/categories_v2\/shops\/food_gourmet_","suffix":".png"},"primary":"true"}],"verified":"false","restricted":"true","stats":{"checkinsCount":"247","usersCount":"149","tipCount":"5"},"specials":{"count":"0"},"hereNow":{"count":"0"},"referralId":"v-1392478007"},{"id":"4bd1da449854d13a2e5dfa4d","name":"Amber Bar","contact":{"phone":"+442073821690","formattedPhone":"+44 20 7382 1690","twitter":"amberbar"},"location":{"address":"1 Ropemaker St.","lat":"51.519391","lng":"-0.0887985","distance":"69","postalCode":"EC2Y 9AW","cc":"GB","city":"Islington","state":"Greater London","country":"United Kingdom"},"categories":[{"id":"4bf58dd8d48988d11f941735","name":"Nightclub","pluralName":"Nightclubs","shortName":"Nightclub","icon":{"prefix":"https:\/\/ss1.4sqi.net\/img\/categories_v2\/nightlife\/nightclub_","suffix":".png"},"primary":"true"}],"verified":"true","restricted":"true","stats":{"checkinsCount":"851","usersCount":"633","tipCount":"9"},"url":"http:\/\/www.amber-bar.co.uk","reservations":{"url":"http:\/\/www.toptable.co.uk\/single.aspx?rid=54472&ref=9601"},"menu":{"type":"Menu","label":"Menu","anchor":"View Menu","url":"https:\/\/foursquare.com\/v\/amber-bar\/4bd1da449854d13a2e5dfa4d\/menu","mobileUrl":"https:\/\/foursquare.com\/v\/4bd1da449854d13a2e5dfa4d\/device_menu"},"specials":{"count":"0"},"hereNow":{"count":"0"},"storeId":"","referralId":"v-1392478007"},{"id":"4d9ad3f63a32a093cb8c8419","name":"etc.venues 120 Moorgate","contact":{"phone":"+442079899970","formattedPhone":"+44 20 7989 9970","twitter":"etcvenues"},"location":{"address":"120 Moorgate","lat":"51.518917948465955","lng":"-0.08756875991821289","distance":"44","postalCode":"EC2M 6UR","cc":"GB","city":"London","state":"Greater London","country":"United Kingdom"},"categories":[{"id":"4bf58dd8d48988d127941735","name":"Conference Room","pluralName":"Conference Rooms","shortName":"Conference room","icon":{"prefix":"https:\/\/ss1.4sqi.net\/img\/categories_v2\/building\/office_conferenceroom_","suffix":".png"},"primary":"true"}],"verified":"true","restricted":"true","stats":{"checkinsCount":"168","usersCount":"85","tipCount":"5"},"url":"http:\/\/www.etcvenues.co.uk\/venues\/120-moorgate","specials":{"count":"0"},"hereNow":{"count":"0"},"storeId":"","referralId":"v-1392478007"},{"id":"4c6002c03986e21e2730934f","name":"Gap","contact":{"phone":"+442075889437","formattedPhone":"+44 20 7588 9437","twitter":"ukgap"},"location":{"address":"74-78 Finsbury Pavement, London, EC2 1AT","lat":"51.51990830898285","lng":"-0.08747756481170654","distance":"72","postalCode":"EC2 1AT","cc":"GB","city":"London","state":"Greater London","country":"United Kingdom"},"categories":[{"id":"4bf58dd8d48988d103951735","name":"Clothing Store","pluralName":"Clothing Stores","shortName":"Apparel","icon":{"prefix":"https:\/\/ss1.4sqi.net\/img\/categories_v2\/shops\/apparel_","suffix":".png"},"primary":"true"}],"verified":"true","restricted":"true","stats":{"checkinsCount":"367","usersCount":"249","tipCount":"1"},"url":"http:\/\/www.gap.eu","specials":{"count":"0"},"hereNow":{"count":"0"},"storeId":"2775","referralId":"v-1392478007"},{"id":"4d6168fed7206ea8b50300f2","name":"Nationwide","location":{"address":"101\/107 Finsbury Court EC2A 1RS","lat":"51.519428138185894","lng":"-0.08764271258748536","distance":"19","postalCode":"United Kingd","cc":"GB","country":"United Kingdom"},"categories":[{"id":"4bf58dd8d48988d10a951735","name":"Bank","pluralName":"Banks","shortName":"Bank","icon":{"prefix":"https:\/\/ss1.4sqi.net\/img\/categories_v2\/shops\/financial_","suffix":".png"},"primary":"true"}],"verified":"false","restricted":"true","stats":{"checkinsCount":"87","usersCount":"29","tipCount":"0"},"specials":{"count":"0"},"hereNow":{"count":"0"},"referralId":"v-1392478007"},{"id":"5278b96d11d247fb98feb74e","name":"Last Word Media","contact":{"twitter":"last_word_media"},"location":{"address":"5th Floor, 120 Moorgate","lat":"51.51867337735639","lng":"-0.08771570524477094","distance":"68","postalCode":"EC2M 6UR","cc":"GB","city":"London","state":"Greater London","country":"United Kingdom"},"categories":[{"id":"4bf58dd8d48988d124941735","name":"Office","pluralName":"Offices","shortName":"Office","icon":{"prefix":"https:\/\/ss1.4sqi.net\/img\/categories_v2\/building\/default_","suffix":".png"},"primary":"true"}],"verified":"false","restricted":"true","stats":{"checkinsCount":"46","usersCount":"2","tipCount":"0"},"specials":{"count":"0"},"hereNow":{"count":"0"},"referralId":"v-1392478007"},{"id":"5153f107e4b0e5a8ee40a6a7","name":"TFL - Barclays Cycle Hire (Moorfields)","location":{"lat":"51.51890922712106","lng":"-0.08873067265447937","distance":"76","cc":"GB","country":"United Kingdom"},"categories":[{"id":"4e4c9077bd41f78e849722f9","name":"Bike Rental \/ Bike Share","pluralName":"Bike Rentals \/ Bike Shares","shortName":"Bike","icon":{"prefix":"https:\/\/ss1.4sqi.net\/img\/categories_v2\/shops\/bikeshop_","suffix":".png"},"primary":"true"}],"verified":"false","restricted":"true","stats":{"checkinsCount":"98","usersCount":"1","tipCount":"0"},"specials":{"count":"0"},"hereNow":{"count":"0"},"referralId":"v-1392478007"},{"id":"5191b79b498ecf861dfade1a","name":"South Place Hotel Gym & Spa","location":{"address":"3 South Place","lat":"51.51907817421849","lng":"-0.08681774139404297","distance":"72","postalCode":"EC2M 2AF","cc":"GB","city":"London","state":"Greater London","country":"United Kingdom"},"categories":[{"id":"4bf58dd8d48988d175941735","name":"Gym \/ Fitness Center","pluralName":"Gyms or Fitness Centers","shortName":"Gym \/ Fitness","icon":{"prefix":"https:\/\/ss1.4sqi.net\/img\/categories_v2\/building\/gym_","suffix":".png"},"primary":"true"}],"verified":"false","restricted":"true","stats":{"checkinsCount":"38","usersCount":"12","tipCount":"0"},"specials":{"count":"0"},"hereNow":{"count":"0"},"referralId":"v-1392478007"},{"id":"4afec4edf964a520433022e3","name":"Rack and Tenter","contact":{"phone":"+442076283675","formattedPhone":"+44 20 7628 3675","twitter":"rackandtenter"},"location":{"address":"45 Moorfields","lat":"51.518996116667076","lng":"-0.08917788221895981","distance":"100","postalCode":"EC2Y 9AE","cc":"GB","city":"London","state":"Greater London","country":"United Kingdom"},"categories":[{"id":"4bf58dd8d48988d11b941735","name":"Pub","pluralName":"Pubs","shortName":"Pub","icon":{"prefix":"https:\/\/ss1.4sqi.net\/img\/categories_v2\/nightlife\/pub_","suffix":".png"},"primary":"true"}],"verified":"false","restricted":"true","stats":{"checkinsCount":"760","usersCount":"346","tipCount":"2"},"url":"http:\/\/www.rackandtenterpub.co.uk","menu":{"type":"Menu","label":"Menu","anchor":"View Menu","url":"https:\/\/foursquare.com\/v\/rack-and-tenter\/4afec4edf964a520433022e3\/menu","mobileUrl":"https:\/\/foursquare.com\/v\/4afec4edf964a520433022e3\/device_menu"},"specials":{"count":"0"},"hereNow":{"count":"0"},"referralId":"v-1392478007"},{"id":"4f3bf1b4e4b08b7acf3f60fa","name":"The Bank of Tokyo-Mitsubishi UFJ","contact":{"phone":"+442075771000","formattedPhone":"+44 20 7577 1000"},"location":{"address":"25 Ropemaker St.","lat":"51.519622438438354","lng":"-0.08903819247779908","distance":"93","postalCode":"EC2Y 9AN","cc":"GB","city":"London","state":"Greater London","country":"United Kingdom"},"categories":[{"id":"4bf58dd8d48988d124941735","name":"Office","pluralName":"Offices","shortName":"Office","icon":{"prefix":"https:\/\/ss1.4sqi.net\/img\/categories_v2\/building\/default_","suffix":".png"},"primary":"true"}],"verified":"false","restricted":"true","stats":{"checkinsCount":"316","usersCount":"31","tipCount":"0"},"specials":{"count":"0"},"hereNow":{"count":"0"},"referralId":"v-1392478007"},{"id":"50237f538055249578a0f772","name":"Angler Rooftop Restaurant and Terrace","contact":{"phone":"+442035030000","formattedPhone":"+44 20 3503 0000","twitter":"danddlondon"},"location":{"address":"South Place Hotel","crossStreet":"at 3 South Pl","lat":"51.51887789193976","lng":"-0.08692502975463867","distance":"76","postalCode":"EC2M 2AF","cc":"GB","city":"London","state":"Greater London","country":"United Kingdom"},"categories":[{"id":"4bf58dd8d48988d1ce941735","name":"Seafood Restaurant","pluralName":"Seafood Restaurants","shortName":"Seafood","icon":{"prefix":"https:\/\/ss1.4sqi.net\/img\/categories_v2\/food\/seafood_","suffix":".png"},"primary":"true"}],"verified":"true","restricted":"true","stats":{"checkinsCount":"181","usersCount":"128","tipCount":"4"},"url":"http:\/\/www.southplacehotel.com","reservations":{"url":"http:\/\/www.toptable.co.uk\/single.aspx?rid=92148&ref=9601"},"menu":{"type":"Menu","label":"Menu","anchor":"View Menu","url":"https:\/\/foursquare.com\/v\/angler-rooftop-restaurant-and-terrace\/50237f538055249578a0f772\/menu","mobileUrl":"https:\/\/foursquare.com\/v\/50237f538055249578a0f772\/device_menu"},"specials":{"count":"0"},"hereNow":{"count":"0"},"storeId":"Angler","referralId":"v-1392478007"},{"id":"4de4a6047d8b2547eb37711a","name":"CityPoint","location":{"address":"1 Ropemaker St.","lat":"51.519416694730474","lng":"-0.08906072315337905","distance":"88","postalCode":"EC2Y 9NY","cc":"GB","city":"London","state":"Greater London","country":"United Kingdom"},"categories":[{"id":"4bf58dd8d48988d130941735","name":"Building","pluralName":"Buildings","shortName":"Building","icon":{"prefix":"https:\/\/ss1.4sqi.net\/img\/categories_v2\/building\/default_","suffix":".png"},"primary":"true"}],"verified":"false","restricted":"true","stats":{"checkinsCount":"628","usersCount":"230","tipCount":"2"},"specials":{"count":"0"},"hereNow":{"count":"0"},"referralId":"v-1392478007"},{"id":"4b190e2df964a52080d723e3","name":"British Red Cross","location":{"address":"44 Moorfields","lat":"51.51920153692928","lng":"-0.08874428878440835","distance":"65","postalCode":"EC2Y9AL","cc":"GB","city":"London","state":"Greater London","country":"United Kingdom"},"categories":[{"id":"4bf58dd8d48988d124941735","name":"Office","pluralName":"Offices","shortName":"Office","icon":{"prefix":"https:\/\/ss1.4sqi.net\/img\/categories_v2\/building\/default_","suffix":".png"},"primary":"true"}],"verified":"false","restricted":"true","stats":{"checkinsCount":"421","usersCount":"87","tipCount":"1"},"specials":{"count":"0"},"hereNow":{"count":"0"},"referralId":"v-1392478007"},{"id":"4d4ace49782f3704ec5a7c37","name":"Markit","contact":{"twitter":"markit"},"location":{"address":"25 Ropemarker Street","crossStreet":"Moor Lane","lat":"51.51976047074108","lng":"-0.08914658053635849","distance":"106","postalCode":"EC2Y 9LY","cc":"GB","city":"London","state":"Greater London","country":"United Kingdom"},"categories":[{"id":"4bf58dd8d48988d124941735","name":"Office","pluralName":"Offices","shortName":"Office","icon":{"prefix":"https:\/\/ss1.4sqi.net\/img\/categories_v2\/building\/default_","suffix":".png"},"primary":"true"}],"verified":"false","restricted":"true","stats":{"checkinsCount":"731","usersCount":"30","tipCount":"0"},"url":"http:\/\/www.markit.com","specials":{"count":"0"},"hereNow":{"count":"0"},"referralId":"v-1392478007"},{"id":"50237ded8055249578a0d09a","name":"3 South Place","contact":{"phone":"+442035030000","formattedPhone":"+44 20 3503 0000","twitter":"danddlondon"},"location":{"address":"3 South Place","lat":"51.51890459629448","lng":"-0.0867319107055664","distance":"85","postalCode":"EC2M 2AF","cc":"GB","city":"London","state":"Greater London","country":"United Kingdom"},"categories":[{"id":"4bf58dd8d48988d1c4941735","name":"Restaurant","pluralName":"Restaurants","shortName":"Restaurant","icon":{"prefix":"https:\/\/ss1.4sqi.net\/img\/categories_v2\/food\/default_","suffix":".png"},"primary":"true"}],"verified":"true","restricted":"true","stats":{"checkinsCount":"85","usersCount":"70","tipCount":"2"},"url":"http:\/\/www.southplacehotel.com","reservations":{"url":"http:\/\/www.toptable.co.uk\/single.aspx?rid=92145&ref=9601"},"menu":{"type":"Menu","label":"Menu","anchor":"View Menu","url":"https:\/\/foursquare.com\/v\/3-south-place\/50237ded8055249578a0d09a\/menu","mobileUrl":"https:\/\/foursquare.com\/v\/50237ded8055249578a0d09a\/device_menu"},"specials":{"count":"0"},"hereNow":{"count":"0"},"storeId":"3 South Place","referralId":"v-1392478007"},{"id":"4ad6d47bf964a5204e0821e3","name":"Simmons & Simmons CityPoint","contact":{"phone":"+442076282020","formattedPhone":"+44 20 7628 2020"},"location":{"address":"One Ropemaker Street","lat":"51.51941644121836","lng":"-0.08940462785302858","distance":"111","postalCode":"EC2Y 9SS","cc":"GB","city":"London","state":"Greater London","country":"United Kingdom"},"categories":[{"id":"4bf58dd8d48988d124941735","name":"Office","pluralName":"Offices","shortName":"Office","icon":{"prefix":"https:\/\/ss1.4sqi.net\/img\/categories_v2\/building\/default_","suffix":".png"},"primary":"true"}],"verified":"false","restricted":"true","stats":{"checkinsCount":"592","usersCount":"72","tipCount":"0"},"specials":{"count":"0"},"hereNow":{"count":"0"},"referralId":"v-1392478007"}],"confident":"false"}}