{"meta":{"code":"200"},"response":{"venues":[{"id":"4ac518b6f964a52009a120e3","name":"Radisson Blu Edwardian Grafton Hotel","contact":{"phone":"+442073884131","formattedPhone":"+44 20 7388 4131","twitter":"rbehotels"},"location":{"address":"130 Tottenham Court Rd","lat":"51.52421669179782","lng":"-0.13786721312790073","distance":"9","postalCode":"W1T 5AY","cc":"GB","city":"London","state":"Greater London","country":"United Kingdom"},"categories":[{"id":"4bf58dd8d48988d1fa931735","name":"Hotel","pluralName":"Hotels","shortName":"Hotel","icon":{"prefix":"https:\/\/ss1.4sqi.net\/img\/categories_v2\/travel\/hotel_","suffix":".png"},"primary":"true"}],"verified":"true","restricted":"true","stats":{"checkinsCount":"2607","usersCount":"1253","tipCount":"38"},"url":"http:\/\/www.radissonedwardian.com","specials":{"count":"0"},"hereNow":{"count":"0"},"storeId":"","referralId":"v-1392477989"},{"id":"4ad77a44f964a520290b21e3","name":"McDonald's","contact":{"phone":"+442073889026","formattedPhone":"+44 20 7388 9026","twitter":"mcdonalds"},"location":{"address":"134 Tottenham Court Rd.","crossStreet":"Warren St.","lat":"51.524402021891454","lng":"-0.13788163661956787","distance":"13","postalCode":"W1T 5BA","cc":"GB","city":"Camden","state":"Greater London","country":"United Kingdom"},"categories":[{"id":"4bf58dd8d48988d16e941735","name":"Fast Food Restaurant","pluralName":"Fast Food Restaurants","shortName":"Fast Food","icon":{"prefix":"https:\/\/ss1.4sqi.net\/img\/categories_v2\/food\/fastfood_","suffix":".png"},"primary":"true"}],"verified":"false","restricted":"true","stats":{"checkinsCount":"1098","usersCount":"706","tipCount":"12"},"specials":{"count":"0"},"hereNow":{"count":"0"},"referralId":"v-1392477989"},{"id":"4b61e951f964a520c82a2ae3","name":"Wasabi","contact":{"phone":"+442073837772","formattedPhone":"+44 20 7383 7772"},"location":{"address":"127 Tottenham Court Rd","lat":"51.524064918960526","lng":"-0.13771533966064453","distance":"25","postalCode":"W1T 5AU","cc":"GB","city":"Marylebone","state":"Greater London","country":"United Kingdom"},"categories":[{"id":"4bf58dd8d48988d1d2941735","name":"Sushi Restaurant","pluralName":"Sushi Restaurants","shortName":"Sushi","icon":{"prefix":"https:\/\/ss1.4sqi.net\/img\/categories_v2\/food\/sushi_","suffix":".png"},"primary":"true"}],"verified":"false","restricted":"true","stats":{"checkinsCount":"549","usersCount":"284","tipCount":"9"},"specials":{"count":"0"},"hereNow":{"count":"0"},"referralId":"v-1392477989"},{"id":"4bd5d8b34e32d13ad394c180","name":"Sainsbury's","contact":{"phone":"+442073875802","formattedPhone":"+44 20 7387 5802"},"location":{"address":"145 Tottenham Court Rd","crossStreet":"opp Warren Street","lat":"51.52419094152394","lng":"-0.13742465926678038","distance":"28","postalCode":"W1T 7NE","cc":"GB","city":"London","state":"Greater London","country":"United Kingdom"},"categories":[{"id":"4bf58dd8d48988d118951735","name":"Grocery Store","pluralName":"Grocery Stores","shortName":"Grocery Store","icon":{"prefix":"https:\/\/ss1.4sqi.net\/img\/categories_v2\/shops\/food_grocery_","suffix":".png"},"primary":"true"}],"verified":"false","restricted":"true","stats":{"checkinsCount":"1397","usersCount":"506","tipCount":"7"},"specials":{"count":"0"},"hereNow":{"count":"0"},"referralId":"v-1392477989"},{"id":"506bf2ebc84c508f70ed06dc","name":"Caff\u00e8 Nero","location":{"address":"126 Tottenham Court Rd.","lat":"51.52397813958432","lng":"-0.13768315315246582","distance":"35","postalCode":"W1T 5AT","cc":"GB","city":"London","state":"Greater London","country":"United Kingdom"},"categories":[{"id":"4bf58dd8d48988d1e0931735","name":"Coffee Shop","pluralName":"Coffee Shops","shortName":"Coffee Shop","icon":{"prefix":"https:\/\/ss1.4sqi.net\/img\/categories_v2\/food\/coffeeshop_","suffix":".png"},"primary":"true"}],"verified":"false","restricted":"true","stats":{"checkinsCount":"661","usersCount":"283","tipCount":"7"},"specials":{"count":"0"},"hereNow":{"count":"0"},"referralId":"v-1392477989"},{"id":"4bb302d9a32876b0ad4001fe","name":"Maple House","location":{"address":"149 Tottenham Court Road","lat":"51.524406298439544","lng":"-0.13740914080033745","distance":"30","postalCode":"W1T 7NE","cc":"GB","country":"United Kingdom"},"categories":[{"id":"4bf58dd8d48988d124941735","name":"Office","pluralName":"Offices","shortName":"Office","icon":{"prefix":"https:\/\/ss1.4sqi.net\/img\/categories_v2\/building\/default_","suffix":".png"},"primary":"true"}],"verified":"false","restricted":"true","stats":{"checkinsCount":"1258","usersCount":"71","tipCount":"1"},"specials":{"count":"0"},"hereNow":{"count":"0"},"referralId":"v-1392477989"},{"id":"4ad7a555f964a520350d21e3","name":"The Northumberland Arms","contact":{"phone":"+442073875730","formattedPhone":"+44 20 7387 5730"},"location":{"address":"119 Tottenham Court Rd","crossStreet":"Grafton Way","lat":"51.523827","lng":"-0.137178","distance":"67","postalCode":"W1T 5AW","cc":"GB","city":"London","state":"Greater London","country":"United Kingdom"},"categories":[{"id":"4bf58dd8d48988d11b941735","name":"Pub","pluralName":"Pubs","shortName":"Pub","icon":{"prefix":"https:\/\/ss1.4sqi.net\/img\/categories_v2\/nightlife\/pub_","suffix":".png"},"primary":"true"}],"verified":"false","restricted":"true","stats":{"checkinsCount":"1009","usersCount":"729","tipCount":"12"},"specials":{"count":"0"},"hereNow":{"count":"1","groups":[{"type":"others","name":"Other people here","count":"1"}]},"referralId":"v-1392477989"},{"id":"4ad73549f964a520fd0821e3","name":"Prince of Wales Feathers","location":{"address":"Warren St","lat":"51.524455","lng":"-0.138482","distance":"50","cc":"GB","city":"London","state":"Greater London","country":"United Kingdom"},"categories":[{"id":"4bf58dd8d48988d11b941735","name":"Pub","pluralName":"Pubs","shortName":"Pub","icon":{"prefix":"https:\/\/ss1.4sqi.net\/img\/categories_v2\/nightlife\/pub_","suffix":".png"},"primary":"true"}],"verified":"false","restricted":"true","stats":{"checkinsCount":"1243","usersCount":"659","tipCount":"19"},"menu":{"type":"Menu","label":"Menu","anchor":"View Menu","url":"https:\/\/foursquare.com\/v\/prince-of-wales-feathers\/4ad73549f964a520fd0821e3\/menu","mobileUrl":"https:\/\/foursquare.com\/v\/4ad73549f964a520fd0821e3\/device_menu"},"specials":{"count":"0"},"hereNow":{"count":"0"},"referralId":"v-1392477989"},{"id":"4aeeda1df964a52062d421e3","name":"Currys PC World","contact":{"phone":"+448445610000","formattedPhone":"+44 844 561 0000","twitter":"curryspcworld","facebook":"282722695080974"},"location":{"address":"145-149 Tottenham Court Rd.","lat":"51.52394991524669","lng":"-0.1371757997068886","distance":"57","postalCode":"W1T 7NE","cc":"GB","city":"London","state":"Greater London","country":"United Kingdom"},"categories":[{"id":"4bf58dd8d48988d122951735","name":"Electronics Store","pluralName":"Electronics Stores","shortName":"Electronics","icon":{"prefix":"https:\/\/ss1.4sqi.net\/img\/categories_v2\/shops\/technology_","suffix":".png"},"primary":"true"}],"verified":"true","restricted":"true","stats":{"checkinsCount":"1044","usersCount":"570","tipCount":"7"},"url":"http:\/\/www.pcworld.co.uk","specials":{"count":"0"},"hereNow":{"count":"0"},"storeId":"","referralId":"v-1392477989"},{"id":"512c9cdbe4b0a7144f8f2ede","name":"Euston Tower","location":{"address":"Euston Rd","lat":"51.525134622948315","lng":"-0.13888296203014278","distance":"120","cc":"GB","city":"London","state":"Greater London","country":"United Kingdom"},"categories":[{"id":"4bf58dd8d48988d124941735","name":"Office","pluralName":"Offices","shortName":"Office","icon":{"prefix":"https:\/\/ss1.4sqi.net\/img\/categories_v2\/building\/default_","suffix":".png"},"primary":"true"}],"verified":"false","restricted":"true","stats":{"checkinsCount":"141","usersCount":"71","tipCount":"0"},"specials":{"count":"0"},"hereNow":{"count":"1","groups":[{"type":"others","name":"Other people here","count":"1"}]},"referralId":"v-1392477989"},{"id":"52809da111d2346013d4d90f","name":"Kamps","location":{"address":"154 Tottenham Court Road","lat":"51.523503567103454","lng":"-0.13700206881657104","distance":"103","postalCode":"W1T 7NQ","cc":"GB","city":"London","state":"Greater London","country":"United Kingdom"},"categories":[{"id":"4bf58dd8d48988d16a941735","name":"Bakery","pluralName":"Bakeries","shortName":"Bakery","icon":{"prefix":"https:\/\/ss1.4sqi.net\/img\/categories_v2\/food\/bakery_","suffix":".png"},"primary":"true"}],"verified":"false","restricted":"true","stats":{"checkinsCount":"84","usersCount":"56","tipCount":"4"},"url":"http:\/\/www.kamps.co.uk","specials":{"count":"0"},"hereNow":{"count":"0"},"referralId":"v-1392477989"},{"id":"51659d96e4b0203d5b1d5c6e","name":"Trunk","contact":{"phone":"+442076665430","formattedPhone":"+44 20 7666 5430"},"location":{"address":"6-7 Warren St","lat":"51.52447728337082","lng":"-0.1384203699231907","distance":"47","postalCode":"W1T 5LB","cc":"GB","city":"London","state":"Greater London","country":"United Kingdom"},"categories":[{"id":"4bf58dd8d48988d121941735","name":"Lounge","pluralName":"Lounges","shortName":"Lounge","icon":{"prefix":"https:\/\/ss1.4sqi.net\/img\/categories_v2\/nightlife\/lounge_","suffix":".png"},"primary":"true"}],"verified":"false","restricted":"true","stats":{"checkinsCount":"92","usersCount":"66","tipCount":"6"},"specials":{"count":"0"},"hereNow":{"count":"0"},"referralId":"v-1392477989"},{"id":"4b8d1929f964a520d0e732e3","name":"ASK Italian","contact":{"phone":"+442073888108","formattedPhone":"+44 20 7388 8108","twitter":"askitalian"},"location":{"address":"48 Grafton Way","lat":"51.5235839","lng":"-0.13752","distance":"80","postalCode":"W1T 5DZ","cc":"GB","city":"Camden Town","state":"Greater London","country":"United Kingdom"},"categories":[{"id":"4bf58dd8d48988d110941735","name":"Italian Restaurant","pluralName":"Italian Restaurants","shortName":"Italian","icon":{"prefix":"https:\/\/ss1.4sqi.net\/img\/categories_v2\/food\/italian_","suffix":".png"},"primary":"true"}],"verified":"true","restricted":"true","stats":{"checkinsCount":"299","usersCount":"246","tipCount":"7"},"url":"http:\/\/www.askitalian.co.uk","specials":{"count":"0"},"hereNow":{"count":"0"},"storeId":"","referralId":"v-1392477989"},{"id":"4c5d48a985a1e21e3aef5811","name":"All Flutes Plus","location":{"address":"60-61 Warren St","lat":"51.52416524496693","lng":"-0.13925800747783265","distance":"101","postalCode":"W1T 5NZ","cc":"GB","city":"London","state":"Greater London","country":"United Kingdom"},"categories":[{"id":"4bf58dd8d48988d1fe941735","name":"Music Store","pluralName":"Music Stores","shortName":"Music Store","icon":{"prefix":"https:\/\/ss1.4sqi.net\/img\/categories_v2\/shops\/music_instruments_","suffix":".png"},"primary":"true"}],"verified":"false","restricted":"true","stats":{"checkinsCount":"62","usersCount":"12","tipCount":"2"},"specials":{"count":"0"},"hereNow":{"count":"1","groups":[{"type":"others","name":"Other people here","count":"1"}]},"referralId":"v-1392477989"},{"id":"4c5aaff4ec2520a1e2035212","name":"Health Food Centre Cafe","contact":{"phone":"+442073879289","formattedPhone":"+44 20 7387 9289"},"location":{"address":"10-11 Warren St.","crossStreet":"at Tottenham Ct Rd.","lat":"51.52443403241166","lng":"-0.13877","distance":"68","postalCode":"W1T 5LG","cc":"GB","city":"London","state":"Greater London","country":"United Kingdom"},"categories":[{"id":"4bf58dd8d48988d1d3941735","name":"Vegetarian \/ Vegan Restaurant","pluralName":"Vegetarian \/ Vegan Restaurants","shortName":"Vegetarian \/ Vegan","icon":{"prefix":"https:\/\/ss1.4sqi.net\/img\/categories_v2\/food\/vegetarian_","suffix":".png"},"primary":"true"}],"verified":"false","restricted":"true","stats":{"checkinsCount":"208","usersCount":"67","tipCount":"3"},"specials":{"count":"0"},"hereNow":{"count":"0"},"referralId":"v-1392477989"},{"id":"50f5c2e0e4b06983cbcbb1fe","name":"Euston","location":{"address":"Euston Rd","lat":"51.52512830894113","lng":"-0.13630434178618017","distance":"139","postalCode":"NW1","cc":"GB","city":"Camden","state":"Greater London","country":"United Kingdom"},"categories":[{"id":"4f2a25ac4b909258e854f55f","name":"Neighborhood","pluralName":"Neighborhoods","shortName":"Neighborhood","icon":{"prefix":"https:\/\/ss1.4sqi.net\/img\/categories_v2\/parks_outdoors\/neighborhood_","suffix":".png"},"primary":"true"}],"verified":"false","restricted":"true","stats":{"checkinsCount":"485","usersCount":"273","tipCount":"0"},"specials":{"count":"0"},"hereNow":{"count":"0"},"referralId":"v-1392477989"},{"id":"4c0beb727e3fc9283a02f682","name":"Tesco Express","contact":{"phone":"+448450269364","formattedPhone":"+44 845 026 9364","twitter":"uktescooffers"},"location":{"address":"124\/125 Tottenham Court Road","lat":"51.52408334366363","lng":"-0.13730944069856785","distance":"41","postalCode":"W1T 5AS","cc":"GB","city":"London","state":"Greater London","country":"United Kingdom"},"categories":[{"id":"4bf58dd8d48988d118951735","name":"Grocery Store","pluralName":"Grocery Stores","shortName":"Grocery Store","icon":{"prefix":"https:\/\/ss1.4sqi.net\/img\/categories_v2\/shops\/food_grocery_","suffix":".png"},"primary":"true"}],"verified":"true","restricted":"true","stats":{"checkinsCount":"502","usersCount":"247","tipCount":"6"},"url":"http:\/\/www.tesco.com","specials":{"count":"0"},"hereNow":{"count":"0"},"storeId":"2775","referralId":"v-1392477989"},{"id":"4b9a87a6f964a5204abe35e3","name":"Robert Dyas","contact":{"phone":"+442073880183","formattedPhone":"+44 20 7388 0183","twitter":"robertdyas"},"location":{"address":"123 Tottenham Court Rd","lat":"51.52397053136881","lng":"-0.13726317168513855","distance":"51","postalCode":"W1T 5AR","cc":"GB","city":"London","state":"Greater London","country":"United Kingdom"},"categories":[{"id":"4bf58dd8d48988d112951735","name":"Hardware Store","pluralName":"Hardware Stores","shortName":"Hardware","icon":{"prefix":"https:\/\/ss1.4sqi.net\/img\/categories_v2\/shops\/hardware_","suffix":".png"},"primary":"true"}],"verified":"true","restricted":"true","stats":{"checkinsCount":"172","usersCount":"94","tipCount":"0"},"url":"http:\/\/www.robertdyas.co.uk","specials":{"count":"0"},"hereNow":{"count":"0"},"storeId":"050","referralId":"v-1392477989"},{"id":"4ac518e2f964a52098aa20e3","name":"Lal Qila","location":{"address":"117 Tottenham Court Road","lat":"51.523533","lng":"-0.137135","distance":"96","postalCode":"W1T 5AL","cc":"GB","city":"London","state":"Greater London","country":"United Kingdom"},"categories":[{"id":"4bf58dd8d48988d10f941735","name":"Indian Restaurant","pluralName":"Indian Restaurants","shortName":"Indian","icon":{"prefix":"https:\/\/ss1.4sqi.net\/img\/categories_v2\/food\/indian_","suffix":".png"},"primary":"true"}],"verified":"false","restricted":"true","stats":{"checkinsCount":"173","usersCount":"130","tipCount":"8"},"url":"http:\/\/www.lalqilalondon.com","menu":{"type":"Menu","label":"Menu","anchor":"View Menu","url":"https:\/\/foursquare.com\/v\/lal-qila\/4ac518e2f964a52098aa20e3\/menu","mobileUrl":"https:\/\/foursquare.com\/v\/4ac518e2f964a52098aa20e3\/device_menu"},"specials":{"count":"0"},"hereNow":{"count":"0"},"referralId":"v-1392477989"},{"id":"4b7066f1f964a52021182de3","name":"Sardo","location":{"address":"45 Grafton Way","lat":"51.523282","lng":"-0.138193","distance":"115","postalCode":"W1T 5DQ","cc":"GB","city":"Camden Town","state":"Greater London","country":"United Kingdom"},"categories":[{"id":"4bf58dd8d48988d110941735","name":"Italian Restaurant","pluralName":"Italian Restaurants","shortName":"Italian","icon":{"prefix":"https:\/\/ss1.4sqi.net\/img\/categories_v2\/food\/italian_","suffix":".png"},"primary":"true"}],"verified":"false","restricted":"true","stats":{"checkinsCount":"485","usersCount":"322","tipCount":"11"},"url":"http:\/\/www.sardo-restaurant.com","reservations":{"url":"http:\/\/www.toptable.co.uk\/single.aspx?rid=25426&ref=9601"},"menu":{"type":"Menu","label":"Menu","anchor":"View Menu","url":"https:\/\/foursquare.com\/v\/sardo\/4b7066f1f964a52021182de3\/menu","mobileUrl":"https:\/\/foursquare.com\/v\/4b7066f1f964a52021182de3\/device_menu"},"specials":{"count":"0"},"hereNow":{"count":"0"},"referralId":"v-1392477989"},{"id":"4cd28d31f4bfb1f7795c362f","name":"Scott's Travel","location":{"lat":"51.523768793787305","lng":"-0.13851972029278686","distance":"76","cc":"GB","country":"United Kingdom"},"categories":[{"id":"4f04b08c2fb6e1c99f3db0bd","name":"Travel Agency","pluralName":"Travel Agencies","shortName":"Travel Agency","icon":{"prefix":"https:\/\/ss1.4sqi.net\/img\/categories_v2\/travel\/travelagency_","suffix":".png"},"primary":"true"}],"verified":"false","restricted":"true","stats":{"checkinsCount":"23","usersCount":"13","tipCount":"0"},"specials":{"count":"0"},"hereNow":{"count":"0"},"referralId":"v-1392477989"},{"id":"4c44e1e8dcd61b8d7dfe7b56","name":"Vault","location":{"address":"139-143 Whitfield Street","lat":"51.523749","lng":"-0.138501","distance":"77","postalCode":"W1T 5EN","cc":"GB","city":"Camden Town","state":"Greater London","country":"United Kingdom"},"categories":[{"id":"4bf58dd8d48988d1d8941735","name":"Gay Bar","pluralName":"Gay Bars","shortName":"Gay Bar","icon":{"prefix":"https:\/\/ss1.4sqi.net\/img\/categories_v2\/nightlife\/gaybar_","suffix":".png"},"primary":"true"}],"verified":"false","restricted":"true","stats":{"checkinsCount":"91","usersCount":"39","tipCount":"0"},"specials":{"count":"0"},"hereNow":{"count":"0"},"referralId":"v-1392477989"},{"id":"4fda7e61e4b01007ea23cb9f","name":"Sterns African Record Centre","location":{"address":"293 Euston Road","lat":"51.524579","lng":"-0.138477","distance":"56","cc":"GB","city":"London","state":"Greater London","country":"United Kingdom"},"categories":[{"id":"4bf58dd8d48988d1fe941735","name":"Music Store","pluralName":"Music Stores","shortName":"Music Store","icon":{"prefix":"https:\/\/ss1.4sqi.net\/img\/categories_v2\/shops\/music_instruments_","suffix":".png"},"primary":"true"}],"verified":"false","restricted":"true","stats":{"checkinsCount":"45","usersCount":"13","tipCount":"0"},"specials":{"count":"0"},"hereNow":{"count":"0"},"referralId":"v-1392477989"},{"id":"50e5d0d0e4b04e9b0cafd21f","name":"Warren Street Station Bus Stop R","contact":{"twitter":"tflbusalerts"},"location":{"address":"Hampstead Road","crossStreet":"Euston Road","lat":"51.52521667256455","lng":"-0.1384816253911028","distance":"113","postalCode":"NW1","cc":"GB","city":"London","state":"Greater London","country":"United Kingdom"},"categories":[{"id":"4bf58dd8d48988d1fe931735","name":"Bus Station","pluralName":"Bus Stations","shortName":"Bus Station","icon":{"prefix":"https:\/\/ss1.4sqi.net\/img\/categories_v2\/travel\/busstation_","suffix":".png"},"primary":"true"}],"verified":"false","restricted":"true","stats":{"checkinsCount":"88","usersCount":"56","tipCount":"0"},"specials":{"count":"0"},"hereNow":{"count":"0"},"referralId":"v-1392477989"},{"id":"4caaddee44a8224b69e42840","name":"Boots","location":{"address":"120 Tottenham Court Rd","crossStreet":"at Grafton Way","lat":"51.523755275143735","lng":"-0.13709967746517696","distance":"76","postalCode":"W1T 5AR","cc":"GB","city":"St Giles","state":"Greater London","country":"United Kingdom"},"categories":[{"id":"4bf58dd8d48988d10f951735","name":"Drugstore \/ Pharmacy","pluralName":"Drugstores \/ Pharmacies","shortName":"Pharmacy","icon":{"prefix":"https:\/\/ss1.4sqi.net\/img\/categories_v2\/shops\/pharmacy_","suffix":".png"},"primary":"true"}],"verified":"false","restricted":"true","stats":{"checkinsCount":"180","usersCount":"119","tipCount":"1"},"specials":{"count":"0"},"hereNow":{"count":"0"},"referralId":"v-1392477989"},{"id":"4f7d6475e4b0bf87a992ac6f","name":"Stevenson House","location":{"lat":"51.524307","lng":"-0.13787","distance":"5","cc":"GB","city":"London","state":"Greater London","country":"United Kingdom"},"categories":[{"id":"4bf58dd8d48988d130941735","name":"Building","pluralName":"Buildings","shortName":"Building","icon":{"prefix":"https:\/\/ss1.4sqi.net\/img\/categories_v2\/building\/default_","suffix":".png"},"primary":"true"}],"verified":"false","restricted":"true","stats":{"checkinsCount":"1","usersCount":"1","tipCount":"0"},"specials":{"count":"0"},"hereNow":{"count":"0"},"referralId":"v-1392477989"},{"id":"4fc1702ce4b0c9fe05cc12b0","name":"Londis 24 Hours","location":{"lat":"51.524349","lng":"-0.13775","distance":"7","cc":"GB","country":"United Kingdom"},"categories":[{"id":"4d954b0ea243a5684a65b473","name":"Convenience Store","pluralName":"Convenience Stores","shortName":"Convenience Stores","icon":{"prefix":"https:\/\/ss1.4sqi.net\/img\/categories_v2\/shops\/conveniencestore_","suffix":".png"},"primary":"true"}],"verified":"false","restricted":"true","stats":{"checkinsCount":"9","usersCount":"8","tipCount":"0"},"specials":{"count":"0"},"hereNow":{"count":"0"},"referralId":"v-1392477989"},{"id":"4d683652b6f46dcbb41010b2","name":"Bus Stop X @ Warren Street Station","contact":{"twitter":"tflbusalerts"},"location":{"address":"Tottenham Court Road","crossStreet":"Warren Street","lat":"51.52407296845333","lng":"-0.137401322287784","distance":"36","cc":"GB","city":"London","state":"Greater London","country":"United Kingdom"},"categories":[{"id":"4bf58dd8d48988d1fe931735","name":"Bus Station","pluralName":"Bus Stations","shortName":"Bus Station","icon":{"prefix":"https:\/\/ss1.4sqi.net\/img\/categories_v2\/travel\/busstation_","suffix":".png"},"primary":"true"}],"verified":"false","restricted":"true","stats":{"checkinsCount":"27","usersCount":"18","tipCount":"0"},"specials":{"count":"0"},"hereNow":{"count":"0"},"referralId":"v-1392477989"},{"id":"4b4f946af964a520390c27e3","name":"Cafe Rio","location":{"address":"Grafton Way","crossStreet":"Whitfield","lat":"51.523266","lng":"-0.138165","distance":"116","cc":"GB","city":"London","state":"Greater London","country":"United Kingdom"},"categories":[{"id":"4bf58dd8d48988d16d941735","name":"Caf\u00e9","pluralName":"Caf\u00e9s","shortName":"Caf\u00e9","icon":{"prefix":"https:\/\/ss1.4sqi.net\/img\/categories_v2\/food\/cafe_","suffix":".png"},"primary":"true"}],"verified":"false","restricted":"true","stats":{"checkinsCount":"144","usersCount":"98","tipCount":"7"},"specials":{"count":"0"},"hereNow":{"count":"0"},"referralId":"v-1392477989"},{"id":"4be689545254d13a1ca260e1","name":"The Agra","location":{"address":"135-137 Whitfield Street","lat":"51.523717","lng":"-0.13853609561920166","distance":"81","postalCode":"W1T 5EL","cc":"GB","city":"London","state":"Greater London","country":"United Kingdom"},"categories":[{"id":"4bf58dd8d48988d10f941735","name":"Indian Restaurant","pluralName":"Indian Restaurants","shortName":"Indian","icon":{"prefix":"https:\/\/ss1.4sqi.net\/img\/categories_v2\/food\/indian_","suffix":".png"},"primary":"true"}],"verified":"false","restricted":"true","stats":{"checkinsCount":"39","usersCount":"30","tipCount":"5"},"specials":{"count":"0"},"hereNow":{"count":"0"},"referralId":"v-1392477989"}],"confident":"true"}}