{"meta":{"code":"200"},"response":{"venues":[{"id":"4b7ed0c3f964a520820130e3","name":"Disney Store","contact":{"phone":"+442074919136","formattedPhone":"+44 20 7491 9136"},"location":{"address":"350-352 Oxford St","crossStreet":"Marylebone Ln","lat":"51.514557","lng":"-0.148056","distance":"34","postalCode":"W1C 1JH","cc":"GB","city":"London","state":"Greater London","country":"United Kingdom"},"categories":[{"id":"4bf58dd8d48988d1f3941735","name":"Toy \/ Game Store","pluralName":"Toy \/ Game Stores","shortName":"Toys & Games","icon":{"prefix":"https:\/\/ss1.4sqi.net\/img\/categories_v2\/shops\/toys_","suffix":".png"},"primary":"true"}],"verified":"false","restricted":"true","stats":{"checkinsCount":"4318","usersCount":"3455","tipCount":"14"},"url":"http:\/\/www.disneystore.co.uk","specials":{"count":"0"},"hereNow":{"count":"1","groups":[{"type":"others","name":"Other people here","count":"1"}]},"referralId":"v-1392478014"},{"id":"4bd9744211dcc9285ac8f933","name":"YO! Sushi","contact":{"phone":"+442076290051","formattedPhone":"+44 20 7629 0051","twitter":"yosushi"},"location":{"address":"15 Woodstock Street","crossStreet":"Sedley Place","lat":"51.51409756","lng":"-0.147489309","distance":"30","postalCode":"W1C 2AQ","cc":"GB","city":"City of Westminster","state":"Greater London","country":"United Kingdom"},"categories":[{"id":"4bf58dd8d48988d1d2941735","name":"Sushi Restaurant","pluralName":"Sushi Restaurants","shortName":"Sushi","icon":{"prefix":"https:\/\/ss1.4sqi.net\/img\/categories_v2\/food\/sushi_","suffix":".png"},"primary":"true"}],"verified":"true","restricted":"true","stats":{"checkinsCount":"1112","usersCount":"820","tipCount":"14"},"url":"http:\/\/www.yosushi.com","specials":{"count":"0"},"hereNow":{"count":"0"},"storeId":"BOND","referralId":"v-1392478014"},{"id":"4cf8e618d1dd721e2275a59b","name":"Ed's Easy Diner","contact":{"phone":"+442074939916","formattedPhone":"+44 20 7493 9916","twitter":"eds_easy_diner"},"location":{"address":"14 Woodstock St.","lat":"51.514232","lng":"-0.14749842000000002","distance":"22","postalCode":"W1C2AG","cc":"GB","city":"London","state":"Greater London","country":"United Kingdom"},"categories":[{"id":"4bf58dd8d48988d14e941735","name":"American Restaurant","pluralName":"American Restaurants","shortName":"American","icon":{"prefix":"https:\/\/ss1.4sqi.net\/img\/categories_v2\/food\/default_","suffix":".png"},"primary":"true"}],"verified":"true","restricted":"true","stats":{"checkinsCount":"1039","usersCount":"824","tipCount":"24"},"url":"http:\/\/edseasydiner.com\/mayfair.php","menu":{"type":"Menu","label":"Menu","anchor":"View Menu","url":"https:\/\/foursquare.com\/v\/eds-easy-diner\/4cf8e618d1dd721e2275a59b\/menu","mobileUrl":"https:\/\/foursquare.com\/v\/4cf8e618d1dd721e2275a59b\/device_menu"},"specials":{"count":"0"},"hereNow":{"count":"0"},"storeId":"","referralId":"v-1392478014"},{"id":"4b8968acf964a5207f3332e3","name":"Boots Opticians","contact":{"phone":"+442074912697","formattedPhone":"+44 20 7491 2697"},"location":{"address":"361 Oxford St","crossStreet":"Sedley Pl","lat":"51.514541","lng":"-0.14806152","distance":"33","postalCode":"W1C 2JL","cc":"GB","city":"London","state":"Greater London","country":"United Kingdom"},"categories":[{"id":"4d954afda243a5684865b473","name":"Optical Shop","pluralName":"Optical Shops","shortName":"Optical","icon":{"prefix":"https:\/\/ss1.4sqi.net\/img\/categories_v2\/building\/medical_opticalshop_","suffix":".png"},"primary":"true"}],"verified":"false","restricted":"true","stats":{"checkinsCount":"2338","usersCount":"1487","tipCount":"9"},"url":"http:\/\/www.boots.com","specials":{"count":"0"},"hereNow":{"count":"0"},"referralId":"v-1392478014"},{"id":"4f39733ce4b0d9574f1cc284","name":"Spagetti House","location":{"address":"12 Woodstock St","lat":"51.514110913775795","lng":"-0.14771461486816406","distance":"20","postalCode":"W1C 2AF","cc":"GB","city":"London","state":"Greater London","country":"United Kingdom"},"categories":[{"id":"4bf58dd8d48988d110941735","name":"Italian Restaurant","pluralName":"Italian Restaurants","shortName":"Italian","icon":{"prefix":"https:\/\/ss1.4sqi.net\/img\/categories_v2\/food\/italian_","suffix":".png"},"primary":"true"}],"verified":"false","restricted":"true","stats":{"checkinsCount":"199","usersCount":"186","tipCount":"3"},"specials":{"count":"0"},"hereNow":{"count":"0"},"referralId":"v-1392478014"},{"id":"4ae6dd87f964a52060a721e3","name":"Debenhams","contact":{"phone":"+448445616161","formattedPhone":"+44 844 561 6161","twitter":"debenhams","facebook":"51623478562"},"location":{"address":"334-348 Oxford St","lat":"51.51496553479922","lng":"-0.14707088470458984","distance":"90","postalCode":"W1C 1JG","cc":"GB","city":"London","state":"Greater London","country":"United Kingdom"},"categories":[{"id":"4bf58dd8d48988d1f6941735","name":"Department Store","pluralName":"Department Stores","shortName":"Department Store","icon":{"prefix":"https:\/\/ss1.4sqi.net\/img\/categories_v2\/shops\/departmentstore_","suffix":".png"},"primary":"true"}],"verified":"true","restricted":"true","stats":{"checkinsCount":"8616","usersCount":"5940","tipCount":"43"},"url":"http:\/\/www.debenhams.com","specials":{"count":"1","items":[{"id":"4c06d44686ba62b53a5688b3","type":"frequency","message":"Check into Debenhams Oxford Street on a Friday and get a free coffee. Mayor of Debenhams flagship Oxford Street store, London, is entitled to free coffee in the Debenhams Cafe!","description":"Unlocked every check-in","icon":"check-in","title":"Check-in Special","provider":"foursquare","redemption":"standard"}]},"hereNow":{"count":"2","groups":[{"type":"others","name":"Other people here","count":"2"}]},"storeId":"75","referralId":"v-1392478014"},{"id":"52448b2a93cd2cd36903717e","name":"hmv","contact":{"phone":"+448432210200","formattedPhone":"+44 843 221 0200","twitter":"hmvtweets","facebook":"212040515639"},"location":{"address":"363 Oxford St","lat":"51.51435127755928","lng":"-0.14861583709716797","distance":"56","postalCode":"W1C 2JR","cc":"GB","city":"London","state":"Greater London","country":"United Kingdom"},"categories":[{"id":"4bf58dd8d48988d1fe941735","name":"Music Store","pluralName":"Music Stores","shortName":"Music Store","icon":{"prefix":"https:\/\/ss1.4sqi.net\/img\/categories_v2\/shops\/music_instruments_","suffix":".png"},"primary":"true"}],"verified":"true","restricted":"true","stats":{"checkinsCount":"366","usersCount":"315","tipCount":"7"},"url":"http:\/\/www.hmv.co.uk","specials":{"count":"0"},"hereNow":{"count":"0"},"venuePage":{"id":"76244505"},"storeId":"","referralId":"v-1392478014"},{"id":"4e5f664cd22d7239c1af0837","name":"Subway","contact":{"phone":"+442074958299","formattedPhone":"+44 20 7495 8299","twitter":"subwayukireland"},"location":{"address":"3-4 Sedley Pl.","crossStreet":"At Woodstock St.","lat":"51.51443342","lng":"-0.14795675000000003","distance":"19","postalCode":"W1C 2HA","cc":"GB","city":"London","state":"Greater London","country":"United Kingdom"},"categories":[{"id":"4bf58dd8d48988d1c5941735","name":"Sandwich Place","pluralName":"Sandwich Places","shortName":"Sandwiches","icon":{"prefix":"https:\/\/ss1.4sqi.net\/img\/categories_v2\/food\/sandwiches_","suffix":".png"},"primary":"true"}],"verified":"false","restricted":"true","stats":{"checkinsCount":"343","usersCount":"217","tipCount":"4"},"specials":{"count":"0"},"hereNow":{"count":"0"},"referralId":"v-1392478014"},{"id":"4b309b42f964a52069fa24e3","name":"The Spread Eagle","contact":{"phone":"+442076294695","formattedPhone":"+44 20 7629 4695"},"location":{"address":"8 Woodstock Street","crossStreet":"at Oxford Street","lat":"51.51424611856006","lng":"-0.14739274978637695","distance":"28","postalCode":"W1C2AD","cc":"GB","city":"London","state":"Greater London","country":"United Kingdom"},"categories":[{"id":"4bf58dd8d48988d11b941735","name":"Pub","pluralName":"Pubs","shortName":"Pub","icon":{"prefix":"https:\/\/ss1.4sqi.net\/img\/categories_v2\/nightlife\/pub_","suffix":".png"},"primary":"true"}],"verified":"false","restricted":"true","stats":{"checkinsCount":"643","usersCount":"507","tipCount":"5"},"specials":{"count":"0"},"hereNow":{"count":"0"},"referralId":"v-1392478014"},{"id":"520e1ec07e48171f805e563b","name":"Drunch","contact":{"phone":"+442074952020","formattedPhone":"+44 20 7495 2020","twitter":"drunchlondon"},"location":{"address":"1 Woodstock Street","crossStreet":"6 Blenheim Street","lat":"51.5138922483988","lng":"-0.1470896601676941","distance":"66","postalCode":"W1C 2AA","cc":"GB","city":"London","state":"Greater London","country":"United Kingdom"},"categories":[{"id":"4bf58dd8d48988d16d941735","name":"Caf\u00e9","pluralName":"Caf\u00e9s","shortName":"Caf\u00e9","icon":{"prefix":"https:\/\/ss1.4sqi.net\/img\/categories_v2\/food\/cafe_","suffix":".png"},"primary":"true"}],"verified":"false","restricted":"true","stats":{"checkinsCount":"191","usersCount":"70","tipCount":"3"},"specials":{"count":"0"},"hereNow":{"count":"0"},"referralId":"v-1392478014"},{"id":"4b8ff6edf964a520b26c33e3","name":"Angus Steakhouse","contact":{"phone":"+442076294175","formattedPhone":"+44 20 7629 4175"},"location":{"address":"10 Woodstock St","lat":"51.514539895473426","lng":"-0.147591233253479","distance":"31","postalCode":"W1C 2AD","cc":"GB","city":"London","state":"Greater London","country":"United Kingdom"},"categories":[{"id":"4bf58dd8d48988d1cc941735","name":"Steakhouse","pluralName":"Steakhouses","shortName":"Steakhouse","icon":{"prefix":"https:\/\/ss1.4sqi.net\/img\/categories_v2\/food\/steakhouse_","suffix":".png"},"primary":"true"}],"verified":"false","restricted":"true","stats":{"checkinsCount":"693","usersCount":"648","tipCount":"15"},"url":"http:\/\/www.angussteakhouse.co.uk","specials":{"count":"0"},"hereNow":{"count":"0"},"referralId":"v-1392478014"},{"id":"4ae02185f964a5203f7e21e3","name":"Starbucks","contact":{"phone":"+442074958056","formattedPhone":"+44 20 7495 8056","twitter":"starbucksuk"},"location":{"address":"324 Oxford Street,","crossStreet":"At New Bond St.","lat":"51.514625023656755","lng":"-0.14642715454101562","distance":"102","postalCode":"W1C 1JA","cc":"GB","city":"London","state":"Greater London","country":"United Kingdom"},"categories":[{"id":"4bf58dd8d48988d1e0931735","name":"Coffee Shop","pluralName":"Coffee Shops","shortName":"Coffee Shop","icon":{"prefix":"https:\/\/ss1.4sqi.net\/img\/categories_v2\/food\/coffeeshop_","suffix":".png"},"primary":"true"}],"verified":"true","restricted":"true","stats":{"checkinsCount":"4748","usersCount":"3770","tipCount":"31"},"url":"http:\/\/starbucks.co.uk","specials":{"count":"0"},"hereNow":{"count":"3","groups":[{"type":"others","name":"Other people here","count":"3"}]},"storeId":"12214","referralId":"v-1392478014"},{"id":"52e2df65498ecd29f5a9ac7c","name":"Casa di Fiori","contact":{"phone":"+442074918638","formattedPhone":"+44 20 7491 8638","twitter":"casadifiorildn"},"location":{"address":"22 Woodstock St","lat":"51.51422921042658","lng":"-0.14807767772733219","distance":"20","postalCode":"W1C 2AP","cc":"GB","city":"London","state":"Greater London","country":"United Kingdom"},"categories":[{"id":"4bf58dd8d48988d110941735","name":"Italian Restaurant","pluralName":"Italian Restaurants","shortName":"Italian","icon":{"prefix":"https:\/\/ss1.4sqi.net\/img\/categories_v2\/food\/italian_","suffix":".png"},"primary":"true"}],"verified":"false","restricted":"true","stats":{"checkinsCount":"11","usersCount":"11","tipCount":"1"},"url":"http:\/\/www.casadifiori.co.uk","reservations":{"url":"http:\/\/www.toptable.co.uk\/single.aspx?rid=99000&ref=9601"},"specials":{"count":"0"},"hereNow":{"count":"0"},"referralId":"v-1392478014"},{"id":"4ba4e2a7f964a520fbbe38e3","name":"Ben's Cookies","contact":{"phone":"+442074093535","formattedPhone":"+44 20 7409 3535"},"location":{"address":"1-2 Sedley Pl","crossStreet":"355-361 Oxford St","lat":"51.514558256467595","lng":"-0.148390531539917","distance":"50","postalCode":"W1D 2HE","cc":"GB","city":"London","state":"Greater London","country":"United Kingdom"},"categories":[{"id":"4bf58dd8d48988d16a941735","name":"Bakery","pluralName":"Bakeries","shortName":"Bakery","icon":{"prefix":"https:\/\/ss1.4sqi.net\/img\/categories_v2\/food\/bakery_","suffix":".png"},"primary":"true"}],"verified":"false","restricted":"true","stats":{"checkinsCount":"1195","usersCount":"875","tipCount":"23"},"specials":{"count":"0"},"hereNow":{"count":"0"},"referralId":"v-1392478014"},{"id":"4c2f243e452620a1ddf91c0f","name":"Zara","contact":{"phone":"+442075181550","formattedPhone":"+44 20 7518 1550","twitter":"zara"},"location":{"address":"333 Oxford St","crossStreet":"New Bond St","lat":"51.51463645929304","lng":"-0.1468796872437474","distance":"74","postalCode":"W1C 2HY","cc":"GB","city":"London","state":"Greater London","country":"United Kingdom"},"categories":[{"id":"4bf58dd8d48988d103951735","name":"Clothing Store","pluralName":"Clothing Stores","shortName":"Apparel","icon":{"prefix":"https:\/\/ss1.4sqi.net\/img\/categories_v2\/shops\/apparel_","suffix":".png"},"primary":"true"}],"verified":"false","restricted":"true","stats":{"checkinsCount":"1569","usersCount":"1155","tipCount":"7"},"url":"http:\/\/www.zara.com","menu":{"type":"Menu","label":"Menu","anchor":"View Menu","url":"https:\/\/foursquare.com\/v\/zara\/4c2f243e452620a1ddf91c0f\/menu","mobileUrl":"https:\/\/foursquare.com\/v\/4c2f243e452620a1ddf91c0f\/device_menu"},"specials":{"count":"0"},"hereNow":{"count":"1","groups":[{"type":"others","name":"Other people here","count":"1"}]},"referralId":"v-1392478014"},{"id":"4b1eb3b2f964a5201a1e24e3","name":"Radisson Blu Edwardian Berkshire Hotel","contact":{"phone":"+442076297474","formattedPhone":"+44 20 7629 7474","twitter":"rbehotels"},"location":{"address":"350 Oxford St","lat":"51.51483438309376","lng":"-0.14838590289162706","distance":"72","postalCode":"W1C1BY","cc":"GB","city":"London","state":"Greater London","country":"United Kingdom"},"categories":[{"id":"4bf58dd8d48988d1fa931735","name":"Hotel","pluralName":"Hotels","shortName":"Hotel","icon":{"prefix":"https:\/\/ss1.4sqi.net\/img\/categories_v2\/travel\/hotel_","suffix":".png"},"primary":"true"}],"verified":"true","restricted":"true","stats":{"checkinsCount":"1191","usersCount":"592","tipCount":"17"},"url":"http:\/\/www.radissonedwardian.com","specials":{"count":"0"},"hereNow":{"count":"0"},"storeId":"","referralId":"v-1392478014"},{"id":"4e2f1b20e4cdb5a70d65250c","name":"Forever 21","contact":{"phone":"+442074931553","formattedPhone":"+44 20 7493 1553","twitter":"forever21"},"location":{"address":"360 Oxford St","lat":"51.5142949843936","lng":"-0.14928108984408356","distance":"102","postalCode":"W1C 1JN","cc":"GB","city":"London","state":"Greater London","country":"United Kingdom"},"categories":[{"id":"4bf58dd8d48988d103951735","name":"Clothing Store","pluralName":"Clothing Stores","shortName":"Apparel","icon":{"prefix":"https:\/\/ss1.4sqi.net\/img\/categories_v2\/shops\/apparel_","suffix":".png"},"primary":"true"}],"verified":"false","restricted":"true","stats":{"checkinsCount":"2479","usersCount":"1755","tipCount":"15"},"url":"http:\/\/www.forever21.com","specials":{"count":"0"},"hereNow":{"count":"0"},"referralId":"v-1392478014"},{"id":"4c377e9818e72d7f18a516f5","name":"Il Pizzaiolo","contact":{"phone":"+442074999878","formattedPhone":"+44 20 7499 9878"},"location":{"address":"3 Blenheim St","lat":"51.514094","lng":"-0.146886","distance":"67","postalCode":"W1S 1LA","cc":"GB","city":"London","state":"Greater London","country":"United Kingdom"},"categories":[{"id":"4bf58dd8d48988d110941735","name":"Italian Restaurant","pluralName":"Italian Restaurants","shortName":"Italian","icon":{"prefix":"https:\/\/ss1.4sqi.net\/img\/categories_v2\/food\/italian_","suffix":".png"},"primary":"true"}],"verified":"false","restricted":"true","stats":{"checkinsCount":"142","usersCount":"122","tipCount":"1"},"url":"http:\/\/www.ilpizzaiolo.co.uk","menu":{"type":"Menu","label":"Menu","anchor":"View Menu","url":"https:\/\/foursquare.com\/v\/il-pizzaiolo\/4c377e9818e72d7f18a516f5\/menu","mobileUrl":"https:\/\/foursquare.com\/v\/4c377e9818e72d7f18a516f5\/device_menu"},"specials":{"count":"0"},"hereNow":{"count":"1","groups":[{"type":"others","name":"Other people here","count":"1"}]},"referralId":"v-1392478014"},{"id":"4c6bf0b46d390f477ac50b9a","name":"Louis Vuitton","contact":{"phone":"+442072976801","formattedPhone":"+44 20 7297 6801","twitter":"louisvuitton"},"location":{"address":"in Selfridges","crossStreet":"400 Oxford St.","lat":"51.514708696274596","lng":"-0.14642572888851235","distance":"106","postalCode":"W1A 1AB","cc":"GB","city":"London","state":"Greater London","country":"United Kingdom"},"categories":[{"id":"4bf58dd8d48988d104951735","name":"Boutique","pluralName":"Boutiques","shortName":"Boutique","icon":{"prefix":"https:\/\/ss1.4sqi.net\/img\/categories_v2\/shops\/apparel_boutique_","suffix":".png"},"primary":"true"}],"verified":"true","restricted":"true","stats":{"checkinsCount":"2396","usersCount":"1649","tipCount":"16"},"specials":{"count":"0"},"hereNow":{"count":"0"},"storeId":"335","referralId":"v-1392478014"},{"id":"4ac518dcf964a52057a920e3","name":"Maroush Vere Street","contact":{"phone":"+442074935050","formattedPhone":"+44 20 7493 5050"},"location":{"address":"4 Vere Street","lat":"51.51478270317328","lng":"-0.14702385255240377","distance":"77","postalCode":"W1G 0DH","cc":"GB","city":"Marylebone","state":"Greater London","country":"United Kingdom"},"categories":[{"id":"4bf58dd8d48988d115941735","name":"Middle Eastern Restaurant","pluralName":"Middle Eastern Restaurants","shortName":"Middle Eastern","icon":{"prefix":"https:\/\/ss1.4sqi.net\/img\/categories_v2\/food\/default_","suffix":".png"},"primary":"true"}],"verified":"true","restricted":"true","stats":{"checkinsCount":"784","usersCount":"566","tipCount":"15"},"url":"http:\/\/www.maroush.com\/vere-street-restaurant","reservations":{"url":"http:\/\/www.toptable.co.uk\/single.aspx?rid=72610&ref=9601"},"menu":{"type":"Menu","label":"Menu","anchor":"View Menu","url":"https:\/\/foursquare.com\/v\/maroush-vere-street\/4ac518dcf964a52057a920e3\/menu","mobileUrl":"https:\/\/foursquare.com\/v\/4ac518dcf964a52057a920e3\/device_menu"},"specials":{"count":"0"},"hereNow":{"count":"0"},"storeId":"","referralId":"v-1392478014"},{"id":"4aea0604f964a52094b821e3","name":"McDonald's","contact":{"phone":"+442074090054","formattedPhone":"+44 20 7409 0054"},"location":{"address":"291B Oxford St","crossStreet":"Harewood Pl","lat":"51.514217790540314","lng":"-0.14939858044278193","distance":"110","postalCode":"WW1C 2DT","cc":"GB","city":"London","state":"Greater London","country":"United Kingdom"},"categories":[{"id":"4bf58dd8d48988d16e941735","name":"Fast Food Restaurant","pluralName":"Fast Food Restaurants","shortName":"Fast Food","icon":{"prefix":"https:\/\/ss1.4sqi.net\/img\/categories_v2\/food\/fastfood_","suffix":".png"},"primary":"true"}],"verified":"false","restricted":"true","stats":{"checkinsCount":"753","usersCount":"534","tipCount":"7"},"url":"http:\/\/www.mcdonalds.co.uk","specials":{"count":"0"},"hereNow":{"count":"0"},"referralId":"v-1392478014"},{"id":"4b5758a2f964a520b33228e3","name":"Starbucks","contact":{"phone":"+442074953683","formattedPhone":"+44 20 7495 3683","twitter":"starbucksuk"},"location":{"address":"63 South Molton St","lat":"51.51330969200403","lng":"-0.14711380004882812","distance":"119","postalCode":"W1K 5SS","cc":"GB","city":"Mayfair","state":"Greater London","country":"United Kingdom"},"categories":[{"id":"4bf58dd8d48988d1e0931735","name":"Coffee Shop","pluralName":"Coffee Shops","shortName":"Coffee Shop","icon":{"prefix":"https:\/\/ss1.4sqi.net\/img\/categories_v2\/food\/coffeeshop_","suffix":".png"},"primary":"true"}],"verified":"true","restricted":"true","stats":{"checkinsCount":"1638","usersCount":"1246","tipCount":"14"},"url":"http:\/\/starbucks.co.uk","specials":{"count":"0"},"hereNow":{"count":"1","groups":[{"type":"others","name":"Other people here","count":"1"}]},"storeId":"12159","referralId":"v-1392478014"},{"id":"51504eece4b0c56a46f40fe3","name":"Bond Street Station Bus Stop","location":{"lat":"51.514274087880345","lng":"-0.14904831966385726","distance":"86","cc":"GB","country":"United Kingdom"},"categories":[{"id":"4bf58dd8d48988d1fe931735","name":"Bus Station","pluralName":"Bus Stations","shortName":"Bus Station","icon":{"prefix":"https:\/\/ss1.4sqi.net\/img\/categories_v2\/travel\/busstation_","suffix":".png"},"primary":"true"}],"verified":"false","restricted":"true","stats":{"checkinsCount":"270","usersCount":"195","tipCount":"0"},"specials":{"count":"0"},"hereNow":{"count":"0"},"referralId":"v-1392478014"},{"id":"4b7d9066f964a52007c72fe3","name":"Lush","location":{"address":"South Molton St.","lat":"51.513956711667916","lng":"-0.1483003425398978","distance":"50","postalCode":"W1K 5RT","cc":"GB","city":"London","state":"Greater London","country":"United Kingdom"},"categories":[{"id":"4bf58dd8d48988d10c951735","name":"Cosmetics Shop","pluralName":"Cosmetics Shops","shortName":"Cosmetics","icon":{"prefix":"https:\/\/ss1.4sqi.net\/img\/categories_v2\/shops\/beauty_cosmetic_","suffix":".png"},"primary":"true"}],"verified":"false","restricted":"true","stats":{"checkinsCount":"130","usersCount":"90","tipCount":"2"},"specials":{"count":"0"},"hereNow":{"count":"0"},"referralId":"v-1392478014"},{"id":"504f7976e4b07bde9bcc95f5","name":"Wafflemeister","location":{"address":"Oxford St","lat":"51.514541711004185","lng":"-0.14869920913256304","distance":"68","cc":"GB","city":"London","state":"Greater London","country":"United Kingdom"},"categories":[{"id":"4bf58dd8d48988d1d0941735","name":"Dessert Shop","pluralName":"Dessert Shops","shortName":"Desserts","icon":{"prefix":"https:\/\/ss1.4sqi.net\/img\/categories_v2\/food\/dessert_","suffix":".png"},"primary":"true"}],"verified":"false","restricted":"true","stats":{"checkinsCount":"390","usersCount":"322","tipCount":"10"},"menu":{"type":"Menu","label":"Menu","anchor":"View Menu","url":"https:\/\/foursquare.com\/v\/wafflemeister\/504f7976e4b07bde9bcc95f5\/menu","mobileUrl":"https:\/\/foursquare.com\/v\/504f7976e4b07bde9bcc95f5\/device_menu"},"specials":{"count":"0"},"hereNow":{"count":"0"},"referralId":"v-1392478014"},{"id":"4bfc0ae1e05e0f479815cfa8","name":"Subway","contact":{"phone":"+448000855058","formattedPhone":"+44 800 085 5058","twitter":"subwayukireland"},"location":{"address":"358 Oxford St.","lat":"51.514614172154154","lng":"-0.1477172921200695","distance":"36","postalCode":"W1C 1JJ","cc":"GB","city":"London","state":"Greater London","country":"United Kingdom"},"categories":[{"id":"4bf58dd8d48988d1c5941735","name":"Sandwich Place","pluralName":"Sandwich Places","shortName":"Sandwiches","icon":{"prefix":"https:\/\/ss1.4sqi.net\/img\/categories_v2\/food\/sandwiches_","suffix":".png"},"primary":"true"}],"verified":"true","restricted":"true","stats":{"checkinsCount":"199","usersCount":"157","tipCount":"1"},"url":"http:\/\/www.subway.co.uk","specials":{"count":"0"},"hereNow":{"count":"0"},"storeId":"30325","referralId":"v-1392478014"},{"id":"4bfa977e633d9c7408190843","name":"Next","contact":{"phone":"+442074092746","formattedPhone":"+44 20 7409 2746","twitter":"nextofficial"},"location":{"address":"327-329 Oxford St","lat":"51.5146917","lng":"-0.14659185893833637","distance":"95","postalCode":"W1C 2HX","cc":"GB","city":"London","state":"Greater London","country":"United Kingdom"},"categories":[{"id":"4bf58dd8d48988d103951735","name":"Clothing Store","pluralName":"Clothing Stores","shortName":"Apparel","icon":{"prefix":"https:\/\/ss1.4sqi.net\/img\/categories_v2\/shops\/apparel_","suffix":".png"},"primary":"true"}],"verified":"true","restricted":"true","stats":{"checkinsCount":"657","usersCount":"565","tipCount":"2"},"url":"http:\/\/www.next.co.uk","specials":{"count":"0"},"hereNow":{"count":"0"},"referralId":"v-1392478014"},{"id":"4bf91a82b182c9b62e6a785a","name":"Pret A Manger","contact":{"phone":"+442079325280","formattedPhone":"+44 20 7932 5280","twitter":"pret","facebook":"162638680417951"},"location":{"address":"West One Shopping Cntr, 381 Oxford St","lat":"51.514092946","lng":"-0.149232604637","distance":"101","postalCode":"W1C 2JS","cc":"GB","city":"London","state":"Greater London","country":"United Kingdom"},"categories":[{"id":"4bf58dd8d48988d1c5941735","name":"Sandwich Place","pluralName":"Sandwich Places","shortName":"Sandwiches","icon":{"prefix":"https:\/\/ss1.4sqi.net\/img\/categories_v2\/food\/sandwiches_","suffix":".png"},"primary":"true"}],"verified":"true","restricted":"true","stats":{"checkinsCount":"787","usersCount":"428","tipCount":"3"},"url":"http:\/\/www.pret.com","specials":{"count":"0"},"hereNow":{"count":"0"},"storeId":"80","referralId":"v-1392478014"},{"id":"52a83679498e74bce26ec5ae","name":"Codex Global","location":{"address":"351 Oxford Street","lat":"51.51446","lng":"-0.147713","distance":"20","postalCode":"W1c 2jf","cc":"GB","country":"United Kingdom"},"categories":[{"id":"4bf58dd8d48988d124941735","name":"Office","pluralName":"Offices","shortName":"Office","icon":{"prefix":"https:\/\/ss1.4sqi.net\/img\/categories_v2\/building\/default_","suffix":".png"},"primary":"true"}],"verified":"false","restricted":"true","stats":{"checkinsCount":"4","usersCount":"1","tipCount":"0"},"specials":{"count":"0"},"hereNow":{"count":"0"},"referralId":"v-1392478014"},{"id":"4f9b16c7e4b0e5be3ec3d7f5","name":"Amika London","contact":{"twitter":"amikalondon"},"location":{"address":"43 South Molton Street","lat":"51.513897256014594","lng":"-0.14833688735961914","distance":"57","postalCode":"W1K 5RS","cc":"GB","city":"London","state":"Greater London","country":"United Kingdom"},"categories":[{"id":"4bf58dd8d48988d11f941735","name":"Nightclub","pluralName":"Nightclubs","shortName":"Nightclub","icon":{"prefix":"https:\/\/ss1.4sqi.net\/img\/categories_v2\/nightlife\/nightclub_","suffix":".png"},"primary":"true"}],"verified":"true","restricted":"true","stats":{"checkinsCount":"195","usersCount":"141","tipCount":"1"},"url":"http:\/\/velvet-pr.com\/guestlists\/amika-mayfair\/","specials":{"count":"0"},"hereNow":{"count":"0"},"venuePage":{"id":"59519257"},"storeId":"","referralId":"v-1392478014"}],"confident":"true"}}