{"meta":{"code":"200"},"response":{"venues":[{"id":"4ac518d2f964a52026a720e3","name":"Hyde Park","location":{"address":"Serpentine Rd","lat":"51.50849","lng":"-0.167862","distance":"467","postalCode":"W2 2TP","cc":"GB","city":"London","state":"Greater London","country":"United Kingdom"},"categories":[{"id":"4bf58dd8d48988d163941735","name":"Park","pluralName":"Parks","shortName":"Park","icon":{"prefix":"https:\/\/ss1.4sqi.net\/img\/categories_v2\/parks_outdoors\/park_","suffix":".png"},"primary":"true"}],"verified":"false","restricted":"true","stats":{"checkinsCount":"51896","usersCount":"31326","tipCount":"281"},"specials":{"count":"0"},"hereNow":{"count":"9","groups":[{"type":"others","name":"Other people here","count":"9"}]},"storeId":"","referralId":"v-1392478038"},{"id":"4bf925ddabdaef3ba4d0a184","name":"The Serpentine","contact":{"phone":"+443000612000","formattedPhone":"+44 300 061 2000","twitter":"rpfoundation"},"location":{"address":"Serpentine Rd","crossStreet":"at Hyde Park","lat":"51.505223240223344","lng":"-0.16741275787353516","distance":"107","postalCode":"W2 2UH","cc":"GB","city":"London","state":"Greater London","country":"United Kingdom"},"categories":[{"id":"4bf58dd8d48988d161941735","name":"Lake","pluralName":"Lakes","shortName":"Lake","icon":{"prefix":"https:\/\/ss1.4sqi.net\/img\/categories_v2\/parks_outdoors\/lake_","suffix":".png"},"primary":"true"}],"verified":"false","restricted":"true","stats":{"checkinsCount":"3772","usersCount":"2991","tipCount":"36"},"url":"http:\/\/www.royalparks.org.uk\/parks\/hyde-park","specials":{"count":"0"},"hereNow":{"count":"0"},"referralId":"v-1392478038"},{"id":"4abf8c03f964a520079120e3","name":"Harrods","contact":{"phone":"+442077301234","formattedPhone":"+44 20 7730 1234","twitter":"harrods"},"location":{"address":"87-135 Brompton Rd","lat":"51.49916580819443","lng":"-0.16288518905639648","distance":"664","postalCode":"SW1X 7XL","cc":"GB","city":"Knightsbridge","state":"Greater London","country":"United Kingdom"},"categories":[{"id":"4bf58dd8d48988d1f6941735","name":"Department Store","pluralName":"Department Stores","shortName":"Department Store","icon":{"prefix":"https:\/\/ss1.4sqi.net\/img\/categories_v2\/shops\/departmentstore_","suffix":".png"},"primary":"true"}],"verified":"true","restricted":"true","stats":{"checkinsCount":"84401","usersCount":"49154","tipCount":"430"},"url":"http:\/\/www.harrods.com","menu":{"type":"Menu","label":"Menu","anchor":"View Menu","url":"https:\/\/foursquare.com\/v\/harrods\/4abf8c03f964a520079120e3\/menu","mobileUrl":"https:\/\/foursquare.com\/v\/4abf8c03f964a520079120e3\/device_menu"},"specials":{"count":"0"},"hereNow":{"count":"30","groups":[{"type":"others","name":"Other people here","count":"30"}]},"referralId":"v-1392478038"},{"id":"4c30b6183896e21eb8e8e590","name":"Diana, Princess of Wales Memorial Fountain","location":{"address":"The Old Police Hse","crossStreet":"Hyde Park","lat":"51.50456210431835","lng":"-0.1714789867401123","distance":"256","postalCode":"W2 2UH","cc":"GB","city":"London","state":"Greater London","country":"United Kingdom"},"categories":[{"id":"4bf58dd8d48988d12d941735","name":"Monument \/ Landmark","pluralName":"Monuments \/ Landmarks","shortName":"Landmark","icon":{"prefix":"https:\/\/ss1.4sqi.net\/img\/categories_v2\/building\/government_monument_","suffix":".png"},"primary":"true"}],"verified":"false","restricted":"true","stats":{"checkinsCount":"2584","usersCount":"2041","tipCount":"9"},"specials":{"count":"0"},"hereNow":{"count":"0"},"referralId":"v-1392478038"},{"id":"4c653305f07e2d7fec309150","name":"Knightsbridge","location":{"address":"Everywhere!","lat":"51.500064498846314","lng":"-0.16270147636541796","distance":"588","cc":"GB","city":"Knightsbridge","state":"Greater London","country":"United Kingdom"},"categories":[{"id":"4f2a25ac4b909258e854f55f","name":"Neighborhood","pluralName":"Neighborhoods","shortName":"Neighborhood","icon":{"prefix":"https:\/\/ss1.4sqi.net\/img\/categories_v2\/parks_outdoors\/neighborhood_","suffix":".png"},"primary":"true"}],"verified":"false","restricted":"true","stats":{"checkinsCount":"11540","usersCount":"4523","tipCount":"50"},"specials":{"count":"0"},"hereNow":{"count":"2","groups":[{"type":"others","name":"Other people here","count":"2"}]},"referralId":"v-1392478038"},{"id":"4b892b07f964a520922032e3","name":"Lido Cafe","location":{"address":"Hyde Park","lat":"51.504822618757885","lng":"-0.16962071656929548","distance":"139","cc":"GB","city":"London","state":"Greater London","country":"United Kingdom"},"categories":[{"id":"4bf58dd8d48988d16d941735","name":"Caf\u00e9","pluralName":"Caf\u00e9s","shortName":"Caf\u00e9","icon":{"prefix":"https:\/\/ss1.4sqi.net\/img\/categories_v2\/food\/cafe_","suffix":".png"},"primary":"true"}],"verified":"false","restricted":"true","stats":{"checkinsCount":"1257","usersCount":"1082","tipCount":"30"},"specials":{"count":"0"},"hereNow":{"count":"0"},"referralId":"v-1392478038"},{"id":"4ac518bff964a5202da320e3","name":"Zuma Restaurant","contact":{"phone":"+442075841010","formattedPhone":"+44 20 7584 1010"},"location":{"address":"5 Raphael St.","lat":"51.50108511018355","lng":"-0.16306140855333962","distance":"484","postalCode":"SW7 1DL","cc":"GB","city":"Knightsbridge","state":"Greater London","country":"United Kingdom"},"categories":[{"id":"4bf58dd8d48988d111941735","name":"Japanese Restaurant","pluralName":"Japanese Restaurants","shortName":"Japanese","icon":{"prefix":"https:\/\/ss1.4sqi.net\/img\/categories_v2\/food\/japanese_","suffix":".png"},"primary":"true"}],"verified":"false","restricted":"true","stats":{"checkinsCount":"3447","usersCount":"2394","tipCount":"80"},"url":"http:\/\/www.zumarestaurant.com","specials":{"count":"0"},"hereNow":{"count":"1","groups":[{"type":"others","name":"Other people here","count":"1"}]},"referralId":"v-1392478038"},{"id":"4cf3f87f6195721e64c24fc1","name":"TfL Bus 10","contact":{"twitter":"tflbusalerts"},"location":{"address":"Moving Target!","lat":"51.501330427231466","lng":"-0.17793066333065904","distance":"775","cc":"GB","city":"London","state":"Greater London","country":"United Kingdom"},"categories":[{"id":"4bf58dd8d48988d12b951735","name":"Bus Line","pluralName":"Bus Lines","shortName":"Bus","icon":{"prefix":"https:\/\/ss1.4sqi.net\/img\/categories_v2\/travel\/busstation_","suffix":".png"},"primary":"true"}],"verified":"false","restricted":"true","stats":{"checkinsCount":"729","usersCount":"251","tipCount":"2"},"url":"http:\/\/tfl.gov.uk","specials":{"count":"0"},"hereNow":{"count":"0"},"referralId":"v-1392478038"},{"id":"4c5ad55a67ac0f47049d074c","name":"The Boat House","location":{"address":"Hyde Park","lat":"51.50566292720708","lng":"-0.16288560529259394","distance":"373","cc":"GB","city":"London","state":"Greater London","country":"United Kingdom"},"categories":[{"id":"4bf58dd8d48988d12d951735","name":"Boat or Ferry","pluralName":"Boats or Ferries","shortName":"Boat \/ Ferry","icon":{"prefix":"https:\/\/ss1.4sqi.net\/img\/categories_v2\/travel\/boat_","suffix":".png"},"primary":"true"}],"verified":"false","restricted":"true","stats":{"checkinsCount":"689","usersCount":"591","tipCount":"3"},"specials":{"count":"0"},"hereNow":{"count":"0"},"referralId":"v-1392478038"},{"id":"4bd31b92caff952119ffd3f0","name":"Serpentine Bridge","location":{"address":"The Serpentine","lat":"51.50615816351301","lng":"-0.17261624336242676","distance":"393","postalCode":"2UH 2UH","cc":"GB","city":"London","state":"Greater London","country":"United Kingdom"},"categories":[{"id":"4bf58dd8d48988d1df941735","name":"Bridge","pluralName":"Bridges","shortName":"Bridge","icon":{"prefix":"https:\/\/ss1.4sqi.net\/img\/categories_v2\/parks_outdoors\/bridge_","suffix":".png"},"primary":"true"}],"verified":"false","restricted":"true","stats":{"checkinsCount":"1036","usersCount":"507","tipCount":"1"},"specials":{"count":"0"},"hereNow":{"count":"0"},"referralId":"v-1392478038"},{"id":"51d56ebfe4b098c3c8790eb9","name":"Hyde Park Track","location":{"lat":"51.50227166168322","lng":"-0.1661296176649779","distance":"252","cc":"GB","country":"United Kingdom"},"categories":[{"id":"4bf58dd8d48988d106941735","name":"Track","pluralName":"Tracks","shortName":"Track","icon":{"prefix":"https:\/\/ss1.4sqi.net\/img\/categories_v2\/shops\/gym_track_","suffix":".png"},"primary":"true"}],"verified":"false","restricted":"true","stats":{"checkinsCount":"27","usersCount":"21","tipCount":"0"},"specials":{"count":"0"},"hereNow":{"count":"0"},"referralId":"v-1392478038"},{"id":"4b10f3f0f964a520f37623e3","name":"Starbucks","contact":{"phone":"+442072250921","formattedPhone":"+44 20 7225 0921","twitter":"starbucksuk"},"location":{"address":"44-48 Brompton Rd","lat":"51.50078376231414","lng":"-0.16243726015090942","distance":"538","postalCode":"SW3 1BW","cc":"GB","city":"Knightsbridge","state":"Greater London","country":"United Kingdom"},"categories":[{"id":"4bf58dd8d48988d1e0931735","name":"Coffee Shop","pluralName":"Coffee Shops","shortName":"Coffee Shop","icon":{"prefix":"https:\/\/ss1.4sqi.net\/img\/categories_v2\/food\/coffeeshop_","suffix":".png"},"primary":"true"}],"verified":"true","restricted":"true","stats":{"checkinsCount":"5267","usersCount":"3601","tipCount":"35"},"url":"http:\/\/starbucks.co.uk","specials":{"count":"0"},"hereNow":{"count":"0"},"storeId":"12712","referralId":"v-1392478038"},{"id":"4e269555483b329ccb3c292e","name":"Bulgari Hotel & Residences","contact":{"phone":"+442071511010","formattedPhone":"+44 20 7151 1010"},"location":{"address":"171 Knightsbridge","lat":"51.501552096414024","lng":"-0.16268932953539364","distance":"467","postalCode":"SW7 1DW","cc":"GB","city":"London","state":"Greater London","country":"United Kingdom"},"categories":[{"id":"4bf58dd8d48988d1fa931735","name":"Hotel","pluralName":"Hotels","shortName":"Hotel","icon":{"prefix":"https:\/\/ss1.4sqi.net\/img\/categories_v2\/travel\/hotel_","suffix":".png"},"primary":"true"}],"verified":"false","restricted":"true","stats":{"checkinsCount":"2081","usersCount":"1096","tipCount":"23"},"url":"http:\/\/www.bulgarihotels.com\/london","reservations":{"url":"http:\/\/www.toptable.co.uk\/single.aspx?rid=91167&ref=9601"},"menu":{"type":"Menu","label":"Menu","anchor":"View Menu","url":"https:\/\/foursquare.com\/v\/bulgari-hotel--residences\/4e269555483b329ccb3c292e\/menu","mobileUrl":"https:\/\/foursquare.com\/v\/4e269555483b329ccb3c292e\/device_menu"},"specials":{"count":"0"},"hereNow":{"count":"0"},"referralId":"v-1392478038"},{"id":"4e1b1af988770d5776e3b8ad","name":"Hyde Park Pavillion and Grounds","location":{"lat":"51.50222750127289","lng":"-0.17443383082537034","distance":"513","cc":"GB","city":"London","state":"Greater London","country":"United Kingdom"},"categories":[{"id":"4bf58dd8d48988d15a941735","name":"Garden","pluralName":"Gardens","shortName":"Garden","icon":{"prefix":"https:\/\/ss1.4sqi.net\/img\/categories_v2\/parks_outdoors\/garden_","suffix":".png"},"primary":"true"}],"verified":"false","restricted":"true","stats":{"checkinsCount":"906","usersCount":"827","tipCount":"3"},"specials":{"count":"0"},"hereNow":{"count":"0"},"referralId":"v-1392478038"},{"id":"5073eaf9d63e722af9c7df92","name":"Buddha-Bar London","contact":{"phone":"+442036675222","formattedPhone":"+44 20 3667 5222","twitter":"buddhabarlondon"},"location":{"address":"145 Knightsbridge","lat":"51.50153678432368","lng":"-0.16205906867980957","distance":"502","postalCode":"SW1X 7PA","cc":"GB","city":"London","state":"Greater London","country":"United Kingdom"},"categories":[{"id":"4bf58dd8d48988d142941735","name":"Asian Restaurant","pluralName":"Asian Restaurants","shortName":"Asian","icon":{"prefix":"https:\/\/ss1.4sqi.net\/img\/categories_v2\/food\/asian_","suffix":".png"},"primary":"true"}],"verified":"true","restricted":"true","stats":{"checkinsCount":"1765","usersCount":"1346","tipCount":"30"},"url":"http:\/\/www.facebook.com\/buddhabarlondon","menu":{"type":"Menu","label":"Menu","anchor":"View Menu","url":"https:\/\/foursquare.com\/v\/buddhabar-london\/5073eaf9d63e722af9c7df92\/menu","mobileUrl":"https:\/\/foursquare.com\/v\/5073eaf9d63e722af9c7df92\/device_menu"},"specials":{"count":"0"},"hereNow":{"count":"0"},"venuePage":{"id":"42749858"},"storeId":"","referralId":"v-1392478038"},{"id":"4f9e78d4e4b0606431023f10","name":"Serpentine Sackler Gallery","contact":{"phone":"+442074026075","formattedPhone":"+44 20 7402 6075"},"location":{"address":"West Carriage Drive","lat":"51.50703751683369","lng":"-0.17151300628909863","distance":"399","postalCode":"W2 2AR","cc":"GB","city":"London","state":"Greater London","country":"United Kingdom"},"categories":[{"id":"4bf58dd8d48988d1e2931735","name":"Art Gallery","pluralName":"Art Galleries","shortName":"Art Gallery","icon":{"prefix":"https:\/\/ss1.4sqi.net\/img\/categories_v2\/arts_entertainment\/artgallery_","suffix":".png"},"primary":"true"}],"verified":"false","restricted":"true","stats":{"checkinsCount":"454","usersCount":"381","tipCount":"10"},"url":"http:\/\/www.serpentinegalleries.org","specials":{"count":"0"},"hereNow":{"count":"0"},"referralId":"v-1392478038"},{"id":"4fcceac1e4b07d10e1b5cc70","name":"Serpentine Swimming Club","contact":{"phone":"+447941846566","formattedPhone":"+44 7941 846566","twitter":"serpsswimclub"},"location":{"address":"The Serpentine","crossStreet":"Hyde Park","lat":"51.50475625305392","lng":"-0.16937930755490577","distance":"120","postalCode":"W2 2UH","cc":"GB","city":"London","state":"Greater London","country":"United Kingdom"},"categories":[{"id":"4bf58dd8d48988d15e941735","name":"Pool","pluralName":"Pools","shortName":"Pool","icon":{"prefix":"https:\/\/ss1.4sqi.net\/img\/categories_v2\/parks_outdoors\/pool_","suffix":".png"},"primary":"true"}],"verified":"false","restricted":"true","stats":{"checkinsCount":"227","usersCount":"93","tipCount":"4"},"url":"http:\/\/www.serpentineswimmingclub.com","specials":{"count":"0"},"hereNow":{"count":"0"},"referralId":"v-1392478038"},{"id":"4bab5c48f964a5204ca33ae3","name":"Signor Sassi","contact":{"phone":"+442075842277","formattedPhone":"+44 20 7584 2277"},"location":{"address":"14 Knightsbridge Green","lat":"51.501209132130064","lng":"-0.16237819355489672","distance":"508","postalCode":"SW1X 7QL","cc":"GB","city":"Kensington","state":"Greater London","country":"United Kingdom"},"categories":[{"id":"4bf58dd8d48988d110941735","name":"Italian Restaurant","pluralName":"Italian Restaurants","shortName":"Italian","icon":{"prefix":"https:\/\/ss1.4sqi.net\/img\/categories_v2\/food\/italian_","suffix":".png"},"primary":"true"}],"verified":"false","restricted":"true","stats":{"checkinsCount":"2070","usersCount":"1536","tipCount":"40"},"url":"http:\/\/www.signorsassi.co.uk","reservations":{"url":"http:\/\/www.toptable.co.uk\/single.aspx?rid=77935&ref=9601"},"menu":{"type":"Menu","label":"Menu","anchor":"View Menu","url":"https:\/\/foursquare.com\/v\/signor-sassi\/4bab5c48f964a5204ca33ae3\/menu","mobileUrl":"https:\/\/foursquare.com\/v\/4bab5c48f964a5204ca33ae3\/device_menu"},"specials":{"count":"0"},"hereNow":{"count":"3","groups":[{"type":"others","name":"Other people here","count":"3"}]},"referralId":"v-1392478038"},{"id":"4f2c0acae4b048e466df240b","name":"Mari Vanna","contact":{"phone":"+442072253122","formattedPhone":"+44 20 7225 3122","twitter":"marivannalondon","facebook":"1448714838677516"},"location":{"address":"116 Knightsbridge","lat":"51.5017628262819","lng":"-0.162364185497365","distance":"470","postalCode":"SW1X 7PJ","cc":"GB","city":"London","state":"Greater London","country":"United Kingdom"},"categories":[{"id":"5293a7563cf9994f4e043a44","name":"Russian Restaurant","pluralName":"Russian Restaurants","shortName":"Russian","icon":{"prefix":"https:\/\/ss1.4sqi.net\/img\/categories_v2\/food\/default_","suffix":".png"},"primary":"true"}],"verified":"true","restricted":"true","stats":{"checkinsCount":"3445","usersCount":"1702","tipCount":"69"},"url":"http:\/\/www.marivanna.co.uk","reservations":{"url":"http:\/\/www.toptable.co.uk\/single.aspx?rid=91236&ref=9601"},"menu":{"type":"Menu","label":"Menu","anchor":"View Menu","url":"https:\/\/foursquare.com\/v\/mari-vanna\/4f2c0acae4b048e466df240b\/menu","mobileUrl":"https:\/\/foursquare.com\/v\/4f2c0acae4b048e466df240b\/device_menu"},"specials":{"count":"0"},"hereNow":{"count":"0"},"venuePage":{"id":"78633336"},"storeId":"","referralId":"v-1392478038"},{"id":"4ac518d8f964a52079a820e3","name":"Mr Chow","contact":{"phone":"+442075897347","formattedPhone":"+44 20 7589 7347","twitter":"mrchow"},"location":{"address":"151 Knightsbridge","lat":"51.50189722382577","lng":"-0.16229474852186287","distance":"465","postalCode":"SW1X 7PA","cc":"GB","city":"London","state":"Greater London","country":"United Kingdom"},"categories":[{"id":"4bf58dd8d48988d145941735","name":"Chinese Restaurant","pluralName":"Chinese Restaurants","shortName":"Chinese","icon":{"prefix":"https:\/\/ss1.4sqi.net\/img\/categories_v2\/food\/chinese_","suffix":".png"},"primary":"true"}],"verified":"false","restricted":"true","stats":{"checkinsCount":"1135","usersCount":"842","tipCount":"45"},"url":"http:\/\/www.mrchow.com","reservations":{"url":"http:\/\/www.toptable.co.uk\/single.aspx?rid=42436&ref=9601"},"specials":{"count":"0"},"hereNow":{"count":"0"},"referralId":"v-1392478038"},{"id":"4ef337567ee5e5892aa47144","name":"Godiva","contact":{"phone":"+442077301234","formattedPhone":"+44 20 7730 1234"},"location":{"address":"Harrods","crossStreet":"Hans Rd","lat":"51.499138549097374","lng":"-0.16417549329139153","distance":"626","postalCode":"SW1W 8EL","cc":"GB","city":"Knightsbridge","state":"Greater London","country":"United Kingdom"},"categories":[{"id":"4bf58dd8d48988d117951735","name":"Candy Store","pluralName":"Candy Stores","shortName":"Candy Store","icon":{"prefix":"https:\/\/ss1.4sqi.net\/img\/categories_v2\/shops\/candystore_","suffix":".png"},"primary":"true"}],"verified":"true","restricted":"true","stats":{"checkinsCount":"2616","usersCount":"1509","tipCount":"45"},"url":"http:\/\/www.godivachocolates.eu","specials":{"count":"0"},"hereNow":{"count":"0"},"storeId":"godiva-be_93_en","referralId":"v-1392478038"},{"id":"4ace2fb1f964a520ecce20e3","name":"JWT","contact":{"phone":"+442076567000","formattedPhone":"+44 20 7656 7000"},"location":{"address":"1 Knightsbridge Green","lat":"51.5009214388212","lng":"-0.1627384831841153","distance":"513","postalCode":"SW1X 7NW","cc":"GB","city":"Knightsbridge","state":"Greater London","country":"United Kingdom"},"categories":[{"id":"4bf58dd8d48988d124941735","name":"Office","pluralName":"Offices","shortName":"Office","icon":{"prefix":"https:\/\/ss1.4sqi.net\/img\/categories_v2\/building\/default_","suffix":".png"},"primary":"true"}],"verified":"true","restricted":"true","stats":{"checkinsCount":"6359","usersCount":"679","tipCount":"13"},"url":"http:\/\/www.jwt.com","specials":{"count":"0"},"hereNow":{"count":"0"},"storeId":"","referralId":"v-1392478038"},{"id":"4b711e99f964a520503a2de3","name":"Gran Caff\u00e8 Londra","contact":{"phone":"+442075900905","formattedPhone":"+44 20 7590 0905","twitter":"grancaffelondra"},"location":{"address":"32-34 Hans Cr","crossStreet":"Next to Harrods","lat":"51.49952641966765","lng":"-0.1616797585873166","distance":"679","postalCode":"SW1X 0LZ","cc":"GB","city":"Knightsbridge","state":"Greater London","country":"United Kingdom"},"categories":[{"id":"4bf58dd8d48988d16d941735","name":"Caf\u00e9","pluralName":"Caf\u00e9s","shortName":"Caf\u00e9","icon":{"prefix":"https:\/\/ss1.4sqi.net\/img\/categories_v2\/food\/cafe_","suffix":".png"},"primary":"true"}],"verified":"false","restricted":"true","stats":{"checkinsCount":"2671","usersCount":"1712","tipCount":"46"},"url":"http:\/\/www.grancaffe.co.uk","specials":{"count":"0"},"hereNow":{"count":"6","groups":[{"type":"others","name":"Other people here","count":"6"}]},"referralId":"v-1392478038"},{"id":"4bb750901344b713298f9e04","name":"Burberry","contact":{"phone":"+442072355000","formattedPhone":"+44 20 7235 5000","twitter":"burberry"},"location":{"address":"109-125 Knightsbridge","lat":"51.50140989013393","lng":"-0.16155481338500977","distance":"538","postalCode":"SW1X 7RJ","cc":"GB","city":"Knightsbridge","state":"Greater London","country":"United Kingdom"},"categories":[{"id":"4bf58dd8d48988d104951735","name":"Boutique","pluralName":"Boutiques","shortName":"Boutique","icon":{"prefix":"https:\/\/ss1.4sqi.net\/img\/categories_v2\/shops\/apparel_boutique_","suffix":".png"},"primary":"true"}],"verified":"true","restricted":"true","stats":{"checkinsCount":"1236","usersCount":"908","tipCount":"4"},"url":"http:\/\/burberry.com","specials":{"count":"0"},"hereNow":{"count":"0"},"storeId":"0477","referralId":"v-1392478038"},{"id":"4bf6469dabdaef3b133ba184","name":"Louis Vuitton","contact":{"phone":"+442073994055","formattedPhone":"+44 20 7399 4055","twitter":"louisvuitton"},"location":{"address":"Harrods Ground Floor, 87 Brompton Road Knightsbridge","crossStreet":"87 Brompton Rd.","lat":"51.49966","lng":"-0.16331434249878","distance":"601","postalCode":"SW1X 7XL","cc":"GB","city":"London","state":"Greater London","country":"United Kingdom"},"categories":[{"id":"4bf58dd8d48988d102951735","name":"Accessories Store","pluralName":"Accessories Stores","shortName":"Accessories","icon":{"prefix":"https:\/\/ss1.4sqi.net\/img\/categories_v2\/shops\/apparel_accessories_","suffix":".png"},"primary":"true"}],"verified":"true","restricted":"true","stats":{"checkinsCount":"3605","usersCount":"2689","tipCount":"38"},"specials":{"count":"0"},"hereNow":{"count":"0"},"storeId":"","referralId":"v-1392478038"},{"id":"52e4ed4b11d2837da5a8add2","name":"HARRODS\ud83c\uddec\ud83c\udde7","location":{"address":"London","crossStreet":"Knight Bridge","lat":"51.50688235417588","lng":"-0.16196774829717245","distance":"496","cc":"GB","country":"United Kingdom"},"categories":[{"id":"4bf58dd8d48988d130941735","name":"Building","pluralName":"Buildings","shortName":"Building","icon":{"prefix":"https:\/\/ss1.4sqi.net\/img\/categories_v2\/building\/default_","suffix":".png"},"primary":"true"}],"verified":"false","restricted":"true","stats":{"checkinsCount":"73","usersCount":"72","tipCount":"0"},"specials":{"count":"0"},"hereNow":{"count":"2","groups":[{"type":"others","name":"Other people here","count":"2"}]},"referralId":"v-1392478038"},{"id":"4bf63753004ed13a922342a0","name":"Topshop","contact":{"twitter":"topshop"},"location":{"address":"70 Brompton Rd","lat":"51.500177062530156","lng":"-0.1630954399804169","distance":"562","postalCode":"SW3 1ER","cc":"GB","city":"Knightsbridge","state":"Greater London","country":"United Kingdom"},"categories":[{"id":"4bf58dd8d48988d108951735","name":"Women's Store","pluralName":"Women's Stores","shortName":"Women's Store","icon":{"prefix":"https:\/\/ss1.4sqi.net\/img\/categories_v2\/shops\/apparel_women_","suffix":".png"},"primary":"true"}],"verified":"true","restricted":"true","stats":{"checkinsCount":"1132","usersCount":"919","tipCount":"6"},"url":"http:\/\/www.topshop.com","specials":{"count":"0"},"hereNow":{"count":"0"},"storeId":"1054","referralId":"v-1392478038"},{"id":"4ddeb2181f6e03694749e96c","name":"Rutland Gate","location":{"lat":"51.50096031479189","lng":"-0.16792869783752262","distance":"370","cc":"GB","city":"London","state":"Greater London","country":"United Kingdom"},"categories":[{"id":"4d954b06a243a5684965b473","name":"Residential Building (Apartment \/ Condo)","pluralName":"Residential Buildings (Apartments \/ Condos)","shortName":"Residential","icon":{"prefix":"https:\/\/ss1.4sqi.net\/img\/categories_v2\/building\/apartment_","suffix":".png"},"primary":"true"}],"verified":"false","restricted":"true","stats":{"checkinsCount":"541","usersCount":"83","tipCount":"0"},"specials":{"count":"0"},"hereNow":{"count":"0"},"referralId":"v-1392478038"},{"id":"51a0c58b498ed446439aae2d","name":"Harrods Food Halls","contact":{"phone":"+442077301234","formattedPhone":"+44 20 7730 1234","twitter":"harrods"},"location":{"address":"87-135 Brompton Rd","lat":"51.50041338435699","lng":"-0.1625861196911987","distance":"562","postalCode":"SW1X 7XL","cc":"GB","city":"Knightsbridge","state":"Greater London","country":"United Kingdom"},"categories":[{"id":"4bf58dd8d48988d1f5941735","name":"Gourmet Shop","pluralName":"Gourmet Shops","shortName":"Gourmet","icon":{"prefix":"https:\/\/ss1.4sqi.net\/img\/categories_v2\/shops\/food_gourmet_","suffix":".png"},"primary":"true"}],"verified":"false","restricted":"true","stats":{"checkinsCount":"430","usersCount":"413","tipCount":"5"},"url":"http:\/\/www.harrods.com","specials":{"count":"0"},"hereNow":{"count":"2","groups":[{"type":"others","name":"Other people here","count":"2"}]},"referralId":"v-1392478038"},{"id":"4ac518bef964a520fea220e3","name":"The Paxton's Head","location":{"address":"153 Knightsbridge","lat":"51.501867867579975","lng":"-0.1622150765480736","distance":"471","postalCode":"SW1X 7PA","cc":"GB","city":"London","state":"Greater London","country":"United Kingdom"},"categories":[{"id":"4bf58dd8d48988d11b941735","name":"Pub","pluralName":"Pubs","shortName":"Pub","icon":{"prefix":"https:\/\/ss1.4sqi.net\/img\/categories_v2\/nightlife\/pub_","suffix":".png"},"primary":"true"}],"verified":"false","restricted":"true","stats":{"checkinsCount":"543","usersCount":"471","tipCount":"12"},"specials":{"count":"0"},"hereNow":{"count":"0"},"referralId":"v-1392478038"}],"confident":"true"}}