{"meta":{"code":"200"},"response":{"venues":[{"id":"4ac518eef964a52021ad20e3","name":"Whitecross Street Market","location":{"address":"Whitecross St","lat":"51.522129818132434","lng":"-0.09277642871448469","distance":"240","postalCode":"EC1Y 8QJ","cc":"GB","city":"London","state":"Greater London","country":"United Kingdom"},"categories":[{"id":"4bf58dd8d48988d1cb941735","name":"Food Truck","pluralName":"Food Trucks","shortName":"Food Truck","icon":{"prefix":"https:\/\/ss1.4sqi.net\/img\/categories_v2\/food\/streetfood_","suffix":".png"},"primary":"true"}],"verified":"false","restricted":"true","stats":{"checkinsCount":"7235","usersCount":"1799","tipCount":"77"},"specials":{"count":"0"},"hereNow":{"count":"0"},"referralId":"v-1392477993"},{"id":"4bfc120cda7120a1a38549fd","name":"The Iskel\u00e9","contact":{"phone":"+442074900082","formattedPhone":"+44 20 7490 0082"},"location":{"address":"179-181 Whitecross Street","crossStreet":"Garrett Street","lat":"51.52393637325332","lng":"-0.09345988141417581","distance":"60","postalCode":"EC1Y 8QP","cc":"GB","city":"Islington","state":"Greater London","country":"United Kingdom"},"categories":[{"id":"4f04af1f2fb6e1c99f3db0bb","name":"Turkish Restaurant","pluralName":"Turkish Restaurants","shortName":"Turkish","icon":{"prefix":"https:\/\/ss1.4sqi.net\/img\/categories_v2\/food\/turkish_","suffix":".png"},"primary":"true"}],"verified":"false","restricted":"true","stats":{"checkinsCount":"763","usersCount":"415","tipCount":"17"},"url":"http:\/\/www.theiskele.com\/index.html","menu":{"type":"Menu","label":"Menu","anchor":"View Menu","url":"https:\/\/foursquare.com\/v\/the-iskel%C3%A9\/4bfc120cda7120a1a38549fd\/menu","mobileUrl":"https:\/\/foursquare.com\/v\/4bfc120cda7120a1a38549fd\/device_menu"},"specials":{"count":"0"},"hereNow":{"count":"0"},"referralId":"v-1392477993"},{"id":"4c36021404cbb71378f5ed0d","name":"LSO St Luke's","contact":{"phone":"+442075881116","formattedPhone":"+44 20 7588 1116","twitter":"lsostlukes"},"location":{"address":"161 Old St.","lat":"51.52506538060955","lng":"-0.09392882273869312","distance":"116","postalCode":"EC1V 9NG","cc":"GB","city":"London","state":"Greater London","country":"United Kingdom"},"categories":[{"id":"5032792091d4c4b30a586d5c","name":"Concert Hall","pluralName":"Concert Halls","shortName":"Concert Hall","icon":{"prefix":"https:\/\/ss1.4sqi.net\/img\/categories_v2\/arts_entertainment\/musicvenue_","suffix":".png"},"primary":"true"}],"verified":"true","restricted":"true","stats":{"checkinsCount":"585","usersCount":"464","tipCount":"4"},"url":"http:\/\/lso.co.uk\/lsostlukes","specials":{"count":"0"},"events":{"count":"1","summary":"Final Fantasy Concert","items":[{"id":"52e07888498e02c0861f4275","name":"Final Fantasy Concert","categories":[{"id":"4e0a4b91bd41eda0d6092f89","name":"Concert","pluralName":"Concerts","shortName":"Concert","icon":{"prefix":"https:\/\/ss1.4sqi.net\/img\/categories_v2\/arts_entertainment\/musicvenue_","suffix":".png"},"primary":"true"}],"allDay":"true","date":"1392440400","timeZone":"Europe\/London","text":"","url":"http:\/\/www.songkick.com\/concerts\/19290219-final-fantasy-concert-at-lso-st-lukes?utm_source=4436&utm_medium=partner","provider":{"name":"songkick","iconUrl":{"prefix":"https:\/\/playfoursquare.s3.amazonaws.com\/events\/images\/partners\/sk\/","sizes":["20","40"],"name":"\/logo.png"},"urlText":"more info"},"stats":{"checkinsCount":"5","usersCount":"5"}}]},"hereNow":{"count":"7","groups":[{"type":"others","name":"Other people here","count":"7"}]},"venuePage":{"id":"32862947"},"storeId":"","referralId":"v-1392477993"},{"id":"4af45b0af964a5209ef121e3","name":"Fix Coffee","contact":{"phone":"+442072566447","formattedPhone":"+44 20 7256 6447","twitter":"fixcoffee"},"location":{"address":"161 Whitecross St","lat":"51.52339237446915","lng":"-0.09329527616500854","distance":"105","postalCode":"EC1Y 8JL","cc":"GB","city":"London","state":"Greater London","country":"United Kingdom"},"categories":[{"id":"4bf58dd8d48988d1e0931735","name":"Coffee Shop","pluralName":"Coffee Shops","shortName":"Coffee Shop","icon":{"prefix":"https:\/\/ss1.4sqi.net\/img\/categories_v2\/food\/coffeeshop_","suffix":".png"},"primary":"true"}],"verified":"false","restricted":"true","stats":{"checkinsCount":"2839","usersCount":"701","tipCount":"33"},"url":"http:\/\/www.fix-coffee.co.uk","specials":{"count":"0"},"hereNow":{"count":"0"},"referralId":"v-1392477993"},{"id":"4ad4881df964a5201fe820e3","name":"The Trader (Smith & Jones)","contact":{"phone":"+442074902582","formattedPhone":"+44 20 7490 2582","twitter":"traderlondon"},"location":{"address":"144 Whitecross St.","lat":"51.524078269619125","lng":"-0.09357690811157227","distance":"58","postalCode":"EC1Y 8QJ","cc":"GB","city":"London","state":"Greater London","country":"United Kingdom"},"categories":[{"id":"4bf58dd8d48988d11b941735","name":"Pub","pluralName":"Pubs","shortName":"Pub","icon":{"prefix":"https:\/\/ss1.4sqi.net\/img\/categories_v2\/nightlife\/pub_","suffix":".png"},"primary":"true"}],"verified":"false","restricted":"true","stats":{"checkinsCount":"613","usersCount":"274","tipCount":"5"},"specials":{"count":"0"},"hereNow":{"count":"0"},"referralId":"v-1392477993"},{"id":"4b7e9483f964a520c0f32fe3","name":"Cozzo","contact":{"phone":"+442076081866","formattedPhone":"+44 20 7608 1866"},"location":{"address":"177 Whitecross St","lat":"51.52385448094795","lng":"-0.0933277465886453","distance":"60","postalCode":"EC1Y 8QP","cc":"GB","city":"Islington","state":"Greater London","country":"United Kingdom"},"categories":[{"id":"4bf58dd8d48988d110941735","name":"Italian Restaurant","pluralName":"Italian Restaurants","shortName":"Italian","icon":{"prefix":"https:\/\/ss1.4sqi.net\/img\/categories_v2\/food\/italian_","suffix":".png"},"primary":"true"}],"verified":"false","restricted":"true","stats":{"checkinsCount":"438","usersCount":"211","tipCount":"9"},"specials":{"count":"0"},"hereNow":{"count":"0"},"referralId":"v-1392477993"},{"id":"4bd75e7d09ecb713a6b4467c","name":"Canto Court","contact":{"phone":"+448007834213","formattedPhone":"+44 800 783 4213"},"location":{"address":"122 Old Street","lat":"51.524665","lng":"-0.092563","distance":"45","postalCode":"EC1V 9BD","cc":"GB","city":"Islington","state":"Greater London","country":"United Kingdom"},"categories":[{"id":"4bf58dd8d48988d1a3941735","name":"College Residence Hall","pluralName":"College Residence Halls","shortName":"Residence Hall","icon":{"prefix":"https:\/\/ss1.4sqi.net\/img\/categories_v2\/education\/residencehall_","suffix":".png"},"primary":"true"}],"verified":"false","restricted":"true","stats":{"checkinsCount":"737","usersCount":"69","tipCount":"4"},"specials":{"count":"0"},"hereNow":{"count":"0"},"referralId":"v-1392477993"},{"id":"4ce67d47baa6a1cd94a5216c","name":"Chao Viet Urban Taste","contact":{"phone":"+442072538854","formattedPhone":"+44 20 7253 8854"},"location":{"address":"154 Whitecross Street","lat":"51.524318","lng":"-0.093759","distance":"66","postalCode":"EC1Y 8QN","cc":"GB","city":"London","state":"Greater London","country":"United Kingdom"},"categories":[{"id":"4bf58dd8d48988d14a941735","name":"Vietnamese Restaurant","pluralName":"Vietnamese Restaurants","shortName":"Vietnamese","icon":{"prefix":"https:\/\/ss1.4sqi.net\/img\/categories_v2\/food\/default_","suffix":".png"},"primary":"true"}],"verified":"false","restricted":"true","stats":{"checkinsCount":"321","usersCount":"92","tipCount":"7"},"specials":{"count":"0"},"hereNow":{"count":"0"},"referralId":"v-1392477993"},{"id":"50ada85ae4b09d9e06107da4","name":"Kennedy's Whitecross Street","location":{"lat":"51.52370042247934","lng":"-0.09328522926734266","distance":"73","cc":"GB","country":"United Kingdom"},"categories":[{"id":"4edd64a0c7ddd24ca188df1a","name":"Fish & Chips Shop","pluralName":"Fish & Chips Shops","shortName":"Fish & Chips","icon":{"prefix":"https:\/\/ss1.4sqi.net\/img\/categories_v2\/food\/fishandchips_","suffix":".png"},"primary":"true"}],"verified":"false","restricted":"true","stats":{"checkinsCount":"216","usersCount":"139","tipCount":"4"},"specials":{"count":"0"},"hereNow":{"count":"0"},"referralId":"v-1392477993"},{"id":"4bbf2fb3b083a59391f7a2e9","name":"St. Luke's Church Gardens","location":{"address":"161 Old Street","lat":"51.524865598295634","lng":"-0.09389353146588246","distance":"99","cc":"GB","city":"Islington","state":"Greater London","country":"United Kingdom"},"categories":[{"id":"4bf58dd8d48988d163941735","name":"Park","pluralName":"Parks","shortName":"Park","icon":{"prefix":"https:\/\/ss1.4sqi.net\/img\/categories_v2\/parks_outdoors\/park_","suffix":".png"},"primary":"true"}],"verified":"false","restricted":"true","stats":{"checkinsCount":"842","usersCount":"287","tipCount":"4"},"specials":{"count":"0"},"hereNow":{"count":"0"},"referralId":"v-1392477993"},{"id":"4b5854daf964a520265328e3","name":"Sedap","contact":{"phone":"+442074900200","formattedPhone":"+44 20 7490 0200"},"location":{"address":"102 Old St.","lat":"51.52490170501124","lng":"-0.09338243449379367","distance":"79","postalCode":"EC1V 9AY","cc":"GB","city":"Clerkenwell","state":"Greater London","country":"United Kingdom"},"categories":[{"id":"4bf58dd8d48988d156941735","name":"Malaysian Restaurant","pluralName":"Malaysian Restaurants","shortName":"Malaysian","icon":{"prefix":"https:\/\/ss1.4sqi.net\/img\/categories_v2\/food\/default_","suffix":".png"},"primary":"true"}],"verified":"false","restricted":"true","stats":{"checkinsCount":"416","usersCount":"267","tipCount":"17"},"menu":{"type":"Menu","label":"Menu","anchor":"View Menu","url":"https:\/\/foursquare.com\/v\/sedap\/4b5854daf964a520265328e3\/menu","mobileUrl":"https:\/\/foursquare.com\/v\/4b5854daf964a520265328e3\/device_menu"},"specials":{"count":"0"},"hereNow":{"count":"0"},"referralId":"v-1392477993"},{"id":"4acb902bf964a52052c420e3","name":"Pham Sushi","contact":{"phone":"+442072516336","formattedPhone":"+44 20 7251 6336"},"location":{"address":"159 Whitecross St","lat":"51.523372","lng":"-0.093141","distance":"104","postalCode":"EC1Y 8JL","cc":"GB","city":"London","state":"Greater London","country":"United Kingdom"},"categories":[{"id":"4bf58dd8d48988d1d2941735","name":"Sushi Restaurant","pluralName":"Sushi Restaurants","shortName":"Sushi","icon":{"prefix":"https:\/\/ss1.4sqi.net\/img\/categories_v2\/food\/sushi_","suffix":".png"},"primary":"true"}],"verified":"false","restricted":"true","stats":{"checkinsCount":"536","usersCount":"322","tipCount":"14"},"menu":{"type":"Menu","label":"Menu","anchor":"View Menu","url":"https:\/\/foursquare.com\/v\/pham-sushi\/4acb902bf964a52052c420e3\/menu","mobileUrl":"https:\/\/foursquare.com\/v\/4acb902bf964a52052c420e3\/device_menu"},"specials":{"count":"0"},"hereNow":{"count":"0"},"referralId":"v-1392477993"},{"id":"4b66df28f964a520372e2be3","name":"Dazed & Confused","contact":{"phone":"+442073360766","formattedPhone":"+44 20 7336 0766","twitter":"dazedmagazine"},"location":{"address":"112 Old St","lat":"51.52472777936211","lng":"-0.09342096950429365","distance":"64","postalCode":"EC1V 9BG","cc":"GB","city":"London","state":"Greater London","country":"United Kingdom"},"categories":[{"id":"4bf58dd8d48988d124941735","name":"Office","pluralName":"Offices","shortName":"Office","icon":{"prefix":"https:\/\/ss1.4sqi.net\/img\/categories_v2\/building\/default_","suffix":".png"},"primary":"true"}],"verified":"false","restricted":"true","stats":{"checkinsCount":"74","usersCount":"46","tipCount":"2"},"url":"http:\/\/www.dazeddigital.com","specials":{"count":"0"},"hereNow":{"count":"0"},"referralId":"v-1392477993"},{"id":"51347e21e4b01d3a7c27fe9d","name":"Profusion","contact":{"twitter":"prfsn"},"location":{"address":"Octavia House","crossStreet":"50 Banner Street","lat":"51.52436818388751","lng":"-0.09278961060070558","distance":"8","postalCode":"EC1Y 8ST","cc":"GB","city":"London","state":"Greater London","country":"United Kingdom"},"verified":"true","restricted":"true","stats":{"checkinsCount":"27","usersCount":"3","tipCount":"0"},"specials":{"count":"0"},"hereNow":{"count":"0"},"venuePage":{"id":"55654028"},"storeId":"","referralId":"v-1392477993"},{"id":"4baa0d04f964a520b0463ae3","name":"Luardos","location":{"address":"Whitecross Street","lat":"51.523230495031505","lng":"-0.09299755096435547","distance":"118","cc":"GB","city":"Islington","state":"Greater London","country":"United Kingdom"},"categories":[{"id":"4bf58dd8d48988d153941735","name":"Burrito Place","pluralName":"Burrito Places","shortName":"Burritos","icon":{"prefix":"https:\/\/ss1.4sqi.net\/img\/categories_v2\/food\/burrito_","suffix":".png"},"primary":"true"}],"verified":"false","restricted":"true","stats":{"checkinsCount":"667","usersCount":"173","tipCount":"7"},"specials":{"count":"0"},"hereNow":{"count":"0"},"referralId":"v-1392477993"},{"id":"4db67c1e6e8179a913a46810","name":"Gorkana Group (Banner street)","contact":{"phone":"+442076740200","formattedPhone":"+44 20 7674 0200","twitter":"gorkana"},"location":{"address":"Discovery House","crossStreet":"Banner Street","lat":"51.524191750059074","lng":"-0.09205341339111328","distance":"53","postalCode":"EC1Y 8QE","cc":"GB","city":"Islington","state":"Greater London","country":"United Kingdom"},"categories":[{"id":"4bf58dd8d48988d124941735","name":"Office","pluralName":"Offices","shortName":"Office","icon":{"prefix":"https:\/\/ss1.4sqi.net\/img\/categories_v2\/building\/default_","suffix":".png"},"primary":"true"}],"verified":"false","restricted":"true","stats":{"checkinsCount":"185","usersCount":"29","tipCount":"0"},"url":"http:\/\/www.gorkana.com\/group\/","specials":{"count":"0"},"hereNow":{"count":"0"},"referralId":"v-1392477993"},{"id":"4da3007722a5f04d4c2a1b55","name":"Eric Parry Architects","contact":{"phone":"+442076089600","formattedPhone":"+44 20 7608 9600"},"location":{"address":"28-42 banner street","lat":"51.524468","lng":"-0.091954","distance":"62","postalCode":"EC1Y 8QE","cc":"GB","city":"London","state":"Greater London","country":"United Kingdom"},"categories":[{"id":"4bf58dd8d48988d124941735","name":"Office","pluralName":"Offices","shortName":"Office","icon":{"prefix":"https:\/\/ss1.4sqi.net\/img\/categories_v2\/building\/default_","suffix":".png"},"primary":"true"}],"verified":"false","restricted":"true","stats":{"checkinsCount":"162","usersCount":"9","tipCount":"0"},"specials":{"count":"0"},"hereNow":{"count":"0"},"referralId":"v-1392477993"},{"id":"4c90b3e42626a1cddd922b6b","name":"The Best Kebab","location":{"address":"118 Old Street","lat":"51.524917393374444","lng":"-0.09292914422781065","distance":"70","cc":"GB","city":"London","state":"Greater London","country":"United Kingdom"},"categories":[{"id":"4bf58dd8d48988d16e941735","name":"Fast Food Restaurant","pluralName":"Fast Food Restaurants","shortName":"Fast Food","icon":{"prefix":"https:\/\/ss1.4sqi.net\/img\/categories_v2\/food\/fastfood_","suffix":".png"},"primary":"true"}],"verified":"false","restricted":"true","stats":{"checkinsCount":"423","usersCount":"102","tipCount":"4"},"specials":{"count":"0"},"hereNow":{"count":"0"},"referralId":"v-1392477993"},{"id":"4e32853b1838be8b94caabd5","name":"The Legend Barber","contact":{"phone":"+442074900150","formattedPhone":"+44 20 7490 0150"},"location":{"address":"106 Old Street","lat":"51.52494808846605","lng":"-0.09309005398549218","distance":"76","postalCode":"EC1V 9AY","cc":"GB","city":"Islington","state":"Greater London","country":"United Kingdom"},"categories":[{"id":"4bf58dd8d48988d110951735","name":"Salon \/ Barbershop","pluralName":"Salons \/ Barbershops","shortName":"Salon \/ Barbershop","icon":{"prefix":"https:\/\/ss1.4sqi.net\/img\/categories_v2\/shops\/salon_barber_","suffix":".png"},"primary":"true"}],"verified":"false","restricted":"true","stats":{"checkinsCount":"38","usersCount":"26","tipCount":"4"},"specials":{"count":"0"},"hereNow":{"count":"0"},"referralId":"v-1392477993"},{"id":"4e9586575c5ca8d363eef0fe","name":"Holmesbake","location":{"address":"Whitecross St.","crossStreet":"at Roscoe St.","lat":"51.523442","lng":"-0.093143","distance":"97","cc":"GB","city":"Islington","state":"Greater London","country":"United Kingdom"},"categories":[{"id":"4bf58dd8d48988d1cb941735","name":"Food Truck","pluralName":"Food Trucks","shortName":"Food Truck","icon":{"prefix":"https:\/\/ss1.4sqi.net\/img\/categories_v2\/food\/streetfood_","suffix":".png"},"primary":"true"}],"verified":"false","restricted":"true","stats":{"checkinsCount":"65","usersCount":"23","tipCount":"1"},"specials":{"count":"0"},"hereNow":{"count":"0"},"referralId":"v-1392477993"},{"id":"51bb0d9b498e8433f340bda1","name":"White Cross Street Market","location":{"lat":"51.524632","lng":"-0.093973","distance":"89","cc":"GB","country":"United Kingdom"},"categories":[{"id":"4bf58dd8d48988d1cb941735","name":"Food Truck","pluralName":"Food Trucks","shortName":"Food Truck","icon":{"prefix":"https:\/\/ss1.4sqi.net\/img\/categories_v2\/food\/streetfood_","suffix":".png"},"primary":"true"}],"verified":"false","restricted":"true","stats":{"checkinsCount":"38","usersCount":"32","tipCount":"0"},"specials":{"count":"0"},"hereNow":{"count":"0"},"referralId":"v-1392477993"},{"id":"502a735ce4b079114a7f39ae","name":"hula nails","location":{"address":"203-205 Whitecross street","lat":"51.524418680998494","lng":"-0.09379433391946887","distance":"70","postalCode":"EC1Y 8QP","cc":"GB","city":"London","state":"Greater London","country":"United Kingdom"},"categories":[{"id":"4f04aa0c2fb6e1c99f3db0b8","name":"Nail Salon","pluralName":"Nail Salons","shortName":"Nail Salon","icon":{"prefix":"https:\/\/ss1.4sqi.net\/img\/categories_v2\/shops\/nailsalon_","suffix":".png"},"primary":"true"}],"verified":"false","restricted":"true","stats":{"checkinsCount":"45","usersCount":"28","tipCount":"1"},"specials":{"count":"0"},"hereNow":{"count":"0"},"referralId":"v-1392477993"},{"id":"4be8239088ed2d7f0c79cb1d","name":"Shelter","contact":{"phone":"+448088004444","formattedPhone":"+44 808 800 4444","twitter":"shelter"},"location":{"address":"88 Old St.","lat":"51.52449046950481","lng":"-0.09411181944457851","distance":"93","postalCode":"EC1V 9HU","cc":"GB","city":"Islington","state":"Greater London","country":"United Kingdom"},"categories":[{"id":"4bf58dd8d48988d124941735","name":"Office","pluralName":"Offices","shortName":"Office","icon":{"prefix":"https:\/\/ss1.4sqi.net\/img\/categories_v2\/building\/default_","suffix":".png"},"primary":"true"}],"verified":"false","restricted":"true","stats":{"checkinsCount":"290","usersCount":"45","tipCount":"1"},"url":"http:\/\/www.shelter.org.uk","specials":{"count":"0"},"hereNow":{"count":"0"},"referralId":"v-1392477993"},{"id":"51d4348a498e0658f0e7ed51","name":"Clore Learning Center","location":{"lat":"51.52418338409134","lng":"-0.09276029366812932","distance":"12","cc":"GB","country":"United Kingdom"},"categories":[{"id":"4bf58dd8d48988d198941735","name":"College Academic Building","pluralName":"College Academic Buildings","shortName":"Academic Building","icon":{"prefix":"https:\/\/ss1.4sqi.net\/img\/categories_v2\/education\/academicbuilding_","suffix":".png"},"primary":"true"}],"verified":"false","restricted":"true","stats":{"checkinsCount":"2","usersCount":"1","tipCount":"0"},"specials":{"count":"0"},"hereNow":{"count":"0"},"referralId":"v-1392477993"},{"id":"4b711490f964a52036392de3","name":"Central Cafe","location":{"address":"Old Street","lat":"51.52466609017682","lng":"-0.09420261517189212","distance":"105","cc":"GB","city":"Islington","state":"Greater London","country":"United Kingdom"},"categories":[{"id":"4bf58dd8d48988d16d941735","name":"Caf\u00e9","pluralName":"Caf\u00e9s","shortName":"Caf\u00e9","icon":{"prefix":"https:\/\/ss1.4sqi.net\/img\/categories_v2\/food\/cafe_","suffix":".png"},"primary":"true"}],"verified":"false","restricted":"true","stats":{"checkinsCount":"230","usersCount":"96","tipCount":"7"},"specials":{"count":"0"},"hereNow":{"count":"0"},"referralId":"v-1392477993"},{"id":"4c56b31130d82d7fd409d862","name":"Hoxton Beach Falafel","contact":{"phone":"+447931375632","formattedPhone":"+44 7931 375632"},"location":{"address":"Whitecross Street Market","lat":"51.52328698221815","lng":"-0.09311752380369853","distance":"113","postalCode":"EC1Y","cc":"GB","city":"London","state":"Greater London","country":"United Kingdom"},"categories":[{"id":"4bf58dd8d48988d10b941735","name":"Falafel Restaurant","pluralName":"Falafel Restaurants","shortName":"Falafel","icon":{"prefix":"https:\/\/ss1.4sqi.net\/img\/categories_v2\/food\/falafel_","suffix":".png"},"primary":"true"}],"verified":"false","restricted":"true","stats":{"checkinsCount":"172","usersCount":"55","tipCount":"5"},"specials":{"count":"0"},"hereNow":{"count":"0"},"referralId":"v-1392477993"},{"id":"4e0ef1901f6e9964ea27dba7","name":"Best Gents Hair Salon","location":{"lat":"51.5239211491976","lng":"-0.0934252148753669","distance":"59","cc":"GB","city":"Islington","state":"Greater London","country":"United Kingdom"},"categories":[{"id":"4bf58dd8d48988d110951735","name":"Salon \/ Barbershop","pluralName":"Salons \/ Barbershops","shortName":"Salon \/ Barbershop","icon":{"prefix":"https:\/\/ss1.4sqi.net\/img\/categories_v2\/shops\/salon_barber_","suffix":".png"},"primary":"true"}],"verified":"false","restricted":"true","stats":{"checkinsCount":"31","usersCount":"12","tipCount":"1"},"specials":{"count":"0"},"hereNow":{"count":"0"},"referralId":"v-1392477993"},{"id":"51b07673498e70adc4fdaec9","name":"The Frenchie","location":{"address":"Whitecross Street","lat":"51.52445983886719","lng":"-0.09395500272512436","distance":"82","cc":"GB","city":"London","state":"Greater London","country":"United Kingdom"},"categories":[{"id":"4bf58dd8d48988d1cb941735","name":"Food Truck","pluralName":"Food Trucks","shortName":"Food Truck","icon":{"prefix":"https:\/\/ss1.4sqi.net\/img\/categories_v2\/food\/streetfood_","suffix":".png"},"primary":"true"}],"verified":"false","restricted":"true","stats":{"checkinsCount":"18","usersCount":"9","tipCount":"0"},"specials":{"count":"0"},"hereNow":{"count":"0"},"referralId":"v-1392477993"},{"id":"50eed205e4b0793e2d4472c9","name":"BCSG LTD","location":{"lat":"51.52501551792117","lng":"-0.09221769886810216","distance":"90","cc":"GB","country":"United Kingdom"},"categories":[{"id":"4bf58dd8d48988d125941735","name":"Tech Startup","pluralName":"Tech Startups","shortName":"Tech Startup","icon":{"prefix":"https:\/\/ss1.4sqi.net\/img\/categories_v2\/shops\/technology_","suffix":".png"},"primary":"true"}],"verified":"false","restricted":"true","stats":{"checkinsCount":"4","usersCount":"2","tipCount":"0"},"specials":{"count":"0"},"hereNow":{"count":"0"},"referralId":"v-1392477993"},{"id":"4e70c6c2b3ad44d0b7462e73","name":"City Tailors","location":{"address":"197 Whitecross Street","lat":"51.52423180191151","lng":"-0.09402751922607422","distance":"85","postalCode":"EC1Y 8QP","cc":"GB","city":"London","state":"Greater London","country":"United Kingdom"},"categories":[{"id":"4bf58dd8d48988d1ff941735","name":"Miscellaneous Shop","pluralName":"Miscellaneous Shops","shortName":"Shop","icon":{"prefix":"https:\/\/ss1.4sqi.net\/img\/categories_v2\/shops\/default_","suffix":".png"},"primary":"true"}],"verified":"false","restricted":"true","stats":{"checkinsCount":"8","usersCount":"5","tipCount":"0"},"specials":{"count":"0"},"hereNow":{"count":"0"},"referralId":"v-1392477993"}],"confident":"false"}}