{"meta":{"code":"200"},"response":{"venues":[{"id":"50b3f12be4b0923cb6ef914e","name":"Coya","contact":{"phone":"+442070427118","formattedPhone":"+44 20 7042 7118","twitter":"coyarestaurant"},"location":{"address":"118 Piccadilly","lat":"51.504359345589236","lng":"-0.14778275921564282","distance":"7","postalCode":"W1J 7NW","cc":"GB","city":"London","state":"Greater London","country":"United Kingdom"},"categories":[{"id":"4eb1bfa43b7b52c0e1adc2e8","name":"Peruvian Restaurant","pluralName":"Peruvian Restaurants","shortName":"Peruvian","icon":{"prefix":"https:\/\/ss1.4sqi.net\/img\/categories_v2\/food\/default_","suffix":".png"},"primary":"true"}],"verified":"false","restricted":"true","stats":{"checkinsCount":"927","usersCount":"666","tipCount":"41"},"url":"http:\/\/coyarestaurant.com","reservations":{"url":"http:\/\/www.toptable.co.uk\/single.aspx?rid=93309&ref=9601"},"menu":{"type":"Menu","label":"Menu","anchor":"View Menu","url":"https:\/\/foursquare.com\/v\/coya\/50b3f12be4b0923cb6ef914e\/menu","mobileUrl":"https:\/\/foursquare.com\/v\/50b3f12be4b0923cb6ef914e\/device_menu"},"specials":{"count":"0"},"hereNow":{"count":"0"},"referralId":"v-1392478040"},{"id":"4beae6686295c9b6eb008708","name":"Rose and Crown","contact":{"phone":"+442074991980","formattedPhone":"+44 20 7499 1980","twitter":"taylorwalkerpub"},"location":{"address":"2 Old Park Ln.","lat":"51.50412389569007","lng":"-0.1489131625655773","distance":"79","postalCode":"W1K 1QN","cc":"GB","city":"Mayfair","state":"Greater London","country":"United Kingdom"},"categories":[{"id":"4bf58dd8d48988d11b941735","name":"Pub","pluralName":"Pubs","shortName":"Pub","icon":{"prefix":"https:\/\/ss1.4sqi.net\/img\/categories_v2\/nightlife\/pub_","suffix":".png"},"primary":"true"}],"verified":"false","restricted":"true","stats":{"checkinsCount":"1016","usersCount":"670","tipCount":"8"},"url":"http:\/\/www.taylor-walker.co.uk\/pub\/rose-and-crown-mayfair\/c3810\/","specials":{"count":"0"},"hereNow":{"count":"0"},"referralId":"v-1392478040"},{"id":"4ac518b9f964a520b0a120e3","name":"Hard Rock Cafe London","contact":{"phone":"+442075141700","formattedPhone":"+44 20 7514 1700","twitter":"hardrock"},"location":{"address":"150 Old Park Ln","crossStreet":"at Piccadilly","lat":"51.503859919405706","lng":"-0.14889547006937592","distance":"89","postalCode":"W1K 1QZ","cc":"GB","city":"Mayfair","state":"Greater London","country":"United Kingdom"},"categories":[{"id":"4bf58dd8d48988d14e941735","name":"American Restaurant","pluralName":"American Restaurants","shortName":"American","icon":{"prefix":"https:\/\/ss1.4sqi.net\/img\/categories_v2\/food\/default_","suffix":".png"},"primary":"true"}],"verified":"true","restricted":"true","stats":{"checkinsCount":"11434","usersCount":"8798","tipCount":"139"},"url":"http:\/\/www.hardrock.com","specials":{"count":"0"},"hereNow":{"count":"2","groups":[{"type":"others","name":"Other people here","count":"2"}]},"storeId":"","referralId":"v-1392478040"},{"id":"4ac51183f964a52045a020e3","name":"The\u00a0Athenaeum\u202c\u202a\u202c\u202a\u202c Hotel","contact":{"phone":"+442074993464","formattedPhone":"+44 20 7499 3464","twitter":"theathenaeum"},"location":{"address":"116 Piccadilly","lat":"51.50460201216551","lng":"-0.14752233002286255","distance":"39","postalCode":"W1J 7BJ","cc":"GB","city":"City of Westminster","state":"Greater London","country":"United Kingdom"},"categories":[{"id":"4bf58dd8d48988d1fa931735","name":"Hotel","pluralName":"Hotels","shortName":"Hotel","icon":{"prefix":"https:\/\/ss1.4sqi.net\/img\/categories_v2\/travel\/hotel_","suffix":".png"},"primary":"true"}],"verified":"true","restricted":"true","stats":{"checkinsCount":"1463","usersCount":"798","tipCount":"17"},"url":"http:\/\/www.athenaeumhotel.com","menu":{"type":"Menu","label":"Menu","anchor":"View Menu","url":"https:\/\/foursquare.com\/v\/theathenaeum-hotel-westminster-greater-london\/4ac51183f964a52045a020e3\/menu","mobileUrl":"https:\/\/foursquare.com\/v\/4ac51183f964a52045a020e3\/device_menu"},"specials":{"count":"0"},"hereNow":{"count":"0"},"storeId":"","referralId":"v-1392478040"},{"id":"4ac518b5f964a5208ca020e3","name":"The Park Lane Hotel","contact":{"phone":"+442074996321","formattedPhone":"+44 20 7499 6321","twitter":"spg"},"location":{"address":"Piccadilly","lat":"51.50497615014911","lng":"-0.14728546142578125","distance":"84","postalCode":"W1J 7BX","cc":"GB","city":"Mayfair","state":"Greater London","country":"United Kingdom"},"categories":[{"id":"4bf58dd8d48988d1fa931735","name":"Hotel","pluralName":"Hotels","shortName":"Hotel","icon":{"prefix":"https:\/\/ss1.4sqi.net\/img\/categories_v2\/travel\/hotel_","suffix":".png"},"primary":"true"}],"verified":"true","restricted":"true","stats":{"checkinsCount":"4933","usersCount":"2211","tipCount":"56"},"url":"http:\/\/www.sheratonparklane.com","specials":{"count":"0"},"hereNow":{"count":"0"},"storeId":"105","referralId":"v-1392478040"},{"id":"4f6e0c32e4b07a4bc4fbc406","name":"Hard Rock Shop","contact":{"phone":"+442075141700","formattedPhone":"+44 20 7514 1700"},"location":{"address":"150 Old Park Ln.","lat":"51.503952534427754","lng":"-0.1488099822460489","distance":"79","postalCode":"W1K 1QZ","cc":"GB","city":"London","state":"Greater London","country":"United Kingdom"},"categories":[{"id":"4bf58dd8d48988d1fe941735","name":"Music Store","pluralName":"Music Stores","shortName":"Music Store","icon":{"prefix":"https:\/\/ss1.4sqi.net\/img\/categories_v2\/shops\/music_instruments_","suffix":".png"},"primary":"true"}],"verified":"false","restricted":"true","stats":{"checkinsCount":"1230","usersCount":"1067","tipCount":"6"},"specials":{"count":"0"},"hereNow":{"count":"0"},"referralId":"v-1392478040"},{"id":"4ba1e173f964a52058d037e3","name":"Limkokwing University","contact":{"phone":"+442077585700","formattedPhone":"+44 20 7758 5700","twitter":"limkokwing_uk"},"location":{"address":"106 Piccadilly","lat":"51.505002084035425","lng":"-0.14672427404376406","distance":"109","postalCode":"W1J 7NL","cc":"GB","city":"London","state":"Greater London","country":"United Kingdom"},"categories":[{"id":"4bf58dd8d48988d1ae941735","name":"University","pluralName":"Universities","shortName":"University","icon":{"prefix":"https:\/\/ss1.4sqi.net\/img\/categories_v2\/education\/default_","suffix":".png"},"primary":"true"}],"verified":"false","restricted":"true","stats":{"checkinsCount":"872","usersCount":"188","tipCount":"1"},"url":"http:\/\/www.limkokwing.co.uk","specials":{"count":"0"},"hereNow":{"count":"0"},"referralId":"v-1392478040"},{"id":"4c052f5a73a8c9b6f21197e0","name":"Four Seasons Hotel","contact":{"phone":"+442074990888","formattedPhone":"+44 20 7499 0888","twitter":"fourseasons"},"location":{"address":"Hamilton Place","crossStreet":"at Park Ln","lat":"51.50428161952125","lng":"-0.14977455139160156","distance":"136","postalCode":"W1J 7DR","cc":"GB","city":"London","state":"Greater London","country":"United Kingdom"},"categories":[{"id":"4bf58dd8d48988d1fa931735","name":"Hotel","pluralName":"Hotels","shortName":"Hotel","icon":{"prefix":"https:\/\/ss1.4sqi.net\/img\/categories_v2\/travel\/hotel_","suffix":".png"},"primary":"true"}],"verified":"true","restricted":"true","stats":{"checkinsCount":"2352","usersCount":"1178","tipCount":"23"},"url":"http:\/\/www.fourseasons.com\/london\/","specials":{"count":"0"},"hereNow":{"count":"2","groups":[{"type":"others","name":"Other people here","count":"2"}]},"storeId":"","referralId":"v-1392478040"},{"id":"4bdae1afc79cc928831380e9","name":"RAF Club","contact":{"phone":"+442073991000","formattedPhone":"+44 20 7399 1000","twitter":"therafclub"},"location":{"address":"128 Piccadilly","lat":"51.504086563353745","lng":"-0.14837338074949466","distance":"45","postalCode":"W1J 7PY","cc":"GB","city":"London","state":"Greater London","country":"United Kingdom"},"categories":[{"id":"4bf58dd8d48988d121941735","name":"Lounge","pluralName":"Lounges","shortName":"Lounge","icon":{"prefix":"https:\/\/ss1.4sqi.net\/img\/categories_v2\/nightlife\/lounge_","suffix":".png"},"primary":"true"}],"verified":"false","restricted":"true","stats":{"checkinsCount":"483","usersCount":"252","tipCount":"2"},"url":"http:\/\/www.rafclub.org.uk","specials":{"count":"0"},"hereNow":{"count":"0"},"referralId":"v-1392478040"},{"id":"4ddd53a852b155583de92b36","name":"Playboy Club London","contact":{"phone":"+442074918586","formattedPhone":"+44 20 7491 8586","twitter":"playboy","facebook":"6280019085"},"location":{"address":"14 Old Park Ln.","lat":"51.50451938283924","lng":"-0.14963555605091727","distance":"129","postalCode":"W1K 1ND","cc":"GB","city":"London","state":"Greater London","country":"United Kingdom"},"categories":[{"id":"4bf58dd8d48988d17c941735","name":"Casino","pluralName":"Casinos","shortName":"Casino","icon":{"prefix":"https:\/\/ss1.4sqi.net\/img\/categories_v2\/arts_entertainment\/casino_","suffix":".png"},"primary":"true"}],"verified":"true","restricted":"true","stats":{"checkinsCount":"2047","usersCount":"995","tipCount":"10"},"url":"http:\/\/www.playboyclublondon.com","menu":{"type":"Menu","label":"Menu","anchor":"View Menu","url":"https:\/\/foursquare.com\/v\/playboy-club-london-london-greater-london\/4ddd53a852b155583de92b36\/menu","mobileUrl":"https:\/\/foursquare.com\/v\/4ddd53a852b155583de92b36\/device_menu"},"specials":{"count":"0"},"hereNow":{"count":"0"},"storeId":"","referralId":"v-1392478040"},{"id":"4dab193e1e72c1ab9c02963d","name":"The Back Room","contact":{"phone":"+442075141700","formattedPhone":"+44 20 7514 1700","twitter":"backroomlondon","facebook":"215113471856405"},"location":{"address":"148b Old Park Ln","lat":"51.50408127218058","lng":"-0.1492917537689209","distance":"105","postalCode":"W1K 1QY","cc":"GB","city":"London","state":"Greater London","country":"United Kingdom"},"categories":[{"id":"4bf58dd8d48988d11b941735","name":"Pub","pluralName":"Pubs","shortName":"Pub","icon":{"prefix":"https:\/\/ss1.4sqi.net\/img\/categories_v2\/nightlife\/pub_","suffix":".png"},"primary":"true"}],"verified":"true","restricted":"true","stats":{"checkinsCount":"1172","usersCount":"375","tipCount":"10"},"specials":{"count":"0"},"hereNow":{"count":"0"},"referralId":"v-1392478040"},{"id":"4cd40944baf2f04d8e05b2a3","name":"Hard Rock International Headquarters","location":{"address":"148 Old Park Lane","lat":"51.504028974461924","lng":"-0.14894111262351997","distance":"84","postalCode":"W1K1QY","cc":"GB","city":"London","state":"Greater London","country":"United Kingdom"},"categories":[{"id":"4bf58dd8d48988d174941735","name":"Coworking Space","pluralName":"Coworking Spaces","shortName":"Coworking Space","icon":{"prefix":"https:\/\/ss1.4sqi.net\/img\/categories_v2\/building\/office_coworkingspace_","suffix":".png"},"primary":"true"}],"verified":"false","restricted":"true","stats":{"checkinsCount":"536","usersCount":"156","tipCount":"1"},"specials":{"count":"0"},"hereNow":{"count":"0"},"referralId":"v-1392478040"},{"id":"4ac518def964a520aba920e3","name":"Citrus Restaurant","contact":{"twitter":"spg"},"location":{"address":"Piccadilly","lat":"51.50492940322759","lng":"-0.14673829078674316","distance":"102","postalCode":"W1J 7BX","cc":"GB","city":"London","state":"Greater London","country":"United Kingdom"},"categories":[{"id":"4bf58dd8d48988d1c0941735","name":"Mediterranean Restaurant","pluralName":"Mediterranean Restaurants","shortName":"Mediterranean","icon":{"prefix":"https:\/\/ss1.4sqi.net\/img\/categories_v2\/food\/mediterranean_","suffix":".png"},"primary":"true"}],"verified":"true","restricted":"true","stats":{"checkinsCount":"440","usersCount":"227","tipCount":"11"},"url":"http:\/\/www.citrusrestaurant.co.uk","reservations":{"url":"http:\/\/www.toptable.co.uk\/single.aspx?rid=67891&ref=9601"},"menu":{"type":"Menu","label":"Menu","anchor":"View Menu","url":"https:\/\/foursquare.com\/v\/citrus-restaurant\/4ac518def964a520aba920e3\/menu","mobileUrl":"https:\/\/foursquare.com\/v\/4ac518def964a520aba920e3\/device_menu"},"specials":{"count":"0"},"hereNow":{"count":"0"},"storeId":"4105","referralId":"v-1392478040"},{"id":"4f4f61e4e4b0cc5f147253ae","name":"RAF Bomber Command Memorial","location":{"address":"Hyde Park Corner","crossStreet":"Church Rd.","lat":"51.50319704721207","lng":"-0.1490582616996128","distance":"149","cc":"GB","city":"London","state":"Greater London","country":"United Kingdom"},"categories":[{"id":"4bf58dd8d48988d12d941735","name":"Monument \/ Landmark","pluralName":"Monuments \/ Landmarks","shortName":"Landmark","icon":{"prefix":"https:\/\/ss1.4sqi.net\/img\/categories_v2\/building\/government_monument_","suffix":".png"},"primary":"true"}],"verified":"false","restricted":"true","stats":{"checkinsCount":"649","usersCount":"456","tipCount":"1"},"url":"http:\/\/www.bombercommand.com\/the-memorial\/","specials":{"count":"0"},"hereNow":{"count":"0"},"referralId":"v-1392478040"},{"id":"51b1e6bc498e4ef19daeb84b","name":"117 Piccadilly","location":{"lat":"51.50446719807461","lng":"-0.1480368899269434","distance":"25","cc":"GB","country":"United Kingdom"},"categories":[{"id":"4bf58dd8d48988d124941735","name":"Office","pluralName":"Offices","shortName":"Office","icon":{"prefix":"https:\/\/ss1.4sqi.net\/img\/categories_v2\/building\/default_","suffix":".png"},"primary":"true"}],"verified":"false","restricted":"true","stats":{"checkinsCount":"14","usersCount":"4","tipCount":"0"},"specials":{"count":"0"},"hereNow":{"count":"0"},"referralId":"v-1392478040"},{"id":"52c9ef8a498e2a3644b71352","name":"12 hertford street","location":{"lat":"51.50554","lng":"-0.148001","distance":"139","cc":"GB","country":"United Kingdom"},"categories":[{"id":"4bf58dd8d48988d1fa931735","name":"Hotel","pluralName":"Hotels","shortName":"Hotel","icon":{"prefix":"https:\/\/ss1.4sqi.net\/img\/categories_v2\/travel\/hotel_","suffix":".png"},"primary":"true"}],"verified":"false","restricted":"true","stats":{"checkinsCount":"39","usersCount":"5","tipCount":"0"},"specials":{"count":"0"},"hereNow":{"count":"0"},"referralId":"v-1392478040"},{"id":"4ac518baf964a520dba120e3","name":"The Palm Court","contact":{"twitter":"spg"},"location":{"address":"The Park Lane Hotel, Piccadilly","lat":"51.505006304410784","lng":"-0.1473283684021696","distance":"86","postalCode":"W1J 7BX","cc":"GB","city":"London","state":"Greater London","country":"United Kingdom"},"categories":[{"id":"4bf58dd8d48988d1dc931735","name":"Tea Room","pluralName":"Tea Rooms","shortName":"Tea Room","icon":{"prefix":"https:\/\/ss1.4sqi.net\/img\/categories_v2\/food\/tearoom_","suffix":".png"},"primary":"true"}],"verified":"true","restricted":"true","stats":{"checkinsCount":"396","usersCount":"225","tipCount":"5"},"url":"http:\/\/www.palmcourtlondon.co.uk","menu":{"type":"Menu","label":"Menu","anchor":"View Menu","url":"https:\/\/foursquare.com\/v\/the-palm-court\/4ac518baf964a520dba120e3\/menu","mobileUrl":"https:\/\/foursquare.com\/v\/4ac518baf964a520dba120e3\/device_menu"},"specials":{"count":"0"},"hereNow":{"count":"0"},"storeId":"4455","referralId":"v-1392478040"},{"id":"4e64e8eec65b2dc8a0aaded3","name":"Hard Rock Cafe Museum","contact":{"twitter":"theathenaeum"},"location":{"address":"Piccadilly Arcade","lat":"51.504357966697754","lng":"-0.14780140108789402","distance":"7","postalCode":"W1K","cc":"GB","city":"London","state":"Greater London","country":"United Kingdom"},"categories":[{"id":"4bf58dd8d48988d181941735","name":"Museum","pluralName":"Museums","shortName":"Museum","icon":{"prefix":"https:\/\/ss1.4sqi.net\/img\/categories_v2\/arts_entertainment\/museum_","suffix":".png"},"primary":"true"}],"verified":"false","restricted":"true","stats":{"checkinsCount":"296","usersCount":"194","tipCount":"2"},"menu":{"type":"Menu","label":"Menu","anchor":"View Menu","url":"https:\/\/foursquare.com\/v\/hard-rock-cafe-museum\/4e64e8eec65b2dc8a0aaded3\/menu","mobileUrl":"https:\/\/foursquare.com\/v\/4e64e8eec65b2dc8a0aaded3\/device_menu"},"specials":{"count":"0"},"hereNow":{"count":"0"},"referralId":"v-1392478040"},{"id":"4bd5d6c2cfa7b713a38426da","name":"El Pirata","contact":{"phone":"+442074913810","formattedPhone":"+44 20 7491 3810"},"location":{"address":"5-6 Down St","lat":"51.505097648852036","lng":"-0.14821879266126","distance":"94","postalCode":"W1 7DR","cc":"GB","city":"London","state":"Greater London","country":"United Kingdom"},"categories":[{"id":"4bf58dd8d48988d1db931735","name":"Tapas Restaurant","pluralName":"Tapas Restaurants","shortName":"Tapas","icon":{"prefix":"https:\/\/ss1.4sqi.net\/img\/categories_v2\/food\/tapas_","suffix":".png"},"primary":"true"}],"verified":"false","restricted":"true","stats":{"checkinsCount":"530","usersCount":"388","tipCount":"14"},"menu":{"type":"Menu","label":"Menu","anchor":"View Menu","url":"https:\/\/foursquare.com\/v\/el-pirata\/4bd5d6c2cfa7b713a38426da\/menu","mobileUrl":"https:\/\/foursquare.com\/v\/4bd5d6c2cfa7b713a38426da\/device_menu"},"specials":{"count":"0"},"hereNow":{"count":"0"},"referralId":"v-1392478040"},{"id":"5007cbb0e4b0b9bb926177da","name":"Bracewells","contact":{"phone":"+442074996321","formattedPhone":"+44 20 7499 6321"},"location":{"address":"The Park Lane Hotel, Piccadilly","lat":"51.50498611269584","lng":"-0.14717395612219522","distance":"89","postalCode":"W1J 7BX","cc":"GB","city":"Mayfair","state":"Greater London","country":"United Kingdom"},"categories":[{"id":"4bf58dd8d48988d1c4941735","name":"Restaurant","pluralName":"Restaurants","shortName":"Restaurant","icon":{"prefix":"https:\/\/ss1.4sqi.net\/img\/categories_v2\/food\/default_","suffix":".png"},"primary":"true"}],"verified":"false","restricted":"true","stats":{"checkinsCount":"131","usersCount":"41","tipCount":"1"},"specials":{"count":"0"},"hereNow":{"count":"0"},"referralId":"v-1392478040"},{"id":"4d39e480cc48224b16fc374f","name":"Amaranto Restaurant at Four Seasons Hotel London at Park Lane","contact":{"phone":"+442074990888","formattedPhone":"+44 20 7499 0888","twitter":"fourseasons"},"location":{"address":"Hamilton Place, Park Lane","lat":"51.50446860957782","lng":"-0.15007495880126953","distance":"158","postalCode":"W1J 7DR","cc":"GB","city":"London","state":"Greater London","country":"United Kingdom"},"categories":[{"id":"4bf58dd8d48988d110941735","name":"Italian Restaurant","pluralName":"Italian Restaurants","shortName":"Italian","icon":{"prefix":"https:\/\/ss1.4sqi.net\/img\/categories_v2\/food\/italian_","suffix":".png"},"primary":"true"}],"verified":"true","restricted":"true","stats":{"checkinsCount":"286","usersCount":"173","tipCount":"6"},"url":"http:\/\/www.fourseasons.com\/london\/dining\/amaranto_restaurant\/","menu":{"type":"Menu","label":"Menu","anchor":"View Menu","url":"https:\/\/foursquare.com\/v\/amaranto-restaurant-at-four-seasons-hotel-london-at-park-lane\/4d39e480cc48224b16fc374f\/menu","mobileUrl":"https:\/\/foursquare.com\/v\/4d39e480cc48224b16fc374f\/device_menu"},"specials":{"count":"0"},"hereNow":{"count":"0"},"referralId":"v-1392478040"},{"id":"4f47dd3de4b06a774154b3c1","name":"The Cavalry & Guards Club","contact":{"phone":"+442074991261","formattedPhone":"+44 20 7499 1261"},"location":{"address":"127 Piccadilly","lat":"51.504174767715845","lng":"-0.1482081413269043","distance":"30","postalCode":"W1J 7PX","cc":"GB","city":"Mayfair","state":"Greater London","country":"United Kingdom"},"categories":[{"id":"50328a8e91d4c4b30a586d6c","name":"Non-Profit","pluralName":"Non-Profits","shortName":"Non-Profit","icon":{"prefix":"https:\/\/ss1.4sqi.net\/img\/categories_v2\/building\/default_","suffix":".png"},"primary":"true"}],"verified":"false","restricted":"true","stats":{"checkinsCount":"24","usersCount":"21","tipCount":"0"},"url":"http:\/\/www.cavgds.co.uk","specials":{"count":"0"},"hereNow":{"count":"0"},"referralId":"v-1392478040"},{"id":"524cfac511d2e133a6af020c","name":"The Palm Court Afternoon Tea","location":{"address":"112 Piccadilly","lat":"51.5042097150005","lng":"-0.147997317999568","distance":"16","postalCode":"W1J 7BX","cc":"GB","city":"London","state":"Greater London","country":"United Kingdom"},"categories":[{"id":"4bf58dd8d48988d1dc931735","name":"Tea Room","pluralName":"Tea Rooms","shortName":"Tea Room","icon":{"prefix":"https:\/\/ss1.4sqi.net\/img\/categories_v2\/food\/tearoom_","suffix":".png"},"primary":"true"}],"verified":"false","restricted":"true","stats":{"checkinsCount":"0","usersCount":"0","tipCount":"0"},"url":"http:\/\/www.palmcourtlondon.co.uk","menu":{"type":"Menu","label":"Menu","anchor":"View Menu","url":"https:\/\/foursquare.com\/v\/the-palm-court-afternoon-tea\/524cfac511d2e133a6af020c\/menu","mobileUrl":"https:\/\/foursquare.com\/v\/524cfac511d2e133a6af020c\/device_menu"},"specials":{"count":"0"},"hereNow":{"count":"0"},"referralId":"v-1392478040"},{"id":"4ad20e54f964a52016df20e3","name":"Prezzo","contact":{"phone":"+442074994690","formattedPhone":"+44 20 7499 4690","twitter":"love_prezzo"},"location":{"address":"17 Hertford St","crossStreet":"at Down St","lat":"51.505558947530055","lng":"-0.14876108645685882","distance":"156","postalCode":"W1J 7RS","cc":"GB","city":"Mayfair","state":"Greater London","country":"United Kingdom"},"categories":[{"id":"4bf58dd8d48988d110941735","name":"Italian Restaurant","pluralName":"Italian Restaurants","shortName":"Italian","icon":{"prefix":"https:\/\/ss1.4sqi.net\/img\/categories_v2\/food\/italian_","suffix":".png"},"primary":"true"}],"verified":"true","restricted":"true","stats":{"checkinsCount":"342","usersCount":"278","tipCount":"9"},"url":"http:\/\/www.prezzorestaurants.co.uk","menu":{"type":"Menu","label":"Menu","anchor":"View Menu","url":"https:\/\/foursquare.com\/v\/prezzo\/4ad20e54f964a52016df20e3\/menu","mobileUrl":"https:\/\/foursquare.com\/v\/4ad20e54f964a52016df20e3\/device_menu"},"specials":{"count":"0"},"hereNow":{"count":"0"},"referralId":"v-1392478040"},{"id":"4bfe5841bf6576b09481aeb8","name":"Cavalry & Guards Club","location":{"lat":"51.504030519458425","lng":"-0.14785755284853724","distance":"29","cc":"GB","country":"United Kingdom"},"categories":[{"id":"4bf58dd8d48988d100941735","name":"Meeting Room","pluralName":"Meeting Rooms","shortName":"Meeting Room","icon":{"prefix":"https:\/\/ss1.4sqi.net\/img\/categories_v2\/building\/conventioncenter_meetingroom_","suffix":".png"},"primary":"true"}],"verified":"false","restricted":"true","stats":{"checkinsCount":"219","usersCount":"87","tipCount":"1"},"specials":{"count":"0"},"hereNow":{"count":"0"},"referralId":"v-1392478040"},{"id":"4e8eb9025c5c31299128f601","name":"No. 4 Hamilton Place","contact":{"phone":"+442076704300","formattedPhone":"+44 20 7670 4300","twitter":"4hamiltonplace"},"location":{"address":"4 Hamilton Place","lat":"51.50428161952125","lng":"-0.1503753662109375","distance":"178","postalCode":"W1J 7BQ","cc":"GB","city":"London","state":"Greater London","country":"United Kingdom"},"categories":[{"id":"4bf58dd8d48988d171941735","name":"Event Space","pluralName":"Event Spaces","shortName":"Event Space","icon":{"prefix":"https:\/\/ss1.4sqi.net\/img\/categories_v2\/building\/eventspace_","suffix":".png"},"primary":"true"}],"verified":"true","restricted":"true","stats":{"checkinsCount":"79","usersCount":"28","tipCount":"3"},"url":"http:\/\/4hp.org.uk","specials":{"count":"0"},"hereNow":{"count":"0"},"venuePage":{"id":"65972809"},"storeId":"","referralId":"v-1392478040"},{"id":"4ee609eff9abfc72281b97a5","name":"118 piccadilly","location":{"lat":"51.50413856640037","lng":"-0.14782813158784328","distance":"16","cc":"GB","country":"United Kingdom"},"categories":[{"id":"4bf58dd8d48988d130941735","name":"Building","pluralName":"Buildings","shortName":"Building","icon":{"prefix":"https:\/\/ss1.4sqi.net\/img\/categories_v2\/building\/default_","suffix":".png"},"primary":"true"}],"verified":"false","restricted":"true","stats":{"checkinsCount":"91","usersCount":"19","tipCount":"0"},"specials":{"count":"0"},"hereNow":{"count":"0"},"referralId":"v-1392478040"},{"id":"4fec769de4b075faa9118bef","name":"Lyoness 105 Piccadilly","location":{"lat":"51.50517667337741","lng":"-0.14663982896074917","distance":"127","cc":"GB","country":"United Kingdom"},"categories":[{"id":"4bf58dd8d48988d130941735","name":"Building","pluralName":"Buildings","shortName":"Building","icon":{"prefix":"https:\/\/ss1.4sqi.net\/img\/categories_v2\/building\/default_","suffix":".png"},"primary":"true"}],"verified":"false","restricted":"true","stats":{"checkinsCount":"37","usersCount":"6","tipCount":"0"},"specials":{"count":"0"},"hereNow":{"count":"0"},"referralId":"v-1392478040"},{"id":"4f8218b0e4b0880780688166","name":"Wellsley","location":{"address":"33 addington rd","lat":"51.503757163253134","lng":"-0.14899268976469238","distance":"101","cc":"GB","city":"London","state":"Greater London","country":"United Kingdom"},"verified":"false","restricted":"true","stats":{"checkinsCount":"2","usersCount":"2","tipCount":"0"},"specials":{"count":"0"},"hereNow":{"count":"0"},"referralId":"v-1392478040"},{"id":"4f966101e4b0e8af22318435","name":"Global Classroom LUCT UK","location":{"address":"Picadilly","lat":"51.50409221625111","lng":"-0.14783893775920706","distance":"22","cc":"GB","country":"United Kingdom"},"categories":[{"id":"4bf58dd8d48988d1a8941735","name":"General College & University","pluralName":"General Colleges & Universities","shortName":"Education","icon":{"prefix":"https:\/\/ss1.4sqi.net\/img\/categories_v2\/education\/other_","suffix":".png"},"primary":"true"}],"verified":"false","restricted":"true","stats":{"checkinsCount":"80","usersCount":"9","tipCount":"0"},"specials":{"count":"0"},"hereNow":{"count":"0"},"referralId":"v-1392478040"}],"confident":"true"}}