{"meta":{"code":"200"},"response":{"venues":[{"id":"4ac518ecf964a52090ac20e3","name":"Whiteleys Shopping Centre","contact":{"phone":"+442072298844","formattedPhone":"+44 20 7229 8844","twitter":"shopwhiteley"},"location":{"address":"151 Queensway","lat":"51.51427449482185","lng":"-0.18830180168151855","distance":"34","postalCode":"W2 4YN","cc":"GB","city":"London","state":"Greater London","country":"United Kingdom"},"categories":[{"id":"4bf58dd8d48988d1fd941735","name":"Mall","pluralName":"Malls","shortName":"Mall","icon":{"prefix":"https:\/\/ss1.4sqi.net\/img\/categories_v2\/shops\/mall_","suffix":".png"},"primary":"true"}],"verified":"false","restricted":"true","stats":{"checkinsCount":"7508","usersCount":"3016","tipCount":"33"},"url":"http:\/\/www.whiteleyshopping.co.uk","specials":{"count":"0"},"hereNow":{"count":"1","groups":[{"type":"others","name":"Other people here","count":"1"}]},"referralId":"v-1392478010"},{"id":"4b9f8a0af964a520e62937e3","name":"Post Office","contact":{"phone":"+448457223344","formattedPhone":"+44 845 722 3344"},"location":{"address":"118-120 Queensway","lat":"51.514205","lng":"-0.1877867","distance":"9","postalCode":"W2 6LT","cc":"GB","city":"London","state":"Greater London","country":"United Kingdom"},"categories":[{"id":"4bf58dd8d48988d172941735","name":"Post Office","pluralName":"Post Offices","shortName":"Post Office","icon":{"prefix":"https:\/\/ss1.4sqi.net\/img\/categories_v2\/building\/postoffice_","suffix":".png"},"primary":"true"}],"verified":"false","restricted":"true","stats":{"checkinsCount":"149","usersCount":"76","tipCount":"2"},"specials":{"count":"0"},"hereNow":{"count":"1","groups":[{"type":"others","name":"Other people here","count":"1"}]},"referralId":"v-1392478010"},{"id":"4ac518c4f964a52097a420e3","name":"All Star Lanes","contact":{"phone":"+442073138363","formattedPhone":"+44 20 7313 8363"},"location":{"address":"6 Porchester Gardens","lat":"51.513813795679454","lng":"-0.18831253051757812","distance":"63","postalCode":"W2 4DB","cc":"GB","city":"London","state":"Greater London","country":"United Kingdom"},"categories":[{"id":"4bf58dd8d48988d1e4931735","name":"Bowling Alley","pluralName":"Bowling Alleys","shortName":"Bowling Alley","icon":{"prefix":"https:\/\/ss1.4sqi.net\/img\/categories_v2\/arts_entertainment\/bowling_","suffix":".png"},"primary":"true"}],"verified":"false","restricted":"true","stats":{"checkinsCount":"1348","usersCount":"954","tipCount":"16"},"url":"http:\/\/www.allstarlanes.co.uk\/venues\/bayswater","menu":{"type":"Menu","label":"Menu","anchor":"View Menu","url":"https:\/\/foursquare.com\/v\/all-star-lanes\/4ac518c4f964a52097a420e3\/menu","mobileUrl":"https:\/\/foursquare.com\/v\/4ac518c4f964a52097a420e3\/device_menu"},"specials":{"count":"0"},"hereNow":{"count":"1","groups":[{"type":"others","name":"Other people here","count":"1"}]},"referralId":"v-1392478010"},{"id":"4ba4844df964a520d4a138e3","name":"Noodle Oodle","contact":{"phone":"+442077928833","formattedPhone":"+44 20 7792 8833"},"location":{"address":"106 Queensway","lat":"51.513520967865304","lng":"-0.1877534019264765","distance":"85","postalCode":"W2 3RR","cc":"GB","city":"London","state":"Greater London","country":"United Kingdom"},"categories":[{"id":"4bf58dd8d48988d1d1941735","name":"Ramen \/ Noodle House","pluralName":"Ramen \/ Noodle House","shortName":"Ramen \/ Noodles","icon":{"prefix":"https:\/\/ss1.4sqi.net\/img\/categories_v2\/food\/ramen_","suffix":".png"},"primary":"true"}],"verified":"false","restricted":"true","stats":{"checkinsCount":"1743","usersCount":"940","tipCount":"34"},"menu":{"type":"Menu","label":"Menu","anchor":"View Menu","url":"https:\/\/foursquare.com\/v\/noodle-oodle\/4ba4844df964a520d4a138e3\/menu","mobileUrl":"https:\/\/foursquare.com\/v\/4ba4844df964a520d4a138e3\/device_menu"},"specials":{"count":"0"},"hereNow":{"count":"0"},"referralId":"v-1392478010"},{"id":"4b4a485df964a520358226e3","name":"Odeon","contact":{"phone":"+448712244007","formattedPhone":"+44 871 224 4007"},"location":{"address":"Whiteleys Shopping Centre","crossStreet":"151 Queensway","lat":"51.51489876810915","lng":"-0.18844127655029297","distance":"81","postalCode":"W2 4YN","cc":"GB","city":"London","state":"Greater London","country":"United Kingdom"},"categories":[{"id":"4bf58dd8d48988d180941735","name":"Multiplex","pluralName":"Multiplexes","shortName":"Cineplex","icon":{"prefix":"https:\/\/ss1.4sqi.net\/img\/categories_v2\/arts_entertainment\/movietheater_cineplex_","suffix":".png"},"primary":"true"}],"verified":"false","restricted":"true","stats":{"checkinsCount":"2198","usersCount":"1304","tipCount":"28"},"url":"http:\/\/www.odeon.co.uk","specials":{"count":"0"},"events":{"count":"13","summary":"13 movies"},"hereNow":{"count":"1","groups":[{"type":"others","name":"Other people here","count":"1"}]},"referralId":"v-1392478010"},{"id":"4ade28c7f964a520797321e3","name":"Gold Mine","contact":{"phone":"+442077928331","formattedPhone":"+44 20 7792 8331"},"location":{"address":"102 Queensway","lat":"51.51341986083332","lng":"-0.18758296966552734","distance":"97","postalCode":"W2 3RR","cc":"GB","city":"London","state":"Greater London","country":"United Kingdom"},"categories":[{"id":"4bf58dd8d48988d145941735","name":"Chinese Restaurant","pluralName":"Chinese Restaurants","shortName":"Chinese","icon":{"prefix":"https:\/\/ss1.4sqi.net\/img\/categories_v2\/food\/chinese_","suffix":".png"},"primary":"true"}],"verified":"false","restricted":"true","stats":{"checkinsCount":"2317","usersCount":"1430","tipCount":"47"},"specials":{"count":"0"},"hereNow":{"count":"0"},"referralId":"v-1392478010"},{"id":"4b4a47e0f964a520218226e3","name":"Prince Alfred","contact":{"phone":"+442072291474","formattedPhone":"+44 20 7229 1474"},"location":{"address":"112 Queensway","lat":"51.51368359725126","lng":"-0.18760442733764648","distance":"68","postalCode":"W2 3RR","cc":"GB","city":"London","state":"Greater London","country":"United Kingdom"},"categories":[{"id":"4bf58dd8d48988d11b941735","name":"Pub","pluralName":"Pubs","shortName":"Pub","icon":{"prefix":"https:\/\/ss1.4sqi.net\/img\/categories_v2\/nightlife\/pub_","suffix":".png"},"primary":"true"}],"verified":"true","restricted":"true","stats":{"checkinsCount":"1564","usersCount":"1060","tipCount":"23"},"menu":{"type":"Menu","label":"Menu","anchor":"View Menu","url":"https:\/\/foursquare.com\/v\/prince-alfred\/4b4a47e0f964a520218226e3\/menu","mobileUrl":"https:\/\/foursquare.com\/v\/4b4a47e0f964a520218226e3\/device_menu"},"specials":{"count":"0"},"hereNow":{"count":"0"},"storeId":"","referralId":"v-1392478010"},{"id":"51028f7be4b0eca158b7606c","name":"The Lounge","contact":{"phone":"+448712244007","formattedPhone":"+44 871 224 4007","twitter":"odeancinemas"},"location":{"address":"ODEON Whitleys","lat":"51.51494645724348","lng":"-0.18852178242746218","distance":"88","postalCode":"W2 4YL","cc":"GB","city":"Whitleys of Bayswater","state":"Greater London","country":"United Kingdom"},"categories":[{"id":"4bf58dd8d48988d17f941735","name":"Movie Theater","pluralName":"Movie Theaters","shortName":"Movie Theater","icon":{"prefix":"https:\/\/ss1.4sqi.net\/img\/categories_v2\/arts_entertainment\/movietheater_","suffix":".png"},"primary":"true"}],"verified":"false","restricted":"true","stats":{"checkinsCount":"606","usersCount":"409","tipCount":"9"},"url":"http:\/\/www.odeon.co.uk\/thelounge","specials":{"count":"0"},"hereNow":{"count":"1","groups":[{"type":"others","name":"Other people here","count":"1"}]},"referralId":"v-1392478010"},{"id":"4c62fc3286b6be9a776d8d34","name":"Caf\u00e9 Rouge","contact":{"phone":"+442072211509","formattedPhone":"+44 20 7221 1509","twitter":"caferougetweet","facebook":"207511922592337"},"location":{"address":"Unit 209 Whiteleys, Queensway","crossStreet":"Queensway","lat":"51.514076","lng":"-0.18803","distance":"28","postalCode":"W2 4SB","cc":"GB","city":"London","state":"Greater London","country":"United Kingdom"},"categories":[{"id":"4bf58dd8d48988d10c941735","name":"French Restaurant","pluralName":"French Restaurants","shortName":"French","icon":{"prefix":"https:\/\/ss1.4sqi.net\/img\/categories_v2\/food\/french_","suffix":".png"},"primary":"true"}],"verified":"true","restricted":"true","stats":{"checkinsCount":"280","usersCount":"196","tipCount":"9"},"url":"http:\/\/www.caferouge.co.uk\/french-restaurant\/whiteleys","specials":{"count":"0"},"hereNow":{"count":"0"},"storeId":"8103277","referralId":"v-1392478010"},{"id":"4bd7115529eb9c74e11896e1","name":"Starbucks","contact":{"twitter":"starbucksuk"},"location":{"address":"Unit 217,   2nd Floor, Whiteleys of Bayswater","crossStreet":"Queensway","lat":"51.51494126873855","lng":"-0.18830771856264053","distance":"80","postalCode":"W2 4YL","cc":"GB","city":"London","state":"Greater London","country":"United Kingdom"},"categories":[{"id":"4bf58dd8d48988d1e0931735","name":"Coffee Shop","pluralName":"Coffee Shops","shortName":"Coffee Shop","icon":{"prefix":"https:\/\/ss1.4sqi.net\/img\/categories_v2\/food\/coffeeshop_","suffix":".png"},"primary":"true"}],"verified":"true","restricted":"true","stats":{"checkinsCount":"1420","usersCount":"594","tipCount":"7"},"url":"http:\/\/starbucks.co.uk","specials":{"count":"0"},"hereNow":{"count":"0"},"storeId":"12065","referralId":"v-1392478010"},{"id":"4afc9866f964a520382422e3","name":"Pret A Manger","contact":{"phone":"+442079325212","formattedPhone":"+44 20 7932 5212","twitter":"pret","facebook":"162638680417951"},"location":{"address":"127 Queensway","lat":"51.513549","lng":"-0.18769381428571427","distance":"82","postalCode":"W2 4SJ","cc":"GB","city":"Queensway","state":"Greater London","country":"United Kingdom"},"categories":[{"id":"4bf58dd8d48988d1c5941735","name":"Sandwich Place","pluralName":"Sandwich Places","shortName":"Sandwiches","icon":{"prefix":"https:\/\/ss1.4sqi.net\/img\/categories_v2\/food\/sandwiches_","suffix":".png"},"primary":"true"}],"verified":"true","restricted":"true","stats":{"checkinsCount":"776","usersCount":"478","tipCount":"7"},"url":"http:\/\/www.pret.com","specials":{"count":"0"},"hereNow":{"count":"0"},"storeId":"212","referralId":"v-1392478010"},{"id":"4c8ccc9bcf3ea1439d42f851","name":"Oddono's Gelati","contact":{"phone":"+442077926023","formattedPhone":"+44 20 7792 6023"},"location":{"address":"Whiteleys Shopping Centre","crossStreet":"151 Queensway","lat":"51.514344460000004","lng":"-0.188172","distance":"26","postalCode":"W2 4YN","cc":"GB","city":"Paddington","state":"Greater London","country":"United Kingdom"},"categories":[{"id":"4bf58dd8d48988d1c9941735","name":"Ice Cream Shop","pluralName":"Ice Cream Shops","shortName":"Ice Cream","icon":{"prefix":"https:\/\/ss1.4sqi.net\/img\/categories_v2\/food\/icecream_","suffix":".png"},"primary":"true"}],"verified":"false","restricted":"true","stats":{"checkinsCount":"116","usersCount":"78","tipCount":"4"},"specials":{"count":"0"},"hereNow":{"count":"0"},"referralId":"v-1392478010"},{"id":"4b9e2b66f964a520f9ce36e3","name":"Boots","contact":{"phone":"+442072291183","formattedPhone":"+44 20 7229 1183"},"location":{"address":"114 Queensway","lat":"51.513811270706356","lng":"-0.187605","distance":"54","postalCode":"W2 4QS","cc":"GB","city":"London","state":"Greater London","country":"United Kingdom"},"categories":[{"id":"4bf58dd8d48988d10f951735","name":"Drugstore \/ Pharmacy","pluralName":"Drugstores \/ Pharmacies","shortName":"Pharmacy","icon":{"prefix":"https:\/\/ss1.4sqi.net\/img\/categories_v2\/shops\/pharmacy_","suffix":".png"},"primary":"true"}],"verified":"false","restricted":"true","stats":{"checkinsCount":"845","usersCount":"404","tipCount":"4"},"specials":{"count":"0"},"hereNow":{"count":"0"},"referralId":"v-1392478010"},{"id":"4b9e2c0ef964a52028cf36e3","name":"Tesco Metro","contact":{"phone":"+448456779848","formattedPhone":"+44 845 677 9848","twitter":"uktescooffers"},"location":{"address":"138\/142 Queensway","lat":"51.514685114043345","lng":"-0.18791019916534424","distance":"44","postalCode":"W2 6LS","cc":"GB","city":"London","state":"Greater London","country":"United Kingdom"},"categories":[{"id":"4bf58dd8d48988d118951735","name":"Grocery Store","pluralName":"Grocery Stores","shortName":"Grocery Store","icon":{"prefix":"https:\/\/ss1.4sqi.net\/img\/categories_v2\/shops\/food_grocery_","suffix":".png"},"primary":"true"}],"verified":"true","restricted":"true","stats":{"checkinsCount":"712","usersCount":"237","tipCount":"3"},"url":"http:\/\/www.tesco.com","specials":{"count":"0"},"hereNow":{"count":"0"},"storeId":"5039","referralId":"v-1392478010"},{"id":"4af0a5f4f964a520eedd21e3","name":"YO! Sushi","contact":{"phone":"+442077279392","formattedPhone":"+44 20 7727 9392","twitter":"yosushi"},"location":{"address":"Whiteleys Shopping Centre","crossStreet":"151 Queensway","lat":"51.51467176","lng":"-0.188398361","distance":"59","postalCode":"W2 4YN","cc":"GB","city":"City of Westminster","state":"Greater London","country":"United Kingdom"},"categories":[{"id":"4bf58dd8d48988d1d2941735","name":"Sushi Restaurant","pluralName":"Sushi Restaurants","shortName":"Sushi","icon":{"prefix":"https:\/\/ss1.4sqi.net\/img\/categories_v2\/food\/sushi_","suffix":".png"},"primary":"true"}],"verified":"true","restricted":"true","stats":{"checkinsCount":"443","usersCount":"268","tipCount":"5"},"url":"http:\/\/www.yosushi.com","specials":{"count":"0"},"hereNow":{"count":"0"},"storeId":"BAYS","referralId":"v-1392478010"},{"id":"4ff5d69ce4b0fe7c207cbdee","name":"The Real China","contact":{"phone":"+442077928886","formattedPhone":"+44 20 7792 8886"},"location":{"address":"Unit 210-211 Whitleys Shopping Cebtre","crossStreet":"Queensway","lat":"51.5142955096823","lng":"-0.1882348425307102","distance":"29","postalCode":"W2 4YN","cc":"GB","city":"London","state":"Greater London","country":"United Kingdom"},"categories":[{"id":"4bf58dd8d48988d145941735","name":"Chinese Restaurant","pluralName":"Chinese Restaurants","shortName":"Chinese","icon":{"prefix":"https:\/\/ss1.4sqi.net\/img\/categories_v2\/food\/chinese_","suffix":".png"},"primary":"true"}],"verified":"false","restricted":"true","stats":{"checkinsCount":"166","usersCount":"87","tipCount":"6"},"specials":{"count":"0"},"hereNow":{"count":"0"},"referralId":"v-1392478010"},{"id":"4ac518dbf964a52002a920e3","name":"Magic Wok","contact":{"phone":"+442072219953","formattedPhone":"+44 20 7221 9953"},"location":{"address":"100 Queensway","lat":"51.51330969200403","lng":"-0.18755614757537842","distance":"110","postalCode":"W2 3RR","cc":"GB","city":"London","state":"Greater London","country":"United Kingdom"},"categories":[{"id":"4bf58dd8d48988d145941735","name":"Chinese Restaurant","pluralName":"Chinese Restaurants","shortName":"Chinese","icon":{"prefix":"https:\/\/ss1.4sqi.net\/img\/categories_v2\/food\/chinese_","suffix":".png"},"primary":"true"}],"verified":"false","restricted":"true","stats":{"checkinsCount":"966","usersCount":"263","tipCount":"15"},"menu":{"type":"Menu","label":"Menu","anchor":"View Menu","url":"https:\/\/foursquare.com\/v\/magic-wok\/4ac518dbf964a52002a920e3\/menu","mobileUrl":"https:\/\/foursquare.com\/v\/4ac518dbf964a52002a920e3\/device_menu"},"specials":{"count":"0"},"hereNow":{"count":"0"},"referralId":"v-1392478010"},{"id":"5217348911d258ed309fba6c","name":"Threestore Bayswater","contact":{"phone":"+442072297876","formattedPhone":"+44 20 7229 7876"},"location":{"address":"124 Queensway","lat":"51.514155","lng":"-0.188108","distance":"25","postalCode":"W26LS","cc":"GB","city":"London","state":"Greater London","country":"United Kingdom"},"categories":[{"id":"4f04afc02fb6e1c99f3db0bc","name":"Mobile Phone Shop","pluralName":"Mobile Phone Shops","shortName":"Mobile Phone","icon":{"prefix":"https:\/\/ss1.4sqi.net\/img\/categories_v2\/shops\/mobilephoneshop_","suffix":".png"},"primary":"true"}],"verified":"false","restricted":"true","stats":{"checkinsCount":"9","usersCount":"1","tipCount":"1"},"specials":{"count":"0"},"hereNow":{"count":"0"},"referralId":"v-1392478010"},{"id":"4d9f5f7f0ea841bdb160dbd7","name":"Marks & Spencer","contact":{"phone":"+442072299515","formattedPhone":"+44 20 7229 9515"},"location":{"address":"Whiteleys","crossStreet":"at 151 Queensway","lat":"51.51531531073604","lng":"-0.18886942080815045","distance":"136","postalCode":"W2 4YT","cc":"GB","city":"London","state":"Greater London","country":"United Kingdom"},"categories":[{"id":"4bf58dd8d48988d103951735","name":"Clothing Store","pluralName":"Clothing Stores","shortName":"Apparel","icon":{"prefix":"https:\/\/ss1.4sqi.net\/img\/categories_v2\/shops\/apparel_","suffix":".png"},"primary":"true"}],"verified":"true","restricted":"true","stats":{"checkinsCount":"1106","usersCount":"332","tipCount":"1"},"specials":{"count":"0"},"hereNow":{"count":"0"},"storeId":"Bayswater","referralId":"v-1392478010"},{"id":"4c87c99414c4b60cb99c2235","name":"Zara","contact":{"phone":"+442073136710","formattedPhone":"+44 20 7313 6710"},"location":{"address":"151 Queensway","lat":"51.514478802368714","lng":"-0.18826050762418609","distance":"38","postalCode":"W2 4YN","cc":"GB","city":"London","state":"Greater London","country":"United Kingdom"},"categories":[{"id":"4bf58dd8d48988d103951735","name":"Clothing Store","pluralName":"Clothing Stores","shortName":"Apparel","icon":{"prefix":"https:\/\/ss1.4sqi.net\/img\/categories_v2\/shops\/apparel_","suffix":".png"},"primary":"true"}],"verified":"false","restricted":"true","stats":{"checkinsCount":"187","usersCount":"118","tipCount":"0"},"specials":{"count":"0"},"hereNow":{"count":"0"},"referralId":"v-1392478010"},{"id":"4ba40588f964a520a37838e3","name":"Bella Italia","contact":{"phone":"+442072292439","formattedPhone":"+44 20 7229 2439","twitter":"big_bella","facebook":"31756458232"},"location":{"address":"108\/110 Queensway","lat":"51.513448911999824","lng":"-0.18782270777146529","distance":"93","postalCode":"W2 3RR","cc":"GB","city":"London","state":"Greater London","country":"United Kingdom"},"categories":[{"id":"4bf58dd8d48988d110941735","name":"Italian Restaurant","pluralName":"Italian Restaurants","shortName":"Italian","icon":{"prefix":"https:\/\/ss1.4sqi.net\/img\/categories_v2\/food\/italian_","suffix":".png"},"primary":"true"}],"verified":"true","restricted":"true","stats":{"checkinsCount":"550","usersCount":"442","tipCount":"14"},"url":"http:\/\/www.bellaitalia.co.uk\/italian-restaurant\/queensway-108","specials":{"count":"0"},"hereNow":{"count":"0"},"storeId":"8108322","referralId":"v-1392478010"},{"id":"4c63ae1169a1c9b6d9c83ba4","name":"Salterbaxter","location":{"lat":"51.51486420620358","lng":"-0.18849860927863055","distance":"80","cc":"GB","country":"United Kingdom"},"categories":[{"id":"4bf58dd8d48988d124941735","name":"Office","pluralName":"Offices","shortName":"Office","icon":{"prefix":"https:\/\/ss1.4sqi.net\/img\/categories_v2\/building\/default_","suffix":".png"},"primary":"true"}],"verified":"false","restricted":"true","stats":{"checkinsCount":"332","usersCount":"19","tipCount":"0"},"specials":{"count":"0"},"hereNow":{"count":"0"},"referralId":"v-1392478010"},{"id":"4e70f96ec65b340cdea5db54","name":"Royal Mail Post Office","contact":{"phone":"+442072295209","formattedPhone":"+44 20 7229 5209"},"location":{"address":"118-120 Queensway","crossStreet":"Bayswater","lat":"51.51400831081302","lng":"-0.18772190810471384","distance":"31","postalCode":"W2 6LT","cc":"GB","city":"Paddington","state":"Greater London","country":"United Kingdom"},"categories":[{"id":"4bf58dd8d48988d172941735","name":"Post Office","pluralName":"Post Offices","shortName":"Post Office","icon":{"prefix":"https:\/\/ss1.4sqi.net\/img\/categories_v2\/building\/postoffice_","suffix":".png"},"primary":"true"}],"verified":"false","restricted":"true","stats":{"checkinsCount":"235","usersCount":"110","tipCount":"0"},"url":"http:\/\/www.royalmail.co.uk","specials":{"count":"0"},"hereNow":{"count":"0"},"referralId":"v-1392478010"},{"id":"4b5ed9e5f964a520e79a29e3","name":"Costa Coffee","contact":{"phone":"+442072213031","formattedPhone":"+44 20 7221 3031"},"location":{"address":"151 Queensway","lat":"51.515148","lng":"-0.188199","distance":"99","postalCode":"W2 4YN","cc":"GB","city":"London","state":"Greater London","country":"United Kingdom"},"categories":[{"id":"4bf58dd8d48988d1e0931735","name":"Coffee Shop","pluralName":"Coffee Shops","shortName":"Coffee Shop","icon":{"prefix":"https:\/\/ss1.4sqi.net\/img\/categories_v2\/food\/coffeeshop_","suffix":".png"},"primary":"true"}],"verified":"false","restricted":"true","stats":{"checkinsCount":"835","usersCount":"400","tipCount":"6"},"specials":{"count":"0"},"hereNow":{"count":"0"},"referralId":"v-1392478010"},{"id":"515c6bb6e4b057cee8a471aa","name":"Boutique Spa","location":{"lat":"51.51333587405581","lng":"-0.18774602948991823","distance":"106","cc":"GB","country":"United Kingdom"},"categories":[{"id":"4bf58dd8d48988d1ed941735","name":"Spa","pluralName":"Spas","shortName":"Spa","icon":{"prefix":"https:\/\/ss1.4sqi.net\/img\/categories_v2\/shops\/spa_","suffix":".png"},"primary":"true"}],"verified":"false","restricted":"true","stats":{"checkinsCount":"35","usersCount":"26","tipCount":"1"},"specials":{"count":"0"},"hereNow":{"count":"1","groups":[{"type":"others","name":"Other people here","count":"1"}]},"referralId":"v-1392478010"},{"id":"4e77533ed1643f93b2bf9334","name":"M&V Hair And Beauty","location":{"address":"129 Queensway","lat":"51.51375142522081","lng":"-0.18745387330184596","distance":"64","postalCode":"W2 4SJ","cc":"GB","city":"London","state":"Greater London","country":"United Kingdom"},"categories":[{"id":"4bf58dd8d48988d110951735","name":"Salon \/ Barbershop","pluralName":"Salons \/ Barbershops","shortName":"Salon \/ Barbershop","icon":{"prefix":"https:\/\/ss1.4sqi.net\/img\/categories_v2\/shops\/salon_barber_","suffix":".png"},"primary":"true"}],"verified":"false","restricted":"true","stats":{"checkinsCount":"52","usersCount":"18","tipCount":"2"},"specials":{"count":"0"},"hereNow":{"count":"0"},"referralId":"v-1392478010"},{"id":"4bdc8ac73904a5932faa4e9e","name":"Le Cafe Anglais","contact":{"phone":"+442072211415","formattedPhone":"+44 20 7221 1415"},"location":{"address":"8 Porchester Gdns.","lat":"51.513777","lng":"-0.18792199","distance":"57","postalCode":"W2 4DB","cc":"GB","city":"London","state":"Greater London","country":"United Kingdom"},"categories":[{"id":"4bf58dd8d48988d1c4941735","name":"Restaurant","pluralName":"Restaurants","shortName":"Restaurant","icon":{"prefix":"https:\/\/ss1.4sqi.net\/img\/categories_v2\/food\/default_","suffix":".png"},"primary":"true"}],"verified":"false","restricted":"true","stats":{"checkinsCount":"449","usersCount":"341","tipCount":"11"},"url":"http:\/\/www.lecafeanglais.co.uk","reservations":{"url":"http:\/\/www.toptable.co.uk\/single.aspx?rid=13939&ref=9601"},"menu":{"type":"Menu","label":"Menu","anchor":"View Menu","url":"https:\/\/foursquare.com\/v\/le-cafe-anglais\/4bdc8ac73904a5932faa4e9e\/menu","mobileUrl":"https:\/\/foursquare.com\/v\/4bdc8ac73904a5932faa4e9e\/device_menu"},"specials":{"count":"0"},"hereNow":{"count":"0"},"referralId":"v-1392478010"},{"id":"52454b32498efbc8980dd3d6","name":"Whittard Of Chelsea","location":{"address":"Whiteleys","crossStreet":"Queensway","lat":"51.514652","lng":"-0.188066","distance":"44","cc":"GB","city":"London","state":"Greater London","country":"United Kingdom"},"categories":[{"id":"4bf58dd8d48988d1dc931735","name":"Tea Room","pluralName":"Tea Rooms","shortName":"Tea Room","icon":{"prefix":"https:\/\/ss1.4sqi.net\/img\/categories_v2\/food\/tearoom_","suffix":".png"},"primary":"true"}],"verified":"false","restricted":"true","stats":{"checkinsCount":"10","usersCount":"10","tipCount":"0"},"specials":{"count":"0"},"hereNow":{"count":"0"},"referralId":"v-1392478010"},{"id":"4df755f322717445a0b54e8a","name":"Elegance Beauty Clinic","location":{"address":"Whiteleys shopping centre","lat":"51.514597409530666","lng":"-0.18832992146138272","distance":"50","postalCode":"W2 4YQ","cc":"GB","city":"London","state":"Greater London","country":"United Kingdom"},"categories":[{"id":"4bf58dd8d48988d10c951735","name":"Cosmetics Shop","pluralName":"Cosmetics Shops","shortName":"Cosmetics","icon":{"prefix":"https:\/\/ss1.4sqi.net\/img\/categories_v2\/shops\/beauty_cosmetic_","suffix":".png"},"primary":"true"}],"verified":"false","restricted":"true","stats":{"checkinsCount":"16","usersCount":"9","tipCount":"0"},"specials":{"count":"0"},"hereNow":{"count":"0"},"referralId":"v-1392478010"},{"id":"4d8334fe37ddba7a30c4a3e4","name":"London House Hotel","contact":{"phone":"+442072431810","formattedPhone":"+44 20 7243 1810","twitter":"london_hotel_w2"},"location":{"address":"81 Kensington Gardens Square","crossStreet":"Bayswater","lat":"51.5139792949681","lng":"-0.18947489016239863","distance":"120","postalCode":"W2 4DJ","cc":"GB","city":"London","state":"Greater London","country":"United Kingdom"},"categories":[{"id":"4bf58dd8d48988d1fa931735","name":"Hotel","pluralName":"Hotels","shortName":"Hotel","icon":{"prefix":"https:\/\/ss1.4sqi.net\/img\/categories_v2\/travel\/hotel_","suffix":".png"},"primary":"true"}],"verified":"false","restricted":"true","stats":{"checkinsCount":"841","usersCount":"369","tipCount":"14"},"specials":{"count":"0"},"hereNow":{"count":"0"},"referralId":"v-1392478010"}],"confident":"true"}}