{"meta":{"code":"200"},"response":{"venues":[{"id":"4b4842f9f964a520c84a26e3","name":"Novotel","contact":{"phone":"+442076600679","formattedPhone":"+44 20 7660 0679"},"location":{"address":"3 Kingdom Street","crossStreet":"Sheldon Square","lat":"51.51933186384051","lng":"-0.18249750137329102","distance":"21","postalCode":"W2 6BD","cc":"GB","city":"London","state":"Greater London","country":"United Kingdom"},"categories":[{"id":"4bf58dd8d48988d1fa931735","name":"Hotel","pluralName":"Hotels","shortName":"Hotel","icon":{"prefix":"https:\/\/ss1.4sqi.net\/img\/categories_v2\/travel\/hotel_","suffix":".png"},"primary":"true"}],"verified":"true","restricted":"true","stats":{"checkinsCount":"2017","usersCount":"715","tipCount":"19"},"url":"http:\/\/www.novotel.com","specials":{"count":"0"},"hereNow":{"count":"0"},"storeId":"","referralId":"v-1392477997"},{"id":"503c86a5e4b0708fceca2b34","name":"Nokia UK HQ","contact":{"twitter":"nokia_uk"},"location":{"address":"2 Kingdom St","lat":"51.51954549611038","lng":"-0.1815319061279297","distance":"92","postalCode":"W2 5BD","cc":"GB","city":"Paddington","state":"Greater London","country":"United Kingdom"},"categories":[{"id":"4bf58dd8d48988d124941735","name":"Office","pluralName":"Offices","shortName":"Office","icon":{"prefix":"https:\/\/ss1.4sqi.net\/img\/categories_v2\/building\/default_","suffix":".png"},"primary":"true"}],"verified":"false","restricted":"true","stats":{"checkinsCount":"2438","usersCount":"358","tipCount":"3"},"specials":{"count":"0"},"hereNow":{"count":"0"},"referralId":"v-1392477997"},{"id":"512c936ae4b053e636270d1d","name":"i2i Events Limited","contact":{"twitter":"i2ievents"},"location":{"address":"The Studios","crossStreet":"2 Kingdom Street","lat":"51.51901808962736","lng":"-0.1823580265045166","distance":"43","postalCode":"W2 6JG","cc":"GB","city":"Paddington","state":"Greater London","country":"United Kingdom"},"categories":[{"id":"4bf58dd8d48988d124941735","name":"Office","pluralName":"Offices","shortName":"Office","icon":{"prefix":"https:\/\/ss1.4sqi.net\/img\/categories_v2\/building\/default_","suffix":".png"},"primary":"true"}],"verified":"false","restricted":"true","stats":{"checkinsCount":"210","usersCount":"25","tipCount":"0"},"specials":{"count":"0"},"hereNow":{"count":"0"},"referralId":"v-1392477997"},{"id":"4ad2e6d5f964a520d1e220e3","name":"Vodafone HQ","contact":{"phone":"+447733368506","formattedPhone":"+44 7733 368506","twitter":"vodafone_group"},"location":{"address":"1 Kingdom St","lat":"51.518410563197584","lng":"-0.18187522888183594","distance":"117","postalCode":"W2 6BY","cc":"GB","city":"Paddington","state":"Greater London","country":"United Kingdom"},"categories":[{"id":"4bf58dd8d48988d124941735","name":"Office","pluralName":"Offices","shortName":"Office","icon":{"prefix":"https:\/\/ss1.4sqi.net\/img\/categories_v2\/building\/default_","suffix":".png"},"primary":"true"}],"verified":"false","restricted":"true","stats":{"checkinsCount":"7686","usersCount":"1009","tipCount":"23"},"url":"http:\/\/www.vodafone.com\/content\/index\/press.html","specials":{"count":"0"},"hereNow":{"count":"0"},"referralId":"v-1392477997"},{"id":"4b48c99ef964a520ee5626e3","name":"Nuffield Health Fitness & Wellbeing Centre","contact":{"phone":"+442072894686","formattedPhone":"+44 20 7289 4686"},"location":{"address":"2 Sheldon Sq.","crossStreet":"Bishops Bridge Rd.","lat":"51.51893463867483","lng":"-0.18002450466156006","distance":"196","postalCode":"W2 6EZ","cc":"GB","city":"Paddington","state":"Greater London","country":"United Kingdom"},"categories":[{"id":"4bf58dd8d48988d176941735","name":"Gym","pluralName":"Gyms","shortName":"Gym","icon":{"prefix":"https:\/\/ss1.4sqi.net\/img\/categories_v2\/building\/gym_","suffix":".png"},"primary":"true"}],"verified":"false","restricted":"true","stats":{"checkinsCount":"3237","usersCount":"258","tipCount":"9"},"specials":{"count":"0"},"hereNow":{"count":"1","groups":[{"type":"others","name":"Other people here","count":"1"}]},"referralId":"v-1392477997"},{"id":"4e6dcc6018380b4aac22ca1f","name":"AstraZeneca","location":{"address":"2 Kingdom St.","lat":"51.51949503776669","lng":"-0.1815812952480645","distance":"87","cc":"GB","city":"London","state":"Greater London","country":"United Kingdom"},"categories":[{"id":"4bf58dd8d48988d174941735","name":"Coworking Space","pluralName":"Coworking Spaces","shortName":"Coworking Space","icon":{"prefix":"https:\/\/ss1.4sqi.net\/img\/categories_v2\/building\/office_coworkingspace_","suffix":".png"},"primary":"true"}],"verified":"false","restricted":"true","stats":{"checkinsCount":"902","usersCount":"99","tipCount":"1"},"specials":{"count":"0"},"hereNow":{"count":"0"},"referralId":"v-1392477997"},{"id":"4acf8f3df964a5208cd420e3","name":"Pearl Liang","location":{"address":"8 Sheldon Square Paddington","lat":"51.519104878455764","lng":"-0.18024444580078125","distance":"178","postalCode":"W2 6EZ","cc":"GB","city":"London","state":"Greater London","country":"United Kingdom"},"categories":[{"id":"4bf58dd8d48988d145941735","name":"Chinese Restaurant","pluralName":"Chinese Restaurants","shortName":"Chinese","icon":{"prefix":"https:\/\/ss1.4sqi.net\/img\/categories_v2\/food\/chinese_","suffix":".png"},"primary":"true"}],"verified":"false","restricted":"true","stats":{"checkinsCount":"1578","usersCount":"772","tipCount":"31"},"url":"http:\/\/www.pearlliang.co.uk","reservations":{"url":"http:\/\/www.toptable.co.uk\/single.aspx?rid=70150&ref=9601"},"menu":{"type":"Menu","label":"Menu","anchor":"View Menu","url":"https:\/\/foursquare.com\/v\/pearl-liang\/4acf8f3df964a5208cd420e3\/menu","mobileUrl":"https:\/\/foursquare.com\/v\/4acf8f3df964a5208cd420e3\/device_menu"},"specials":{"count":"0"},"hereNow":{"count":"0"},"referralId":"v-1392477997"},{"id":"4e1d9cc9814d369d90cee305","name":"Cognizant UK Head Office","location":{"address":"1 Kingdom Street","crossStreet":"Paddington Central","lat":"51.51917831502756","lng":"-0.18093109130859375","distance":"130","postalCode":"W2 6BD","cc":"GB","city":"London","state":"Greater London","country":"United Kingdom"},"categories":[{"id":"4bf58dd8d48988d124941735","name":"Office","pluralName":"Offices","shortName":"Office","icon":{"prefix":"https:\/\/ss1.4sqi.net\/img\/categories_v2\/building\/default_","suffix":".png"},"primary":"true"}],"verified":"false","restricted":"true","stats":{"checkinsCount":"620","usersCount":"54","tipCount":"3"},"specials":{"count":"0"},"hereNow":{"count":"0"},"referralId":"v-1392477997"},{"id":"4acf309bf964a520abd220e3","name":"Sheldon Square","location":{"address":"Sheldon Sq","crossStreet":"Bishops Bridge Rd","lat":"51.51929180767835","lng":"-0.18007278442382812","distance":"189","postalCode":"W2","cc":"GB","city":"Paddington","state":"Greater London","country":"United Kingdom"},"categories":[{"id":"4bf58dd8d48988d164941735","name":"Plaza","pluralName":"Plazas","shortName":"Plaza","icon":{"prefix":"https:\/\/ss1.4sqi.net\/img\/categories_v2\/parks_outdoors\/plaza_","suffix":".png"},"primary":"true"}],"verified":"false","restricted":"true","stats":{"checkinsCount":"3889","usersCount":"976","tipCount":"10"},"specials":{"count":"0"},"hereNow":{"count":"0"},"referralId":"v-1392477997"},{"id":"4b41c842f964a520e5c825e3","name":"Starbucks","contact":{"twitter":"starbucksuk"},"location":{"address":"Paddington Central Kiosk, 15 Sheldon Square","lat":"51.51945537011874","lng":"-0.17956048250198364","distance":"225","postalCode":"W2 6PY","cc":"GB","city":"London","state":"Greater London","country":"United Kingdom"},"categories":[{"id":"4bf58dd8d48988d1e0931735","name":"Coffee Shop","pluralName":"Coffee Shops","shortName":"Coffee Shop","icon":{"prefix":"https:\/\/ss1.4sqi.net\/img\/categories_v2\/food\/coffeeshop_","suffix":".png"},"primary":"true"}],"verified":"true","restricted":"true","stats":{"checkinsCount":"2643","usersCount":"1139","tipCount":"16"},"url":"http:\/\/starbucks.co.uk","specials":{"count":"0"},"hereNow":{"count":"1","groups":[{"type":"others","name":"Other people here","count":"1"}]},"storeId":"12421","referralId":"v-1392477997"},{"id":"50814bd2e4b09482093f0222","name":"Costa at AstraZeneca","location":{"address":"2 Kingdom Street","lat":"51.519524","lng":"-0.181818","distance":"73","cc":"GB","country":"United Kingdom"},"categories":[{"id":"4bf58dd8d48988d1e0931735","name":"Coffee Shop","pluralName":"Coffee Shops","shortName":"Coffee Shop","icon":{"prefix":"https:\/\/ss1.4sqi.net\/img\/categories_v2\/food\/coffeeshop_","suffix":".png"},"primary":"true"}],"verified":"false","restricted":"true","stats":{"checkinsCount":"210","usersCount":"19","tipCount":"0"},"specials":{"count":"0"},"hereNow":{"count":"0"},"referralId":"v-1392477997"},{"id":"4bd96a810115c9b6482b7780","name":"Pret A Manger","contact":{"phone":"+442079325258","formattedPhone":"+44 20 7932 5258","twitter":"pret","facebook":"162638680417951"},"location":{"address":"Unit 10, Sheldon Square","lat":"51.5192336279623","lng":"-0.180333597946762","distance":"171","postalCode":"W2 6EZ","cc":"GB","city":"Paddington","state":"Greater London","country":"United Kingdom"},"categories":[{"id":"4bf58dd8d48988d1c5941735","name":"Sandwich Place","pluralName":"Sandwich Places","shortName":"Sandwiches","icon":{"prefix":"https:\/\/ss1.4sqi.net\/img\/categories_v2\/food\/sandwiches_","suffix":".png"},"primary":"true"}],"verified":"true","restricted":"true","stats":{"checkinsCount":"1327","usersCount":"345","tipCount":"8"},"url":"http:\/\/www.pret.com","specials":{"count":"0"},"hereNow":{"count":"0"},"storeId":"284","referralId":"v-1392477997"},{"id":"4d3db18aa2e4b1f7cd57f425","name":"Misys","contact":{"phone":"+442033205000","formattedPhone":"+44 20 3320 5000"},"location":{"address":"One Kingdom Street","lat":"51.5190344548121","lng":"-0.1811895906526747","distance":"115","postalCode":"W2 6BL","cc":"GB","city":"London","state":"Greater London","country":"United Kingdom"},"categories":[{"id":"4bf58dd8d48988d124941735","name":"Office","pluralName":"Offices","shortName":"Office","icon":{"prefix":"https:\/\/ss1.4sqi.net\/img\/categories_v2\/building\/default_","suffix":".png"},"primary":"true"}],"verified":"false","restricted":"true","stats":{"checkinsCount":"439","usersCount":"29","tipCount":"0"},"specials":{"count":"0"},"hereNow":{"count":"0"},"referralId":"v-1392477997"},{"id":"4bb306e34019a5930e7f37b8","name":"Visa Europe Headquarters","location":{"address":"Sheldon Sq.","lat":"51.51870431325244","lng":"-0.18028736114501953","distance":"186","cc":"GB","city":"London","state":"Greater London","country":"United Kingdom"},"categories":[{"id":"4bf58dd8d48988d124941735","name":"Office","pluralName":"Offices","shortName":"Office","icon":{"prefix":"https:\/\/ss1.4sqi.net\/img\/categories_v2\/building\/default_","suffix":".png"},"primary":"true"}],"verified":"true","restricted":"true","stats":{"checkinsCount":"1488","usersCount":"239","tipCount":"1"},"specials":{"count":"0"},"hereNow":{"count":"0"},"referralId":"v-1392477997"},{"id":"4c99cfa4a004a1cdb298426e","name":"One Kingdom Street","location":{"address":"1 Kingdom St","lat":"51.518915134622304","lng":"-0.18146586479633492","distance":"101","postalCode":"W2 6PY","cc":"GB","city":"London","state":"Greater London","country":"United Kingdom"},"categories":[{"id":"4bf58dd8d48988d130941735","name":"Building","pluralName":"Buildings","shortName":"Building","icon":{"prefix":"https:\/\/ss1.4sqi.net\/img\/categories_v2\/building\/default_","suffix":".png"},"primary":"true"}],"verified":"false","restricted":"true","stats":{"checkinsCount":"1073","usersCount":"183","tipCount":"0"},"specials":{"count":"0"},"hereNow":{"count":"0"},"referralId":"v-1392477997"},{"id":"4e243bbb88774a43b785334d","name":"Network Rail Enterprise House","contact":{"twitter":"networkrail"},"location":{"address":"167-169 Westbourne Terrace","lat":"51.51859562941921","lng":"-0.18235903839822765","distance":"83","postalCode":"W2 6JX","cc":"GB","city":"London","state":"Greater London","country":"United Kingdom"},"categories":[{"id":"4bf58dd8d48988d124941735","name":"Office","pluralName":"Offices","shortName":"Office","icon":{"prefix":"https:\/\/ss1.4sqi.net\/img\/categories_v2\/building\/default_","suffix":".png"},"primary":"true"}],"verified":"false","restricted":"true","stats":{"checkinsCount":"700","usersCount":"39","tipCount":"0"},"specials":{"count":"0"},"hereNow":{"count":"0"},"referralId":"v-1392477997"},{"id":"4aeae724f964a52087bc21e3","name":"The Bridge House","contact":{"phone":"+442072664326","formattedPhone":"+44 20 7266 4326","twitter":"bridgehousew2"},"location":{"address":"13 Westbourne Terrace Rd.","lat":"51.520994163502024","lng":"-0.18421411514282227","distance":"213","postalCode":"W2 6NG","cc":"GB","city":"London","state":"Greater London","country":"United Kingdom"},"categories":[{"id":"4bf58dd8d48988d11b941735","name":"Pub","pluralName":"Pubs","shortName":"Pub","icon":{"prefix":"https:\/\/ss1.4sqi.net\/img\/categories_v2\/nightlife\/pub_","suffix":".png"},"primary":"true"}],"verified":"false","restricted":"true","stats":{"checkinsCount":"1084","usersCount":"568","tipCount":"20"},"menu":{"type":"Menu","label":"Menu","anchor":"View Menu","url":"https:\/\/foursquare.com\/v\/the-bridge-house\/4aeae724f964a52087bc21e3\/menu","mobileUrl":"https:\/\/foursquare.com\/v\/4aeae724f964a52087bc21e3\/device_menu"},"specials":{"count":"0"},"hereNow":{"count":"0"},"referralId":"v-1392477997"},{"id":"4dbd63036a23e294ba43fa0b","name":"Little Venice Canalway Cavalcade","location":{"lat":"51.5210670962519","lng":"-0.18149161023076313","distance":"217","cc":"GB","city":"Paddington","state":"Greater London","country":"United Kingdom"},"categories":[{"id":"4bf58dd8d48988d171941735","name":"Event Space","pluralName":"Event Spaces","shortName":"Event Space","icon":{"prefix":"https:\/\/ss1.4sqi.net\/img\/categories_v2\/building\/eventspace_","suffix":".png"},"primary":"true"}],"verified":"false","restricted":"true","stats":{"checkinsCount":"393","usersCount":"300","tipCount":"2"},"specials":{"count":"0"},"hereNow":{"count":"2","groups":[{"type":"others","name":"Other people here","count":"2"}]},"referralId":"v-1392477997"},{"id":"4faa22fae4b0284550b13ede","name":"VFS Global Joint Visa Application Centre","location":{"address":"The Battleship Building","crossStreet":"179 Harrow Road","lat":"51.52007636501178","lng":"-0.18092490142689252","distance":"156","postalCode":"W2 6NB","cc":"GB","city":"London","state":"Greater London","country":"United Kingdom"},"categories":[{"id":"4bf58dd8d48988d124941735","name":"Office","pluralName":"Offices","shortName":"Office","icon":{"prefix":"https:\/\/ss1.4sqi.net\/img\/categories_v2\/building\/default_","suffix":".png"},"primary":"true"}],"verified":"false","restricted":"true","stats":{"checkinsCount":"670","usersCount":"409","tipCount":"34"},"specials":{"count":"0"},"hereNow":{"count":"0"},"referralId":"v-1392477997"},{"id":"52d6814411d2b71dbf0e4c9d","name":"Poncho 8","contact":{"phone":"+442071210325","formattedPhone":"+44 20 7121 0325","twitter":"ponchono8"},"location":{"address":"12 Sheldon Square","lat":"51.51931517377723","lng":"-0.18050730228424072","distance":"159","postalCode":"W2 6EZ","cc":"GB","city":"London","state":"Greater London","country":"United Kingdom"},"categories":[{"id":"4bf58dd8d48988d153941735","name":"Burrito Place","pluralName":"Burrito Places","shortName":"Burritos","icon":{"prefix":"https:\/\/ss1.4sqi.net\/img\/categories_v2\/food\/burrito_","suffix":".png"},"primary":"true"}],"verified":"false","restricted":"true","stats":{"checkinsCount":"54","usersCount":"28","tipCount":"2"},"url":"http:\/\/www.poncho8.com\/locations\/paddington\/","specials":{"count":"0"},"hereNow":{"count":"0"},"referralId":"v-1392477997"},{"id":"4b5dd991f964a520a06f29e3","name":"The Union Bar","contact":{"phone":"+442072893063","formattedPhone":"+44 20 7289 3063"},"location":{"address":"4 Sheldon Sq.","lat":"51.519418652070996","lng":"-0.1793968677520752","distance":"236","postalCode":"W2 6EZ","cc":"GB","city":"Paddington","state":"Greater London","country":"United Kingdom"},"categories":[{"id":"4bf58dd8d48988d116941735","name":"Bar","pluralName":"Bars","shortName":"Bar","icon":{"prefix":"https:\/\/ss1.4sqi.net\/img\/categories_v2\/nightlife\/bar_","suffix":".png"},"primary":"true"}],"verified":"false","restricted":"true","stats":{"checkinsCount":"2606","usersCount":"1026","tipCount":"30"},"menu":{"type":"Menu","label":"Menu","anchor":"View Menu","url":"https:\/\/foursquare.com\/v\/the-union-bar\/4b5dd991f964a520a06f29e3\/menu","mobileUrl":"https:\/\/foursquare.com\/v\/4b5dd991f964a520a06f29e3\/device_menu"},"specials":{"count":"0"},"hereNow":{"count":"0"},"referralId":"v-1392477997"},{"id":"516d4dbaebca4e6757805884","name":"itsu","contact":{"phone":"+442072863823","formattedPhone":"+44 20 7286 3823","twitter":"itsuofficial","facebook":"115164458642981"},"location":{"address":"9 Sheldon Sq","lat":"51.51934187787555","lng":"-0.18024712800979614","distance":"177","postalCode":"W2 6EZ","cc":"GB","city":"Paddington","state":"Greater London","country":"United Kingdom"},"categories":[{"id":"4bf58dd8d48988d1d2941735","name":"Sushi Restaurant","pluralName":"Sushi Restaurants","shortName":"Sushi","icon":{"prefix":"https:\/\/ss1.4sqi.net\/img\/categories_v2\/food\/sushi_","suffix":".png"},"primary":"true"}],"verified":"true","restricted":"true","stats":{"checkinsCount":"456","usersCount":"116","tipCount":"2"},"url":"http:\/\/www.itsu.com","specials":{"count":"0"},"hereNow":{"count":"0"},"storeId":"","referralId":"v-1392477997"},{"id":"4b685474f964a52008722be3","name":"DDB London","contact":{"phone":"+442072583996","formattedPhone":"+44 20 7258 3996"},"location":{"address":"12 Bishops Bridge Rd.","lat":"51.5182758707808","lng":"-0.18093661922450258","distance":"171","postalCode":"W2 6AA","cc":"GB","city":"London","state":"Greater London","country":"United Kingdom"},"categories":[{"id":"4bf58dd8d48988d174941735","name":"Coworking Space","pluralName":"Coworking Spaces","shortName":"Coworking Space","icon":{"prefix":"https:\/\/ss1.4sqi.net\/img\/categories_v2\/building\/office_coworkingspace_","suffix":".png"},"primary":"true"}],"verified":"false","restricted":"true","stats":{"checkinsCount":"1968","usersCount":"261","tipCount":"4"},"specials":{"count":"0"},"hereNow":{"count":"0"},"referralId":"v-1392477997"},{"id":"4c8f55591664b1f7e152a72f","name":"Misys International Banking Systems","location":{"address":"One Kingdom Street","lat":"51.518956140586084","lng":"-0.18125400698122937","distance":"113","cc":"GB","city":"London","state":"Greater London","country":"United Kingdom"},"categories":[{"id":"4bf58dd8d48988d124941735","name":"Office","pluralName":"Offices","shortName":"Office","icon":{"prefix":"https:\/\/ss1.4sqi.net\/img\/categories_v2\/building\/default_","suffix":".png"},"primary":"true"}],"verified":"false","restricted":"true","stats":{"checkinsCount":"633","usersCount":"35","tipCount":"1"},"specials":{"count":"0"},"hereNow":{"count":"0"},"referralId":"v-1392477997"},{"id":"4b9f8029f964a520f02637e3","name":"Tossed","contact":{"phone":"+442072892516","formattedPhone":"+44 20 7289 2516","twitter":"tosseduk"},"location":{"address":"10 Sheldon Square","lat":"51.51925149158047","lng":"-0.17993717751061153","distance":"198","postalCode":"W2 6EZ","cc":"GB","city":"London","state":"Greater London","country":"United Kingdom"},"categories":[{"id":"4bf58dd8d48988d1bd941735","name":"Salad Place","pluralName":"Salad Shop","shortName":"Salad","icon":{"prefix":"https:\/\/ss1.4sqi.net\/img\/categories_v2\/food\/salad_","suffix":".png"},"primary":"true"}],"verified":"true","restricted":"true","stats":{"checkinsCount":"752","usersCount":"196","tipCount":"4"},"url":"http:\/\/www.tosseduk.com","specials":{"count":"0"},"hereNow":{"count":"0"},"storeId":"","referralId":"v-1392477997"},{"id":"4bbc8523e5b0d13a9c506f7c","name":"Sainsbury's","contact":{"phone":"+442072862705","formattedPhone":"+44 20 7286 2705"},"location":{"address":"Sheldon Sq.","lat":"51.51941197605914","lng":"-0.1800084114074707","distance":"194","postalCode":"W2 6PR","cc":"GB","city":"Paddington","state":"Greater London","country":"United Kingdom"},"categories":[{"id":"4bf58dd8d48988d118951735","name":"Grocery Store","pluralName":"Grocery Stores","shortName":"Grocery Store","icon":{"prefix":"https:\/\/ss1.4sqi.net\/img\/categories_v2\/shops\/food_grocery_","suffix":".png"},"primary":"true"}],"verified":"false","restricted":"true","stats":{"checkinsCount":"833","usersCount":"185","tipCount":"3"},"specials":{"count":"0"},"hereNow":{"count":"0"},"referralId":"v-1392477997"},{"id":"50489740e4b0fd6dcf007d5f","name":"Alue Restaurant @ Nokia HQ","location":{"address":"2 Kingdom Street","lat":"51.519301460479596","lng":"-0.18070167857582714","distance":"145","cc":"GB","city":"London","state":"Greater London","country":"United Kingdom"},"categories":[{"id":"4bf58dd8d48988d1c4941735","name":"Restaurant","pluralName":"Restaurants","shortName":"Restaurant","icon":{"prefix":"https:\/\/ss1.4sqi.net\/img\/categories_v2\/food\/default_","suffix":".png"},"primary":"true"}],"verified":"false","restricted":"true","stats":{"checkinsCount":"145","usersCount":"17","tipCount":"3"},"specials":{"count":"0"},"hereNow":{"count":"0"},"referralId":"v-1392477997"},{"id":"4cf66d2beb096ea80c54c548","name":"Centre For Counselling And Psychotherapy","location":{"lat":"51.521054964242836","lng":"-0.18145667368037544","distance":"217","cc":"GB","country":"United Kingdom"},"categories":[{"id":"4bf58dd8d48988d127941735","name":"Conference Room","pluralName":"Conference Rooms","shortName":"Conference room","icon":{"prefix":"https:\/\/ss1.4sqi.net\/img\/categories_v2\/building\/office_conferenceroom_","suffix":".png"},"primary":"true"}],"verified":"false","restricted":"true","stats":{"checkinsCount":"19","usersCount":"8","tipCount":"0"},"specials":{"count":"0"},"hereNow":{"count":"1","groups":[{"type":"others","name":"Other people here","count":"1"}]},"referralId":"v-1392477997"},{"id":"4e38017efa7606f144007d44","name":"Cerner UK - Sheldon","location":{"lat":"51.519303","lng":"-0.180169","distance":"182","cc":"GB","city":"Paddington","state":"Greater London","country":"United Kingdom"},"categories":[{"id":"4bf58dd8d48988d130941735","name":"Building","pluralName":"Buildings","shortName":"Building","icon":{"prefix":"https:\/\/ss1.4sqi.net\/img\/categories_v2\/building\/default_","suffix":".png"},"primary":"true"}],"verified":"false","restricted":"true","stats":{"checkinsCount":"188","usersCount":"9","tipCount":"0"},"specials":{"count":"0"},"hereNow":{"count":"0"},"referralId":"v-1392477997"},{"id":"4df7bac1b0fbaeaaabe5e261","name":"Massis Lebanese Grill & Bar","contact":{"phone":"+442072868000","formattedPhone":"+44 20 7286 8000","twitter":"massislebanese"},"location":{"address":"9 Sheldon Square Paddington","lat":"51.519208","lng":"-0.18031607192019705","distance":"172","postalCode":"W2 6HY","cc":"GB","city":"London","state":"Greater London","country":"United Kingdom"},"categories":[{"id":"4bf58dd8d48988d1c4941735","name":"Restaurant","pluralName":"Restaurants","shortName":"Restaurant","icon":{"prefix":"https:\/\/ss1.4sqi.net\/img\/categories_v2\/food\/default_","suffix":".png"},"primary":"true"}],"verified":"true","restricted":"true","stats":{"checkinsCount":"290","usersCount":"185","tipCount":"9"},"url":"https:\/\/www.facebook.com\/massislebanese?ref=hl","menu":{"type":"Menu","label":"Menu","anchor":"View Menu","url":"https:\/\/foursquare.com\/v\/massis-lebanese-grill--bar\/4df7bac1b0fbaeaaabe5e261\/menu","mobileUrl":"https:\/\/foursquare.com\/v\/4df7bac1b0fbaeaaabe5e261\/device_menu"},"specials":{"count":"0"},"hereNow":{"count":"0"},"venuePage":{"id":"65089622"},"storeId":"","referralId":"v-1392477997"}],"confident":"true"}}