{"meta":{"code":"200"},"response":{"venues":[{"id":"4bd7386be914a5936ac350fa","name":"Royal Courts of Justice","location":{"address":"Strand","lat":"51.51337953844755","lng":"-0.11321377982927498","distance":"105","postalCode":"WC2A 2LL","cc":"GB","city":"London","state":"Greater London","country":"United Kingdom"},"categories":[{"id":"4bf58dd8d48988d12b941735","name":"Courthouse","pluralName":"Courthouses","shortName":"Courthouse","icon":{"prefix":"https:\/\/ss1.4sqi.net\/img\/categories_v2\/building\/government_courthouse_","suffix":".png"},"primary":"true"}],"verified":"false","restricted":"true","stats":{"checkinsCount":"3149","usersCount":"1951","tipCount":"12"},"specials":{"count":"0"},"hereNow":{"count":"0"},"referralId":"v-1392478017"},{"id":"4ac518f0f964a520c3ad20e3","name":"Twinings","contact":{"phone":"+442073533511","formattedPhone":"+44 20 7353 3511","twitter":"twiningsteauk","facebook":"105908009492286"},"location":{"address":"216 Strand","lat":"51.51334435259574","lng":"-0.11309938266591965","distance":"107","postalCode":"WC2R 1AP","cc":"GB","city":"London","state":"Greater London","country":"United Kingdom"},"categories":[{"id":"4bf58dd8d48988d1dc931735","name":"Tea Room","pluralName":"Tea Rooms","shortName":"Tea Room","icon":{"prefix":"https:\/\/ss1.4sqi.net\/img\/categories_v2\/food\/tearoom_","suffix":".png"},"primary":"true"}],"verified":"true","restricted":"true","stats":{"checkinsCount":"1382","usersCount":"1205","tipCount":"17"},"url":"http:\/\/www.twinings.co.uk\/our-stores\/twinings,-216,-strand,-london","specials":{"count":"1","items":[{"id":"4fb2309b121d805a9850cefd","type":"count","message":"Check-in for the first time at a Twinings Tea Shop and receive two free tea samples. Show your check-in on your phone to a member of staff to claim your samples.","description":"Unlocked on your 1st check-in","finePrint":"Offer only is available to a new person checking into foursquare in our Strand Shop location and is a one time use offer only. Terms Apply","icon":"newbie","title":"Newbie Special","provider":"foursquare","redemption":"standard","page":{"id":"28034177","firstName":"Twinings Tea","gender":"none","photo":{"prefix":"https:\/\/irs2.4sqi.net\/img\/user\/","suffix":"\/NKHH53O3W4AJQ5TF.jpg"},"type":"chain","followers":{"count":"568"},"tips":{"count":"0"},"lists":{"groups":[{"type":"created","count":"1"}]},"homeCity":"London, UK","bio":"","contact":{"twitter":"twiningsteauk","facebook":"105908009492286"}}}]},"hereNow":{"count":"0"},"storeId":"","referralId":"v-1392478017"},{"id":"4b84239ef964a5202a2331e3","name":"The George","contact":{"phone":"+442073539638","formattedPhone":"+44 20 7353 9638"},"location":{"address":"213 Strand","lat":"51.513293","lng":"-0.113296","distance":"116","postalCode":"WC2R 1AP","cc":"GB","city":"London","state":"Greater London","country":"United Kingdom"},"categories":[{"id":"4bf58dd8d48988d11b941735","name":"Pub","pluralName":"Pubs","shortName":"Pub","icon":{"prefix":"https:\/\/ss1.4sqi.net\/img\/categories_v2\/nightlife\/pub_","suffix":".png"},"primary":"true"}],"verified":"true","restricted":"true","stats":{"checkinsCount":"1685","usersCount":"1131","tipCount":"16"},"url":"http:\/\/www.georgeinthestrand.com","menu":{"type":"Menu","label":"Menu","anchor":"View Menu","url":"https:\/\/foursquare.com\/v\/the-george\/4b84239ef964a5202a2331e3\/menu","mobileUrl":"https:\/\/foursquare.com\/v\/4b84239ef964a5202a2331e3\/device_menu"},"specials":{"count":"0"},"hereNow":{"count":"0"},"storeId":"","referralId":"v-1392478017"},{"id":"4ac518c3f964a52035a420e3","name":"The Knights Templar (Wetherspoon)","contact":{"phone":"+442078312660","formattedPhone":"+44 20 7831 2660"},"location":{"address":"95 Chancery Lane","lat":"51.5152855607142","lng":"-0.11182171508215613","distance":"130","postalCode":"WC2A 1DT","cc":"GB","city":"London","state":"Greater London","country":"United Kingdom"},"categories":[{"id":"4bf58dd8d48988d11b941735","name":"Pub","pluralName":"Pubs","shortName":"Pub","icon":{"prefix":"https:\/\/ss1.4sqi.net\/img\/categories_v2\/nightlife\/pub_","suffix":".png"},"primary":"true"}],"verified":"true","restricted":"true","stats":{"checkinsCount":"1802","usersCount":"1080","tipCount":"17"},"url":"http:\/\/www.jdwetherspoon.co.uk","menu":{"type":"Menu","label":"Menu","anchor":"View Menu","url":"https:\/\/foursquare.com\/v\/the-knights-templar-wetherspoon\/4ac518c3f964a52035a420e3\/menu","mobileUrl":"https:\/\/foursquare.com\/v\/4ac518c3f964a52035a420e3\/device_menu"},"specials":{"count":"0"},"hereNow":{"count":"0"},"referralId":"v-1392478017"},{"id":"4d78eb92b706224b8450308d","name":"The Fleet Street Press","contact":{"phone":"+442075837757","formattedPhone":"+44 20 7583 7757","twitter":"thefleetstpress"},"location":{"address":"3 Fleet St.","lat":"51.51377135538143","lng":"-0.11162007716639447","distance":"100","postalCode":"EC4Y 1AU","cc":"GB","city":"London","state":"Greater London","country":"United Kingdom"},"categories":[{"id":"4bf58dd8d48988d1e0931735","name":"Coffee Shop","pluralName":"Coffee Shops","shortName":"Coffee Shop","icon":{"prefix":"https:\/\/ss1.4sqi.net\/img\/categories_v2\/food\/coffeeshop_","suffix":".png"},"primary":"true"}],"verified":"false","restricted":"true","stats":{"checkinsCount":"548","usersCount":"257","tipCount":"11"},"url":"http:\/\/www.thefleetstreetpress.com","specials":{"count":"0"},"hereNow":{"count":"0"},"referralId":"v-1392478017"},{"id":"4af49c85f964a52052f421e3","name":"Old Bank of England","location":{"address":"194 Fleet St","lat":"51.513837","lng":"-0.1115113","distance":"102","postalCode":"EC4A 2LT","cc":"GB","city":"London","state":"Greater London","country":"United Kingdom"},"categories":[{"id":"4bf58dd8d48988d11b941735","name":"Pub","pluralName":"Pubs","shortName":"Pub","icon":{"prefix":"https:\/\/ss1.4sqi.net\/img\/categories_v2\/nightlife\/pub_","suffix":".png"},"primary":"true"}],"verified":"false","restricted":"true","stats":{"checkinsCount":"1464","usersCount":"1013","tipCount":"20"},"menu":{"type":"Menu","label":"Menu","anchor":"View Menu","url":"https:\/\/foursquare.com\/v\/old-bank-of-england\/4af49c85f964a52052f421e3\/menu","mobileUrl":"https:\/\/foursquare.com\/v\/4af49c85f964a52052f421e3\/device_menu"},"specials":{"count":"0"},"hereNow":{"count":"0"},"referralId":"v-1392478017"},{"id":"4ac518c3f964a52041a420e3","name":"Seven Stars","contact":{"phone":"+442072428521","formattedPhone":"+44 20 7242 8521"},"location":{"address":"53 Carey St.","lat":"51.51495218146903","lng":"-0.11323213577270508","distance":"79","postalCode":"WC2A 2JB","cc":"GB","city":"Holborn","state":"Greater London","country":"United Kingdom"},"categories":[{"id":"4bf58dd8d48988d11b941735","name":"Pub","pluralName":"Pubs","shortName":"Pub","icon":{"prefix":"https:\/\/ss1.4sqi.net\/img\/categories_v2\/nightlife\/pub_","suffix":".png"},"primary":"true"}],"verified":"false","restricted":"true","stats":{"checkinsCount":"824","usersCount":"580","tipCount":"20"},"specials":{"count":"0"},"hereNow":{"count":"0"},"referralId":"v-1392478017"},{"id":"50eacd09498e768c980180fb","name":"Kelvie & Brown","contact":{"phone":"+442030024124","formattedPhone":"+44 20 3002 4124","twitter":"kelvie&brown"},"location":{"address":"69 Chancery Ln","lat":"51.514487961886786","lng":"-0.1130001139823661","distance":"26","postalCode":"WC2A 1AF","cc":"GB","city":"London","state":"Greater London","country":"United Kingdom"},"categories":[{"id":"4bf58dd8d48988d110951735","name":"Salon \/ Barbershop","pluralName":"Salons \/ Barbershops","shortName":"Salon \/ Barbershop","icon":{"prefix":"https:\/\/ss1.4sqi.net\/img\/categories_v2\/shops\/salon_barber_","suffix":".png"},"primary":"true"}],"verified":"false","restricted":"true","stats":{"checkinsCount":"7","usersCount":"3","tipCount":"1"},"specials":{"count":"0"},"hereNow":{"count":"0"},"referralId":"v-1392478017"},{"id":"4e5ff14452b1260c12088b1c","name":"Thai Square Wig And Pen","contact":{"phone":"+442073536980","formattedPhone":"+44 20 7353 6980"},"location":{"lat":"51.513714398602794","lng":"-0.11229249475028541","distance":"73","cc":"GB","country":"United Kingdom"},"categories":[{"id":"4bf58dd8d48988d149941735","name":"Thai Restaurant","pluralName":"Thai Restaurants","shortName":"Thai","icon":{"prefix":"https:\/\/ss1.4sqi.net\/img\/categories_v2\/food\/thai_","suffix":".png"},"primary":"true"}],"verified":"false","restricted":"true","stats":{"checkinsCount":"236","usersCount":"123","tipCount":"4"},"reservations":{"url":"http:\/\/www.toptable.co.uk\/single.aspx?rid=74704&ref=9601"},"specials":{"count":"0"},"hereNow":{"count":"0"},"referralId":"v-1392478017"},{"id":"4c3aeec362f1c928feac8e53","name":"High Court London","location":{"lat":"51.514165","lng":"-0.112351","distance":"34","cc":"GB","country":"United Kingdom"},"categories":[{"id":"4bf58dd8d48988d130941735","name":"Building","pluralName":"Buildings","shortName":"Building","icon":{"prefix":"https:\/\/ss1.4sqi.net\/img\/categories_v2\/building\/default_","suffix":".png"},"primary":"true"}],"verified":"false","restricted":"true","stats":{"checkinsCount":"79","usersCount":"38","tipCount":"0"},"specials":{"count":"0"},"hereNow":{"count":"0"},"referralId":"v-1392478017"},{"id":"526f817f11d2683d568dea48","name":"Endeavour HQ v2","location":{"address":"124 Chancery Lane","crossStreet":"Fleet Street","lat":"51.51404415180745","lng":"-0.11103562304201267","distance":"125","cc":"GB","city":"London","state":"Greater London","country":"United Kingdom"},"categories":[{"id":"4bf58dd8d48988d174941735","name":"Coworking Space","pluralName":"Coworking Spaces","shortName":"Coworking Space","icon":{"prefix":"https:\/\/ss1.4sqi.net\/img\/categories_v2\/building\/office_coworkingspace_","suffix":".png"},"primary":"true"}],"verified":"false","restricted":"true","stats":{"checkinsCount":"48","usersCount":"4","tipCount":"0"},"specials":{"count":"0"},"hereNow":{"count":"0"},"referralId":"v-1392478017"},{"id":"526f7e85498ea092d5b48521","name":"AIMIA 2","location":{"address":"124 Chancery Lane","crossStreet":"Fleet Street","lat":"51.514201","lng":"-0.111239","distance":"108","cc":"GB","city":"London","state":"Greater London","country":"United Kingdom"},"categories":[{"id":"4bf58dd8d48988d174941735","name":"Coworking Space","pluralName":"Coworking Spaces","shortName":"Coworking Space","icon":{"prefix":"https:\/\/ss1.4sqi.net\/img\/categories_v2\/building\/office_coworkingspace_","suffix":".png"},"primary":"true"}],"verified":"false","restricted":"true","stats":{"checkinsCount":"67","usersCount":"8","tipCount":"0"},"specials":{"count":"0"},"hereNow":{"count":"0"},"referralId":"v-1392478017"},{"id":"4bc1acfa2a89ef3b2a9ef288","name":"Apostrophe","contact":{"phone":"+442074279874","formattedPhone":"+44 20 7427 9874","twitter":"apostrophe_uk"},"location":{"address":"215 The Strand","crossStreet":"Fleet Street","lat":"51.51347232733758","lng":"-0.1132263231658285","distance":"95","postalCode":"WC2R 1AP","cc":"GB","city":"London","state":"Greater London","country":"United Kingdom"},"categories":[{"id":"4bf58dd8d48988d16d941735","name":"Caf\u00e9","pluralName":"Caf\u00e9s","shortName":"Caf\u00e9","icon":{"prefix":"https:\/\/ss1.4sqi.net\/img\/categories_v2\/food\/cafe_","suffix":".png"},"primary":"true"}],"verified":"true","restricted":"true","stats":{"checkinsCount":"414","usersCount":"242","tipCount":"11"},"url":"http:\/\/www.apostropheuk.com","menu":{"type":"Menu","label":"Menu","anchor":"View Menu","url":"https:\/\/foursquare.com\/v\/apostrophe\/4bc1acfa2a89ef3b2a9ef288\/menu","mobileUrl":"https:\/\/foursquare.com\/v\/4bc1acfa2a89ef3b2a9ef288\/device_menu"},"specials":{"count":"0"},"hereNow":{"count":"0"},"storeId":"","referralId":"v-1392478017"},{"id":"4c84d85b2f1c236a3e2e4f43","name":"The Law Society","location":{"address":"100-113 Chancery Ln","lat":"51.51496799658084","lng":"-0.11155822745784301","distance":"114","postalCode":"WC2A 1PL","cc":"GB","city":"London","state":"Greater London","country":"United Kingdom"},"categories":[{"id":"4bf58dd8d48988d124941735","name":"Office","pluralName":"Offices","shortName":"Office","icon":{"prefix":"https:\/\/ss1.4sqi.net\/img\/categories_v2\/building\/default_","suffix":".png"},"primary":"true"}],"verified":"false","restricted":"true","stats":{"checkinsCount":"911","usersCount":"277","tipCount":"1"},"specials":{"count":"0"},"hereNow":{"count":"0"},"referralId":"v-1392478017"},{"id":"4b193b06f964a5209fd923e3","name":"Gaucho Grill Chancery","location":{"address":"125 Chancery Lane","lat":"51.514012","lng":"-0.11112595","distance":"120","postalCode":"WC2A 1PU","cc":"GB","city":"London","state":"Greater London","country":"United Kingdom"},"categories":[{"id":"4bf58dd8d48988d107941735","name":"Argentinian Restaurant","pluralName":"Argentinian Restaurants","shortName":"Argentinian","icon":{"prefix":"https:\/\/ss1.4sqi.net\/img\/categories_v2\/food\/argentinian_","suffix":".png"},"primary":"true"}],"verified":"false","restricted":"true","stats":{"checkinsCount":"453","usersCount":"395","tipCount":"9"},"specials":{"count":"0"},"hereNow":{"count":"0"},"referralId":"v-1392478017"},{"id":"4c89091e12e4bfb7c148aa32","name":"Bierschenke","contact":{"phone":"+442079362536","formattedPhone":"+44 20 7936 2536","twitter":"bierschenke"},"location":{"address":"46 Essex St","lat":"51.513003","lng":"-0.113175","distance":"145","postalCode":"WC2R 3JF","cc":"GB","city":"London","state":"Greater London","country":"United Kingdom"},"categories":[{"id":"4bf58dd8d48988d10d941735","name":"German Restaurant","pluralName":"German Restaurants","shortName":"German","icon":{"prefix":"https:\/\/ss1.4sqi.net\/img\/categories_v2\/food\/german_","suffix":".png"},"primary":"true"}],"verified":"false","restricted":"true","stats":{"checkinsCount":"563","usersCount":"390","tipCount":"11"},"url":"http:\/\/bierschenke.co.uk","menu":{"type":"Menu","label":"Menu","anchor":"View Menu","url":"https:\/\/foursquare.com\/v\/bierschenke\/4c89091e12e4bfb7c148aa32\/menu","mobileUrl":"https:\/\/foursquare.com\/v\/4c89091e12e4bfb7c148aa32\/device_menu"},"specials":{"count":"0"},"hereNow":{"count":"0"},"referralId":"v-1392478017"},{"id":"4dd516b7ae60a78cec64da54","name":"The Law Society President's Residence","location":{"address":"Carey Street","lat":"51.515069","lng":"-0.112333","distance":"92","postalCode":"WC2A 7JB","cc":"GB","city":"London","state":"Greater London","country":"United Kingdom"},"categories":[{"id":"4bf58dd8d48988d130941735","name":"Building","pluralName":"Buildings","shortName":"Building","icon":{"prefix":"https:\/\/ss1.4sqi.net\/img\/categories_v2\/building\/default_","suffix":".png"},"primary":"true"}],"verified":"false","restricted":"true","stats":{"checkinsCount":"153","usersCount":"10","tipCount":"0"},"specials":{"count":"0"},"hereNow":{"count":"0"},"referralId":"v-1392478017"},{"id":"4ce708d2948f224b717fe75d","name":"Retail 24","location":{"address":"Fleer street","lat":"51.51368808955917","lng":"-0.11300324611126572","distance":"68","cc":"GB","city":"London","state":"Greater London","country":"United Kingdom"},"categories":[{"id":"4bf58dd8d48988d1ff941735","name":"Miscellaneous Shop","pluralName":"Miscellaneous Shops","shortName":"Shop","icon":{"prefix":"https:\/\/ss1.4sqi.net\/img\/categories_v2\/shops\/default_","suffix":".png"},"primary":"true"}],"verified":"false","restricted":"true","stats":{"checkinsCount":"10","usersCount":"9","tipCount":"0"},"specials":{"count":"0"},"hereNow":{"count":"0"},"referralId":"v-1392478017"},{"id":"4ce6a711f1c6236a72b954f0","name":"The Law Society Reading Room","location":{"address":"Chancery Lane","lat":"51.51503834246068","lng":"-0.1118134824274091","distance":"107","cc":"GB","city":"London","state":"Greater London","country":"United Kingdom"},"categories":[{"id":"4bf58dd8d48988d16d941735","name":"Caf\u00e9","pluralName":"Caf\u00e9s","shortName":"Caf\u00e9","icon":{"prefix":"https:\/\/ss1.4sqi.net\/img\/categories_v2\/food\/cafe_","suffix":".png"},"primary":"true"}],"verified":"false","restricted":"true","stats":{"checkinsCount":"133","usersCount":"25","tipCount":"0"},"specials":{"count":"0"},"hereNow":{"count":"0"},"referralId":"v-1392478017"},{"id":"4cbf178e8db3b60c5c477678","name":"Birley Sandwiches","location":{"address":"Essex Street","lat":"51.512994","lng":"-0.11328930000000001","distance":"148","cc":"GB","city":"London","state":"Greater London","country":"United Kingdom"},"categories":[{"id":"4bf58dd8d48988d1c5941735","name":"Sandwich Place","pluralName":"Sandwich Places","shortName":"Sandwiches","icon":{"prefix":"https:\/\/ss1.4sqi.net\/img\/categories_v2\/food\/sandwiches_","suffix":".png"},"primary":"true"}],"verified":"false","restricted":"true","stats":{"checkinsCount":"398","usersCount":"109","tipCount":"4"},"specials":{"count":"0"},"hereNow":{"count":"0"},"referralId":"v-1392478017"},{"id":"518bb27f498ee9446bcb0331","name":"The Law Society Library","contact":{"phone":"+448706262511","formattedPhone":"+44 870 626 2511"},"location":{"address":"113 Chancery Lane","lat":"51.515100883919025","lng":"-0.1117861386463617","distance":"114","cc":"GB","city":"London","state":"Greater London","country":"United Kingdom"},"categories":[{"id":"4bf58dd8d48988d12f941735","name":"Library","pluralName":"Libraries","shortName":"Library","icon":{"prefix":"https:\/\/ss1.4sqi.net\/img\/categories_v2\/building\/library_","suffix":".png"},"primary":"true"}],"verified":"false","restricted":"true","stats":{"checkinsCount":"33","usersCount":"5","tipCount":"1"},"specials":{"count":"0"},"hereNow":{"count":"0"},"referralId":"v-1392478017"},{"id":"4be08ad9cb81c9b6dc32668b","name":"Dalys Wine Bar","location":{"address":"Princes Street","lat":"51.51303593126273","lng":"-0.11345463798287413","distance":"146","cc":"GB","city":"London","state":"Greater London","country":"United Kingdom"},"categories":[{"id":"4bf58dd8d48988d14b941735","name":"Winery","pluralName":"Wineries","shortName":"Winery","icon":{"prefix":"https:\/\/ss1.4sqi.net\/img\/categories_v2\/food\/winery_","suffix":".png"},"primary":"true"}],"verified":"false","restricted":"true","stats":{"checkinsCount":"439","usersCount":"205","tipCount":"6"},"menu":{"type":"Menu","label":"Menu","anchor":"View Menu","url":"https:\/\/foursquare.com\/v\/dalys-wine-bar\/4be08ad9cb81c9b6dc32668b\/menu","mobileUrl":"https:\/\/foursquare.com\/v\/4be08ad9cb81c9b6dc32668b\/device_menu"},"specials":{"count":"0"},"hereNow":{"count":"0"},"referralId":"v-1392478017"},{"id":"50a10218e4b044f765a2a0a8","name":"The Red Telephone Boxes At The Royal Courts","location":{"lat":"51.514863","lng":"-0.113413","distance":"76","cc":"GB","country":"United Kingdom"},"categories":[{"id":"4deefb944765f83613cdba6e","name":"Historic Site","pluralName":"Historic Sites","shortName":"Historic Site","icon":{"prefix":"https:\/\/ss1.4sqi.net\/img\/categories_v2\/arts_entertainment\/historicsite_","suffix":".png"},"primary":"true"}],"verified":"false","restricted":"true","stats":{"checkinsCount":"5","usersCount":"4","tipCount":"0"},"specials":{"count":"0"},"hereNow":{"count":"0"},"referralId":"v-1392478017"},{"id":"4ce70660f86537049aa3a6c4","name":"Cigalon","location":{"address":"115 Chancery Lane","lat":"51.514568","lng":"-0.111282","distance":"109","postalCode":"WC2A 1PP","cc":"GB","city":"London","state":"Greater London","country":"United Kingdom"},"categories":[{"id":"4bf58dd8d48988d10c941735","name":"French Restaurant","pluralName":"French Restaurants","shortName":"French","icon":{"prefix":"https:\/\/ss1.4sqi.net\/img\/categories_v2\/food\/french_","suffix":".png"},"primary":"true"}],"verified":"false","restricted":"true","stats":{"checkinsCount":"86","usersCount":"74","tipCount":"2"},"url":"http:\/\/www.cigalon.co.uk","reservations":{"url":"http:\/\/www.toptable.co.uk\/single.aspx?rid=55176&ref=9601"},"menu":{"type":"Menu","label":"Menu","anchor":"View Menu","url":"https:\/\/foursquare.com\/v\/cigalon\/4ce70660f86537049aa3a6c4\/menu","mobileUrl":"https:\/\/foursquare.com\/v\/4ce70660f86537049aa3a6c4\/device_menu"},"specials":{"count":"0"},"hereNow":{"count":"0"},"referralId":"v-1392478017"},{"id":"4ac518eef964a520fcac20e3","name":"Hammicks Legal Bookshops","contact":{"phone":"+442074055711","formattedPhone":"+44 20 7405 5711"},"location":{"address":"191-192 Fleet Street","lat":"51.513818","lng":"-0.11111","distance":"128","postalCode":"EC4A 2NJ","cc":"GB","city":"London","state":"Greater London","country":"United Kingdom"},"categories":[{"id":"4bf58dd8d48988d114951735","name":"Bookstore","pluralName":"Bookstores","shortName":"Bookstore","icon":{"prefix":"https:\/\/ss1.4sqi.net\/img\/categories_v2\/shops\/bookstore_","suffix":".png"},"primary":"true"}],"verified":"false","restricted":"true","stats":{"checkinsCount":"103","usersCount":"45","tipCount":"0"},"specials":{"count":"0"},"hereNow":{"count":"0"},"referralId":"v-1392478017"},{"id":"4ac518eef964a520f8ac20e3","name":"Wildy & Sons","location":{"address":"Lincoln's Inn Archway","lat":"51.51503306601599","lng":"-0.11255839707761713","distance":"84","postalCode":"WC2A 2JD","cc":"GB","city":"London","state":"Greater London","country":"United Kingdom"},"categories":[{"id":"4bf58dd8d48988d114951735","name":"Bookstore","pluralName":"Bookstores","shortName":"Bookstore","icon":{"prefix":"https:\/\/ss1.4sqi.net\/img\/categories_v2\/shops\/bookstore_","suffix":".png"},"primary":"true"}],"verified":"false","restricted":"true","stats":{"checkinsCount":"18","usersCount":"17","tipCount":"0"},"specials":{"count":"0"},"hereNow":{"count":"0"},"referralId":"v-1392478017"},{"id":"4cbdea63f50e224b395c07fc","name":"Baranis","contact":{"twitter":"baranis_london"},"location":{"address":"115 Chancery Lane","lat":"51.514706","lng":"-0.111252","distance":"117","postalCode":"WC2A 1PP","cc":"GB","city":"London","state":"Greater London","country":"United Kingdom"},"categories":[{"id":"4bf58dd8d48988d116941735","name":"Bar","pluralName":"Bars","shortName":"Bar","icon":{"prefix":"https:\/\/ss1.4sqi.net\/img\/categories_v2\/nightlife\/bar_","suffix":".png"},"primary":"true"}],"verified":"false","restricted":"true","stats":{"checkinsCount":"163","usersCount":"132","tipCount":"6"},"menu":{"type":"Menu","label":"Menu","anchor":"View Menu","url":"https:\/\/foursquare.com\/v\/baranis\/4cbdea63f50e224b395c07fc\/menu","mobileUrl":"https:\/\/foursquare.com\/v\/4cbdea63f50e224b395c07fc\/device_menu"},"specials":{"count":"0"},"hereNow":{"count":"0"},"referralId":"v-1392478017"},{"id":"4ffbf7dee4b042c38c3aef89","name":"Tesco Express","location":{"address":"Fleet Street","lat":"51.51364788152512","lng":"-0.1121591416700326","distance":"84","cc":"GB","city":"London","state":"Greater London","country":"United Kingdom"},"categories":[{"id":"4d954b0ea243a5684a65b473","name":"Convenience Store","pluralName":"Convenience Stores","shortName":"Convenience Stores","icon":{"prefix":"https:\/\/ss1.4sqi.net\/img\/categories_v2\/shops\/conveniencestore_","suffix":".png"},"primary":"true"}],"verified":"false","restricted":"true","stats":{"checkinsCount":"25","usersCount":"8","tipCount":"0"},"specials":{"count":"0"},"hereNow":{"count":"0"},"referralId":"v-1392478017"},{"id":"520cc3b83456496e831fa37a","name":"113 Restaurant & Bar","location":{"address":"113 Chancery Ln.,the Law Society","lat":"51.5148617030005","lng":"-0.111428846999559","distance":"114","postalCode":"wc2a 1pl","cc":"GB","city":"London","state":"Greater London","country":"United Kingdom"},"categories":[{"id":"4bf58dd8d48988d1c4941735","name":"Restaurant","pluralName":"Restaurants","shortName":"Restaurant","icon":{"prefix":"https:\/\/ss1.4sqi.net\/img\/categories_v2\/food\/default_","suffix":".png"},"primary":"true"}],"verified":"false","restricted":"true","stats":{"checkinsCount":"7","usersCount":"5","tipCount":"0"},"url":"http:\/\/www.113chancerylane.co.uk","reservations":{"url":"http:\/\/www.toptable.co.uk\/single.aspx?rid=93864&ref=9601"},"menu":{"type":"Menu","label":"Menu","anchor":"View Menu","url":"https:\/\/foursquare.com\/v\/113-restaurant--bar\/520cc3b83456496e831fa37a\/menu","mobileUrl":"https:\/\/foursquare.com\/v\/520cc3b83456496e831fa37a\/device_menu"},"specials":{"count":"0"},"hereNow":{"count":"0"},"referralId":"v-1392478017"},{"id":"4ec2c482be7bfa77565b3c66","name":"The Six Clerks","location":{"address":"The Law Society, 113 Chancery Ln","lat":"51.51497289078076","lng":"-0.11166488203382957","distance":"109","postalCode":"WC2A1PP","cc":"GB","city":"London","state":"Greater London","country":"United Kingdom"},"categories":[{"id":"4bf58dd8d48988d1c4941735","name":"Restaurant","pluralName":"Restaurants","shortName":"Restaurant","icon":{"prefix":"https:\/\/ss1.4sqi.net\/img\/categories_v2\/food\/default_","suffix":".png"},"primary":"true"}],"verified":"false","restricted":"true","stats":{"checkinsCount":"94","usersCount":"12","tipCount":"0"},"menu":{"type":"Menu","label":"Menu","anchor":"View Menu","url":"https:\/\/foursquare.com\/v\/the-six-clerks\/4ec2c482be7bfa77565b3c66\/menu","mobileUrl":"https:\/\/foursquare.com\/v\/4ec2c482be7bfa77565b3c66\/device_menu"},"specials":{"count":"0"},"hereNow":{"count":"0"},"referralId":"v-1392478017"}],"confident":"true"}}