{"meta":{"code":"200"},"response":{"venues":[{"id":"4c4cbea0172b76b0fabe07d1","name":"The Queen's Head","contact":{"phone":"+442077135772","formattedPhone":"+44 20 7713 5772","twitter":"thequeens_head"},"location":{"address":"66 Acton St","crossStreet":"Grays Inn Rd","lat":"51.5283921","lng":"-0.1184339","distance":"108","postalCode":"WC1X 9NB","cc":"GB","city":"London","state":"Greater London","country":"United Kingdom"},"categories":[{"id":"4bf58dd8d48988d11b941735","name":"Pub","pluralName":"Pubs","shortName":"Pub","icon":{"prefix":"https:\/\/ss1.4sqi.net\/img\/categories_v2\/nightlife\/pub_","suffix":".png"},"primary":"true"}],"verified":"false","restricted":"true","stats":{"checkinsCount":"1209","usersCount":"686","tipCount":"33"},"menu":{"type":"Menu","label":"Menu","anchor":"View Menu","url":"https:\/\/foursquare.com\/v\/the-queens-head\/4c4cbea0172b76b0fabe07d1\/menu","mobileUrl":"https:\/\/foursquare.com\/v\/4c4cbea0172b76b0fabe07d1\/device_menu"},"specials":{"count":"0"},"hereNow":{"count":"4","groups":[{"type":"others","name":"Other people here","count":"4"}]},"referralId":"v-1392477978"},{"id":"4bf2ce4e6a31d13ae5ec932e","name":"Arriva Hotel","location":{"address":"55 Swinton St","lat":"51.528765","lng":"-0.11824054","distance":"65","postalCode":"WC1X 9NT","cc":"GB","city":"King's Cross","state":"Greater London","country":"United Kingdom"},"categories":[{"id":"4bf58dd8d48988d1fa931735","name":"Hotel","pluralName":"Hotels","shortName":"Hotel","icon":{"prefix":"https:\/\/ss1.4sqi.net\/img\/categories_v2\/travel\/hotel_","suffix":".png"},"primary":"true"}],"verified":"false","restricted":"true","stats":{"checkinsCount":"373","usersCount":"152","tipCount":"6"},"specials":{"count":"0"},"hereNow":{"count":"0"},"referralId":"v-1392477978"},{"id":"5005f687e4b0b2205f844f5e","name":"Tune Hotel King's Cross","contact":{"facebook":"137480889596821"},"location":{"address":"324 Grays Inn Rd","lat":"51.528846711757076","lng":"-0.11945205639714834","distance":"124","postalCode":"WC1X 8BU","cc":"GB","city":"London","state":"Greater London","country":"United Kingdom"},"categories":[{"id":"4bf58dd8d48988d1fa931735","name":"Hotel","pluralName":"Hotels","shortName":"Hotel","icon":{"prefix":"https:\/\/ss1.4sqi.net\/img\/categories_v2\/travel\/hotel_","suffix":".png"},"primary":"true"}],"verified":"true","restricted":"true","stats":{"checkinsCount":"896","usersCount":"419","tipCount":"22"},"url":"https:\/\/www.facebook.com\/tunehotelsUK","specials":{"count":"0"},"hereNow":{"count":"0"},"storeId":"","referralId":"v-1392477978"},{"id":"4b7536dcf964a52060012ee3","name":"Centre for Creative Collaboration","location":{"address":"16 Acton St.","lat":"51.528890458528956","lng":"-0.11664360641375716","distance":"91","postalCode":"WC1X 9NG","cc":"GB","city":"London","state":"Greater London","country":"United Kingdom"},"categories":[{"id":"4bf58dd8d48988d171941735","name":"Event Space","pluralName":"Event Spaces","shortName":"Event Space","icon":{"prefix":"https:\/\/ss1.4sqi.net\/img\/categories_v2\/building\/eventspace_","suffix":".png"},"primary":"true"}],"verified":"false","restricted":"true","stats":{"checkinsCount":"551","usersCount":"253","tipCount":"6"},"specials":{"count":"0"},"hereNow":{"count":"0"},"referralId":"v-1392477978"},{"id":"4da5e647f7b16ce044adeaa1","name":"Sen Viet","location":{"address":"119 King's Cross Road","lat":"51.52896330496966","lng":"-0.11588545022575797","distance":"137","postalCode":"WC1X 9NH","cc":"GB","city":"Camden Town","state":"Greater London","country":"United Kingdom"},"categories":[{"id":"4bf58dd8d48988d14a941735","name":"Vietnamese Restaurant","pluralName":"Vietnamese Restaurants","shortName":"Vietnamese","icon":{"prefix":"https:\/\/ss1.4sqi.net\/img\/categories_v2\/food\/default_","suffix":".png"},"primary":"true"}],"verified":"false","restricted":"true","stats":{"checkinsCount":"255","usersCount":"175","tipCount":"10"},"specials":{"count":"0"},"hereNow":{"count":"1","groups":[{"type":"others","name":"Other people here","count":"1"}]},"referralId":"v-1392477978"},{"id":"5211d6e311d2f851d9b7e363","name":"Nuffield Hearing & Speech Centre","location":{"lat":"51.529166224335526","lng":"-0.1183506511456347","distance":"40","cc":"GB","country":"United Kingdom"},"categories":[{"id":"4bf58dd8d48988d196941735","name":"Hospital","pluralName":"Hospitals","shortName":"Hospital","icon":{"prefix":"https:\/\/ss1.4sqi.net\/img\/categories_v2\/building\/medical_hospital_","suffix":".png"},"primary":"true"}],"verified":"false","restricted":"true","stats":{"checkinsCount":"3","usersCount":"3","tipCount":"0"},"specials":{"count":"0"},"hereNow":{"count":"0"},"referralId":"v-1392477978"},{"id":"4ac518bef964a52011a320e3","name":"The Water Rats","contact":{"phone":"+442078374412","formattedPhone":"+44 20 7837 4412"},"location":{"address":"328 Gray's Inn Road","lat":"51.52893883127083","lng":"-0.11973442389350256","distance":"139","postalCode":"WC1X 8BZ","cc":"GB","city":"London","state":"Greater London","country":"United Kingdom"},"categories":[{"id":"4bf58dd8d48988d1e9931735","name":"Rock Club","pluralName":"Rock Clubs","shortName":"Rock Club","icon":{"prefix":"https:\/\/ss1.4sqi.net\/img\/categories_v2\/arts_entertainment\/musicvenue_rockclub_","suffix":".png"},"primary":"true"}],"verified":"false","restricted":"true","stats":{"checkinsCount":"1201","usersCount":"828","tipCount":"17"},"specials":{"count":"0"},"events":{"count":"2","summary":"2 shows"},"hereNow":{"count":"0"},"referralId":"v-1392477978"},{"id":"4ceb1196f1c6236a47226ef0","name":"Clink261 Hostel","contact":{"phone":"+442077137789","formattedPhone":"+44 20 7713 7789"},"location":{"address":"261-265 Gray's Inn Rd","lat":"51.528984371609546","lng":"-0.11979818344116211","distance":"142","postalCode":"WC1X 8QT","cc":"GB","city":"Camden Town","state":"Greater London","country":"United Kingdom"},"categories":[{"id":"4bf58dd8d48988d1ee931735","name":"Hostel","pluralName":"Hostels","shortName":"Hostel","icon":{"prefix":"https:\/\/ss1.4sqi.net\/img\/categories_v2\/travel\/hostel_","suffix":".png"},"primary":"true"}],"verified":"false","restricted":"true","stats":{"checkinsCount":"427","usersCount":"212","tipCount":"14"},"url":"http:\/\/www.clinkhostels.com\/london\/backpacker-hostels\/clink261","specials":{"count":"0"},"hereNow":{"count":"1","groups":[{"type":"others","name":"Other people here","count":"1"}]},"referralId":"v-1392477978"},{"id":"4baa192ef964a5208d4a3ae3","name":"The Lucas Arms","contact":{"phone":"+442078374340","formattedPhone":"+44 20 7837 4340"},"location":{"address":"245a Gray's Inn Rd.","lat":"51.52847201937988","lng":"-0.1193696774517253","distance":"141","postalCode":"WC1X 8QY","cc":"GB","city":"Camden","state":"Greater London","country":"United Kingdom"},"categories":[{"id":"4bf58dd8d48988d11b941735","name":"Pub","pluralName":"Pubs","shortName":"Pub","icon":{"prefix":"https:\/\/ss1.4sqi.net\/img\/categories_v2\/nightlife\/pub_","suffix":".png"},"primary":"true"}],"verified":"false","restricted":"true","stats":{"checkinsCount":"602","usersCount":"447","tipCount":"10"},"specials":{"count":"0"},"hereNow":{"count":"0"},"referralId":"v-1392477978"},{"id":"4b742f2bf964a520b6cb2de3","name":"Travelodge","contact":{"phone":"+448719846272","formattedPhone":"+44 871 984 6272","twitter":"travelodgeuk"},"location":{"address":"100 King's Cross Rd.","crossStreet":"Opposite Swinton St.","lat":"51.529458266387785","lng":"-0.11554956436157227","distance":"157","postalCode":"WC1X 8BH","cc":"GB","city":"King's Cross","state":"Greater London","country":"United Kingdom"},"categories":[{"id":"4bf58dd8d48988d1fb931735","name":"Motel","pluralName":"Motels","shortName":"Motel","icon":{"prefix":"https:\/\/ss1.4sqi.net\/img\/categories_v2\/travel\/hotel_","suffix":".png"},"primary":"true"}],"verified":"false","restricted":"true","stats":{"checkinsCount":"1077","usersCount":"639","tipCount":"36"},"url":"http:\/\/www.travelodge.co.uk","specials":{"count":"0"},"hereNow":{"count":"0"},"referralId":"v-1392477978"},{"id":"4c051fb09a7920a17c25d279","name":"Royal National Throat, Nose And Ear Hospital","location":{"address":"Gray's Inn Road","lat":"51.528850879232266","lng":"-0.11921882629394531","distance":"109","cc":"GB","city":"London","state":"Greater London","country":"United Kingdom"},"categories":[{"id":"4bf58dd8d48988d196941735","name":"Hospital","pluralName":"Hospitals","shortName":"Hospital","icon":{"prefix":"https:\/\/ss1.4sqi.net\/img\/categories_v2\/building\/medical_hospital_","suffix":".png"},"primary":"true"}],"verified":"false","restricted":"true","stats":{"checkinsCount":"272","usersCount":"129","tipCount":"4"},"specials":{"count":"0"},"hereNow":{"count":"0"},"referralId":"v-1392477978"},{"id":"52c534c3498e7c21e9591be6","name":"Eventbrite UK","location":{"address":"344 Grays Inn Road","lat":"51.529914","lng":"-0.120245","distance":"182","cc":"GB","city":"London","state":"Greater London","country":"United Kingdom"},"categories":[{"id":"5032764e91d4c4b30a586d5a","name":"Campaign Office","pluralName":"Campaign Offices","shortName":"Campaign","icon":{"prefix":"https:\/\/ss1.4sqi.net\/img\/categories_v2\/building\/default_","suffix":".png"},"primary":"true"}],"verified":"false","restricted":"true","stats":{"checkinsCount":"58","usersCount":"12","tipCount":"2"},"specials":{"count":"0"},"hereNow":{"count":"0"},"referralId":"v-1392477978"},{"id":"4b0ae831f964a520d22923e3","name":"Smithy's","contact":{"phone":"+442072785949","formattedPhone":"+44 20 7278 5949"},"location":{"address":"15-17 Leeke Street","lat":"51.530153","lng":"-0.119192","distance":"136","postalCode":"WC1X 9HY","cc":"GB","city":"London","state":"Greater London","country":"United Kingdom"},"categories":[{"id":"4bf58dd8d48988d11b941735","name":"Pub","pluralName":"Pubs","shortName":"Pub","icon":{"prefix":"https:\/\/ss1.4sqi.net\/img\/categories_v2\/nightlife\/pub_","suffix":".png"},"primary":"true"}],"verified":"false","restricted":"true","stats":{"checkinsCount":"503","usersCount":"378","tipCount":"9"},"url":"http:\/\/www.smithyslondon.com","menu":{"type":"Menu","label":"Menu","anchor":"View Menu","url":"https:\/\/foursquare.com\/v\/smithys\/4b0ae831f964a520d22923e3\/menu","mobileUrl":"https:\/\/foursquare.com\/v\/4b0ae831f964a520d22923e3\/device_menu"},"specials":{"count":"0"},"hereNow":{"count":"0"},"referralId":"v-1392477978"},{"id":"508e6715e4b0645d68357eaf","name":"Costa Coffee","location":{"address":"Grays Inn Rd","lat":"51.529062066583975","lng":"-0.11979735091521607","distance":"140","cc":"GB","country":"United Kingdom"},"categories":[{"id":"4bf58dd8d48988d1e0931735","name":"Coffee Shop","pluralName":"Coffee Shops","shortName":"Coffee Shop","icon":{"prefix":"https:\/\/ss1.4sqi.net\/img\/categories_v2\/food\/coffeeshop_","suffix":".png"},"primary":"true"}],"verified":"false","restricted":"true","stats":{"checkinsCount":"215","usersCount":"150","tipCount":"2"},"specials":{"count":"0"},"hereNow":{"count":"0"},"referralId":"v-1392477978"},{"id":"4c66b5eac2ead13aa665b480","name":"Gagosian Gallery","contact":{"phone":"+442078419960","formattedPhone":"+44 20 7841 9960"},"location":{"address":"6-24 Britannia St","lat":"51.53003894763008","lng":"-0.11810302734375","distance":"86","postalCode":"WC1X 9JD","cc":"GB","city":"St Pancras","state":"Greater London","country":"United Kingdom"},"categories":[{"id":"4bf58dd8d48988d1e2931735","name":"Art Gallery","pluralName":"Art Galleries","shortName":"Art Gallery","icon":{"prefix":"https:\/\/ss1.4sqi.net\/img\/categories_v2\/arts_entertainment\/artgallery_","suffix":".png"},"primary":"true"}],"verified":"false","restricted":"true","stats":{"checkinsCount":"292","usersCount":"232","tipCount":"1"},"specials":{"count":"0"},"hereNow":{"count":"0"},"referralId":"v-1392477978"},{"id":"4b7e8904f964a52077f12fe3","name":"Swinton Hotel","location":{"lat":"51.529429","lng":"-0.116752","distance":"74","cc":"GB","country":"United Kingdom"},"categories":[{"id":"4bf58dd8d48988d1fa931735","name":"Hotel","pluralName":"Hotels","shortName":"Hotel","icon":{"prefix":"https:\/\/ss1.4sqi.net\/img\/categories_v2\/travel\/hotel_","suffix":".png"},"primary":"true"}],"verified":"false","restricted":"true","stats":{"checkinsCount":"222","usersCount":"108","tipCount":"6"},"specials":{"count":"0"},"hereNow":{"count":"0"},"referralId":"v-1392477978"},{"id":"519158d3498ee8d616e2f3dc","name":"The Water Rats","location":{"lat":"51.530288099530125","lng":"-0.12086595310620307","distance":"239","cc":"GB","country":"United Kingdom"},"categories":[{"id":"4bf58dd8d48988d116941735","name":"Bar","pluralName":"Bars","shortName":"Bar","icon":{"prefix":"https:\/\/ss1.4sqi.net\/img\/categories_v2\/nightlife\/bar_","suffix":".png"},"primary":"true"}],"verified":"false","restricted":"true","stats":{"checkinsCount":"15","usersCount":"14","tipCount":"0"},"specials":{"count":"0"},"hereNow":{"count":"0"},"referralId":"v-1392477978"},{"id":"51e7e742498ef8d804fba93a","name":"Tower of london park","location":{"lat":"51.529788970947266","lng":"-0.11798299849033356","distance":"57","cc":"GB","country":"United Kingdom"},"categories":[{"id":"4bf58dd8d48988d163941735","name":"Park","pluralName":"Parks","shortName":"Park","icon":{"prefix":"https:\/\/ss1.4sqi.net\/img\/categories_v2\/parks_outdoors\/park_","suffix":".png"},"primary":"true"}],"verified":"false","restricted":"true","stats":{"checkinsCount":"2","usersCount":"2","tipCount":"0"},"specials":{"count":"0"},"hereNow":{"count":"0"},"referralId":"v-1392477978"},{"id":"4b827e3ef964a52037d530e3","name":"Niven's","contact":{"phone":"+442078373717","formattedPhone":"+44 20 7837 3717"},"location":{"address":"157 King's Cross Rd","lat":"51.530255","lng":"-0.116728","distance":"130","postalCode":"WC1X 9BN","cc":"GB","city":"London","state":"Greater London","country":"United Kingdom"},"categories":[{"id":"4bf58dd8d48988d16d941735","name":"Caf\u00e9","pluralName":"Caf\u00e9s","shortName":"Caf\u00e9","icon":{"prefix":"https:\/\/ss1.4sqi.net\/img\/categories_v2\/food\/cafe_","suffix":".png"},"primary":"true"}],"verified":"false","restricted":"true","stats":{"checkinsCount":"129","usersCount":"59","tipCount":"6"},"menu":{"type":"Menu","label":"Menu","anchor":"View Menu","url":"https:\/\/foursquare.com\/v\/nivens\/4b827e3ef964a52037d530e3\/menu","mobileUrl":"https:\/\/foursquare.com\/v\/4b827e3ef964a52037d530e3\/device_menu"},"specials":{"count":"0"},"hereNow":{"count":"0"},"referralId":"v-1392477978"},{"id":"515aae52e4b07e39b51c59f5","name":"National Union of Students","location":{"address":"Macadam Hse., 275 Grays Inn Rd.","lat":"51.52935441309327","lng":"-0.12010933206614499","distance":"159","postalCode":"WC1X 8QB","cc":"GB","city":"London","state":"Greater London","country":"United Kingdom"},"categories":[{"id":"4bf58dd8d48988d124941735","name":"Office","pluralName":"Offices","shortName":"Office","icon":{"prefix":"https:\/\/ss1.4sqi.net\/img\/categories_v2\/building\/default_","suffix":".png"},"primary":"true"}],"verified":"false","restricted":"true","stats":{"checkinsCount":"102","usersCount":"15","tipCount":"0"},"specials":{"count":"0"},"hereNow":{"count":"0"},"referralId":"v-1392477978"},{"id":"4b609681f964a520fdee29e3","name":"Itadakizen","contact":{"phone":"+442072783573","formattedPhone":"+44 20 7278 3573"},"location":{"address":"139 King's Cross Rd","lat":"51.52978","lng":"-0.115868","distance":"144","postalCode":"WC1X 9BJ","cc":"GB","city":"London","state":"Greater London","country":"United Kingdom"},"categories":[{"id":"4bf58dd8d48988d111941735","name":"Japanese Restaurant","pluralName":"Japanese Restaurants","shortName":"Japanese","icon":{"prefix":"https:\/\/ss1.4sqi.net\/img\/categories_v2\/food\/japanese_","suffix":".png"},"primary":"true"}],"verified":"false","restricted":"true","stats":{"checkinsCount":"192","usersCount":"160","tipCount":"9"},"url":"http:\/\/www.itadakizen-uk.com","menu":{"type":"Menu","label":"Menu","anchor":"View Menu","url":"https:\/\/foursquare.com\/v\/itadakizen\/4b609681f964a520fdee29e3\/menu","mobileUrl":"https:\/\/foursquare.com\/v\/4b609681f964a520fdee29e3\/device_menu"},"specials":{"count":"0"},"hereNow":{"count":"0"},"referralId":"v-1392477978"},{"id":"5200a560498ec1b0f59f7eb0","name":"Aux Pains de Papy","location":{"address":"279 Grays Inn Rd","lat":"51.52928259681436","lng":"-0.12001684133935235","distance":"153","postalCode":"WC1X 8QF","cc":"GB","city":"London","state":"Greater London","country":"United Kingdom"},"categories":[{"id":"4bf58dd8d48988d16a941735","name":"Bakery","pluralName":"Bakeries","shortName":"Bakery","icon":{"prefix":"https:\/\/ss1.4sqi.net\/img\/categories_v2\/food\/bakery_","suffix":".png"},"primary":"true"}],"verified":"false","restricted":"true","stats":{"checkinsCount":"33","usersCount":"16","tipCount":"5"},"specials":{"count":"0"},"hereNow":{"count":"0"},"referralId":"v-1392477978"},{"id":"508014b5e4b0274885b27643","name":"The Food Chain","location":{"address":"Acorn House, 314-320 Gray's Inn Road","crossStreet":"Swinton Street","lat":"51.528759416950784","lng":"-0.11923871681322133","distance":"115","postalCode":"WC1X 8DP","cc":"GB","city":"London","state":"Greater London","country":"United Kingdom"},"categories":[{"id":"50328a8e91d4c4b30a586d6c","name":"Non-Profit","pluralName":"Non-Profits","shortName":"Non-Profit","icon":{"prefix":"https:\/\/ss1.4sqi.net\/img\/categories_v2\/building\/default_","suffix":".png"},"primary":"true"}],"verified":"false","restricted":"true","stats":{"checkinsCount":"47","usersCount":"10","tipCount":"1"},"specials":{"count":"0"},"hereNow":{"count":"0"},"referralId":"v-1392477978"},{"id":"4c1bb0b5b9f876b052a87a46","name":"Northumberland Arms","location":{"lat":"51.5299796068613","lng":"-0.11619412713637196","distance":"135","cc":"GB","city":"kingscross","country":"United Kingdom"},"categories":[{"id":"4bf58dd8d48988d11b941735","name":"Pub","pluralName":"Pubs","shortName":"Pub","icon":{"prefix":"https:\/\/ss1.4sqi.net\/img\/categories_v2\/nightlife\/pub_","suffix":".png"},"primary":"true"}],"verified":"false","restricted":"true","stats":{"checkinsCount":"86","usersCount":"60","tipCount":"1"},"specials":{"count":"0"},"hereNow":{"count":"0"},"referralId":"v-1392477978"},{"id":"4da35d01b521224be5911cee","name":"Shibuya","location":{"address":"2 Acton St.","lat":"51.528797","lng":"-0.11581773333333334","distance":"147","postalCode":"WC1X 9NG","cc":"GB","city":"London","state":"Greater London","country":"United Kingdom"},"categories":[{"id":"4bf58dd8d48988d1d2941735","name":"Sushi Restaurant","pluralName":"Sushi Restaurants","shortName":"Sushi","icon":{"prefix":"https:\/\/ss1.4sqi.net\/img\/categories_v2\/food\/sushi_","suffix":".png"},"primary":"true"}],"verified":"false","restricted":"true","stats":{"checkinsCount":"148","usersCount":"99","tipCount":"4"},"url":"http:\/\/www.shibuyalondon.co.uk","reservations":{"url":"http:\/\/www.toptable.co.uk\/single.aspx?rid=92745&ref=9601"},"menu":{"type":"Menu","label":"Menu","anchor":"View Menu","url":"https:\/\/foursquare.com\/v\/shibuya\/4da35d01b521224be5911cee\/menu","mobileUrl":"https:\/\/foursquare.com\/v\/4da35d01b521224be5911cee\/device_menu"},"specials":{"count":"0"},"hereNow":{"count":"0"},"referralId":"v-1392477978"},{"id":"4adb7938f964a520df2721e3","name":"Thai Aubergine","contact":{"phone":"+442072787555","formattedPhone":"+44 20 7278 7555"},"location":{"address":"109 Kings Cross Road","lat":"51.528603399999994","lng":"-0.115749","distance":"161","postalCode":"WC1X 9LR","cc":"GB","city":"London","state":"Greater London","country":"United Kingdom"},"categories":[{"id":"4bf58dd8d48988d149941735","name":"Thai Restaurant","pluralName":"Thai Restaurants","shortName":"Thai","icon":{"prefix":"https:\/\/ss1.4sqi.net\/img\/categories_v2\/food\/thai_","suffix":".png"},"primary":"true"}],"verified":"false","restricted":"true","stats":{"checkinsCount":"189","usersCount":"124","tipCount":"9"},"url":"http:\/\/thaiaubergine.co.uk","reservations":{"url":"http:\/\/www.toptable.co.uk\/single.aspx?rid=92877&ref=9601"},"menu":{"type":"Menu","label":"Menu","anchor":"View Menu","url":"https:\/\/foursquare.com\/v\/thai-aubergine\/4adb7938f964a520df2721e3\/menu","mobileUrl":"https:\/\/foursquare.com\/v\/4adb7938f964a520df2721e3\/device_menu"},"specials":{"count":"0"},"hereNow":{"count":"0"},"referralId":"v-1392477978"},{"id":"4b96954ef964a52079d634e3","name":"The Joint","contact":{"phone":"+442078333375","formattedPhone":"+44 20 7833 3375"},"location":{"address":"1-6 Field Street","lat":"51.530524","lng":"-0.118974","distance":"159","postalCode":"WC1X 9DG","cc":"GB","city":"London","state":"Greater London","country":"United Kingdom"},"categories":[{"id":"4bf58dd8d48988d1f1931735","name":"General Entertainment","pluralName":"General Entertainment","shortName":"Entertainment","icon":{"prefix":"https:\/\/ss1.4sqi.net\/img\/categories_v2\/arts_entertainment\/default_","suffix":".png"},"primary":"true"}],"verified":"false","restricted":"true","stats":{"checkinsCount":"262","usersCount":"100","tipCount":"3"},"url":"http:\/\/www.thejoint.org.uk","specials":{"count":"0"},"hereNow":{"count":"0"},"referralId":"v-1392477978"},{"id":"4ba1f881f964a5203ad437e3","name":"Terrence Higgins Trust - THT","contact":{"phone":"+442078121600","formattedPhone":"+44 20 7812 1600","twitter":"thtorguk"},"location":{"address":"314-320 Gray's Inn Road","crossStreet":"Swinton Street","lat":"51.528631345303474","lng":"-0.1193773766177543","distance":"131","postalCode":"WC1X 8DP","cc":"GB","city":"London","state":"Greater London","country":"United Kingdom"},"categories":[{"id":"4bf58dd8d48988d104941735","name":"Medical Center","pluralName":"Medical Centers","shortName":"Medical","icon":{"prefix":"https:\/\/ss1.4sqi.net\/img\/categories_v2\/building\/medical_","suffix":".png"},"primary":"true"}],"verified":"false","restricted":"true","stats":{"checkinsCount":"142","usersCount":"41","tipCount":"2"},"url":"http:\/\/www.tht.org.uk","specials":{"count":"0"},"hereNow":{"count":"0"},"referralId":"v-1392477978"},{"id":"5123ec0be4b05c0c2bb3ffcb","name":"Derby Lodge","location":{"address":"Britannia & Wicklow Streets","crossStreet":"King's Cross Rd","lat":"51.53007091420833","lng":"-0.11720397632388622","distance":"96","postalCode":"WC1X 9LF","cc":"GB","city":"London","state":"Greater London","country":"United Kingdom"},"categories":[{"id":"4d954b06a243a5684965b473","name":"Residential Building (Apartment \/ Condo)","pluralName":"Residential Buildings (Apartments \/ Condos)","shortName":"Residential","icon":{"prefix":"https:\/\/ss1.4sqi.net\/img\/categories_v2\/building\/apartment_","suffix":".png"},"primary":"true"}],"verified":"false","restricted":"true","stats":{"checkinsCount":"172","usersCount":"5","tipCount":"0"},"specials":{"count":"0"},"hereNow":{"count":"0"},"referralId":"v-1392477978"},{"id":"4cc67d7506c254816592a247","name":"Bupa Centre","contact":{"phone":"+442078006490","formattedPhone":"+44 20 7800 6490"},"location":{"address":"Battlebridge House, 300 Grays Inn Road","lat":"51.528225317732584","lng":"-0.11861660832435246","distance":"131","postalCode":"WC1X 8DU","cc":"GB","city":"London","state":"Greater London","country":"United Kingdom"},"verified":"true","restricted":"true","stats":{"checkinsCount":"34","usersCount":"21","tipCount":"0"},"url":"http:\/\/www.bupa.co.uk\/london-kings-cross","specials":{"count":"0"},"hereNow":{"count":"0"},"referralId":"v-1392477978"}],"confident":"false"}}