{"meta":{"code":"200"},"response":{"venues":[{"id":"4b96b2bbf964a520c2de34e3","name":"Green Park","contact":{"phone":"+443000612350","formattedPhone":"+44 300 061 2350"},"location":{"address":"Piccadilly","crossStreet":"Constitution Hill","lat":"51.50361379162682","lng":"-0.14402389526367188","distance":"113","postalCode":"SW1","cc":"GB","city":"London","state":"Greater London","country":"United Kingdom"},"categories":[{"id":"4bf58dd8d48988d163941735","name":"Park","pluralName":"Parks","shortName":"Park","icon":{"prefix":"https:\/\/ss1.4sqi.net\/img\/categories_v2\/parks_outdoors\/park_","suffix":".png"},"primary":"true"}],"verified":"false","restricted":"true","stats":{"checkinsCount":"15431","usersCount":"10572","tipCount":"64"},"url":"http:\/\/www.royalparks.org.uk\/parks\/green-park","specials":{"count":"0"},"hereNow":{"count":"0"},"referralId":"v-1392478040"},{"id":"4abe4502f964a520558c20e3","name":"Buckingham Palace","contact":{"phone":"+442077667300","formattedPhone":"+44 20 7766 7300","twitter":"britishmonarchy"},"location":{"address":"Buckingham Palace Road","lat":"51.50130303159478","lng":"-0.1421034336090088","distance":"335","postalCode":"SW1A 1AA","cc":"GB","city":"London","state":"Greater London","country":"United Kingdom"},"categories":[{"id":"4bf58dd8d48988d12d941735","name":"Monument \/ Landmark","pluralName":"Monuments \/ Landmarks","shortName":"Landmark","icon":{"prefix":"https:\/\/ss1.4sqi.net\/img\/categories_v2\/building\/government_monument_","suffix":".png"},"primary":"true"}],"verified":"true","restricted":"true","stats":{"checkinsCount":"45175","usersCount":"37956","tipCount":"339"},"url":"http:\/\/www.royalcollection.org.uk","specials":{"count":"0"},"hereNow":{"count":"8","groups":[{"type":"others","name":"Other people here","count":"8"}]},"storeId":"","referralId":"v-1392478040"},{"id":"4c6a984d8e7c0f47d388e20f","name":"Buckingham Palace Gate","location":{"address":"The Mall","lat":"51.501884069723566","lng":"-0.13987488365938375","distance":"335","cc":"GB","city":"London","state":"Greater London","country":"United Kingdom"},"categories":[{"id":"4bf58dd8d48988d12d941735","name":"Monument \/ Landmark","pluralName":"Monuments \/ Landmarks","shortName":"Landmark","icon":{"prefix":"https:\/\/ss1.4sqi.net\/img\/categories_v2\/building\/government_monument_","suffix":".png"},"primary":"true"}],"verified":"false","restricted":"true","stats":{"checkinsCount":"4522","usersCount":"3817","tipCount":"6"},"specials":{"count":"0"},"hereNow":{"count":"1","groups":[{"type":"others","name":"Other people here","count":"1"}]},"referralId":"v-1392478040"},{"id":"4bb8fad5cf2fc9b6a819a002","name":"Buckingham Palace Gardens","contact":{"phone":"+442077667300","formattedPhone":"+44 20 7766 7300","twitter":"britishmonarchy"},"location":{"address":"Buckingham Palace Road","lat":"51.50059508744448","lng":"-0.14453887939453125","distance":"428","postalCode":"SW1A 1AA","cc":"GB","city":"London","state":"Greater London","country":"United Kingdom"},"categories":[{"id":"4bf58dd8d48988d15a941735","name":"Garden","pluralName":"Gardens","shortName":"Garden","icon":{"prefix":"https:\/\/ss1.4sqi.net\/img\/categories_v2\/parks_outdoors\/garden_","suffix":".png"},"primary":"true"}],"verified":"true","restricted":"true","stats":{"checkinsCount":"4592","usersCount":"4193","tipCount":"18"},"url":"http:\/\/www.royalcollection.org.uk","specials":{"count":"0"},"hereNow":{"count":"0"},"storeId":"","referralId":"v-1392478040"},{"id":"4d91adf93dd4a093a5d47e18","name":"Changing of the Guard","location":{"address":"Buckingham Palace","crossStreet":"Buckingham Palace","lat":"51.50168","lng":"-0.141119","distance":"312","cc":"GB","city":"London","state":"Greater London","country":"United Kingdom"},"categories":[{"id":"4bf58dd8d48988d1f1931735","name":"General Entertainment","pluralName":"General Entertainment","shortName":"Entertainment","icon":{"prefix":"https:\/\/ss1.4sqi.net\/img\/categories_v2\/arts_entertainment\/default_","suffix":".png"},"primary":"true"}],"verified":"false","restricted":"true","stats":{"checkinsCount":"2466","usersCount":"2251","tipCount":"18"},"specials":{"count":"0"},"hereNow":{"count":"0"},"referralId":"v-1392478040"},{"id":"4b508e66f964a520392727e3","name":"Pret A Manger","contact":{"phone":"+442079325229","formattedPhone":"+44 20 7932 5229","twitter":"pret","facebook":"162638680417951"},"location":{"address":"163 Piccadilly","crossStreet":"Sackville Street","lat":"51.50667891401709","lng":"-0.1433539575511332","distance":"268","postalCode":"W1J 9ED","cc":"GB","city":"London","state":"Greater London","country":"United Kingdom"},"categories":[{"id":"4bf58dd8d48988d1c5941735","name":"Sandwich Place","pluralName":"Sandwich Places","shortName":"Sandwiches","icon":{"prefix":"https:\/\/ss1.4sqi.net\/img\/categories_v2\/food\/sandwiches_","suffix":".png"},"primary":"true"}],"verified":"true","restricted":"true","stats":{"checkinsCount":"635","usersCount":"460","tipCount":"8"},"url":"http:\/\/www.pret.com","specials":{"count":"0"},"hereNow":{"count":"0"},"storeId":"29","referralId":"v-1392478040"},{"id":"503275d7e4b0543f9a9ed4ae","name":"Queen Victoria Memorial","location":{"address":"The Mall","lat":"51.501920262449325","lng":"-0.1408790809188684","distance":"295","cc":"GB","city":"London","state":"Greater London","country":"United Kingdom"},"categories":[{"id":"4bf58dd8d48988d12d941735","name":"Monument \/ Landmark","pluralName":"Monuments \/ Landmarks","shortName":"Landmark","icon":{"prefix":"https:\/\/ss1.4sqi.net\/img\/categories_v2\/building\/government_monument_","suffix":".png"},"primary":"true"}],"verified":"false","restricted":"true","stats":{"checkinsCount":"1219","usersCount":"1024","tipCount":"1"},"specials":{"count":"0"},"hereNow":{"count":"0"},"referralId":"v-1392478040"},{"id":"4ac518b5f964a5208ca020e3","name":"The Park Lane Hotel","contact":{"phone":"+442074996321","formattedPhone":"+44 20 7499 6321","twitter":"spg"},"location":{"address":"Piccadilly","lat":"51.50497615014911","lng":"-0.14728546142578125","distance":"319","postalCode":"W1J 7BX","cc":"GB","city":"Mayfair","state":"Greater London","country":"United Kingdom"},"categories":[{"id":"4bf58dd8d48988d1fa931735","name":"Hotel","pluralName":"Hotels","shortName":"Hotel","icon":{"prefix":"https:\/\/ss1.4sqi.net\/img\/categories_v2\/travel\/hotel_","suffix":".png"},"primary":"true"}],"verified":"true","restricted":"true","stats":{"checkinsCount":"4933","usersCount":"2211","tipCount":"56"},"url":"http:\/\/www.sheratonparklane.com","specials":{"count":"0"},"hereNow":{"count":"0"},"storeId":"105","referralId":"v-1392478040"},{"id":"4ac518d2f964a52015a720e3","name":"Clarence House","contact":{"phone":"+442077667300","formattedPhone":"+44 20 7766 7300","twitter":"britishmonarchy"},"location":{"address":"St James's Palace","lat":"51.503941028518014","lng":"-0.13861656188964844","distance":"292","postalCode":"SW1 1BA","cc":"GB","city":"London","state":"Greater London","country":"United Kingdom"},"categories":[{"id":"4deefb944765f83613cdba6e","name":"Historic Site","pluralName":"Historic Sites","shortName":"Historic Site","icon":{"prefix":"https:\/\/ss1.4sqi.net\/img\/categories_v2\/arts_entertainment\/historicsite_","suffix":".png"},"primary":"true"}],"verified":"true","restricted":"true","stats":{"checkinsCount":"628","usersCount":"362","tipCount":"14"},"url":"https:\/\/www.royalcollection.org.uk","specials":{"count":"0"},"hereNow":{"count":"0"},"storeId":"","referralId":"v-1392478040"},{"id":"4ffabef9e0e2eec02f24f099","name":"Pret A Manger","contact":{"phone":"+442079325469","formattedPhone":"+44 20 7932 5469","twitter":"pret","facebook":"162638680417951"},"location":{"address":"81 Piccadilly","lat":"51.506525449557","lng":"-0.14348745346069336","distance":"253","postalCode":"W1J 8HY","cc":"GB","city":"London","state":"Greater London","country":"United Kingdom"},"categories":[{"id":"4bf58dd8d48988d1c5941735","name":"Sandwich Place","pluralName":"Sandwich Places","shortName":"Sandwiches","icon":{"prefix":"https:\/\/ss1.4sqi.net\/img\/categories_v2\/food\/sandwiches_","suffix":".png"},"primary":"true"}],"verified":"true","restricted":"true","stats":{"checkinsCount":"934","usersCount":"738","tipCount":"10"},"url":"http:\/\/www.pret.com","specials":{"count":"0"},"hereNow":{"count":"0"},"storeId":"313","referralId":"v-1392478040"},{"id":"4f23fba7e4b0717a67ea9617","name":"Buckingham Palace Guardroom","location":{"lat":"51.50395242060059","lng":"-0.13980183831179313","distance":"211","cc":"GB","city":"London","state":"Greater London","country":"United Kingdom"},"categories":[{"id":"4e52adeebd41615f56317744","name":"Military Base","pluralName":"Military Bases","shortName":"Military Base","icon":{"prefix":"https:\/\/ss1.4sqi.net\/img\/categories_v2\/building\/militarybase_","suffix":".png"},"primary":"true"}],"verified":"false","restricted":"true","stats":{"checkinsCount":"330","usersCount":"298","tipCount":"0"},"specials":{"count":"0"},"hereNow":{"count":"0"},"referralId":"v-1392478040"},{"id":"4bbdb7308a4fb713ea3e3d9d","name":"Caff\u00e8 Nero","contact":{"phone":"+442074090595","formattedPhone":"+44 20 7409 0595"},"location":{"address":"50-52 Curzon St.","lat":"51.506985","lng":"-0.14603","distance":"374","postalCode":"W1J 7UP","cc":"GB","city":"London","state":"Greater London","country":"United Kingdom"},"categories":[{"id":"4bf58dd8d48988d1e0931735","name":"Coffee Shop","pluralName":"Coffee Shops","shortName":"Coffee Shop","icon":{"prefix":"https:\/\/ss1.4sqi.net\/img\/categories_v2\/food\/coffeeshop_","suffix":".png"},"primary":"true"}],"verified":"false","restricted":"true","stats":{"checkinsCount":"1094","usersCount":"534","tipCount":"12"},"url":"http:\/\/www.caffenero.com","specials":{"count":"0"},"hereNow":{"count":"2","groups":[{"type":"others","name":"Other people here","count":"2"}]},"referralId":"v-1392478040"},{"id":"4bd76b310b779c74a72405a0","name":"Henry's Cafe Bar","contact":{"phone":"+448721077077","formattedPhone":"+44 872 107 7077"},"location":{"address":"80 Piccadilly","crossStreet":"Bolton St.","lat":"51.50661226218937","lng":"-0.14327287673950195","distance":"260","postalCode":"W1J 8HX","cc":"GB","city":"London","state":"Greater London","country":"United Kingdom"},"categories":[{"id":"4bf58dd8d48988d116941735","name":"Bar","pluralName":"Bars","shortName":"Bar","icon":{"prefix":"https:\/\/ss1.4sqi.net\/img\/categories_v2\/nightlife\/bar_","suffix":".png"},"primary":"true"}],"verified":"false","restricted":"true","stats":{"checkinsCount":"1774","usersCount":"1466","tipCount":"25"},"menu":{"type":"Menu","label":"Menu","anchor":"View Menu","url":"https:\/\/foursquare.com\/v\/henrys-cafe-bar\/4bd76b310b779c74a72405a0\/menu","mobileUrl":"https:\/\/foursquare.com\/v\/4bd76b310b779c74a72405a0\/device_menu"},"specials":{"count":"0"},"hereNow":{"count":"0"},"referralId":"v-1392478040"},{"id":"50d35695e4b004bf1b5218e7","name":"Piccadilly Line","location":{"lat":"51.506597535426074","lng":"-0.14316697341396475","distance":"258","cc":"GB","country":"United Kingdom"},"categories":[{"id":"4f2a23984b9023bd5841ed2c","name":"Moving Target","pluralName":"Moving Targets","shortName":"Moving Target","icon":{"prefix":"https:\/\/ss1.4sqi.net\/img\/categories_v2\/travel\/movingtarget_","suffix":".png"},"primary":"true"}],"verified":"false","restricted":"true","stats":{"checkinsCount":"647","usersCount":"386","tipCount":"1"},"specials":{"count":"0"},"hereNow":{"count":"0"},"referralId":"v-1392478040"},{"id":"4d56c50958856dcbfd795c6d","name":"Starbucks","contact":{"twitter":"starbucksuk"},"location":{"address":"84 Piccadilly,","crossStreet":"Near Bolton St.","lat":"51.50620717432806","lng":"-0.14379162712511753","distance":"224","postalCode":"W1V 9PH","cc":"GB","city":"London","state":"Greater London","country":"United Kingdom"},"categories":[{"id":"4bf58dd8d48988d1e0931735","name":"Coffee Shop","pluralName":"Coffee Shops","shortName":"Coffee Shop","icon":{"prefix":"https:\/\/ss1.4sqi.net\/img\/categories_v2\/food\/coffeeshop_","suffix":".png"},"primary":"true"}],"verified":"true","restricted":"true","stats":{"checkinsCount":"2005","usersCount":"1502","tipCount":"16"},"url":"http:\/\/starbucks.co.uk","specials":{"count":"0"},"hereNow":{"count":"0"},"storeId":"12092","referralId":"v-1392478040"},{"id":"4b103bdaf964a520de6b23e3","name":"Berry Bros & Rudd","contact":{"phone":"+448002802440","formattedPhone":"+44 800 280 2440","twitter":"berrybrosrudd"},"location":{"address":"3 St James's St","lat":"51.505605","lng":"-0.138271","distance":"346","postalCode":"SW1A 1EG","cc":"GB","city":"London","state":"Greater London","country":"United Kingdom"},"categories":[{"id":"4bf58dd8d48988d119951735","name":"Wine Shop","pluralName":"Wine Shops","shortName":"Wine Shop","icon":{"prefix":"https:\/\/ss1.4sqi.net\/img\/categories_v2\/shops\/food_wineshop_","suffix":".png"},"primary":"true"}],"verified":"false","restricted":"true","stats":{"checkinsCount":"480","usersCount":"325","tipCount":"13"},"url":"http:\/\/www.bbr.com","specials":{"count":"0"},"hereNow":{"count":"0"},"referralId":"v-1392478040"},{"id":"4ac518c6f964a5200da520e3","name":"Dukes Bar","contact":{"phone":"+442074914840","formattedPhone":"+44 20 7491 4840","twitter":"dukesbarlondon"},"location":{"address":"35 St. James's Pl","lat":"51.505657592519356","lng":"-0.1395160373936388","distance":"274","postalCode":"SW1A 1NY","cc":"GB","city":"London","state":"Greater London","country":"United Kingdom"},"categories":[{"id":"4bf58dd8d48988d1d5941735","name":"Hotel Bar","pluralName":"Hotel Bars","shortName":"Hotel Bar","icon":{"prefix":"https:\/\/ss1.4sqi.net\/img\/categories_v2\/travel\/hotel_bar_","suffix":".png"},"primary":"true"}],"verified":"false","restricted":"true","stats":{"checkinsCount":"583","usersCount":"418","tipCount":"21"},"url":"http:\/\/www.dukeshotel.com\/foodanddrink-dukesbar.php","specials":{"count":"0"},"hereNow":{"count":"0"},"referralId":"v-1392478040"},{"id":"4b900513f964a5208c7033e3","name":"Shepherd Market","location":{"address":"Shepherd Market","lat":"51.50639460353144","lng":"-0.14636051222550756","distance":"340","cc":"GB","city":"London","state":"Greater London","country":"United Kingdom"},"categories":[{"id":"4bf58dd8d48988d164941735","name":"Plaza","pluralName":"Plazas","shortName":"Plaza","icon":{"prefix":"https:\/\/ss1.4sqi.net\/img\/categories_v2\/parks_outdoors\/plaza_","suffix":".png"},"primary":"true"}],"verified":"false","restricted":"true","stats":{"checkinsCount":"1638","usersCount":"666","tipCount":"6"},"specials":{"count":"0"},"hereNow":{"count":"0"},"referralId":"v-1392478040"},{"id":"4ac518def964a520aba920e3","name":"Citrus Restaurant","contact":{"twitter":"spg"},"location":{"address":"Piccadilly","lat":"51.50492940322759","lng":"-0.14673829078674316","distance":"281","postalCode":"W1J 7BX","cc":"GB","city":"London","state":"Greater London","country":"United Kingdom"},"categories":[{"id":"4bf58dd8d48988d1c0941735","name":"Mediterranean Restaurant","pluralName":"Mediterranean Restaurants","shortName":"Mediterranean","icon":{"prefix":"https:\/\/ss1.4sqi.net\/img\/categories_v2\/food\/mediterranean_","suffix":".png"},"primary":"true"}],"verified":"true","restricted":"true","stats":{"checkinsCount":"440","usersCount":"227","tipCount":"11"},"url":"http:\/\/www.citrusrestaurant.co.uk","reservations":{"url":"http:\/\/www.toptable.co.uk\/single.aspx?rid=67891&ref=9601"},"menu":{"type":"Menu","label":"Menu","anchor":"View Menu","url":"https:\/\/foursquare.com\/v\/citrus-restaurant\/4ac518def964a520aba920e3\/menu","mobileUrl":"https:\/\/foursquare.com\/v\/4ac518def964a520aba920e3\/device_menu"},"specials":{"count":"0"},"hereNow":{"count":"0"},"storeId":"4105","referralId":"v-1392478040"},{"id":"4b705336f964a520ca122de3","name":"Hilton London Green Park","contact":{"phone":"+442076297522","formattedPhone":"+44 20 7629 7522","twitter":"hiltonhotels"},"location":{"address":"Half Moon St","lat":"51.50643560716518","lng":"-0.14540521638576603","distance":"299","postalCode":"W1J 7BN","cc":"GB","city":"Mayfair","state":"Greater London","country":"United Kingdom"},"categories":[{"id":"4bf58dd8d48988d1fa931735","name":"Hotel","pluralName":"Hotels","shortName":"Hotel","icon":{"prefix":"https:\/\/ss1.4sqi.net\/img\/categories_v2\/travel\/hotel_","suffix":".png"},"primary":"true"}],"verified":"true","restricted":"true","stats":{"checkinsCount":"2135","usersCount":"788","tipCount":"17"},"menu":{"type":"Menu","label":"Menu","anchor":"View Menu","url":"https:\/\/foursquare.com\/v\/hilton-london-green-park\/4b705336f964a520ca122de3\/menu","mobileUrl":"https:\/\/foursquare.com\/v\/4b705336f964a520ca122de3\/device_menu"},"specials":{"count":"0"},"hereNow":{"count":"0"},"storeId":"LONGPTW","referralId":"v-1392478040"},{"id":"4ac518c0f964a52076a320e3","name":"The Ritz Restaurant","contact":{"phone":"+442074938181","formattedPhone":"+44 20 7493 8181","twitter":"theritzlondon"},"location":{"address":"150 Piccadilly","lat":"51.50696829372873","lng":"-0.14224368960323588","distance":"300","postalCode":"W1J 9BS","cc":"GB","city":"London","state":"Greater London","country":"United Kingdom"},"categories":[{"id":"4bf58dd8d48988d10c941735","name":"French Restaurant","pluralName":"French Restaurants","shortName":"French","icon":{"prefix":"https:\/\/ss1.4sqi.net\/img\/categories_v2\/food\/french_","suffix":".png"},"primary":"true"}],"verified":"true","restricted":"true","stats":{"checkinsCount":"719","usersCount":"564","tipCount":"9"},"url":"http:\/\/theritzlondon.com","reservations":{"url":"http:\/\/www.toptable.co.uk\/single.aspx?rid=81886&ref=9601"},"menu":{"type":"Menu","label":"Menu","anchor":"View Menu","url":"https:\/\/foursquare.com\/v\/the-ritz-restaurant\/4ac518c0f964a52076a320e3\/menu","mobileUrl":"https:\/\/foursquare.com\/v\/4ac518c0f964a52076a320e3\/device_menu"},"specials":{"count":"0"},"hereNow":{"count":"0"},"venuePage":{"id":"33700086"},"storeId":"","referralId":"v-1392478040"},{"id":"4bb4fb5729269c7479eaca92","name":"Marks & Spencer Simply Food","contact":{"phone":"+442074910690","formattedPhone":"+44 20 7491 0690"},"location":{"address":"78 Piccadilly","lat":"51.50680592054243","lng":"-0.14288663864135742","distance":"280","postalCode":"W1J 8AQ","cc":"GB","city":"Mayfair","state":"Greater London","country":"United Kingdom"},"categories":[{"id":"4bf58dd8d48988d118951735","name":"Grocery Store","pluralName":"Grocery Stores","shortName":"Grocery Store","icon":{"prefix":"https:\/\/ss1.4sqi.net\/img\/categories_v2\/shops\/food_grocery_","suffix":".png"},"primary":"true"}],"verified":"true","restricted":"true","stats":{"checkinsCount":"1166","usersCount":"564","tipCount":"6"},"specials":{"count":"0"},"hereNow":{"count":"0"},"storeId":"Green Park Simply Food","referralId":"v-1392478040"},{"id":"4ac518b8f964a52086a120e3","name":"Flemings Mayfair Hotel","contact":{"phone":"+442074990000","formattedPhone":"+44 20 7499 0000","twitter":"flemingsmayfair"},"location":{"address":"Half Moon St","lat":"51.50646149002129","lng":"-0.14518716729934328","distance":"292","postalCode":"W1J 7BH","cc":"GB","city":"London","state":"Greater London","country":"United Kingdom"},"categories":[{"id":"4bf58dd8d48988d1fa931735","name":"Hotel","pluralName":"Hotels","shortName":"Hotel","icon":{"prefix":"https:\/\/ss1.4sqi.net\/img\/categories_v2\/travel\/hotel_","suffix":".png"},"primary":"true"}],"verified":"true","restricted":"true","stats":{"checkinsCount":"778","usersCount":"447","tipCount":"14"},"url":"http:\/\/www.flemings.co.uk","reservations":{"url":"http:\/\/www.toptable.co.uk\/single.aspx?rid=34594&ref=9601"},"menu":{"type":"Menu","label":"Menu","anchor":"View Menu","url":"https:\/\/foursquare.com\/v\/flemings-mayfair-hotel\/4ac518b8f964a52086a120e3\/menu","mobileUrl":"https:\/\/foursquare.com\/v\/4ac518b8f964a52086a120e3\/device_menu"},"specials":{"count":"0"},"hereNow":{"count":"0"},"storeId":"","referralId":"v-1392478040"},{"id":"4ae1e1d2f964a520518821e3","name":"Ye Grapes","contact":{"phone":"+442074934216","formattedPhone":"+44 20 7493 4216"},"location":{"address":"16 Shepherd Market","crossStreet":"at Buck St.","lat":"51.506480617203394","lng":"-0.14638852862129448","distance":"348","postalCode":"W1J 7QQ","cc":"GB","city":"Mayfair","state":"Greater London","country":"United Kingdom"},"categories":[{"id":"4bf58dd8d48988d11b941735","name":"Pub","pluralName":"Pubs","shortName":"Pub","icon":{"prefix":"https:\/\/ss1.4sqi.net\/img\/categories_v2\/nightlife\/pub_","suffix":".png"},"primary":"true"}],"verified":"false","restricted":"true","stats":{"checkinsCount":"1426","usersCount":"1029","tipCount":"14"},"specials":{"count":"0"},"hereNow":{"count":"0"},"referralId":"v-1392478040"},{"id":"4ac518cff964a52052a620e3","name":"Spencer House","location":{"address":"27 St James's Place","lat":"51.505348995159395","lng":"-0.14016923093287964","distance":"217","postalCode":"SW1A 1NR","cc":"GB","city":"London","state":"Greater London","country":"United Kingdom"},"categories":[{"id":"4bf58dd8d48988d12d941735","name":"Monument \/ Landmark","pluralName":"Monuments \/ Landmarks","shortName":"Landmark","icon":{"prefix":"https:\/\/ss1.4sqi.net\/img\/categories_v2\/building\/government_monument_","suffix":".png"},"primary":"true"}],"verified":"false","restricted":"true","stats":{"checkinsCount":"326","usersCount":"95","tipCount":"1"},"specials":{"count":"0"},"hereNow":{"count":"0"},"referralId":"v-1392478040"},{"id":"4ba27323f964a52011fa37e3","name":"Embassy of Japan","location":{"address":"101-104 Piccadilly","lat":"51.50548644557966","lng":"-0.1451549287950106","distance":"210","postalCode":"W1J 7JT","cc":"GB","city":"Mayfair","state":"Greater London","country":"United Kingdom"},"categories":[{"id":"4bf58dd8d48988d126941735","name":"Government Building","pluralName":"Government Buildings","shortName":"Government","icon":{"prefix":"https:\/\/ss1.4sqi.net\/img\/categories_v2\/building\/government_","suffix":".png"},"primary":"true"}],"verified":"false","restricted":"true","stats":{"checkinsCount":"582","usersCount":"335","tipCount":"2"},"specials":{"count":"0"},"hereNow":{"count":"0"},"referralId":"v-1392478040"},{"id":"4b883b5cf964a52038e931e3","name":"St. James's Hotel and Club","contact":{"phone":"+442073161600","formattedPhone":"+44 20 7316 1600","twitter":"althoffhotels","facebook":"146774655335632"},"location":{"address":"7-8 Park Place","lat":"51.50620546648409","lng":"-0.1402826730770937","distance":"275","postalCode":"SW1A 1LS","cc":"GB","city":"London","state":"Greater London","country":"United Kingdom"},"categories":[{"id":"4bf58dd8d48988d1fa931735","name":"Hotel","pluralName":"Hotels","shortName":"Hotel","icon":{"prefix":"https:\/\/ss1.4sqi.net\/img\/categories_v2\/travel\/hotel_","suffix":".png"},"primary":"true"}],"verified":"true","restricted":"true","stats":{"checkinsCount":"468","usersCount":"274","tipCount":"11"},"url":"http:\/\/www.stjameshotelandclub.com","specials":{"count":"0"},"hereNow":{"count":"0"},"storeId":"","referralId":"v-1392478040"},{"id":"4ac518d6f964a52038a820e3","name":"Le Caprice","contact":{"phone":"+442076292239","formattedPhone":"+44 20 7629 2239"},"location":{"address":"25 Arlington St","lat":"51.50672931004809","lng":"-0.14062334108638427","distance":"310","postalCode":"SW1A 1RL","cc":"GB","city":"London","state":"Greater London","country":"United Kingdom"},"categories":[{"id":"4bf58dd8d48988d1c2941735","name":"Molecular Gastronomy Restaurant","pluralName":"Molecular Gastronomy Restaurants","shortName":"Molecular Gastronomy","icon":{"prefix":"https:\/\/ss1.4sqi.net\/img\/categories_v2\/food\/moleculargastronomy_","suffix":".png"},"primary":"true"}],"verified":"false","restricted":"true","stats":{"checkinsCount":"468","usersCount":"392","tipCount":"11"},"url":"http:\/\/www.le-caprice.co.uk","reservations":{"url":"http:\/\/www.toptable.co.uk\/single.aspx?rid=81724&ref=9601"},"menu":{"type":"Menu","label":"Menu","anchor":"View Menu","url":"https:\/\/foursquare.com\/v\/le-caprice-london-greater-london\/4ac518d6f964a52038a820e3\/menu","mobileUrl":"https:\/\/foursquare.com\/v\/4ac518d6f964a52038a820e3\/device_menu"},"specials":{"count":"0"},"hereNow":{"count":"1","groups":[{"type":"others","name":"Other people here","count":"1"}]},"referralId":"v-1392478040"},{"id":"4ac518b8f964a52076a120e3","name":"Dukes Hotel","location":{"address":"St. James's Pl","lat":"51.50562670898865","lng":"-0.13950300954627773","distance":"272","postalCode":"SW1A 1NY","cc":"GB","city":"London","state":"Greater London","country":"United Kingdom"},"categories":[{"id":"4bf58dd8d48988d1fa931735","name":"Hotel","pluralName":"Hotels","shortName":"Hotel","icon":{"prefix":"https:\/\/ss1.4sqi.net\/img\/categories_v2\/travel\/hotel_","suffix":".png"},"primary":"true"}],"verified":"false","restricted":"true","stats":{"checkinsCount":"512","usersCount":"322","tipCount":"13"},"specials":{"count":"0"},"hereNow":{"count":"0"},"referralId":"v-1392478040"},{"id":"4b2d1b0ff964a52068ce24e3","name":"King's Arms","contact":{"phone":"+442076290416","formattedPhone":"+44 20 7629 0416"},"location":{"address":"2 Shepherd Market","lat":"51.506347206497566","lng":"-0.14636450606318607","distance":"336","postalCode":"W17 7QB","cc":"GB","city":"London","state":"Greater London","country":"United Kingdom"},"categories":[{"id":"4bf58dd8d48988d11b941735","name":"Pub","pluralName":"Pubs","shortName":"Pub","icon":{"prefix":"https:\/\/ss1.4sqi.net\/img\/categories_v2\/nightlife\/pub_","suffix":".png"},"primary":"true"}],"verified":"false","restricted":"true","stats":{"checkinsCount":"1152","usersCount":"771","tipCount":"8"},"specials":{"count":"0"},"hereNow":{"count":"0"},"referralId":"v-1392478040"}],"confident":"true"}}