{"meta":{"code":"200"},"response":{"venues":[{"id":"4acdb15ff964a520b4cc20e3","name":"Benito's Hat","contact":{"twitter":"benitoschat"},"location":{"address":"56 Goodge St.","crossStreet":"Goodge Pl.","lat":"51.51908916032011","lng":"-0.13646914814013317","distance":"95","postalCode":"W1T 4NB","cc":"GB","city":"Camden","state":"Greater London","country":"United Kingdom"},"categories":[{"id":"4bf58dd8d48988d1c1941735","name":"Mexican Restaurant","pluralName":"Mexican Restaurants","shortName":"Mexican","icon":{"prefix":"https:\/\/ss1.4sqi.net\/img\/categories_v2\/food\/mexican_","suffix":".png"},"primary":"true"}],"verified":"false","restricted":"true","stats":{"checkinsCount":"3083","usersCount":"1289","tipCount":"47"},"url":"http:\/\/www.benitos-hat.com","menu":{"type":"Menu","label":"Menu","anchor":"View Menu","url":"https:\/\/foursquare.com\/v\/benitos-hat\/4acdb15ff964a520b4cc20e3\/menu","mobileUrl":"https:\/\/foursquare.com\/v\/4acdb15ff964a520b4cc20e3\/device_menu"},"specials":{"count":"0"},"hereNow":{"count":"2","groups":[{"type":"others","name":"Other people here","count":"2"}]},"referralId":"v-1392478002"},{"id":"4acde4fcf964a52075cd20e3","name":"Dennis Publishing","contact":{"phone":"+442079076000","formattedPhone":"+44 20 7907 6000","twitter":"dpluk"},"location":{"address":"30 Cleveland St.","crossStreet":"Tottenham St.","lat":"51.519812535038525","lng":"-0.13777971267700195","distance":"58","postalCode":"W1T 4JD","cc":"GB","city":"London","state":"Greater London","country":"United Kingdom"},"categories":[{"id":"4bf58dd8d48988d124941735","name":"Office","pluralName":"Offices","shortName":"Office","icon":{"prefix":"https:\/\/ss1.4sqi.net\/img\/categories_v2\/building\/default_","suffix":".png"},"primary":"true"}],"verified":"false","restricted":"true","stats":{"checkinsCount":"2409","usersCount":"149","tipCount":"4"},"url":"http:\/\/www.dennis.co.uk","specials":{"count":"0"},"hereNow":{"count":"0"},"referralId":"v-1392478002"},{"id":"4ace17cdf964a5205fce20e3","name":"The Green Man","contact":{"phone":"+442075809087","formattedPhone":"+44 20 7580 9087"},"location":{"address":"36 Riding House St","lat":"51.519251751480944","lng":"-0.1392817497253418","distance":"102","postalCode":"W1W 7EP","cc":"GB","city":"London","state":"Greater London","country":"United Kingdom"},"categories":[{"id":"4bf58dd8d48988d11b941735","name":"Pub","pluralName":"Pubs","shortName":"Pub","icon":{"prefix":"https:\/\/ss1.4sqi.net\/img\/categories_v2\/nightlife\/pub_","suffix":".png"},"primary":"true"}],"verified":"false","restricted":"true","stats":{"checkinsCount":"3130","usersCount":"1426","tipCount":"36"},"menu":{"type":"Menu","label":"Menu","anchor":"View Menu","url":"https:\/\/foursquare.com\/v\/the-green-man\/4ace17cdf964a5205fce20e3\/menu","mobileUrl":"https:\/\/foursquare.com\/v\/4ace17cdf964a5205fce20e3\/device_menu"},"specials":{"count":"0"},"hereNow":{"count":"0"},"referralId":"v-1392478002"},{"id":"4b2f868af964a5200dec24e3","name":"The One Tun","contact":{"phone":"+442072094105","formattedPhone":"+44 20 7209 4105","twitter":"onetungoodgest"},"location":{"address":"58-60 Goodge St.","lat":"51.518998061412674","lng":"-0.13651371002197266","distance":"94","postalCode":"W1T 4NB","cc":"GB","city":"London","state":"Greater London","country":"United Kingdom"},"categories":[{"id":"4bf58dd8d48988d11b941735","name":"Pub","pluralName":"Pubs","shortName":"Pub","icon":{"prefix":"https:\/\/ss1.4sqi.net\/img\/categories_v2\/nightlife\/pub_","suffix":".png"},"primary":"true"}],"verified":"false","restricted":"true","stats":{"checkinsCount":"1050","usersCount":"621","tipCount":"6"},"url":"http:\/\/www.youngs.co.uk\/pub-detail.asp?PubID=432","specials":{"count":"0"},"hereNow":{"count":"1","groups":[{"type":"others","name":"Other people here","count":"1"}]},"referralId":"v-1392478002"},{"id":"50b66a0be4b02e5336d867fc","name":"Newman Street Tavern","location":{"address":"43 Newman St.","lat":"51.518845","lng":"-0.136927","distance":"78","postalCode":"W1T 1QQ","cc":"GB","city":"London","state":"Greater London","country":"United Kingdom"},"categories":[{"id":"4bf58dd8d48988d155941735","name":"Gastropub","pluralName":"Gastropubs","shortName":"Gastropub","icon":{"prefix":"https:\/\/ss1.4sqi.net\/img\/categories_v2\/food\/gastropub_","suffix":".png"},"primary":"true"}],"verified":"false","restricted":"true","stats":{"checkinsCount":"395","usersCount":"341","tipCount":"13"},"url":"http:\/\/www.newmanstreettavern.co.uk","reservations":{"url":"http:\/\/www.toptable.co.uk\/single.aspx?rid=93861&ref=9601"},"menu":{"type":"Menu","label":"Menu","anchor":"View Menu","url":"https:\/\/foursquare.com\/v\/newman-street-tavern\/50b66a0be4b02e5336d867fc\/menu","mobileUrl":"https:\/\/foursquare.com\/v\/50b66a0be4b02e5336d867fc\/device_menu"},"specials":{"count":"0"},"hereNow":{"count":"0"},"referralId":"v-1392478002"},{"id":"4b1a981ef964a5200bed23e3","name":"Barrica","contact":{"phone":"+442074369448","formattedPhone":"+44 20 7436 9448","twitter":"barricatapasbar"},"location":{"address":"62 Goodge St.","lat":"51.519001743438494","lng":"-0.13672002640853617","distance":"81","postalCode":"W1T 4NE","cc":"GB","city":"London","state":"Greater London","country":"United Kingdom"},"categories":[{"id":"4bf58dd8d48988d1db931735","name":"Tapas Restaurant","pluralName":"Tapas Restaurants","shortName":"Tapas","icon":{"prefix":"https:\/\/ss1.4sqi.net\/img\/categories_v2\/food\/tapas_","suffix":".png"},"primary":"true"}],"verified":"false","restricted":"true","stats":{"checkinsCount":"730","usersCount":"535","tipCount":"25"},"menu":{"type":"Menu","label":"Menu","anchor":"View Menu","url":"https:\/\/foursquare.com\/v\/barrica-london-uk\/4b1a981ef964a5200bed23e3\/menu","mobileUrl":"https:\/\/foursquare.com\/v\/4b1a981ef964a5200bed23e3\/device_menu"},"specials":{"count":"0"},"hereNow":{"count":"0"},"referralId":"v-1392478002"},{"id":"4d0a60a582aaa0930c7fd5c2","name":"London Cocktail Club","contact":{"phone":"+442075801960","formattedPhone":"+44 20 7580 1960"},"location":{"address":"61 Goodge St.","crossStreet":"at Goodge Pl.","lat":"51.5190016566858","lng":"-0.1365896347684318","distance":"89","postalCode":"W1W 7EL","cc":"GB","city":"London","state":"Greater London","country":"United Kingdom"},"categories":[{"id":"4bf58dd8d48988d11e941735","name":"Cocktail Bar","pluralName":"Cocktail Bars","shortName":"Cocktail","icon":{"prefix":"https:\/\/ss1.4sqi.net\/img\/categories_v2\/nightlife\/cocktails_","suffix":".png"},"primary":"true"}],"verified":"true","restricted":"true","stats":{"checkinsCount":"1095","usersCount":"807","tipCount":"23"},"url":"http:\/\/www.londoncocktailclub.co.uk","menu":{"type":"Menu","label":"Menu","anchor":"View Menu","url":"https:\/\/foursquare.com\/v\/london-cocktail-club\/4d0a60a582aaa0930c7fd5c2\/menu","mobileUrl":"https:\/\/foursquare.com\/v\/4d0a60a582aaa0930c7fd5c2\/device_menu"},"specials":{"count":"0"},"hereNow":{"count":"0"},"storeId":"","referralId":"v-1392478002"},{"id":"519cc8cfabd8d597b742cb0f","name":"adnostic","contact":{"phone":"+442079076833","formattedPhone":"+44 20 7907 6833"},"location":{"address":"30 Cleveland Street","crossStreet":"Cleveland Street & Tottenham Street","lat":"51.51982588694383","lng":"-0.1377582550048828","distance":"59","postalCode":"W1T 4JD","cc":"GB","city":"London","state":"Greater London","country":"United Kingdom"},"categories":[{"id":"4bf58dd8d48988d125941735","name":"Tech Startup","pluralName":"Tech Startups","shortName":"Tech Startup","icon":{"prefix":"https:\/\/ss1.4sqi.net\/img\/categories_v2\/shops\/technology_","suffix":".png"},"primary":"true"}],"verified":"true","restricted":"true","stats":{"checkinsCount":"118","usersCount":"4","tipCount":"6"},"specials":{"count":"0"},"hereNow":{"count":"0"},"venuePage":{"id":"56924171"},"referralId":"v-1392478002"},{"id":"522631b911d221e06262b308","name":"J\u00f6nning and Riashi","location":{"address":"27 Goodge Place","lat":"51.51943299525927","lng":"-0.13657420956624874","distance":"86","cc":"GB","city":"London","state":"Greater London","country":"United Kingdom"},"categories":[{"id":"4bf58dd8d48988d110951735","name":"Salon \/ Barbershop","pluralName":"Salons \/ Barbershops","shortName":"Salon \/ Barbershop","icon":{"prefix":"https:\/\/ss1.4sqi.net\/img\/categories_v2\/shops\/salon_barber_","suffix":".png"},"primary":"true"}],"verified":"false","restricted":"true","stats":{"checkinsCount":"11","usersCount":"3","tipCount":"1"},"specials":{"count":"0"},"hereNow":{"count":"1","groups":[{"type":"others","name":"Other people here","count":"1"}]},"referralId":"v-1392478002"},{"id":"4ae6edeef964a5208fa721e3","name":"Nando's","contact":{"twitter":"nandosuk"},"location":{"address":"57-59 Goodge St.","lat":"51.51904243333333","lng":"-0.136453","distance":"97","postalCode":"W1T 1TH","cc":"GB","city":"London","state":"Greater London","country":"United Kingdom"},"categories":[{"id":"4def73e84765ae376e57713a","name":"Portuguese Restaurant","pluralName":"Portuguese Restaurants","shortName":"Portuguese","icon":{"prefix":"https:\/\/ss1.4sqi.net\/img\/categories_v2\/food\/default_","suffix":".png"},"primary":"true"}],"verified":"true","restricted":"true","stats":{"checkinsCount":"1133","usersCount":"600","tipCount":"6"},"url":"http:\/\/www.nandos.co.uk","menu":{"type":"Menu","label":"Menu","anchor":"View Menu","url":"https:\/\/foursquare.com\/v\/nandos-london\/4ae6edeef964a5208fa721e3\/menu","mobileUrl":"https:\/\/foursquare.com\/v\/4ae6edeef964a5208fa721e3\/device_menu"},"specials":{"count":"0"},"hereNow":{"count":"0"},"storeId":"N092","referralId":"v-1392478002"},{"id":"4c2f6a5d3896e21e18dae390","name":"Black&Blue","contact":{"phone":"+442074360451","formattedPhone":"+44 20 7436 0451","twitter":"blackbluegroup"},"location":{"address":"37 Berners St","crossStreet":"Mortimer St","lat":"51.518489360000004","lng":"-0.137799","distance":"89","postalCode":"W1T 3NB","cc":"GB","city":"Paddington","state":"Greater London","country":"United Kingdom"},"categories":[{"id":"4bf58dd8d48988d1cc941735","name":"Steakhouse","pluralName":"Steakhouses","shortName":"Steakhouse","icon":{"prefix":"https:\/\/ss1.4sqi.net\/img\/categories_v2\/food\/steakhouse_","suffix":".png"},"primary":"true"}],"verified":"false","restricted":"true","stats":{"checkinsCount":"776","usersCount":"569","tipCount":"16"},"menu":{"type":"Menu","label":"Menu","anchor":"View Menu","url":"https:\/\/foursquare.com\/v\/blackblue\/4c2f6a5d3896e21e18dae390\/menu","mobileUrl":"https:\/\/foursquare.com\/v\/4c2f6a5d3896e21e18dae390\/device_menu"},"specials":{"count":"0"},"hereNow":{"count":"0"},"referralId":"v-1392478002"},{"id":"4acfa33ff964a5201dd520e3","name":"Salt Yard","location":{"address":"54 Goodge St.","lat":"51.519099420741966","lng":"-0.13644609433485275","distance":"96","postalCode":"W1T 4NA","cc":"GB","city":"London","state":"Greater London","country":"United Kingdom"},"categories":[{"id":"4bf58dd8d48988d1db931735","name":"Tapas Restaurant","pluralName":"Tapas Restaurants","shortName":"Tapas","icon":{"prefix":"https:\/\/ss1.4sqi.net\/img\/categories_v2\/food\/tapas_","suffix":".png"},"primary":"true"}],"verified":"false","restricted":"true","stats":{"checkinsCount":"1065","usersCount":"829","tipCount":"40"},"menu":{"type":"Menu","label":"Menu","anchor":"View Menu","url":"https:\/\/foursquare.com\/v\/salt-yard-london\/4acfa33ff964a5201dd520e3\/menu","mobileUrl":"https:\/\/foursquare.com\/v\/4acfa33ff964a5201dd520e3\/device_menu"},"specials":{"count":"0"},"hereNow":{"count":"0"},"referralId":"v-1392478002"},{"id":"516d6338498e46a569c1cd57","name":"Pottermore","location":{"lat":"51.52016","lng":"-0.137761","distance":"97","cc":"GB","country":"United Kingdom"},"categories":[{"id":"4bf58dd8d48988d124941735","name":"Office","pluralName":"Offices","shortName":"Office","icon":{"prefix":"https:\/\/ss1.4sqi.net\/img\/categories_v2\/building\/default_","suffix":".png"},"primary":"true"}],"verified":"false","restricted":"true","stats":{"checkinsCount":"95","usersCount":"10","tipCount":"0"},"specials":{"count":"0"},"hereNow":{"count":"0"},"referralId":"v-1392478002"},{"id":"4b968567f964a520dfd134e3","name":"Olives","location":{"address":"20 Cleveland street","lat":"51.519498566817276","lng":"-0.13761998615920035","distance":"26","postalCode":"W1t 4ja","cc":"GB","city":"Camden Town","state":"Greater London","country":"United Kingdom"},"categories":[{"id":"4bf58dd8d48988d10f941735","name":"Indian Restaurant","pluralName":"Indian Restaurants","shortName":"Indian","icon":{"prefix":"https:\/\/ss1.4sqi.net\/img\/categories_v2\/food\/indian_","suffix":".png"},"primary":"true"}],"verified":"false","restricted":"true","stats":{"checkinsCount":"33","usersCount":"24","tipCount":"1"},"menu":{"type":"Menu","label":"Menu","anchor":"View Menu","url":"https:\/\/foursquare.com\/v\/olives\/4b968567f964a520dfd134e3\/menu","mobileUrl":"https:\/\/foursquare.com\/v\/4b968567f964a520dfd134e3\/device_menu"},"specials":{"count":"0"},"hereNow":{"count":"0"},"referralId":"v-1392478002"},{"id":"4b62e792f964a52022582ae3","name":"Sainsbury's Local\u200e","contact":{"phone":"+442075807820","formattedPhone":"+44 20 7580 7820"},"location":{"address":"29-38 Mortimer St.","lat":"51.51829082484537","lng":"-0.13867123349876095","distance":"126","postalCode":"W1T 3JG","cc":"GB","city":"London","state":"Greater London","country":"United Kingdom"},"categories":[{"id":"4bf58dd8d48988d118951735","name":"Grocery Store","pluralName":"Grocery Stores","shortName":"Grocery Store","icon":{"prefix":"https:\/\/ss1.4sqi.net\/img\/categories_v2\/shops\/food_grocery_","suffix":".png"},"primary":"true"}],"verified":"false","restricted":"true","stats":{"checkinsCount":"766","usersCount":"227","tipCount":"4"},"specials":{"count":"0"},"hereNow":{"count":"0"},"referralId":"v-1392478002"},{"id":"51f8ff9f498e40a7226c6db1","name":"Taylors Buttons","location":{"address":"22 Cleveland Street","crossStreet":"Tottenham Street","lat":"51.51962153737851","lng":"-0.13740006506081662","distance":"46","cc":"GB","city":"London","state":"Greater London","country":"United Kingdom"},"categories":[{"id":"4bf58dd8d48988d127951735","name":"Arts & Crafts Store","pluralName":"Arts & Crafts Stores","shortName":"Arts & Crafts","icon":{"prefix":"https:\/\/ss1.4sqi.net\/img\/categories_v2\/shops\/artstore_","suffix":".png"},"primary":"true"}],"verified":"false","restricted":"true","stats":{"checkinsCount":"2","usersCount":"2","tipCount":"1"},"specials":{"count":"0"},"hereNow":{"count":"0"},"referralId":"v-1392478002"},{"id":"4ad5d3f0f964a520a80321e3","name":"Pret A Manger","contact":{"phone":"+442079325239","formattedPhone":"+44 20 7932 5239","twitter":"pret","facebook":"162638680417951"},"location":{"address":"1 Charlotte Place","lat":"51.519135681836886","lng":"-0.13622258071018453","distance":"110","postalCode":"W1T 1SA","cc":"GB","city":"Charlotte Place, London","country":"United Kingdom"},"categories":[{"id":"4bf58dd8d48988d1c5941735","name":"Sandwich Place","pluralName":"Sandwich Places","shortName":"Sandwiches","icon":{"prefix":"https:\/\/ss1.4sqi.net\/img\/categories_v2\/food\/sandwiches_","suffix":".png"},"primary":"true"}],"verified":"true","restricted":"true","stats":{"checkinsCount":"418","usersCount":"125","tipCount":"5"},"url":"http:\/\/www.pret.com","specials":{"count":"0"},"hereNow":{"count":"0"},"storeId":"39","referralId":"v-1392478002"},{"id":"4d46bb6a3616b60c126afac2","name":"Pita Gourmet","contact":{"phone":"+442076372635","formattedPhone":"+44 20 7637 2635"},"location":{"address":"34 Berners St","crossStreet":"Goodge St","lat":"51.518432","lng":"-0.1375597","distance":"96","postalCode":"W1T 3LT","cc":"GB","city":"London","state":"Greater London","country":"United Kingdom"},"categories":[{"id":"4bf58dd8d48988d115941735","name":"Middle Eastern Restaurant","pluralName":"Middle Eastern Restaurants","shortName":"Middle Eastern","icon":{"prefix":"https:\/\/ss1.4sqi.net\/img\/categories_v2\/food\/default_","suffix":".png"},"primary":"true"}],"verified":"false","restricted":"true","stats":{"checkinsCount":"99","usersCount":"53","tipCount":"2"},"url":"http:\/\/www.pitagourmet.co.uk","menu":{"type":"Menu","label":"Menu","anchor":"View Menu","url":"https:\/\/foursquare.com\/v\/pita-gourmet\/4d46bb6a3616b60c126afac2\/menu","mobileUrl":"https:\/\/foursquare.com\/v\/4d46bb6a3616b60c126afac2\/device_menu"},"specials":{"count":"0"},"hereNow":{"count":"0"},"referralId":"v-1392478002"},{"id":"501912e4e4b0911af43a3991","name":"Yaki","contact":{"twitter":"yaki_co_jp"},"location":{"address":"53 Goodge St.","lat":"51.519279121688115","lng":"-0.1362743575097614","distance":"105","postalCode":"W1T 1TG","cc":"GB","city":"London","state":"Greater London","country":"United Kingdom"},"categories":[{"id":"4bf58dd8d48988d111941735","name":"Japanese Restaurant","pluralName":"Japanese Restaurants","shortName":"Japanese","icon":{"prefix":"https:\/\/ss1.4sqi.net\/img\/categories_v2\/food\/japanese_","suffix":".png"},"primary":"true"}],"verified":"false","restricted":"true","stats":{"checkinsCount":"290","usersCount":"159","tipCount":"14"},"menu":{"type":"Menu","label":"Menu","anchor":"View Menu","url":"https:\/\/foursquare.com\/v\/yaki\/501912e4e4b0911af43a3991\/menu","mobileUrl":"https:\/\/foursquare.com\/v\/501912e4e4b0911af43a3991\/device_menu"},"specials":{"count":"0"},"hereNow":{"count":"0"},"referralId":"v-1392478002"},{"id":"514ae503e4b0cd16c0ef0963","name":"BeniTo Go","location":{"lat":"51.51908395344173","lng":"-0.13653803351550053","distance":"90","cc":"GB","country":"United Kingdom"},"categories":[{"id":"4bf58dd8d48988d1c1941735","name":"Mexican Restaurant","pluralName":"Mexican Restaurants","shortName":"Mexican","icon":{"prefix":"https:\/\/ss1.4sqi.net\/img\/categories_v2\/food\/mexican_","suffix":".png"},"primary":"true"}],"verified":"false","restricted":"true","stats":{"checkinsCount":"11","usersCount":"11","tipCount":"0"},"specials":{"count":"0"},"hereNow":{"count":"0"},"referralId":"v-1392478002"},{"id":"4bce18abef109521fa7c8386","name":"Envy Post Production","location":{"address":"46 - 48 Foley St","crossStreet":"Cleveland St","lat":"51.51980003115172","lng":"-0.13875334168191145","distance":"87","postalCode":"7TY","cc":"GB","city":"London","country":"United Kingdom"},"categories":[{"id":"4bf58dd8d48988d174941735","name":"Coworking Space","pluralName":"Coworking Spaces","shortName":"Coworking Space","icon":{"prefix":"https:\/\/ss1.4sqi.net\/img\/categories_v2\/building\/office_coworkingspace_","suffix":".png"},"primary":"true"}],"verified":"false","restricted":"true","stats":{"checkinsCount":"282","usersCount":"83","tipCount":"2"},"specials":{"count":"0"},"hereNow":{"count":"0"},"referralId":"v-1392478002"},{"id":"50abc1dce4b0b7a4bf32e438","name":"Salento Green Life","location":{"lat":"51.519191891241576","lng":"-0.136257950701786","distance":"107","cc":"GB","country":"United Kingdom"},"categories":[{"id":"4bf58dd8d48988d146941735","name":"Deli \/ Bodega","pluralName":"Delis \/ Bodegas","shortName":"Deli \/ Bodega","icon":{"prefix":"https:\/\/ss1.4sqi.net\/img\/categories_v2\/food\/deli_","suffix":".png"},"primary":"true"}],"verified":"false","restricted":"true","stats":{"checkinsCount":"65","usersCount":"39","tipCount":"5"},"specials":{"count":"0"},"hereNow":{"count":"0"},"referralId":"v-1392478002"},{"id":"5053168ce4b017bb2544e551","name":"Fitzroy Place Construction Site","location":{"address":"Mortimer Street","crossStreet":"Cleveland Street","lat":"51.51881654897227","lng":"-0.13782234903561733","distance":"52","cc":"GB","city":"London","state":"Greater London","country":"United Kingdom"},"categories":[{"id":"4bf58dd8d48988d130941735","name":"Building","pluralName":"Buildings","shortName":"Building","icon":{"prefix":"https:\/\/ss1.4sqi.net\/img\/categories_v2\/building\/default_","suffix":".png"},"primary":"true"}],"verified":"false","restricted":"true","stats":{"checkinsCount":"29","usersCount":"9","tipCount":"0"},"specials":{"count":"0"},"hereNow":{"count":"0"},"referralId":"v-1392478002"},{"id":"4c776d02d06b224bba81fed6","name":"Middlesex House","location":{"lat":"51.520124886056536","lng":"-0.1378817765185135","distance":"93","cc":"GB","city":"Camden Town","state":"Greater London","country":"United Kingdom"},"categories":[{"id":"4bf58dd8d48988d124941735","name":"Office","pluralName":"Offices","shortName":"Office","icon":{"prefix":"https:\/\/ss1.4sqi.net\/img\/categories_v2\/building\/default_","suffix":".png"},"primary":"true"}],"verified":"false","restricted":"true","stats":{"checkinsCount":"499","usersCount":"35","tipCount":"1"},"specials":{"count":"0"},"hereNow":{"count":"0"},"referralId":"v-1392478002"},{"id":"4ad0c959f964a520d0d920e3","name":"Simply Thai","location":{"address":"Goodge Pl","crossStreet":"Goodge St","lat":"51.519228","lng":"-0.13627451000000002","distance":"106","postalCode":"W1T 4","cc":"GB","city":"Camden","state":"Greater London","country":"United Kingdom"},"categories":[{"id":"4bf58dd8d48988d1cb941735","name":"Food Truck","pluralName":"Food Trucks","shortName":"Food Truck","icon":{"prefix":"https:\/\/ss1.4sqi.net\/img\/categories_v2\/food\/streetfood_","suffix":".png"},"primary":"true"}],"verified":"false","restricted":"true","stats":{"checkinsCount":"373","usersCount":"108","tipCount":"8"},"specials":{"count":"0"},"hereNow":{"count":"0"},"referralId":"v-1392478002"},{"id":"4b03ad76f964a5200d5022e3","name":"T\u00e9o Cafe","location":{"address":"49 Newman Street","lat":"51.518899","lng":"-0.136896","distance":"76","cc":"GB","city":"London","state":"Greater London","country":"United Kingdom"},"categories":[{"id":"4bf58dd8d48988d16d941735","name":"Caf\u00e9","pluralName":"Caf\u00e9s","shortName":"Caf\u00e9","icon":{"prefix":"https:\/\/ss1.4sqi.net\/img\/categories_v2\/food\/cafe_","suffix":".png"},"primary":"true"}],"verified":"false","restricted":"true","stats":{"checkinsCount":"110","usersCount":"66","tipCount":"4"},"specials":{"count":"0"},"hereNow":{"count":"0"},"referralId":"v-1392478002"},{"id":"4ac518dff964a520e8a920e3","name":"Da Paolo Restaurant","contact":{"phone":"+442075800021","formattedPhone":"+44 20 7580 0021","twitter":"dapaololondon","facebook":"147511685287652"},"location":{"address":"3 Charlotte Place","lat":"51.51898","lng":"-0.13622","distance":"114","postalCode":"W1T 1SD","cc":"GB","city":"London","state":"Greater London","country":"United Kingdom"},"categories":[{"id":"4bf58dd8d48988d110941735","name":"Italian Restaurant","pluralName":"Italian Restaurants","shortName":"Italian","icon":{"prefix":"https:\/\/ss1.4sqi.net\/img\/categories_v2\/food\/italian_","suffix":".png"},"primary":"true"}],"verified":"true","restricted":"true","stats":{"checkinsCount":"139","usersCount":"119","tipCount":"6"},"url":"http:\/\/www.dapaolo.co.uk","reservations":{"url":"http:\/\/www.toptable.co.uk\/single.aspx?rid=81121&ref=9601"},"menu":{"type":"Menu","label":"Menu","anchor":"View Menu","url":"https:\/\/foursquare.com\/v\/da-paolo-restaurant\/4ac518dff964a520e8a920e3\/menu","mobileUrl":"https:\/\/foursquare.com\/v\/4ac518dff964a520e8a920e3\/device_menu"},"specials":{"count":"0"},"hereNow":{"count":"0"},"venuePage":{"id":"37980049"},"storeId":"","referralId":"v-1392478002"},{"id":"4af0417cf964a520e6da21e3","name":"Ping Pong","contact":{"phone":"+442072913080","formattedPhone":"+44 20 7291 3080","twitter":"pingpongdimsum"},"location":{"address":"48 Newman Street","crossStreet":"Goodge Street","lat":"51.518893","lng":"-0.136736","distance":"86","postalCode":"W1T 1QQ","cc":"GB","city":"London","state":"Greater London","country":"United Kingdom"},"categories":[{"id":"4bf58dd8d48988d1f5931735","name":"Dim Sum Restaurant","pluralName":"Dim Sum Restaurants","shortName":"Dim Sum","icon":{"prefix":"https:\/\/ss1.4sqi.net\/img\/categories_v2\/food\/dimsum_","suffix":".png"},"primary":"true"}],"verified":"true","restricted":"true","stats":{"checkinsCount":"551","usersCount":"430","tipCount":"16"},"url":"http:\/\/www.pingpongdimsum.com","menu":{"type":"Menu","label":"Menu","anchor":"View Menu","url":"https:\/\/foursquare.com\/v\/ping-pong\/4af0417cf964a520e6da21e3\/menu","mobileUrl":"https:\/\/foursquare.com\/v\/4af0417cf964a520e6da21e3\/device_menu"},"specials":{"count":"0"},"hereNow":{"count":"0"},"referralId":"v-1392478002"},{"id":"4bb1f463f964a52028ad3ce3","name":"Hoxton Beach Falafel Stall","location":{"address":"Goodge Place","lat":"51.519277","lng":"-0.13633","distance":"102","postalCode":"W1T 4","cc":"GB","city":"Camden Town","state":"Greater London","country":"United Kingdom"},"categories":[{"id":"4bf58dd8d48988d10b941735","name":"Falafel Restaurant","pluralName":"Falafel Restaurants","shortName":"Falafel","icon":{"prefix":"https:\/\/ss1.4sqi.net\/img\/categories_v2\/food\/falafel_","suffix":".png"},"primary":"true"}],"verified":"false","restricted":"true","stats":{"checkinsCount":"209","usersCount":"74","tipCount":"1"},"specials":{"count":"0"},"hereNow":{"count":"0"},"referralId":"v-1392478002"},{"id":"4c44cf732d3ec9b6a3682fae","name":"FlexiStay Aparthotel","location":{"address":"66 Charlotte St","lat":"51.520049266474714","lng":"-0.13662469074334044","distance":"117","postalCode":"W1T 4QE","cc":"GB","city":"London","state":"Greater London","country":"United Kingdom"},"categories":[{"id":"4bf58dd8d48988d1fa931735","name":"Hotel","pluralName":"Hotels","shortName":"Hotel","icon":{"prefix":"https:\/\/ss1.4sqi.net\/img\/categories_v2\/travel\/hotel_","suffix":".png"},"primary":"true"}],"verified":"false","restricted":"true","stats":{"checkinsCount":"69","usersCount":"26","tipCount":"2"},"specials":{"count":"0"},"hereNow":{"count":"0"},"referralId":"v-1392478002"}],"confident":"false"}}