{"meta":{"code":"200"},"response":{"venues":[{"id":"4b1407eef964a520189c23e3","name":"City Thameslink Railway Station (CTK)","contact":{"phone":"+448457484950","formattedPhone":"+44 845 748 4950","twitter":"nationalrailenq","facebook":"94740547473"},"location":{"address":"Ludgate Hill","lat":"51.51397737779247","lng":"-0.1034688949584961","distance":"57","postalCode":"EC4M 7JH","cc":"GB","city":"London","state":"Greater London","country":"United Kingdom"},"categories":[{"id":"4bf58dd8d48988d129951735","name":"Train Station","pluralName":"Train Stations","shortName":"Train Station","icon":{"prefix":"https:\/\/ss1.4sqi.net\/img\/categories_v2\/travel\/trainstation_","suffix":".png"},"primary":"true"}],"verified":"true","restricted":"true","stats":{"checkinsCount":"5737","usersCount":"1206","tipCount":"8"},"url":"http:\/\/www.nationalrail.co.uk\/stations\/ctk\/details.html","specials":{"count":"0"},"hereNow":{"count":"1","groups":[{"type":"others","name":"Other people here","count":"1"}]},"storeId":"CTK","referralId":"v-1392478018"},{"id":"4ea16a760aaf711180277856","name":"pod","contact":{"phone":"+442072488431","formattedPhone":"+44 20 7248 8431","twitter":"podlondon"},"location":{"address":"3 Old Bailey","lat":"51.514171004840556","lng":"-0.10267496109008789","distance":"15","postalCode":"EC4M 7BG","cc":"GB","city":"London","state":"Greater London","country":"United Kingdom"},"categories":[{"id":"4bf58dd8d48988d1bd941735","name":"Salad Place","pluralName":"Salad Shop","shortName":"Salad","icon":{"prefix":"https:\/\/ss1.4sqi.net\/img\/categories_v2\/food\/salad_","suffix":".png"},"primary":"true"}],"verified":"true","restricted":"true","stats":{"checkinsCount":"703","usersCount":"98","tipCount":"2"},"url":"http:\/\/www.podfood.co.uk","specials":{"count":"0"},"hereNow":{"count":"0"},"referralId":"v-1392478018"},{"id":"4c0965027e3fc928b1e6f182","name":"All Bar One","location":{"address":"44-46 Ludgate Hill","lat":"51.51410829457553","lng":"-0.10261931321245299","distance":"23","postalCode":"EC4M 7DE","cc":"GB","city":"London","state":"Greater London","country":"United Kingdom"},"categories":[{"id":"4bf58dd8d48988d116941735","name":"Bar","pluralName":"Bars","shortName":"Bar","icon":{"prefix":"https:\/\/ss1.4sqi.net\/img\/categories_v2\/nightlife\/bar_","suffix":".png"},"primary":"true"}],"verified":"false","restricted":"true","stats":{"checkinsCount":"627","usersCount":"399","tipCount":"5"},"specials":{"count":"0"},"hereNow":{"count":"0"},"referralId":"v-1392478018"},{"id":"4b3cb4c9f964a5205c8625e3","name":"Ye Olde London","location":{"address":"Ludgate Hill","lat":"51.51400408502046","lng":"-0.10256767272949219","distance":"35","cc":"GB","city":"London","state":"Greater London","country":"United Kingdom"},"categories":[{"id":"4bf58dd8d48988d11b941735","name":"Pub","pluralName":"Pubs","shortName":"Pub","icon":{"prefix":"https:\/\/ss1.4sqi.net\/img\/categories_v2\/nightlife\/pub_","suffix":".png"},"primary":"true"}],"verified":"false","restricted":"true","stats":{"checkinsCount":"745","usersCount":"580","tipCount":"10"},"specials":{"count":"0"},"hereNow":{"count":"0"},"referralId":"v-1392478018"},{"id":"4bdd6da8645e0f477f766b19","name":"Costa Coffee","location":{"address":"Ludgate Hill","crossStreet":"Ave Maria Ln.","lat":"51.51395045371121","lng":"-0.10174794616311025","distance":"82","cc":"GB","city":"London","state":"Greater London","country":"United Kingdom"},"categories":[{"id":"4bf58dd8d48988d1e0931735","name":"Coffee Shop","pluralName":"Coffee Shops","shortName":"Coffee Shop","icon":{"prefix":"https:\/\/ss1.4sqi.net\/img\/categories_v2\/food\/coffeeshop_","suffix":".png"},"primary":"true"}],"verified":"false","restricted":"true","stats":{"checkinsCount":"582","usersCount":"279","tipCount":"6"},"url":"http:\/\/www.costa.co.uk","specials":{"count":"0"},"hereNow":{"count":"0"},"referralId":"v-1392478018"},{"id":"4e8de2c2b803ca3dfcf6cd57","name":"Jamie's Bar & Restaurant","location":{"crossStreet":"Ludgate Hill","lat":"51.514050364494324","lng":"-0.10273933410644531","distance":"26","cc":"GB","city":"London","state":"Greater London","country":"United Kingdom"},"categories":[{"id":"4bf58dd8d48988d123941735","name":"Wine Bar","pluralName":"Wine Bars","shortName":"Wine Bar","icon":{"prefix":"https:\/\/ss1.4sqi.net\/img\/categories_v2\/nightlife\/wine_","suffix":".png"},"primary":"true"}],"verified":"false","restricted":"true","stats":{"checkinsCount":"137","usersCount":"127","tipCount":"0"},"specials":{"count":"0"},"hereNow":{"count":"0"},"referralId":"v-1392478018"},{"id":"4da83b215da3ef8bf158ac57","name":"Earl of Sandwich","contact":{"twitter":"earlofsandwich"},"location":{"address":"40 Ludgate Hill","lat":"51.513897256014594","lng":"-0.10164499282836914","distance":"91","postalCode":"EC4M 7DE","cc":"GB","city":"London","state":"Greater London","country":"United Kingdom"},"categories":[{"id":"4bf58dd8d48988d1c5941735","name":"Sandwich Place","pluralName":"Sandwich Places","shortName":"Sandwiches","icon":{"prefix":"https:\/\/ss1.4sqi.net\/img\/categories_v2\/food\/sandwiches_","suffix":".png"},"primary":"true"}],"verified":"true","restricted":"true","stats":{"checkinsCount":"791","usersCount":"450","tipCount":"13"},"menu":{"type":"Menu","label":"Menu","anchor":"View Menu","url":"https:\/\/foursquare.com\/v\/earl-of-sandwich\/4da83b215da3ef8bf158ac57\/menu","mobileUrl":"https:\/\/foursquare.com\/v\/4da83b215da3ef8bf158ac57\/device_menu"},"specials":{"count":"0"},"hereNow":{"count":"0"},"referralId":"v-1392478018"},{"id":"4e94081c29c2e7c7fe6d525c","name":"10 Old Bailey (HCL Plc)","location":{"lat":"51.51482140699106","lng":"-0.10305898579242737","distance":"61","cc":"GB","city":"London","state":"Greater London","country":"United Kingdom"},"categories":[{"id":"4bf58dd8d48988d124941735","name":"Office","pluralName":"Offices","shortName":"Office","icon":{"prefix":"https:\/\/ss1.4sqi.net\/img\/categories_v2\/building\/default_","suffix":".png"},"primary":"true"}],"verified":"false","restricted":"true","stats":{"checkinsCount":"681","usersCount":"45","tipCount":"1"},"specials":{"count":"0"},"hereNow":{"count":"0"},"referralId":"v-1392478018"},{"id":"516e5694e4b02bd4d018c761","name":"Alchemy","location":{"address":"8 Ludgate Broadway","lat":"51.513356","lng":"-0.102577","distance":"105","postalCode":"EC4V 6DU","cc":"GB","city":"London","state":"Greater London","country":"United Kingdom"},"categories":[{"id":"4bf58dd8d48988d1e0931735","name":"Coffee Shop","pluralName":"Coffee Shops","shortName":"Coffee Shop","icon":{"prefix":"https:\/\/ss1.4sqi.net\/img\/categories_v2\/food\/coffeeshop_","suffix":".png"},"primary":"true"}],"verified":"true","restricted":"true","stats":{"checkinsCount":"438","usersCount":"111","tipCount":"7"},"specials":{"count":"0"},"hereNow":{"count":"0"},"venuePage":{"id":"70421104"},"referralId":"v-1392478018"},{"id":"4f05a1955c5c4a361abab0b3","name":"Garfunkels","location":{"address":"Ludgate Hill","lat":"51.513957","lng":"-0.101752","distance":"81","cc":"GB","country":"United Kingdom"},"categories":[{"id":"4bf58dd8d48988d14e941735","name":"American Restaurant","pluralName":"American Restaurants","shortName":"American","icon":{"prefix":"https:\/\/ss1.4sqi.net\/img\/categories_v2\/food\/default_","suffix":".png"},"primary":"true"}],"verified":"false","restricted":"true","stats":{"checkinsCount":"390","usersCount":"366","tipCount":"7"},"specials":{"count":"0"},"hereNow":{"count":"0"},"referralId":"v-1392478018"},{"id":"520bc41c11d25c6187b5a6bd","name":"Costa Coffee","contact":{"phone":"+442072363697","formattedPhone":"+44 20 7236 3697"},"location":{"address":"City Thameslink Station, Ludgate Hill","lat":"51.514323340558","lng":"-0.10320711847395332","distance":"28","postalCode":"EC4M 7JH","cc":"GB","country":"United Kingdom"},"categories":[{"id":"4bf58dd8d48988d1e0931735","name":"Coffee Shop","pluralName":"Coffee Shops","shortName":"Coffee Shop","icon":{"prefix":"https:\/\/ss1.4sqi.net\/img\/categories_v2\/food\/coffeeshop_","suffix":".png"},"primary":"true"}],"verified":"false","restricted":"true","stats":{"checkinsCount":"8","usersCount":"3","tipCount":"0"},"url":"http:\/\/www.costa.co.uk","specials":{"count":"0"},"hereNow":{"count":"0"},"referralId":"v-1392478018"},{"id":"4ad75549f964a520950921e3","name":"Leon","contact":{"phone":"+442074891580","formattedPhone":"+44 20 7489 1580"},"location":{"address":"12 Ludgate Circus","lat":"51.51415302451766","lng":"-0.10426826548337739","distance":"102","postalCode":"EC4M 7LQ","cc":"GB","city":"London","state":"Greater London","country":"United Kingdom"},"categories":[{"id":"4bf58dd8d48988d16e941735","name":"Fast Food Restaurant","pluralName":"Fast Food Restaurants","shortName":"Fast Food","icon":{"prefix":"https:\/\/ss1.4sqi.net\/img\/categories_v2\/food\/fastfood_","suffix":".png"},"primary":"true"}],"verified":"true","restricted":"true","stats":{"checkinsCount":"1014","usersCount":"455","tipCount":"11"},"url":"http:\/\/www.leonrestaurants.co.uk","menu":{"type":"Menu","label":"Menu","anchor":"View Menu","url":"https:\/\/foursquare.com\/v\/leon\/4ad75549f964a520950921e3\/menu","mobileUrl":"https:\/\/foursquare.com\/v\/4ad75549f964a520950921e3\/device_menu"},"specials":{"count":"0"},"hereNow":{"count":"0"},"referralId":"v-1392478018"},{"id":"52c526bf498e4b6101a31a9a","name":"Greggs","location":{"lat":"51.51407245248771","lng":"-0.10247725827275102","distance":"33","cc":"GB","country":"United Kingdom"},"categories":[{"id":"4bf58dd8d48988d1f9941735","name":"Food & Drink Shop","pluralName":"Food & Drink Shops","shortName":"Food & Drink","icon":{"prefix":"https:\/\/ss1.4sqi.net\/img\/categories_v2\/shops\/foodanddrink_","suffix":".png"},"primary":"true"}],"verified":"false","restricted":"true","stats":{"checkinsCount":"3","usersCount":"3","tipCount":"0"},"specials":{"count":"0"},"hereNow":{"count":"0"},"referralId":"v-1392478018"},{"id":"4b8bba5ff964a5209ca832e3","name":"Japanese Canteen","contact":{"phone":"+442073293555","formattedPhone":"+44 20 7329 3555"},"location":{"address":"9 Ludgate Broadway","lat":"51.513566","lng":"-0.10272453333333333","distance":"80","postalCode":"EC4V 6DU","cc":"GB","city":"London","state":"Greater London","country":"United Kingdom"},"categories":[{"id":"4bf58dd8d48988d111941735","name":"Japanese Restaurant","pluralName":"Japanese Restaurants","shortName":"Japanese","icon":{"prefix":"https:\/\/ss1.4sqi.net\/img\/categories_v2\/food\/japanese_","suffix":".png"},"primary":"true"}],"verified":"false","restricted":"true","stats":{"checkinsCount":"231","usersCount":"77","tipCount":"4"},"specials":{"count":"0"},"hereNow":{"count":"0"},"referralId":"v-1392478018"},{"id":"4bf52e8294af2d7f855e3b72","name":"Hardys Original Sweet Shop","contact":{"phone":"+442072482741","formattedPhone":"+44 20 7248 2741"},"location":{"address":"35 Ludgate Hill","lat":"51.513957","lng":"-0.101951","distance":"69","postalCode":"EC4M 7JN","cc":"GB","city":"London","state":"Greater London","country":"United Kingdom"},"categories":[{"id":"4bf58dd8d48988d117951735","name":"Candy Store","pluralName":"Candy Stores","shortName":"Candy Store","icon":{"prefix":"https:\/\/ss1.4sqi.net\/img\/categories_v2\/shops\/candystore_","suffix":".png"},"primary":"true"}],"verified":"false","restricted":"true","stats":{"checkinsCount":"241","usersCount":"169","tipCount":"2"},"specials":{"count":"0"},"hereNow":{"count":"0"},"referralId":"v-1392478018"},{"id":"4e568431d164a0684c600542","name":"107 Fleet Street","location":{"lat":"51.514317179203225","lng":"-0.10440108725169066","distance":"110","cc":"GB","city":"London","state":"Greater London","country":"United Kingdom"},"categories":[{"id":"4bf58dd8d48988d130941735","name":"Building","pluralName":"Buildings","shortName":"Building","icon":{"prefix":"https:\/\/ss1.4sqi.net\/img\/categories_v2\/building\/default_","suffix":".png"},"primary":"true"}],"verified":"false","restricted":"true","stats":{"checkinsCount":"135","usersCount":"49","tipCount":"0"},"specials":{"count":"0"},"hereNow":{"count":"0"},"referralId":"v-1392478018"},{"id":"4fd9d0f6e4b053a8d3d22f90","name":"Indian City","contact":{"phone":"+442075834673","formattedPhone":"+44 20 7583 4673","twitter":"ndiancity2012"},"location":{"address":"4 New Bridge St","lat":"51.51397338422404","lng":"-0.10418708455214744","distance":"102","postalCode":"EC4V 6AA","cc":"GB","city":"London","state":"Greater London","country":"United Kingdom"},"categories":[{"id":"4bf58dd8d48988d10f941735","name":"Indian Restaurant","pluralName":"Indian Restaurants","shortName":"Indian","icon":{"prefix":"https:\/\/ss1.4sqi.net\/img\/categories_v2\/food\/indian_","suffix":".png"},"primary":"true"}],"verified":"false","restricted":"true","stats":{"checkinsCount":"235","usersCount":"150","tipCount":"4"},"url":"http:\/\/indiancity.co.uk","reservations":{"url":"http:\/\/www.toptable.co.uk\/single.aspx?rid=90861&ref=9601"},"menu":{"type":"Menu","label":"Menu","anchor":"View Menu","url":"https:\/\/foursquare.com\/v\/indian-city\/4fd9d0f6e4b053a8d3d22f90\/menu","mobileUrl":"https:\/\/foursquare.com\/v\/4fd9d0f6e4b053a8d3d22f90\/device_menu"},"specials":{"count":"0"},"hereNow":{"count":"0"},"referralId":"v-1392478018"},{"id":"4bfe5302f61dc9b63b3aa0de","name":"Portland Food & Wine","location":{"address":"Ludgate Hill","lat":"51.51408837052945","lng":"-0.10228597182896165","distance":"42","cc":"GB","country":"United Kingdom"},"categories":[{"id":"4d954b0ea243a5684a65b473","name":"Convenience Store","pluralName":"Convenience Stores","shortName":"Convenience Stores","icon":{"prefix":"https:\/\/ss1.4sqi.net\/img\/categories_v2\/shops\/conveniencestore_","suffix":".png"},"primary":"true"}],"verified":"false","restricted":"true","stats":{"checkinsCount":"34","usersCount":"16","tipCount":"0"},"specials":{"count":"0"},"hereNow":{"count":"0"},"referralId":"v-1392478018"},{"id":"4c4995c46b26ef3be3c70638","name":"Burro Burrito","location":{"address":"Ludgate Broadway","lat":"51.513416522387836","lng":"-0.10295391082763672","distance":"97","cc":"GB","city":"London","state":"Greater London","country":"United Kingdom"},"categories":[{"id":"4bf58dd8d48988d153941735","name":"Burrito Place","pluralName":"Burrito Places","shortName":"Burritos","icon":{"prefix":"https:\/\/ss1.4sqi.net\/img\/categories_v2\/food\/burrito_","suffix":".png"},"primary":"true"}],"verified":"false","restricted":"true","stats":{"checkinsCount":"115","usersCount":"49","tipCount":"7"},"specials":{"count":"0"},"hereNow":{"count":"0"},"referralId":"v-1392478018"},{"id":"4be2b7c31dd22d7f319a94bd","name":"Wall Street Journal Europe","location":{"address":"10 Fleet Place","crossStreet":"Limeburner Lane","lat":"51.514774925993315","lng":"-0.10328346324796106","distance":"63","postalCode":"EC4M 7QN","cc":"GB","city":"London","state":"Greater London","country":"United Kingdom"},"categories":[{"id":"4bf58dd8d48988d124941735","name":"Office","pluralName":"Offices","shortName":"Office","icon":{"prefix":"https:\/\/ss1.4sqi.net\/img\/categories_v2\/building\/default_","suffix":".png"},"primary":"true"}],"verified":"false","restricted":"true","stats":{"checkinsCount":"332","usersCount":"41","tipCount":"1"},"specials":{"count":"0"},"hereNow":{"count":"0"},"referralId":"v-1392478018"},{"id":"4c751add8d70b71325f3d4ad","name":"Santander","location":{"address":"11 Ludgate Circus","crossStreet":"Farringdon Street","lat":"51.514231095826055","lng":"-0.10417699813842773","distance":"95","postalCode":"EC4M 7LQ","cc":"GB","city":"London","state":"Greater London","country":"United Kingdom"},"categories":[{"id":"4bf58dd8d48988d10a951735","name":"Bank","pluralName":"Banks","shortName":"Bank","icon":{"prefix":"https:\/\/ss1.4sqi.net\/img\/categories_v2\/shops\/financial_","suffix":".png"},"primary":"true"}],"verified":"false","restricted":"true","stats":{"checkinsCount":"37","usersCount":"7","tipCount":"0"},"specials":{"count":"0"},"hereNow":{"count":"0"},"referralId":"v-1392478018"},{"id":"50f1b7f5e4b0ba6d62601097","name":"Krua By Nathong","location":{"address":"58 Carter Lane","lat":"51.51335437196605","lng":"-0.10184343790584946","distance":"123","cc":"GB","city":"London","state":"Greater London","country":"United Kingdom"},"categories":[{"id":"4bf58dd8d48988d149941735","name":"Thai Restaurant","pluralName":"Thai Restaurants","shortName":"Thai","icon":{"prefix":"https:\/\/ss1.4sqi.net\/img\/categories_v2\/food\/thai_","suffix":".png"},"primary":"true"}],"verified":"false","restricted":"true","stats":{"checkinsCount":"69","usersCount":"51","tipCount":"1"},"reservations":{"url":"http:\/\/www.toptable.co.uk\/single.aspx?rid=95241&ref=9601"},"specials":{"count":"0"},"hereNow":{"count":"0"},"referralId":"v-1392478018"},{"id":"4e60bedcd4c06542aa2e7510","name":"Nii haw","contact":{"phone":"+442079363266","formattedPhone":"+44 20 7936 3266"},"location":{"address":"7 Ludgate Circus","lat":"51.514127567030556","lng":"-0.10414229674394021","distance":"94","postalCode":"EC4M 7LF","cc":"GB","city":"London","state":"Greater London","country":"United Kingdom"},"categories":[{"id":"4bf58dd8d48988d1d2941735","name":"Sushi Restaurant","pluralName":"Sushi Restaurants","shortName":"Sushi","icon":{"prefix":"https:\/\/ss1.4sqi.net\/img\/categories_v2\/food\/sushi_","suffix":".png"},"primary":"true"}],"verified":"false","restricted":"true","stats":{"checkinsCount":"47","usersCount":"24","tipCount":"5"},"url":"http:\/\/www.niihaw.co.uk","specials":{"count":"0"},"hereNow":{"count":"0"},"referralId":"v-1392478018"},{"id":"4ed351e17ee5be844e90edaf","name":"World Gold Council","location":{"address":"Old Bailey","lat":"51.51458032189665","lng":"-0.1028407246340515","distance":"32","postalCode":"EC4M7HW","cc":"GB","city":"London","state":"Greater London","country":"United Kingdom"},"verified":"false","restricted":"true","stats":{"checkinsCount":"9","usersCount":"8","tipCount":"0"},"specials":{"count":"0"},"hereNow":{"count":"0"},"referralId":"v-1392478018"},{"id":"4ac518d1f964a520f2a620e3","name":"Stationers' Hall","location":{"address":"Ave Maria Lane","lat":"51.51422739028931","lng":"-0.10154306888580322","distance":"87","postalCode":"EC4M 7DD","cc":"GB","city":"London","state":"Greater London","country":"United Kingdom"},"categories":[{"id":"4bf58dd8d48988d12d941735","name":"Monument \/ Landmark","pluralName":"Monuments \/ Landmarks","shortName":"Landmark","icon":{"prefix":"https:\/\/ss1.4sqi.net\/img\/categories_v2\/building\/government_monument_","suffix":".png"},"primary":"true"}],"verified":"false","restricted":"true","stats":{"checkinsCount":"153","usersCount":"126","tipCount":"1"},"specials":{"count":"0"},"hereNow":{"count":"0"},"referralId":"v-1392478018"},{"id":"4fa3c975e4b0752c6822c6e0","name":"Taylor Walker","location":{"lat":"51.514031591993614","lng":"-0.1021796851085772","distance":"51","cc":"GB","country":"United Kingdom"},"categories":[{"id":"4bf58dd8d48988d116941735","name":"Bar","pluralName":"Bars","shortName":"Bar","icon":{"prefix":"https:\/\/ss1.4sqi.net\/img\/categories_v2\/nightlife\/bar_","suffix":".png"},"primary":"true"}],"verified":"false","restricted":"true","stats":{"checkinsCount":"39","usersCount":"39","tipCount":"0"},"specials":{"count":"0"},"hereNow":{"count":"0"},"referralId":"v-1392478018"},{"id":"4be2b93421d5a593aa1a1711","name":"Evans Cycles","contact":{"phone":"+442072482349","formattedPhone":"+44 20 7248 2349"},"location":{"address":"1 Farringdon St.","lat":"51.51419103517786","lng":"-0.10402679443359375","distance":"85","postalCode":"EC4M 7LD","cc":"GB","city":"London","state":"Greater London","country":"United Kingdom"},"categories":[{"id":"4bf58dd8d48988d115951735","name":"Bike Shop","pluralName":"Bike Shops","shortName":"Bike shop","icon":{"prefix":"https:\/\/ss1.4sqi.net\/img\/categories_v2\/shops\/bikeshop_","suffix":".png"},"primary":"true"}],"verified":"true","restricted":"true","stats":{"checkinsCount":"83","usersCount":"54","tipCount":"2"},"specials":{"count":"0"},"hereNow":{"count":"0"},"referralId":"v-1392478018"},{"id":"4e70901e52b140871b46887b","name":"The Carter Lane Barbershop","location":{"address":"79a Carter Lane","lat":"51.51336408489006","lng":"-0.10246891800243035","distance":"105","postalCode":"ec1","cc":"GB","city":"London","state":"Greater London","country":"United Kingdom"},"categories":[{"id":"4bf58dd8d48988d110951735","name":"Salon \/ Barbershop","pluralName":"Salons \/ Barbershops","shortName":"Salon \/ Barbershop","icon":{"prefix":"https:\/\/ss1.4sqi.net\/img\/categories_v2\/shops\/salon_barber_","suffix":".png"},"primary":"true"}],"verified":"false","restricted":"true","stats":{"checkinsCount":"18","usersCount":"7","tipCount":"2"},"specials":{"count":"0"},"hereNow":{"count":"0"},"referralId":"v-1392478018"},{"id":"4b9ff194f964a520764c37e3","name":"Bengal Tiger","location":{"address":"62 - 66 Carter Ln. Blackfriars","lat":"51.513389","lng":"-0.102135","distance":"110","postalCode":"EC4V 5EA","cc":"GB","city":"London","country":"United Kingdom"},"categories":[{"id":"4bf58dd8d48988d10f941735","name":"Indian Restaurant","pluralName":"Indian Restaurants","shortName":"Indian","icon":{"prefix":"https:\/\/ss1.4sqi.net\/img\/categories_v2\/food\/indian_","suffix":".png"},"primary":"true"}],"verified":"false","restricted":"true","stats":{"checkinsCount":"264","usersCount":"206","tipCount":"11"},"url":"http:\/\/www.bengaltiger.org.uk","reservations":{"url":"http:\/\/www.toptable.co.uk\/single.aspx?rid=89779&ref=9601"},"menu":{"type":"Menu","label":"Menu","anchor":"View Menu","url":"https:\/\/foursquare.com\/v\/bengal-tiger\/4b9ff194f964a520764c37e3\/menu","mobileUrl":"https:\/\/foursquare.com\/v\/4b9ff194f964a520764c37e3\/device_menu"},"specials":{"count":"0"},"hereNow":{"count":"0"},"referralId":"v-1392478018"},{"id":"4b964bdbf964a52096c434e3","name":"EAT.","contact":{"phone":"+442076368403","formattedPhone":"+44 20 7636 8403","twitter":"eat_news"},"location":{"address":"25\/27 Ludgate Hill","crossStreet":"Limeburner Lane","lat":"51.513929580057386","lng":"-0.10163330672704546","distance":"90","postalCode":"EC4M 7JR","cc":"GB","city":"London","state":"Greater London","country":"United Kingdom"},"categories":[{"id":"4bf58dd8d48988d1c5941735","name":"Sandwich Place","pluralName":"Sandwich Places","shortName":"Sandwiches","icon":{"prefix":"https:\/\/ss1.4sqi.net\/img\/categories_v2\/food\/sandwiches_","suffix":".png"},"primary":"true"}],"verified":"true","restricted":"true","stats":{"checkinsCount":"186","usersCount":"106","tipCount":"3"},"url":"http:\/\/www.eat.co.uk","menu":{"type":"Menu","label":"Menu","anchor":"View Menu","url":"https:\/\/foursquare.com\/v\/eat\/4b964bdbf964a52096c434e3\/menu","mobileUrl":"https:\/\/foursquare.com\/v\/4b964bdbf964a52096c434e3\/device_menu"},"specials":{"count":"0"},"hereNow":{"count":"0"},"storeId":"EAT - Ludgate Hill 2","referralId":"v-1392478018"}],"confident":"true"}}