{"meta":{"code":"200"},"response":{"venues":[{"id":"4adc2071f964a5208a2b21e3","name":"Hilton London Tower Bridge","contact":{"phone":"+442030024300","formattedPhone":"+44 20 3002 4300","twitter":"hiltonhotels"},"location":{"address":"5 More London Pl","crossStreet":"Tooley St","lat":"51.50465559886706","lng":"-0.08262276649475098","distance":"42","postalCode":"SE1 2BY","cc":"GB","city":"London","state":"Greater London","country":"United Kingdom"},"categories":[{"id":"4bf58dd8d48988d1fa931735","name":"Hotel","pluralName":"Hotels","shortName":"Hotel","icon":{"prefix":"https:\/\/ss1.4sqi.net\/img\/categories_v2\/travel\/hotel_","suffix":".png"},"primary":"true"}],"verified":"true","restricted":"true","stats":{"checkinsCount":"2965","usersCount":"1519","tipCount":"26"},"specials":{"count":"0"},"hereNow":{"count":"1","groups":[{"type":"others","name":"Other people here","count":"1"}]},"storeId":"LONTBHI","referralId":"v-1392478046"},{"id":"4ed4bcab7beb5f8ffac8e762","name":"Velo Vietnamese","contact":{"phone":"+442074079310","formattedPhone":"+44 20 7407 9310","twitter":"velorestaurant"},"location":{"address":"104 Tooley St","crossStreet":"btwn Bermondsey St & Bursar St","lat":"51.50428829775077","lng":"-0.08245110511779785","distance":"24","postalCode":"SE1 2TH","cc":"GB","city":"London","state":"Greater London","country":"United Kingdom"},"categories":[{"id":"4bf58dd8d48988d14a941735","name":"Vietnamese Restaurant","pluralName":"Vietnamese Restaurants","shortName":"Vietnamese","icon":{"prefix":"https:\/\/ss1.4sqi.net\/img\/categories_v2\/food\/default_","suffix":".png"},"primary":"true"}],"verified":"false","restricted":"true","stats":{"checkinsCount":"475","usersCount":"245","tipCount":"12"},"url":"http:\/\/www.velorestaurant.com","reservations":{"url":"http:\/\/www.toptable.co.uk\/single.aspx?rid=99243&ref=9601"},"menu":{"type":"Menu","label":"Menu","anchor":"View Menu","url":"https:\/\/foursquare.com\/v\/velo-vietnamese\/4ed4bcab7beb5f8ffac8e762\/menu","mobileUrl":"https:\/\/foursquare.com\/v\/4ed4bcab7beb5f8ffac8e762\/device_menu"},"specials":{"count":"0"},"hereNow":{"count":"0"},"referralId":"v-1392478046"},{"id":"4eb77e92991165b763431b46","name":"Hot Bikram Yoga","contact":{"twitter":"hotbikramyoga"},"location":{"address":"1A Magdalen St","lat":"51.50400782491458","lng":"-0.0818470450590339","distance":"73","postalCode":"SE1 2EN","cc":"GB","city":"London","state":"Greater London","country":"United Kingdom"},"categories":[{"id":"4bf58dd8d48988d102941735","name":"Yoga Studio","pluralName":"Yoga Studios","shortName":"Yoga Studio","icon":{"prefix":"https:\/\/ss1.4sqi.net\/img\/categories_v2\/shops\/gym_yogastudio_","suffix":".png"},"primary":"true"}],"verified":"false","restricted":"true","stats":{"checkinsCount":"755","usersCount":"132","tipCount":"4"},"url":"http:\/\/hotbikramyoga.co.uk","specials":{"count":"0"},"hereNow":{"count":"1","groups":[{"type":"others","name":"Other people here","count":"1"}]},"referralId":"v-1392478046"},{"id":"4af9a507f964a520d41222e3","name":"The Shipwrights Arms","contact":{"phone":"+442073781486","formattedPhone":"+44 20 7378 1486"},"location":{"address":"88 Tooley St.","crossStreet":"at Bermondsey St.","lat":"51.504711","lng":"-0.083156","distance":"52","postalCode":"SE1 2TF","cc":"GB","city":"London","state":"Greater London","country":"United Kingdom"},"categories":[{"id":"4bf58dd8d48988d11b941735","name":"Pub","pluralName":"Pubs","shortName":"Pub","icon":{"prefix":"https:\/\/ss1.4sqi.net\/img\/categories_v2\/nightlife\/pub_","suffix":".png"},"primary":"true"}],"verified":"false","restricted":"true","stats":{"checkinsCount":"1235","usersCount":"892","tipCount":"14"},"url":"http:\/\/www.shipwrightsarms.co.uk","menu":{"type":"Menu","label":"Menu","anchor":"View Menu","url":"https:\/\/foursquare.com\/v\/the-shipwrights-arms-london-greater-london\/4af9a507f964a520d41222e3\/menu","mobileUrl":"https:\/\/foursquare.com\/v\/4af9a507f964a520d41222e3\/device_menu"},"specials":{"count":"0"},"hereNow":{"count":"0"},"referralId":"v-1392478046"},{"id":"4eb334c2469073bbc531031c","name":"Tesco Metro","contact":{"phone":"+448456757265","formattedPhone":"+44 845 675 7265","twitter":"uktescooffers"},"location":{"address":"125 Tooley St.","lat":"51.504254163860715","lng":"-0.08188369871623681","distance":"63","postalCode":"SE1 2RS","cc":"GB","city":"Borough","state":"Greater London","country":"United Kingdom"},"categories":[{"id":"4bf58dd8d48988d118951735","name":"Grocery Store","pluralName":"Grocery Stores","shortName":"Grocery Store","icon":{"prefix":"https:\/\/ss1.4sqi.net\/img\/categories_v2\/shops\/food_grocery_","suffix":".png"},"primary":"true"}],"verified":"false","restricted":"true","stats":{"checkinsCount":"1815","usersCount":"431","tipCount":"6"},"url":"http:\/\/www.tesco.com","specials":{"count":"0"},"hereNow":{"count":"0"},"referralId":"v-1392478046"},{"id":"4ae2c2c9f964a5206d8f21e3","name":"Suchard Thai Restaurant","contact":{"phone":"+442073576381","formattedPhone":"+44 20 7357 6381"},"location":{"address":"102 Tooley St.","lat":"51.504608","lng":"-0.082651","distance":"37","postalCode":"SE1 2TH","cc":"GB","city":"London","state":"Greater London","country":"United Kingdom"},"categories":[{"id":"4bf58dd8d48988d149941735","name":"Thai Restaurant","pluralName":"Thai Restaurants","shortName":"Thai","icon":{"prefix":"https:\/\/ss1.4sqi.net\/img\/categories_v2\/food\/thai_","suffix":".png"},"primary":"true"}],"verified":"false","restricted":"true","stats":{"checkinsCount":"394","usersCount":"290","tipCount":"8"},"specials":{"count":"0"},"hereNow":{"count":"0"},"referralId":"v-1392478046"},{"id":"4b7e5e4df964a520a2ea2fe3","name":"Caff\u00e8 Nero","contact":{"phone":"+442074079200","formattedPhone":"+44 20 7407 9200"},"location":{"address":"Unit B More London Place","crossStreet":"Tooley St","lat":"51.504735519318196","lng":"-0.08355271947013129","distance":"71","postalCode":"SE1 2DA","cc":"GB","city":"London","state":"Greater London","country":"United Kingdom"},"categories":[{"id":"4bf58dd8d48988d1e0931735","name":"Coffee Shop","pluralName":"Coffee Shops","shortName":"Coffee Shop","icon":{"prefix":"https:\/\/ss1.4sqi.net\/img\/categories_v2\/food\/coffeeshop_","suffix":".png"},"primary":"true"}],"verified":"false","restricted":"true","stats":{"checkinsCount":"1191","usersCount":"673","tipCount":"12"},"url":"http:\/\/www.caffenero.com","specials":{"count":"0"},"hereNow":{"count":"0"},"referralId":"v-1392478046"},{"id":"4d9c0c0d81f6f04df2d281aa","name":"Platform 1","contact":{"phone":"+448457114141","formattedPhone":"+44 845 711 4141"},"location":{"address":"London Bridge Station (LBG)","lat":"51.50460885161667","lng":"-0.08395850658416748","distance":"87","postalCode":"SE1 9SP","cc":"GB","city":"Southwark","state":"Greater London","country":"United Kingdom"},"categories":[{"id":"4f4531504b9074f6e4fb0102","name":"Platform","pluralName":"Platforms","shortName":"Platform","icon":{"prefix":"https:\/\/ss1.4sqi.net\/img\/categories_v2\/travel\/trainstation_","suffix":".png"},"primary":"true"}],"verified":"false","restricted":"true","stats":{"checkinsCount":"2764","usersCount":"775","tipCount":"6"},"specials":{"count":"0"},"hereNow":{"count":"0"},"referralId":"v-1392478046"},{"id":"4c25fa52f7ced13a7e6e256d","name":"Starbucks","contact":{"phone":"+442074070786","formattedPhone":"+44 20 7407 0786","twitter":"starbucksuk"},"location":{"address":"Unit 6, Hays Galleria, Tooley Street","crossStreet":"At Hays Galleria","lat":"51.50532341149335","lng":"-0.08368492126464844","distance":"130","postalCode":"SE1 2HD","cc":"GB","city":"London","state":"Greater London","country":"United Kingdom"},"categories":[{"id":"4bf58dd8d48988d1e0931735","name":"Coffee Shop","pluralName":"Coffee Shops","shortName":"Coffee Shop","icon":{"prefix":"https:\/\/ss1.4sqi.net\/img\/categories_v2\/food\/coffeeshop_","suffix":".png"},"primary":"true"}],"verified":"true","restricted":"true","stats":{"checkinsCount":"1310","usersCount":"630","tipCount":"8"},"url":"http:\/\/starbucks.co.uk","specials":{"count":"0"},"hereNow":{"count":"2","groups":[{"type":"others","name":"Other people here","count":"2"}]},"storeId":"12230","referralId":"v-1392478046"},{"id":"513d96bce4b0ef93687203ea","name":"Harris + Hoole","contact":{"twitter":"handh_tooleyst"},"location":{"address":"125 Tooley St.","lat":"51.5043054120115","lng":"-0.0819798256206743","distance":"57","postalCode":"SE1 2RT","cc":"GB","city":"Bermondsey","state":"Greater London","country":"United Kingdom"},"categories":[{"id":"4bf58dd8d48988d1e0931735","name":"Coffee Shop","pluralName":"Coffee Shops","shortName":"Coffee Shop","icon":{"prefix":"https:\/\/ss1.4sqi.net\/img\/categories_v2\/food\/coffeeshop_","suffix":".png"},"primary":"true"}],"verified":"false","restricted":"true","stats":{"checkinsCount":"392","usersCount":"146","tipCount":"11"},"url":"http:\/\/www.harrisandhoole.co.uk","specials":{"count":"0"},"hereNow":{"count":"0"},"referralId":"v-1392478046"},{"id":"4ad721b4f964a520c70821e3","name":"More London Riverside","location":{"address":"Tooley St.","lat":"51.504628886158415","lng":"-0.08076667785644531","distance":"146","cc":"GB","city":"London","state":"Greater London","country":"United Kingdom"},"categories":[{"id":"4bf58dd8d48988d164941735","name":"Plaza","pluralName":"Plazas","shortName":"Plaza","icon":{"prefix":"https:\/\/ss1.4sqi.net\/img\/categories_v2\/parks_outdoors\/plaza_","suffix":".png"},"primary":"true"}],"verified":"false","restricted":"true","stats":{"checkinsCount":"2051","usersCount":"860","tipCount":"7"},"specials":{"count":"0"},"hereNow":{"count":"0"},"referralId":"v-1392478046"},{"id":"4c8fb1dbb6d1a143cd7fbd0f","name":"Ernst & Young LLP","location":{"address":"1 More London Place","lat":"51.50502404884479","lng":"-0.08177554183911412","distance":"108","postalCode":"SE1 2AF","cc":"GB","city":"Southwark","state":"Greater London","country":"United Kingdom"},"categories":[{"id":"4bf58dd8d48988d124941735","name":"Office","pluralName":"Offices","shortName":"Office","icon":{"prefix":"https:\/\/ss1.4sqi.net\/img\/categories_v2\/building\/default_","suffix":".png"},"primary":"true"}],"verified":"false","restricted":"true","stats":{"checkinsCount":"1792","usersCount":"418","tipCount":"3"},"url":"http:\/\/www.ey.com","specials":{"count":"0"},"hereNow":{"count":"0"},"referralId":"v-1392478046"},{"id":"4d9ebd69a77d816efe48f208","name":"PwC More London","contact":{"phone":"+442075835000","formattedPhone":"+44 20 7583 5000"},"location":{"address":"7 More London Riverside","lat":"51.50462980404535","lng":"-0.08105743324971536","distance":"126","postalCode":"SE1 2RT","cc":"GB","city":"London","state":"Greater London","country":"United Kingdom"},"categories":[{"id":"4bf58dd8d48988d124941735","name":"Office","pluralName":"Offices","shortName":"Office","icon":{"prefix":"https:\/\/ss1.4sqi.net\/img\/categories_v2\/building\/default_","suffix":".png"},"primary":"true"}],"verified":"false","restricted":"true","stats":{"checkinsCount":"2227","usersCount":"363","tipCount":"1"},"specials":{"count":"0"},"hereNow":{"count":"0"},"referralId":"v-1392478046"},{"id":"4d87c33d6daeb60ca0472ee0","name":"Platform 5","contact":{"phone":"+448457114141","formattedPhone":"+44 845 711 4141"},"location":{"address":"London Bridge Station (LBG)","lat":"51.50445525317063","lng":"-0.08439302444458008","distance":"111","postalCode":"SE1 9SP","cc":"GB","city":"Southwark","state":"Greater London","country":"United Kingdom"},"categories":[{"id":"4f4531504b9074f6e4fb0102","name":"Platform","pluralName":"Platforms","shortName":"Platform","icon":{"prefix":"https:\/\/ss1.4sqi.net\/img\/categories_v2\/travel\/trainstation_","suffix":".png"},"primary":"true"}],"verified":"false","restricted":"true","stats":{"checkinsCount":"2937","usersCount":"1313","tipCount":"13"},"specials":{"count":"0"},"hereNow":{"count":"0"},"referralId":"v-1392478046"},{"id":"4f36e716e4b0fc67a8b07d36","name":"The Shad","location":{"address":"96 Tooley St","lat":"51.50463846498788","lng":"-0.08262881064984229","distance":"40","postalCode":"SE1 2TH","cc":"GB","city":"Southwark","state":"Greater London","country":"United Kingdom"},"categories":[{"id":"4bf58dd8d48988d10f941735","name":"Indian Restaurant","pluralName":"Indian Restaurants","shortName":"Indian","icon":{"prefix":"https:\/\/ss1.4sqi.net\/img\/categories_v2\/food\/indian_","suffix":".png"},"primary":"true"}],"verified":"false","restricted":"true","stats":{"checkinsCount":"162","usersCount":"128","tipCount":"5"},"specials":{"count":"0"},"hereNow":{"count":"0"},"referralId":"v-1392478046"},{"id":"4bc5a1644a9aa593daab067b","name":"Marks & Spencer Simply Food","contact":{"phone":"+442073579489","formattedPhone":"+44 20 7357 9489"},"location":{"address":"Unit 6 The More","crossStreet":"6 Tooley St.","lat":"51.505034","lng":"-0.083043","distance":"84","postalCode":"SE1 2SY","cc":"GB","city":"London","state":"Greater London","country":"United Kingdom"},"categories":[{"id":"4bf58dd8d48988d118951735","name":"Grocery Store","pluralName":"Grocery Stores","shortName":"Grocery Store","icon":{"prefix":"https:\/\/ss1.4sqi.net\/img\/categories_v2\/shops\/food_grocery_","suffix":".png"},"primary":"true"}],"verified":"true","restricted":"true","stats":{"checkinsCount":"1046","usersCount":"404","tipCount":"5"},"specials":{"count":"0"},"hereNow":{"count":"0"},"storeId":"The More Simply Food","referralId":"v-1392478046"},{"id":"527ce6f911d2120c4e21b9b4","name":"Leon","location":{"address":"Unit A, 6 More London Place, Tooley St","lat":"51.50493572547981","lng":"-0.08336963124729377","distance":"82","postalCode":"SE1 2DA","cc":"GB","city":"London","state":"Greater London","country":"United Kingdom"},"categories":[{"id":"4bf58dd8d48988d16e941735","name":"Fast Food Restaurant","pluralName":"Fast Food Restaurants","shortName":"Fast Food","icon":{"prefix":"https:\/\/ss1.4sqi.net\/img\/categories_v2\/food\/fastfood_","suffix":".png"},"primary":"true"}],"verified":"false","restricted":"true","stats":{"checkinsCount":"56","usersCount":"42","tipCount":"1"},"specials":{"count":"0"},"hereNow":{"count":"0"},"referralId":"v-1392478046"},{"id":"4c03bdcd39d476b0777530a7","name":"Platform 3","contact":{"phone":"+448457114141","formattedPhone":"+44 845 711 4141"},"location":{"address":"London Bridge Station (LBG)","lat":"51.504545408843036","lng":"-0.08415699005126953","distance":"98","postalCode":"SE1 9SP","cc":"GB","city":"Southwark","state":"Greater London","country":"United Kingdom"},"categories":[{"id":"4f4531504b9074f6e4fb0102","name":"Platform","pluralName":"Platforms","shortName":"Platform","icon":{"prefix":"https:\/\/ss1.4sqi.net\/img\/categories_v2\/travel\/trainstation_","suffix":".png"},"primary":"true"}],"verified":"false","restricted":"true","stats":{"checkinsCount":"1206","usersCount":"289","tipCount":"3"},"specials":{"count":"0"},"hereNow":{"count":"0"},"referralId":"v-1392478046"},{"id":"4d7ff2bd7c956dcbe54dd67b","name":"Platform 6","contact":{"phone":"+448457114141","formattedPhone":"+44 845 711 4141"},"location":{"address":"London Bridge Station (LBG)","lat":"51.5043884710761","lng":"-0.08453249931335449","distance":"120","postalCode":"SE1 9SP","cc":"GB","city":"Southwark","state":"Greater London","country":"United Kingdom"},"categories":[{"id":"4f4531504b9074f6e4fb0102","name":"Platform","pluralName":"Platforms","shortName":"Platform","icon":{"prefix":"https:\/\/ss1.4sqi.net\/img\/categories_v2\/travel\/trainstation_","suffix":".png"},"primary":"true"}],"verified":"false","restricted":"true","stats":{"checkinsCount":"1867","usersCount":"458","tipCount":"6"},"specials":{"count":"0"},"hereNow":{"count":"0"},"referralId":"v-1392478046"},{"id":"4bd71e846f6495213af971ec","name":"Platform 4","contact":{"phone":"+448457114141","formattedPhone":"+44 845 711 4141"},"location":{"address":"London Bridge Station (LBG)","lat":"51.50448196598106","lng":"-0.08423209190368652","distance":"101","postalCode":"SE1 9SP","cc":"GB","city":"Southwark","state":"Greater London","country":"United Kingdom"},"categories":[{"id":"4f4531504b9074f6e4fb0102","name":"Platform","pluralName":"Platforms","shortName":"Platform","icon":{"prefix":"https:\/\/ss1.4sqi.net\/img\/categories_v2\/travel\/trainstation_","suffix":".png"},"primary":"true"}],"verified":"false","restricted":"true","stats":{"checkinsCount":"3409","usersCount":"1244","tipCount":"12"},"specials":{"count":"0"},"hereNow":{"count":"0"},"referralId":"v-1392478046"},{"id":"4e2d23a0aeb745b1fad4d1ac","name":"EAT.","contact":{"phone":"+442076368415","formattedPhone":"+44 20 7636 8415","twitter":"eat_news"},"location":{"address":"6 More London Place","lat":"51.504772318648335","lng":"-0.08279539242573299","distance":"53","postalCode":"SE1 2DA","cc":"GB","city":"London","state":"Greater London","country":"United Kingdom"},"categories":[{"id":"4bf58dd8d48988d1c5941735","name":"Sandwich Place","pluralName":"Sandwich Places","shortName":"Sandwiches","icon":{"prefix":"https:\/\/ss1.4sqi.net\/img\/categories_v2\/food\/sandwiches_","suffix":".png"},"primary":"true"}],"verified":"true","restricted":"true","stats":{"checkinsCount":"325","usersCount":"195","tipCount":"3"},"url":"http:\/\/www.eat.co.uk","specials":{"count":"0"},"hereNow":{"count":"0"},"storeId":"EAT - More London","referralId":"v-1392478046"},{"id":"4bf6e9d7b182c9b6a2bf745a","name":"more Bar And Brasserie","location":{"address":"Tooley St","lat":"51.50477145454921","lng":"-0.08294489181026418","distance":"54","postalCode":"SE1 2","cc":"GB","city":"Camberwell","state":"Greater London","country":"United Kingdom"},"categories":[{"id":"4bf58dd8d48988d116941735","name":"Bar","pluralName":"Bars","shortName":"Bar","icon":{"prefix":"https:\/\/ss1.4sqi.net\/img\/categories_v2\/nightlife\/bar_","suffix":".png"},"primary":"true"}],"verified":"false","restricted":"true","stats":{"checkinsCount":"279","usersCount":"108","tipCount":"1"},"menu":{"type":"Menu","label":"Menu","anchor":"View Menu","url":"https:\/\/foursquare.com\/v\/more-bar-and-brasserie\/4bf6e9d7b182c9b6a2bf745a\/menu","mobileUrl":"https:\/\/foursquare.com\/v\/4bf6e9d7b182c9b6a2bf745a\/device_menu"},"specials":{"count":"0"},"hereNow":{"count":"0"},"referralId":"v-1392478046"},{"id":"4ca768faa6e08cfa2d588494","name":"Platform 2","contact":{"phone":"+448457114141","formattedPhone":"+44 845 711 4141"},"location":{"address":"London Bridge Station (LBG)","lat":"51.504575460694184","lng":"-0.08404433727264404","distance":"91","postalCode":"SE1 9SP","cc":"GB","city":"Southwark","state":"Greater London","country":"United Kingdom"},"categories":[{"id":"4f4531504b9074f6e4fb0102","name":"Platform","pluralName":"Platforms","shortName":"Platform","icon":{"prefix":"https:\/\/ss1.4sqi.net\/img\/categories_v2\/travel\/trainstation_","suffix":".png"},"primary":"true"}],"verified":"false","restricted":"true","stats":{"checkinsCount":"1176","usersCount":"285","tipCount":"2"},"specials":{"count":"0"},"hereNow":{"count":"0"},"referralId":"v-1392478046"},{"id":"4bd72683cfa7b713d1c728da","name":"Platform 11","contact":{"phone":"+448457114141","formattedPhone":"+44 845 711 4141"},"location":{"address":"London Bridge Station (LBG)","lat":"51.5038274976179","lng":"-0.0846397876739502","distance":"137","postalCode":"SE1 9SP","cc":"GB","city":"Southwark","state":"Greater London","country":"United Kingdom"},"categories":[{"id":"4f4531504b9074f6e4fb0102","name":"Platform","pluralName":"Platforms","shortName":"Platform","icon":{"prefix":"https:\/\/ss1.4sqi.net\/img\/categories_v2\/travel\/trainstation_","suffix":".png"},"primary":"true"}],"verified":"false","restricted":"true","stats":{"checkinsCount":"2014","usersCount":"445","tipCount":"3"},"specials":{"count":"0"},"hereNow":{"count":"0"},"referralId":"v-1392478046"},{"id":"4ca65075b7106dcb88cb5ca5","name":"Platform 10","contact":{"phone":"+448457114141","formattedPhone":"+44 845 711 4141"},"location":{"address":"London Bridge Station (LBG)","lat":"51.503997793862","lng":"-0.08490800857543945","distance":"149","postalCode":"SE1 9SP","cc":"GB","city":"Southwark","state":"Greater London","country":"United Kingdom"},"categories":[{"id":"4f4531504b9074f6e4fb0102","name":"Platform","pluralName":"Platforms","shortName":"Platform","icon":{"prefix":"https:\/\/ss1.4sqi.net\/img\/categories_v2\/travel\/trainstation_","suffix":".png"},"primary":"true"}],"verified":"false","restricted":"true","stats":{"checkinsCount":"1688","usersCount":"401","tipCount":"1"},"specials":{"count":"0"},"hereNow":{"count":"0"},"referralId":"v-1392478046"},{"id":"4f05ad04e3002adb767756c2","name":"Costa Coffee","location":{"address":"125 Tooley St.","lat":"51.504269409162376","lng":"-0.08166981452537217","distance":"78","postalCode":"SE1 2RS","cc":"GB","city":"Bermondsey","state":"Greater London","country":"United Kingdom"},"categories":[{"id":"4bf58dd8d48988d1e0931735","name":"Coffee Shop","pluralName":"Coffee Shops","shortName":"Coffee Shop","icon":{"prefix":"https:\/\/ss1.4sqi.net\/img\/categories_v2\/food\/coffeeshop_","suffix":".png"},"primary":"true"}],"verified":"false","restricted":"true","stats":{"checkinsCount":"414","usersCount":"257","tipCount":"4"},"url":"http:\/\/www.costa.co.uk","specials":{"count":"0"},"hereNow":{"count":"0"},"referralId":"v-1392478046"},{"id":"50ca02bf245f2d4aa8c2b124","name":"Takara - Sushi","contact":{"phone":"+442030024300","formattedPhone":"+44 20 3002 4300","twitter":"hiltonhotels"},"location":{"address":"5 More London Place, Tooley Street","crossStreet":"Hilton London Tower Bridge","lat":"51.5047771658274","lng":"-0.08259488506101213","distance":"56","postalCode":"SE1 2BY","cc":"GB","city":"London","country":"United Kingdom"},"categories":[{"id":"4bf58dd8d48988d1d2941735","name":"Sushi Restaurant","pluralName":"Sushi Restaurants","shortName":"Sushi","icon":{"prefix":"https:\/\/ss1.4sqi.net\/img\/categories_v2\/food\/sushi_","suffix":".png"},"primary":"true"}],"verified":"true","restricted":"true","stats":{"checkinsCount":"49","usersCount":"45","tipCount":"2"},"menu":{"type":"Menu","label":"Menu","anchor":"View Menu","url":"https:\/\/foursquare.com\/v\/takara--sushi\/50ca02bf245f2d4aa8c2b124\/menu","mobileUrl":"https:\/\/foursquare.com\/v\/50ca02bf245f2d4aa8c2b124\/device_menu"},"specials":{"count":"0"},"hereNow":{"count":"0"},"storeId":"LONTBHI","referralId":"v-1392478046"},{"id":"4cacb3cf2776b60c6dff530d","name":"Platform 9","contact":{"phone":"+448457114141","formattedPhone":"+44 845 711 4141"},"location":{"address":"London Bridge Station (LBG)","lat":"51.5039543850759","lng":"-0.08470416069030762","distance":"136","postalCode":"SE1 9SP","cc":"GB","city":"Southwark","state":"Greater London","country":"United Kingdom"},"categories":[{"id":"4f4531504b9074f6e4fb0102","name":"Platform","pluralName":"Platforms","shortName":"Platform","icon":{"prefix":"https:\/\/ss1.4sqi.net\/img\/categories_v2\/travel\/trainstation_","suffix":".png"},"primary":"true"}],"verified":"false","restricted":"true","stats":{"checkinsCount":"1129","usersCount":"249","tipCount":"1"},"specials":{"count":"0"},"hereNow":{"count":"0"},"referralId":"v-1392478046"},{"id":"4ac518ebf964a52034ac20e3","name":"Unicorn Theatre","contact":{"phone":"+442076450500","formattedPhone":"+44 20 7645 0500"},"location":{"address":"147 Tooley Street","lat":"51.50407791137695","lng":"-0.080971","distance":"129","postalCode":"SE1 2HZ","cc":"GB","city":"London","state":"Greater London","country":"United Kingdom"},"categories":[{"id":"4bf58dd8d48988d137941735","name":"Theater","pluralName":"Theaters","shortName":"Theater","icon":{"prefix":"https:\/\/ss1.4sqi.net\/img\/categories_v2\/arts_entertainment\/performingarts_theater_","suffix":".png"},"primary":"true"}],"verified":"false","restricted":"true","stats":{"checkinsCount":"315","usersCount":"241","tipCount":"2"},"specials":{"count":"0"},"hereNow":{"count":"1","groups":[{"type":"others","name":"Other people here","count":"1"}]},"referralId":"v-1392478046"},{"id":"4bb2141af964a5200eb73ce3","name":"Platform 8","contact":{"phone":"+448457114141","formattedPhone":"+44 845 711 4141"},"location":{"address":"London Bridge Station (LBG)","lat":"51.504001132997686","lng":"-0.08475780487060547","distance":"139","postalCode":"SE1 9SP","cc":"GB","city":"Southwark","state":"Greater London","country":"United Kingdom"},"categories":[{"id":"4f4531504b9074f6e4fb0102","name":"Platform","pluralName":"Platforms","shortName":"Platform","icon":{"prefix":"https:\/\/ss1.4sqi.net\/img\/categories_v2\/travel\/trainstation_","suffix":".png"},"primary":"true"}],"verified":"false","restricted":"true","stats":{"checkinsCount":"1514","usersCount":"518","tipCount":"4"},"specials":{"count":"0"},"hereNow":{"count":"0"},"referralId":"v-1392478046"}],"confident":"true"}}