{"meta":{"code":"200"},"response":{"venues":[{"id":"4ac518b9f964a520b1a120e3","name":"Planet Hollywood","contact":{"phone":"+442072871000","formattedPhone":"+44 20 7287 1000"},"location":{"address":"St Albans House","crossStreet":"57-60 Haymarket","lat":"51.50907633639145","lng":"-0.13246893882751465","distance":"33","postalCode":"SW1Y 4QX","cc":"GB","city":"London","state":"Greater London","country":"United Kingdom"},"categories":[{"id":"4bf58dd8d48988d147941735","name":"Diner","pluralName":"Diners","shortName":"Diner","icon":{"prefix":"https:\/\/ss1.4sqi.net\/img\/categories_v2\/food\/diner_","suffix":".png"},"primary":"true"}],"verified":"false","restricted":"true","stats":{"checkinsCount":"2502","usersCount":"2198","tipCount":"39"},"url":"http:\/\/www.planethollywoodlondon.com","reservations":{"url":"http:\/\/www.toptable.co.uk\/single.aspx?rid=77944&ref=9601"},"menu":{"type":"Menu","label":"Menu","anchor":"View Menu","url":"https:\/\/foursquare.com\/v\/planet-hollywood-london-greater-london\/4ac518b9f964a520b1a120e3\/menu","mobileUrl":"https:\/\/foursquare.com\/v\/4ac518b9f964a520b1a120e3\/device_menu"},"specials":{"count":"0"},"hereNow":{"count":"3","groups":[{"type":"others","name":"Other people here","count":"3"}]},"referralId":"v-1392478028"},{"id":"4bb8b9d3314e9521e2ad489d","name":"Cool Britannia","contact":{"phone":"+442078397200","formattedPhone":"+44 20 7839 7200"},"location":{"address":"225-229 Piccadilly","lat":"51.50967730988437","lng":"-0.13374567031860352","distance":"78","postalCode":"W1J 9HR","cc":"GB","city":"London","state":"Greater London","country":"United Kingdom"},"categories":[{"id":"52f2ab2ebcbc57f1066b8b1b","name":"Souvenir Shop","pluralName":"Souvenir Shops","shortName":"Souvenir Shop","icon":{"prefix":"https:\/\/ss1.4sqi.net\/img\/categories_v2\/shops\/default_","suffix":".png"},"primary":"true"}],"verified":"false","restricted":"true","stats":{"checkinsCount":"1941","usersCount":"1691","tipCount":"18"},"specials":{"count":"0"},"hereNow":{"count":"1","groups":[{"type":"others","name":"Other people here","count":"1"}]},"referralId":"v-1392478028"},{"id":"4ac518bbf964a52045a220e3","name":"Tiger Tiger","contact":{"phone":"+442079301885","formattedPhone":"+44 20 7930 1885"},"location":{"address":"29 The Haymarket","lat":"51.50962389033935","lng":"-0.13260841369628906","distance":"39","postalCode":"SW1Y 4SP","cc":"GB","city":"London","state":"Greater London","country":"United Kingdom"},"categories":[{"id":"4bf58dd8d48988d11f941735","name":"Nightclub","pluralName":"Nightclubs","shortName":"Nightclub","icon":{"prefix":"https:\/\/ss1.4sqi.net\/img\/categories_v2\/nightlife\/nightclub_","suffix":".png"},"primary":"true"}],"verified":"true","restricted":"true","stats":{"checkinsCount":"4131","usersCount":"3191","tipCount":"56"},"url":"http:\/\/www.tigertiger-london.co.uk","reservations":{"url":"http:\/\/www.toptable.co.uk\/single.aspx?rid=54475&ref=9601"},"menu":{"type":"Menu","label":"Menu","anchor":"View Menu","url":"https:\/\/foursquare.com\/v\/tiger-tiger\/4ac518bbf964a52045a220e3\/menu","mobileUrl":"https:\/\/foursquare.com\/v\/4ac518bbf964a52045a220e3\/device_menu"},"specials":{"count":"0"},"hereNow":{"count":"0"},"storeId":"","referralId":"v-1392478028"},{"id":"4addf4d4f964a520bb6621e3","name":"Caff\u00e8 Nero","contact":{"phone":"+442079309901","formattedPhone":"+44 20 7930 9901","twitter":"_caffenero"},"location":{"address":"27 Haymarket","crossStreet":"Piccadilly Circus","lat":"51.50949959939432","lng":"-0.13255143675428357","distance":"29","postalCode":"SW1 4EN","cc":"GB","city":"London","state":"Greater London","country":"United Kingdom"},"categories":[{"id":"4bf58dd8d48988d1e0931735","name":"Coffee Shop","pluralName":"Coffee Shops","shortName":"Coffee Shop","icon":{"prefix":"https:\/\/ss1.4sqi.net\/img\/categories_v2\/food\/coffeeshop_","suffix":".png"},"primary":"true"}],"verified":"false","restricted":"true","stats":{"checkinsCount":"1466","usersCount":"889","tipCount":"10"},"url":"http:\/\/www.caffenero.com","menu":{"type":"Menu","label":"Menu","anchor":"View Menu","url":"https:\/\/foursquare.com\/v\/caff%C3%A8-nero\/4addf4d4f964a520bb6621e3\/menu","mobileUrl":"https:\/\/foursquare.com\/v\/4addf4d4f964a520bb6621e3\/device_menu"},"specials":{"count":"0"},"hereNow":{"count":"0"},"referralId":"v-1392478028"},{"id":"4adaddb1f964a520382421e3","name":"Cineworld","contact":{"phone":"+448712002000","formattedPhone":"+44 871 200 2000"},"location":{"address":"63-65 Haymarket","lat":"51.5088","lng":"-0.1324","distance":"61","postalCode":"SW1Y 4RL","cc":"GB","city":"London","state":"Greater London","country":"United Kingdom"},"categories":[{"id":"4bf58dd8d48988d17f941735","name":"Movie Theater","pluralName":"Movie Theaters","shortName":"Movie Theater","icon":{"prefix":"https:\/\/ss1.4sqi.net\/img\/categories_v2\/arts_entertainment\/movietheater_","suffix":".png"},"primary":"true"}],"verified":"true","restricted":"true","stats":{"checkinsCount":"3305","usersCount":"1381","tipCount":"22"},"url":"http:\/\/www.cineworld.co.uk\/cinemas\/32","specials":{"count":"0"},"events":{"count":"4","summary":"4 movies"},"hereNow":{"count":"1","groups":[{"type":"others","name":"Other people here","count":"1"}]},"storeId":"","referralId":"v-1392478028"},{"id":"4b58dd13f964a5207c6f28e3","name":"PizzaExpress","contact":{"phone":"+442079308044","formattedPhone":"+44 20 7930 8044","twitter":"pizzaexpress"},"location":{"address":"26 Panton House","lat":"51.50928945","lng":"-0.132361507","distance":"30","postalCode":"SW1Y 4EN","cc":"GB","city":"Haymarket","state":"Greater London","country":"United Kingdom"},"categories":[{"id":"4bf58dd8d48988d1ca941735","name":"Pizza Place","pluralName":"Pizza Places","shortName":"Pizza","icon":{"prefix":"https:\/\/ss1.4sqi.net\/img\/categories_v2\/food\/pizza_","suffix":".png"},"primary":"true"}],"verified":"true","restricted":"true","stats":{"checkinsCount":"848","usersCount":"734","tipCount":"9"},"url":"http:\/\/www.pizzaexpress.com","menu":{"type":"Menu","label":"Menu","anchor":"View Menu","url":"https:\/\/foursquare.com\/v\/pizzaexpress\/4b58dd13f964a5207c6f28e3\/menu","mobileUrl":"https:\/\/foursquare.com\/v\/4b58dd13f964a5207c6f28e3\/device_menu"},"specials":{"count":"0"},"hereNow":{"count":"0"},"storeId":"","referralId":"v-1392478028"},{"id":"4ac518e7f964a52042ab20e3","name":"Harold Pinter Theatre","contact":{"phone":"+448448717627","formattedPhone":"+44 844 871 7627"},"location":{"address":"6 Panton St","lat":"51.509434527992724","lng":"-0.13159843800183316","distance":"85","postalCode":"SW1Y 4DN","cc":"GB","city":"City of Westminster","state":"Greater London","country":"United Kingdom"},"categories":[{"id":"4bf58dd8d48988d137941735","name":"Theater","pluralName":"Theaters","shortName":"Theater","icon":{"prefix":"https:\/\/ss1.4sqi.net\/img\/categories_v2\/arts_entertainment\/performingarts_theater_","suffix":".png"},"primary":"true"}],"verified":"true","restricted":"true","stats":{"checkinsCount":"1954","usersCount":"1605","tipCount":"25"},"specials":{"count":"0"},"hereNow":{"count":"0"},"referralId":"v-1392478028"},{"id":"4b8ff4fdf964a5201c6c33e3","name":"Angus Steakhouse","contact":{"phone":"+442078391059","formattedPhone":"+44 20 7839 1059","twitter":"steakhouseangus"},"location":{"address":"21 Coventry St.","lat":"51.51001952735879","lng":"-0.13304293155670166","distance":"83","postalCode":"W1D 7AE","cc":"GB","city":"London","state":"Greater London","country":"United Kingdom"},"categories":[{"id":"4bf58dd8d48988d1cc941735","name":"Steakhouse","pluralName":"Steakhouses","shortName":"Steakhouse","icon":{"prefix":"https:\/\/ss1.4sqi.net\/img\/categories_v2\/food\/steakhouse_","suffix":".png"},"primary":"true"}],"verified":"false","restricted":"true","stats":{"checkinsCount":"2017","usersCount":"1869","tipCount":"54"},"url":"http:\/\/www.angussteakhouse.co.uk","menu":{"type":"Menu","label":"Menu","anchor":"View Menu","url":"https:\/\/foursquare.com\/v\/angus-steakhouse\/4b8ff4fdf964a5201c6c33e3\/menu","mobileUrl":"https:\/\/foursquare.com\/v\/4b8ff4fdf964a5201c6c33e3\/device_menu"},"specials":{"count":"0"},"hereNow":{"count":"1","groups":[{"type":"others","name":"Other people here","count":"1"}]},"referralId":"v-1392478028"},{"id":"4ac518e7f964a5204bab20e3","name":"Her Majesty's Theatre","contact":{"phone":"+448444122707","formattedPhone":"+44 844 412 2707","twitter":"theoperaghosts"},"location":{"address":"Haymarket","lat":"51.50839186636942","lng":"-0.13184049883004306","distance":"120","postalCode":"SW1Y 4QL","cc":"GB","city":"London","state":"Greater London","country":"United Kingdom"},"categories":[{"id":"4bf58dd8d48988d137941735","name":"Theater","pluralName":"Theaters","shortName":"Theater","icon":{"prefix":"https:\/\/ss1.4sqi.net\/img\/categories_v2\/arts_entertainment\/performingarts_theater_","suffix":".png"},"primary":"true"}],"verified":"true","restricted":"true","stats":{"checkinsCount":"5148","usersCount":"4330","tipCount":"56"},"url":"http:\/\/www.thephantomoftheopera.com","specials":{"count":"0"},"hereNow":{"count":"0"},"storeId":"","referralId":"v-1392478028"},{"id":"4bad16def964a520792c3be3","name":"Prince of Wales Theatre","contact":{"phone":"+448444825115","formattedPhone":"+44 844 482 5115"},"location":{"address":"31 Coventry St","lat":"51.51013805086036","lng":"-0.1319485902786255","distance":"111","postalCode":"W1D 6AS","cc":"GB","city":"London","state":"Greater London","country":"United Kingdom"},"categories":[{"id":"4bf58dd8d48988d137941735","name":"Theater","pluralName":"Theaters","shortName":"Theater","icon":{"prefix":"https:\/\/ss1.4sqi.net\/img\/categories_v2\/arts_entertainment\/performingarts_theater_","suffix":".png"},"primary":"true"}],"verified":"false","restricted":"true","stats":{"checkinsCount":"4748","usersCount":"4177","tipCount":"60"},"url":"http:\/\/www.princeofwalestheatrelondon.info","specials":{"count":"0"},"hereNow":{"count":"0"},"referralId":"v-1392478028"},{"id":"4c4316b8af052d7ffbd47f79","name":"Angus Steakhouse","contact":{"phone":"+442079308544","formattedPhone":"+44 20 7930 8544"},"location":{"address":"24 Haymarket","lat":"51.509223","lng":"-0.132217","distance":"41","postalCode":"SW1Y 4DG","cc":"GB","city":"London","state":"Greater London","country":"United Kingdom"},"categories":[{"id":"4bf58dd8d48988d1cc941735","name":"Steakhouse","pluralName":"Steakhouses","shortName":"Steakhouse","icon":{"prefix":"https:\/\/ss1.4sqi.net\/img\/categories_v2\/food\/steakhouse_","suffix":".png"},"primary":"true"}],"verified":"false","restricted":"true","stats":{"checkinsCount":"461","usersCount":"432","tipCount":"11"},"url":"http:\/\/www.angussteakhouse.co.uk","specials":{"count":"0"},"hereNow":{"count":"0"},"referralId":"v-1392478028"},{"id":"4c111929ce640f4714fc3a52","name":"TGI Friday's","contact":{"phone":"+442078396262","formattedPhone":"+44 20 7839 6262","twitter":"tgifridaysuk"},"location":{"address":"25 Coventry St","lat":"51.51023376209381","lng":"-0.13253813427823286","distance":"106","postalCode":"W1D 7AG","cc":"GB","city":"London","state":"Greater London","country":"United Kingdom"},"categories":[{"id":"4bf58dd8d48988d14e941735","name":"American Restaurant","pluralName":"American Restaurants","shortName":"American","icon":{"prefix":"https:\/\/ss1.4sqi.net\/img\/categories_v2\/food\/default_","suffix":".png"},"primary":"true"}],"verified":"false","restricted":"true","stats":{"checkinsCount":"5107","usersCount":"4063","tipCount":"64"},"url":"http:\/\/www.tgifridays.co.uk","menu":{"type":"Menu","label":"Menu","anchor":"View Menu","url":"https:\/\/foursquare.com\/v\/tgi-fridays\/4c111929ce640f4714fc3a52\/menu","mobileUrl":"https:\/\/foursquare.com\/v\/4c111929ce640f4714fc3a52\/device_menu"},"specials":{"count":"0"},"hereNow":{"count":"2","groups":[{"type":"others","name":"Other people here","count":"2"}]},"referralId":"v-1392478028"},{"id":"4ba26e43f964a52059f837e3","name":"Incisive Media","location":{"address":"28-29 Haymarket","lat":"51.5094538051648","lng":"-0.13228172537148264","distance":"40","postalCode":"4RX","cc":"GB","city":"London","country":"United Kingdom"},"categories":[{"id":"4bf58dd8d48988d124941735","name":"Office","pluralName":"Offices","shortName":"Office","icon":{"prefix":"https:\/\/ss1.4sqi.net\/img\/categories_v2\/building\/default_","suffix":".png"},"primary":"true"}],"verified":"false","restricted":"true","stats":{"checkinsCount":"531","usersCount":"33","tipCount":"4"},"specials":{"count":"0"},"hereNow":{"count":"0"},"referralId":"v-1392478028"},{"id":"5203d814498e17fa3fcdb1bc","name":"The Book Of Mormon","location":{"address":"Prince of Wales Theatre","lat":"51.510068674095315","lng":"-0.13187115356151402","distance":"108","postalCode":"W1D 6AS","cc":"GB","city":"London","state":"Greater London","country":"United Kingdom"},"categories":[{"id":"4bf58dd8d48988d137941735","name":"Theater","pluralName":"Theaters","shortName":"Theater","icon":{"prefix":"https:\/\/ss1.4sqi.net\/img\/categories_v2\/arts_entertainment\/performingarts_theater_","suffix":".png"},"primary":"true"}],"verified":"false","restricted":"true","stats":{"checkinsCount":"334","usersCount":"320","tipCount":"9"},"url":"http:\/\/www.princeofwalestheatrelondon.info","specials":{"count":"0"},"hereNow":{"count":"5","groups":[{"type":"others","name":"Other people here","count":"5"}]},"referralId":"v-1392478028"},{"id":"4b5f56c8f964a520e5b429e3","name":"YO! Sushi","contact":{"phone":"+442079307557","formattedPhone":"+44 20 7930 7557","twitter":"yosushi"},"location":{"address":"St Albans House, 57 Haymarket","lat":"51.5090534353621","lng":"-0.1322108745216651","distance":"48","postalCode":"SW1Y 4QX","cc":"GB","city":"City of Westminster","state":"Greater London","country":"United Kingdom"},"categories":[{"id":"4bf58dd8d48988d1d2941735","name":"Sushi Restaurant","pluralName":"Sushi Restaurants","shortName":"Sushi","icon":{"prefix":"https:\/\/ss1.4sqi.net\/img\/categories_v2\/food\/sushi_","suffix":".png"},"primary":"true"}],"verified":"true","restricted":"true","stats":{"checkinsCount":"944","usersCount":"693","tipCount":"14"},"url":"http:\/\/www.yosushi.com","menu":{"type":"Menu","label":"Menu","anchor":"View Menu","url":"https:\/\/foursquare.com\/v\/yo-sushi\/4b5f56c8f964a520e5b429e3\/menu","mobileUrl":"https:\/\/foursquare.com\/v\/4b5f56c8f964a520e5b429e3\/device_menu"},"specials":{"count":"0"},"hereNow":{"count":"0"},"storeId":"PICC","referralId":"v-1392478028"},{"id":"4d9ff9351ef7594157b9ec0f","name":"Byron","contact":{"phone":"+442079252555","formattedPhone":"+44 20 7925 2555","twitter":"byronhamburgers"},"location":{"address":"11 Haymarket","lat":"51.50873031072812","lng":"-0.1320548434510173","distance":"80","postalCode":"SW1Y 4BP","cc":"GB","city":"London","state":"Greater London","country":"United Kingdom"},"categories":[{"id":"4bf58dd8d48988d16c941735","name":"Burger Joint","pluralName":"Burger Joints","shortName":"Burgers","icon":{"prefix":"https:\/\/ss1.4sqi.net\/img\/categories_v2\/food\/burger_","suffix":".png"},"primary":"true"}],"verified":"true","restricted":"true","stats":{"checkinsCount":"1620","usersCount":"1225","tipCount":"25"},"url":"http:\/\/www.byronhamburgers.com","specials":{"count":"0"},"hereNow":{"count":"0"},"storeId":"","referralId":"v-1392478028"},{"id":"4ac518f2f964a52095ae20e3","name":"Lillywhites","contact":{"phone":"+448443325602","formattedPhone":"+44 844 332 5602"},"location":{"address":"24 Regent St","crossStreet":"Piccadilly Circus","lat":"51.50949034120275","lng":"-0.13428211212158203","distance":"104","postalCode":"SW1Y 4ST","cc":"GB","city":"London","state":"Greater London","country":"United Kingdom"},"categories":[{"id":"4bf58dd8d48988d1f2941735","name":"Sporting Goods Shop","pluralName":"Sporting Goods Shops","shortName":"Sporting Goods","icon":{"prefix":"https:\/\/ss1.4sqi.net\/img\/categories_v2\/shops\/sports_outdoors_","suffix":".png"},"primary":"true"}],"verified":"false","restricted":"true","stats":{"checkinsCount":"3447","usersCount":"2544","tipCount":"37"},"specials":{"count":"0"},"hereNow":{"count":"0"},"referralId":"v-1392478028"},{"id":"4be5a482cf200f47ff79133c","name":"Starbucks","contact":{"phone":"+442077349716","formattedPhone":"+44 20 7734 9716","twitter":"starbucksuk"},"location":{"address":"Unit 28, The Trocadero Centre","crossStreet":"At Piccadilly Circus","lat":"51.51024488868204","lng":"-0.1328122615814209","distance":"106","postalCode":"W1D 7DH","cc":"GB","city":"London","state":"Greater London","country":"United Kingdom"},"categories":[{"id":"4bf58dd8d48988d1e0931735","name":"Coffee Shop","pluralName":"Coffee Shops","shortName":"Coffee Shop","icon":{"prefix":"https:\/\/ss1.4sqi.net\/img\/categories_v2\/food\/coffeeshop_","suffix":".png"},"primary":"true"}],"verified":"true","restricted":"true","stats":{"checkinsCount":"3050","usersCount":"2180","tipCount":"9"},"url":"http:\/\/starbucks.co.uk","specials":{"count":"0"},"hereNow":{"count":"0"},"storeId":"12219","referralId":"v-1392478028"},{"id":"4ac518ecf964a52083ac20e3","name":"London Trocadero","contact":{"phone":"+442074391719","formattedPhone":"+44 20 7439 1719","twitter":"londontrocadero"},"location":{"address":"7-14 Coventry St","lat":"51.51025919980599","lng":"-0.1327799727414911","distance":"108","postalCode":"W1D 7DH","cc":"GB","city":"London","state":"Greater London","country":"United Kingdom"},"categories":[{"id":"4bf58dd8d48988d1fd941735","name":"Mall","pluralName":"Malls","shortName":"Mall","icon":{"prefix":"https:\/\/ss1.4sqi.net\/img\/categories_v2\/shops\/mall_","suffix":".png"},"primary":"true"}],"verified":"false","restricted":"true","stats":{"checkinsCount":"4549","usersCount":"3158","tipCount":"47"},"url":"http:\/\/www.londontrocadero.com","specials":{"count":"0"},"hereNow":{"count":"0"},"referralId":"v-1392478028"},{"id":"4bb222a3f964a52002bc3ce3","name":"LA Fitness","contact":{"twitter":"lafitnessuk_hq","facebook":"150920678262379"},"location":{"address":"Regent St.","lat":"51.508475354971175","lng":"-0.1334238052368164","distance":"100","cc":"GB","city":"London","state":"Greater London","country":"United Kingdom"},"categories":[{"id":"4bf58dd8d48988d176941735","name":"Gym","pluralName":"Gyms","shortName":"Gym","icon":{"prefix":"https:\/\/ss1.4sqi.net\/img\/categories_v2\/building\/gym_","suffix":".png"},"primary":"true"}],"verified":"true","restricted":"true","stats":{"checkinsCount":"1375","usersCount":"179","tipCount":"3"},"reservations":{"url":"http:\/\/www.toptable.co.uk\/single.aspx?rid=76444&ref=9601"},"specials":{"count":"0"},"hereNow":{"count":"1","groups":[{"type":"others","name":"Other people here","count":"1"}]},"referralId":"v-1392478028"},{"id":"4adce812f964a5206a6221e3","name":"The Comedy Store","contact":{"phone":"+442079302949","formattedPhone":"+44 20 7930 2949"},"location":{"address":"1A Oxendon St.","crossStreet":"at Coventry St.","lat":"51.51010800267787","lng":"-0.13235092163085938","distance":"96","postalCode":"SW1Y 4EE","cc":"GB","city":"London","state":"Greater London","country":"United Kingdom"},"categories":[{"id":"4bf58dd8d48988d18e941735","name":"Comedy Club","pluralName":"Comedy Clubs","shortName":"Comedy Club","icon":{"prefix":"https:\/\/ss1.4sqi.net\/img\/categories_v2\/arts_entertainment\/comedyclub_","suffix":".png"},"primary":"true"}],"verified":"false","restricted":"true","stats":{"checkinsCount":"1663","usersCount":"1384","tipCount":"27"},"specials":{"count":"0"},"hereNow":{"count":"0"},"referralId":"v-1392478028"},{"id":"4b98b921f964a520f94c35e3","name":"Caffe Concerto","contact":{"phone":"+448443358403","formattedPhone":"+44 844 335 8403"},"location":{"address":"45 Haymarket","lat":"51.50989098743811","lng":"-0.13316631317138672","distance":"71","postalCode":"SW1Y 4SE","cc":"GB","city":"London","state":"Greater London","country":"United Kingdom"},"categories":[{"id":"4bf58dd8d48988d16d941735","name":"Caf\u00e9","pluralName":"Caf\u00e9s","shortName":"Caf\u00e9","icon":{"prefix":"https:\/\/ss1.4sqi.net\/img\/categories_v2\/food\/cafe_","suffix":".png"},"primary":"true"}],"verified":"false","restricted":"true","stats":{"checkinsCount":"588","usersCount":"538","tipCount":"12"},"specials":{"count":"0"},"hereNow":{"count":"0"},"referralId":"v-1392478028"},{"id":"4e14b0e9183884325109fc5a","name":"Inamo","contact":{"phone":"+442074840500","formattedPhone":"+44 20 7484 0500","facebook":"124552777569587"},"location":{"address":"4-12 Regent St.","lat":"51.508598","lng":"-0.133629","distance":"95","postalCode":"SW1Y 4PE","cc":"GB","city":"London","state":"Greater London","country":"United Kingdom"},"categories":[{"id":"4bf58dd8d48988d111941735","name":"Japanese Restaurant","pluralName":"Japanese Restaurants","shortName":"Japanese","icon":{"prefix":"https:\/\/ss1.4sqi.net\/img\/categories_v2\/food\/japanese_","suffix":".png"},"primary":"true"}],"verified":"true","restricted":"true","stats":{"checkinsCount":"1493","usersCount":"1296","tipCount":"49"},"url":"http:\/\/www.inamo-stjames.com","reservations":{"url":"http:\/\/www.toptable.co.uk\/single.aspx?rid=80794&ref=9601"},"menu":{"type":"Menu","label":"Menu","anchor":"View Menu","url":"https:\/\/foursquare.com\/v\/inamo\/4e14b0e9183884325109fc5a\/menu","mobileUrl":"https:\/\/foursquare.com\/v\/4e14b0e9183884325109fc5a\/device_menu"},"specials":{"count":"0"},"hereNow":{"count":"0"},"storeId":"","referralId":"v-1392478028"},{"id":"4b50e196f964a520ba3627e3","name":"The Comedy Pub","contact":{"phone":"+442078397261","formattedPhone":"+44 20 7839 7261"},"location":{"address":"7 Oxendon St.","lat":"51.509849489487024","lng":"-0.13187597422426825","distance":"89","postalCode":"SW1Y 4EE","cc":"GB","city":"London","state":"Greater London","country":"United Kingdom"},"categories":[{"id":"4bf58dd8d48988d11b941735","name":"Pub","pluralName":"Pubs","shortName":"Pub","icon":{"prefix":"https:\/\/ss1.4sqi.net\/img\/categories_v2\/nightlife\/pub_","suffix":".png"},"primary":"true"}],"verified":"false","restricted":"true","stats":{"checkinsCount":"1458","usersCount":"1084","tipCount":"16"},"specials":{"count":"0"},"hereNow":{"count":"0"},"referralId":"v-1392478028"},{"id":"4ba37f06f964a520174238e3","name":"Pret A Manger","contact":{"phone":"+442079325246","formattedPhone":"+44 20 7932 5246","twitter":"pret","facebook":"162638680417951"},"location":{"address":"52 Haymarket","crossStreet":"St. James's Market","lat":"51.5093352111","lng":"-0.132749044755","distance":"6","postalCode":"SW1Y 4RP","cc":"GB","city":"London","state":"Greater London","country":"United Kingdom"},"categories":[{"id":"4bf58dd8d48988d1c5941735","name":"Sandwich Place","pluralName":"Sandwich Places","shortName":"Sandwiches","icon":{"prefix":"https:\/\/ss1.4sqi.net\/img\/categories_v2\/food\/sandwiches_","suffix":".png"},"primary":"true"}],"verified":"true","restricted":"true","stats":{"checkinsCount":"655","usersCount":"362","tipCount":"12"},"url":"http:\/\/www.pret.com","specials":{"count":"0"},"hereNow":{"count":"0"},"storeId":"46","referralId":"v-1392478028"},{"id":"5093fabde4b0f94e03b4bf27","name":"Yori","location":{"address":"6 Panton Street","lat":"51.5094","lng":"-0.1321","distance":"50","postalCode":"SW1 4DK","cc":"GB","city":"London","state":"Greater London","country":"United Kingdom"},"categories":[{"id":"4bf58dd8d48988d113941735","name":"Korean Restaurant","pluralName":"Korean Restaurants","shortName":"Korean","icon":{"prefix":"https:\/\/ss1.4sqi.net\/img\/categories_v2\/food\/korean_","suffix":".png"},"primary":"true"}],"verified":"false","restricted":"true","stats":{"checkinsCount":"111","usersCount":"84","tipCount":"5"},"specials":{"count":"0"},"hereNow":{"count":"0"},"referralId":"v-1392478028"},{"id":"4b0196b8f964a520aa4322e3","name":"Tom Cribb","contact":{"phone":"+442078393801","formattedPhone":"+44 20 7839 3801","facebook":"8029823489"},"location":{"address":"36 Panton St","lat":"51.50962722906274","lng":"-0.13177692890167236","distance":"80","postalCode":"SW1Y 4EA","cc":"GB","city":"London","state":"Greater London","country":"United Kingdom"},"categories":[{"id":"4bf58dd8d48988d11b941735","name":"Pub","pluralName":"Pubs","shortName":"Pub","icon":{"prefix":"https:\/\/ss1.4sqi.net\/img\/categories_v2\/nightlife\/pub_","suffix":".png"},"primary":"true"}],"verified":"true","restricted":"true","stats":{"checkinsCount":"912","usersCount":"633","tipCount":"9"},"url":"http:\/\/www.tomcribblondon.co.uk","menu":{"type":"Menu","label":"Menu","anchor":"View Menu","url":"https:\/\/foursquare.com\/v\/tom-cribb\/4b0196b8f964a520aa4322e3\/menu","mobileUrl":"https:\/\/foursquare.com\/v\/4b0196b8f964a520aa4322e3\/device_menu"},"specials":{"count":"0"},"hereNow":{"count":"0"},"storeId":"","referralId":"v-1392478028"},{"id":"50b4ef2f21c684eec9250f42","name":"Pizza Hut","contact":{"phone":"+442078395041","formattedPhone":"+44 20 7839 5041","twitter":"pizzahutuk"},"location":{"address":"53-54 Haymarket","crossStreet":"Coventry Street","lat":"51.50938680088598","lng":"-0.1325570814271","distance":"20","postalCode":"SW1Y 4RP","cc":"GB","city":"Haymarket","state":"Greater London","country":"United Kingdom"},"categories":[{"id":"4bf58dd8d48988d1ca941735","name":"Pizza Place","pluralName":"Pizza Places","shortName":"Pizza","icon":{"prefix":"https:\/\/ss1.4sqi.net\/img\/categories_v2\/food\/pizza_","suffix":".png"},"primary":"true"}],"verified":"true","restricted":"true","stats":{"checkinsCount":"429","usersCount":"403","tipCount":"5"},"specials":{"count":"0"},"hereNow":{"count":"0"},"storeId":"121","referralId":"v-1392478028"},{"id":"4cda944022bd721e533df047","name":"Costa Coffee","location":{"address":"15 Regent Street","crossStreet":"Jermyn St","lat":"51.508764109816006","lng":"-0.13377084632394054","distance":"88","postalCode":"SW1Y 4LR","cc":"GB","city":"London","state":"Greater London","country":"United Kingdom"},"categories":[{"id":"4bf58dd8d48988d1e0931735","name":"Coffee Shop","pluralName":"Coffee Shops","shortName":"Coffee Shop","icon":{"prefix":"https:\/\/ss1.4sqi.net\/img\/categories_v2\/food\/coffeeshop_","suffix":".png"},"primary":"true"}],"verified":"false","restricted":"true","stats":{"checkinsCount":"877","usersCount":"610","tipCount":"10"},"specials":{"count":"0"},"hereNow":{"count":"0"},"referralId":"v-1392478028"},{"id":"51f64880498ec5b1418b244e","name":"Chop Shop","contact":{"phone":"+442078428501","formattedPhone":"+44 20 7842 8501"},"location":{"address":"66-68 Haymarket","lat":"51.50867399240191","lng":"-0.13195073534758964","distance":"90","postalCode":"SW1Y 4RF","cc":"GB","city":"London","state":"Greater London","country":"United Kingdom"},"categories":[{"id":"4bf58dd8d48988d1c4941735","name":"Restaurant","pluralName":"Restaurants","shortName":"Restaurant","icon":{"prefix":"https:\/\/ss1.4sqi.net\/img\/categories_v2\/food\/default_","suffix":".png"},"primary":"true"}],"verified":"false","restricted":"true","stats":{"checkinsCount":"169","usersCount":"132","tipCount":"8"},"reservations":{"url":"http:\/\/www.toptable.co.uk\/single.aspx?rid=97761&ref=9601"},"specials":{"count":"0"},"hereNow":{"count":"0"},"referralId":"v-1392478028"}],"confident":"true"}}