{"meta":{"code":"200"},"response":{"venues":[{"id":"52b1b3bf498e60c552bcc15b","name":"Louis Freedman Centre For Wellbeing","location":{"lat":"51.534394","lng":"-0.077805","distance":"11","cc":"GB","country":"United Kingdom"},"categories":[{"id":"4bf58dd8d48988d196941735","name":"Hospital","pluralName":"Hospitals","shortName":"Hospital","icon":{"prefix":"https:\/\/ss1.4sqi.net\/img\/categories_v2\/building\/medical_hospital_","suffix":".png"},"primary":"true"}],"verified":"false","restricted":"true","stats":{"checkinsCount":"2","usersCount":"2","tipCount":"0"},"specials":{"count":"0"},"hereNow":{"count":"0"},"referralId":"v-1392477968"},{"id":"4aef53f7f964a52099d721e3","name":"TfL Bus 242","location":{"address":"Moving Target!","lat":"51.53469747848435","lng":"-0.076904296875","distance":"77","cc":"GB","city":"London","state":"Greater London","country":"United Kingdom"},"categories":[{"id":"4bf58dd8d48988d12b951735","name":"Bus Line","pluralName":"Bus Lines","shortName":"Bus","icon":{"prefix":"https:\/\/ss1.4sqi.net\/img\/categories_v2\/travel\/busstation_","suffix":".png"},"primary":"true"}],"verified":"false","restricted":"true","stats":{"checkinsCount":"887","usersCount":"262","tipCount":"7"},"specials":{"count":"0"},"hereNow":{"count":"0"},"referralId":"v-1392477968"},{"id":"4e84c382722ef6246ab20c98","name":"Hong Kong","contact":{"phone":"+442077392208","formattedPhone":"+44 20 7739 2208"},"location":{"address":"200 Hoxton Street","lat":"51.533148154841484","lng":"-0.07832156077426249","distance":"131","postalCode":"N1 5LH","cc":"GB","city":"London","state":"Greater London","country":"United Kingdom"},"categories":[{"id":"4bf58dd8d48988d145941735","name":"Chinese Restaurant","pluralName":"Chinese Restaurants","shortName":"Chinese","icon":{"prefix":"https:\/\/ss1.4sqi.net\/img\/categories_v2\/food\/chinese_","suffix":".png"},"primary":"true"}],"verified":"false","restricted":"true","stats":{"checkinsCount":"137","usersCount":"7","tipCount":"1"},"specials":{"count":"0"},"hereNow":{"count":"1","groups":[{"type":"others","name":"Other people here","count":"1"}]},"referralId":"v-1392477968"},{"id":"4c40b8db520fa593ab82c8ac","name":"Suleymaniye Mosque London","contact":{"phone":"+442076849900","formattedPhone":"+44 20 7684 9900"},"location":{"address":"212-216 Kingsland Rd.","crossStreet":"Shoreditch","lat":"51.53386790305432","lng":"-0.07690932548572799","distance":"77","postalCode":"E2 8AX","cc":"GB","city":"London","state":"Greater London","country":"United Kingdom"},"categories":[{"id":"4bf58dd8d48988d138941735","name":"Mosque","pluralName":"Mosques","shortName":"Mosque","icon":{"prefix":"https:\/\/ss1.4sqi.net\/img\/categories_v2\/building\/religious_mosque_","suffix":".png"},"primary":"true"}],"verified":"false","restricted":"true","stats":{"checkinsCount":"516","usersCount":"119","tipCount":"4"},"url":"http:\/\/www.suleymaniye.org","specials":{"count":"0"},"hereNow":{"count":"0"},"referralId":"v-1392477968"},{"id":"4d8d1384c1826a31cda47ae2","name":"Papa John's","contact":{"phone":"+442077490707","formattedPhone":"+44 20 7749 0707"},"location":{"address":"202 Hoxton St","lat":"51.53319947459482","lng":"-0.07822979747076246","distance":"124","postalCode":"N1 5LH","cc":"GB","city":"London","state":"Greater London","country":"United Kingdom"},"categories":[{"id":"4bf58dd8d48988d1ca941735","name":"Pizza Place","pluralName":"Pizza Places","shortName":"Pizza","icon":{"prefix":"https:\/\/ss1.4sqi.net\/img\/categories_v2\/food\/pizza_","suffix":".png"},"primary":"true"}],"verified":"false","restricted":"true","stats":{"checkinsCount":"253","usersCount":"20","tipCount":"0"},"specials":{"count":"0"},"hereNow":{"count":"0"},"referralId":"v-1392477968"},{"id":"50bf7aabe4b07ff471a7254f","name":"Translations & Consultancy Bureau","location":{"lat":"51.533168586379055","lng":"-0.07812072609653666","distance":"126","cc":"GB","city":"London","state":"Greater London","country":"United Kingdom"},"categories":[{"id":"4bf58dd8d48988d124941735","name":"Office","pluralName":"Offices","shortName":"Office","icon":{"prefix":"https:\/\/ss1.4sqi.net\/img\/categories_v2\/building\/default_","suffix":".png"},"primary":"true"}],"verified":"false","restricted":"true","stats":{"checkinsCount":"322","usersCount":"2","tipCount":"0"},"specials":{"count":"0"},"hereNow":{"count":"0"},"referralId":"v-1392477968"},{"id":"4bcd8ee068f976b0b0606483","name":"Iceland","contact":{"phone":"+442076135157","formattedPhone":"+44 20 7613 5157","twitter":"icelandfoods"},"location":{"address":"209\/223 Hoxton St.","crossStreet":"at Purcell St.","lat":"51.533163623677524","lng":"-0.07821831626188742","distance":"128","postalCode":"N1 5LX","cc":"GB","city":"Shoreditch","state":"Greater London","country":"United Kingdom"},"categories":[{"id":"4bf58dd8d48988d118951735","name":"Grocery Store","pluralName":"Grocery Stores","shortName":"Grocery Store","icon":{"prefix":"https:\/\/ss1.4sqi.net\/img\/categories_v2\/shops\/food_grocery_","suffix":".png"},"primary":"true"}],"verified":"false","restricted":"true","stats":{"checkinsCount":"411","usersCount":"47","tipCount":"1"},"url":"http:\/\/www.iceland.co.uk","specials":{"count":"0"},"hereNow":{"count":"0"},"referralId":"v-1392477968"},{"id":"4bb4f7c7b1edef3b27612cdd","name":"Shoreditch Stables","location":{"address":"138 kingsland road","lat":"51.53315853478552","lng":"-0.0782239992940198","distance":"129","postalCode":"E2","cc":"GB","city":"Hackney","state":"Greater London","country":"United Kingdom"},"categories":[{"id":"4eb1baf03b7b2c5b1d4306ca","name":"Stables","pluralName":"Stables","shortName":"Stables","icon":{"prefix":"https:\/\/ss1.4sqi.net\/img\/categories_v2\/parks_outdoors\/stable_","suffix":".png"},"primary":"true"}],"verified":"false","restricted":"true","stats":{"checkinsCount":"780","usersCount":"56","tipCount":"1"},"specials":{"count":"0"},"hereNow":{"count":"0"},"referralId":"v-1392477968"},{"id":"505ca041e4b0474d87e3f201","name":"Chalet Cafe","contact":{"phone":"+442077294028","formattedPhone":"+44 20 7729 4028"},"location":{"address":"Kingsland Road","lat":"51.53455082593165","lng":"-0.07709690180191864","distance":"56","cc":"GB","city":"London","state":"Greater London","country":"United Kingdom"},"categories":[{"id":"4bf58dd8d48988d16d941735","name":"Caf\u00e9","pluralName":"Caf\u00e9s","shortName":"Caf\u00e9","icon":{"prefix":"https:\/\/ss1.4sqi.net\/img\/categories_v2\/food\/cafe_","suffix":".png"},"primary":"true"}],"verified":"false","restricted":"true","stats":{"checkinsCount":"93","usersCount":"39","tipCount":"3"},"specials":{"count":"0"},"hereNow":{"count":"0"},"referralId":"v-1392477968"},{"id":"501e50d7e4b05e0d95fdf076","name":"Rockalilly Cuts","contact":{"phone":"+442036323113","formattedPhone":"+44 20 3632 3113"},"location":{"address":"205A Kingsland Rd","lat":"51.53355461174217","lng":"-0.07700004593201763","distance":"98","postalCode":"E2 8AN","cc":"GB","city":"London","state":"Greater London","country":"United Kingdom"},"categories":[{"id":"4bf58dd8d48988d110951735","name":"Salon \/ Barbershop","pluralName":"Salons \/ Barbershops","shortName":"Salon \/ Barbershop","icon":{"prefix":"https:\/\/ss1.4sqi.net\/img\/categories_v2\/shops\/salon_barber_","suffix":".png"},"primary":"true"}],"verified":"false","restricted":"true","stats":{"checkinsCount":"40","usersCount":"24","tipCount":"1"},"url":"http:\/\/www.rockalily.com","specials":{"count":"0"},"hereNow":{"count":"0"},"referralId":"v-1392477968"},{"id":"4c07c37c708c2d7fb96eca63","name":"Hoxton Community Garden","location":{"address":"196 Hoxton Street","lat":"51.533153017596895","lng":"-0.07832128696738318","distance":"131","cc":"GB","city":"Hackney","state":"Greater London","country":"United Kingdom"},"categories":[{"id":"4bf58dd8d48988d163941735","name":"Park","pluralName":"Parks","shortName":"Park","icon":{"prefix":"https:\/\/ss1.4sqi.net\/img\/categories_v2\/parks_outdoors\/park_","suffix":".png"},"primary":"true"}],"verified":"false","restricted":"true","stats":{"checkinsCount":"267","usersCount":"19","tipCount":"0"},"specials":{"count":"0"},"hereNow":{"count":"0"},"referralId":"v-1392477968"},{"id":"50f0565be4b034020b6e21ea","name":"Angel Shopping Centre","location":{"lat":"51.53434245309917","lng":"-0.07805740727582239","distance":"18","cc":"GB","city":"London","state":"Greater London","country":"United Kingdom"},"categories":[{"id":"4bf58dd8d48988d1fd941735","name":"Mall","pluralName":"Malls","shortName":"Mall","icon":{"prefix":"https:\/\/ss1.4sqi.net\/img\/categories_v2\/shops\/mall_","suffix":".png"},"primary":"true"}],"verified":"false","restricted":"true","stats":{"checkinsCount":"2","usersCount":"2","tipCount":"0"},"specials":{"count":"0"},"hereNow":{"count":"0"},"referralId":"v-1392477968"},{"id":"4e27e046d22d848a145d6af6","name":"The Lawson Practice","contact":{"phone":"+448443878755","formattedPhone":"+44 844 387 8755"},"location":{"address":"85 Nuttall St.","lat":"51.53366616860213","lng":"-0.07905235459690893","distance":"110","postalCode":"N1 5HZ","cc":"GB","city":"Hackney","state":"Greater London","country":"United Kingdom"},"categories":[{"id":"4bf58dd8d48988d177941735","name":"Doctor's Office","pluralName":"Doctor's Offices","shortName":"Doctor's Office","icon":{"prefix":"https:\/\/ss1.4sqi.net\/img\/categories_v2\/building\/medical_doctorsoffice_","suffix":".png"},"primary":"true"}],"verified":"false","restricted":"true","stats":{"checkinsCount":"95","usersCount":"32","tipCount":"1"},"specials":{"count":"0"},"hereNow":{"count":"0"},"referralId":"v-1392477968"},{"id":"4c02465b9a7920a18938ce79","name":"mOrganics Cafe","location":{"address":"Kingsland Road","lat":"51.534711","lng":"-0.076939","distance":"76","cc":"GB","city":"Hackney","state":"Greater London","country":"United Kingdom"},"categories":[{"id":"4bf58dd8d48988d118951735","name":"Grocery Store","pluralName":"Grocery Stores","shortName":"Grocery Store","icon":{"prefix":"https:\/\/ss1.4sqi.net\/img\/categories_v2\/shops\/food_grocery_","suffix":".png"},"primary":"true"}],"verified":"false","restricted":"true","stats":{"checkinsCount":"166","usersCount":"73","tipCount":"3"},"specials":{"count":"0"},"hereNow":{"count":"0"},"referralId":"v-1392477968"},{"id":"52e10732498e54e7615c34f6","name":"The Ivy Centre","location":{"address":"St. Leonards Hospital","crossStreet":"Nuttall Street","lat":"51.533606","lng":"-0.077789","distance":"76","postalCode":"N1 5LZ","cc":"GB","city":"London","state":"Greater London","country":"United Kingdom"},"categories":[{"id":"4bf58dd8d48988d104941735","name":"Medical Center","pluralName":"Medical Centers","shortName":"Medical","icon":{"prefix":"https:\/\/ss1.4sqi.net\/img\/categories_v2\/building\/medical_","suffix":".png"},"primary":"true"}],"verified":"false","restricted":"true","stats":{"checkinsCount":"1","usersCount":"1","tipCount":"0"},"specials":{"count":"0"},"hereNow":{"count":"0"},"referralId":"v-1392477968"},{"id":"52f55993498ef5b04de092d8","name":"Salt Lime","location":{"address":"363 How Street","lat":"51.534166","lng":"-0.076376","distance":"99","cc":"GB","country":"United Kingdom"},"categories":[{"id":"4bf58dd8d48988d1d4941735","name":"Speakeasy","pluralName":"Speakeasies","shortName":"Speakeasy","icon":{"prefix":"https:\/\/ss1.4sqi.net\/img\/categories_v2\/nightlife\/secretbar_","suffix":".png"},"primary":"true"}],"verified":"false","restricted":"true","stats":{"checkinsCount":"1","usersCount":"1","tipCount":"0"},"specials":{"count":"0"},"hereNow":{"count":"0"},"referralId":"v-1392477968"},{"id":"50eaf224e4b0dfcb22e2ca42","name":"Hoxton Bowling Alley","location":{"lat":"51.533117499518085","lng":"-0.07804018556290604","distance":"131","cc":"GB","city":"London","state":"Greater London","country":"United Kingdom"},"categories":[{"id":"4bf58dd8d48988d1e4931735","name":"Bowling Alley","pluralName":"Bowling Alleys","shortName":"Bowling Alley","icon":{"prefix":"https:\/\/ss1.4sqi.net\/img\/categories_v2\/arts_entertainment\/bowling_","suffix":".png"},"primary":"true"}],"verified":"false","restricted":"true","stats":{"checkinsCount":"16","usersCount":"13","tipCount":"0"},"specials":{"count":"0"},"hereNow":{"count":"0"},"referralId":"v-1392477968"},{"id":"51f636b1498ea92410782068","name":"Bus Stop KC","location":{"lat":"51.534043","lng":"-0.077132","distance":"53","cc":"GB","country":"United Kingdom"},"categories":[{"id":"4bf58dd8d48988d12b951735","name":"Bus Line","pluralName":"Bus Lines","shortName":"Bus","icon":{"prefix":"https:\/\/ss1.4sqi.net\/img\/categories_v2\/travel\/busstation_","suffix":".png"},"primary":"true"}],"verified":"false","restricted":"true","stats":{"checkinsCount":"2","usersCount":"1","tipCount":"0"},"specials":{"count":"0"},"hereNow":{"count":"0"},"referralId":"v-1392477968"},{"id":"50607f19e4b0f9bbcd072bf2","name":"Pharmacy","location":{"address":"Hoxton Street","lat":"51.53319423283178","lng":"-0.07847094680225895","distance":"130","cc":"GB","city":"London","state":"Greater London","country":"United Kingdom"},"categories":[{"id":"4bf58dd8d48988d10f951735","name":"Drugstore \/ Pharmacy","pluralName":"Drugstores \/ Pharmacies","shortName":"Pharmacy","icon":{"prefix":"https:\/\/ss1.4sqi.net\/img\/categories_v2\/shops\/pharmacy_","suffix":".png"},"primary":"true"}],"verified":"false","restricted":"true","stats":{"checkinsCount":"10","usersCount":"4","tipCount":"0"},"specials":{"count":"0"},"hereNow":{"count":"0"},"referralId":"v-1392477968"},{"id":"4c69341b3bad2d7ff229afee","name":"The stars Barber","location":{"address":"Hackney, London N1 5LG","lat":"51.53313770188732","lng":"-0.07854541616625127","distance":"138","postalCode":"N1 5LG","cc":"GB","city":"London","state":"Greater London","country":"United Kingdom"},"categories":[{"id":"4bf58dd8d48988d110951735","name":"Salon \/ Barbershop","pluralName":"Salons \/ Barbershops","shortName":"Salon \/ Barbershop","icon":{"prefix":"https:\/\/ss1.4sqi.net\/img\/categories_v2\/shops\/salon_barber_","suffix":".png"},"primary":"true"}],"verified":"false","restricted":"true","stats":{"checkinsCount":"20","usersCount":"5","tipCount":"0"},"specials":{"count":"0"},"hereNow":{"count":"0"},"referralId":"v-1392477968"},{"id":"50a00ef8e4b0388825f5a5d7","name":"Dunkin Donuts","location":{"lat":"51.53314313084173","lng":"-0.0781034037274778","distance":"129","cc":"GB","city":"London","state":"Greater London","country":"United Kingdom"},"categories":[{"id":"4bf58dd8d48988d148941735","name":"Donut Shop","pluralName":"Donut Shops","shortName":"Donuts","icon":{"prefix":"https:\/\/ss1.4sqi.net\/img\/categories_v2\/food\/donuts_","suffix":".png"},"primary":"true"}],"verified":"false","restricted":"true","stats":{"checkinsCount":"10","usersCount":"3","tipCount":"0"},"specials":{"count":"0"},"hereNow":{"count":"0"},"referralId":"v-1392477968"},{"id":"50e2df4fe4b083ca87be3c8c","name":"East London College","location":{"lat":"51.53322497944088","lng":"-0.07821801403203495","distance":"121","cc":"GB","city":"London","state":"Greater London","country":"United Kingdom"},"categories":[{"id":"4bf58dd8d48988d1b6941735","name":"College Track","pluralName":"College Tracks","shortName":"Track","icon":{"prefix":"https:\/\/ss1.4sqi.net\/img\/categories_v2\/education\/stadium_track_","suffix":".png"},"primary":"true"}],"verified":"false","restricted":"true","stats":{"checkinsCount":"39","usersCount":"6","tipCount":"0"},"specials":{"count":"0"},"hereNow":{"count":"0"},"referralId":"v-1392477968"},{"id":"50b62d7ae4b04cf99bf2cfb8","name":"Vegetarian Market","location":{"lat":"51.53385","lng":"-0.077081","distance":"69","cc":"GB","city":"London","state":"Greater London","country":"United Kingdom"},"categories":[{"id":"4bf58dd8d48988d1fa941735","name":"Farmers Market","pluralName":"Farmers Markets","shortName":"Farmer's Market","icon":{"prefix":"https:\/\/ss1.4sqi.net\/img\/categories_v2\/shops\/food_farmersmarket_","suffix":".png"},"primary":"true"}],"verified":"false","restricted":"true","stats":{"checkinsCount":"2","usersCount":"2","tipCount":"0"},"specials":{"count":"0"},"hereNow":{"count":"0"},"referralId":"v-1392477968"},{"id":"50e9013fe4b064546fc03593","name":"Yellow Room","location":{"lat":"51.534483","lng":"-0.076857","distance":"68","cc":"GB","country":"United Kingdom"},"categories":[{"id":"4bf58dd8d48988d116941735","name":"Bar","pluralName":"Bars","shortName":"Bar","icon":{"prefix":"https:\/\/ss1.4sqi.net\/img\/categories_v2\/nightlife\/bar_","suffix":".png"},"primary":"true"}],"verified":"false","restricted":"true","stats":{"checkinsCount":"4","usersCount":"4","tipCount":"0"},"specials":{"count":"0"},"hereNow":{"count":"0"},"referralId":"v-1392477968"},{"id":"515ef5fce4b00b6014e0587c","name":"Whitemore Estate, Shoreditch","location":{"lat":"51.53459548950195","lng":"-0.07690569758415222","distance":"70","cc":"GB","country":"United Kingdom"},"categories":[{"id":"4d954b06a243a5684965b473","name":"Residential Building (Apartment \/ Condo)","pluralName":"Residential Buildings (Apartments \/ Condos)","shortName":"Residential","icon":{"prefix":"https:\/\/ss1.4sqi.net\/img\/categories_v2\/building\/apartment_","suffix":".png"},"primary":"true"}],"verified":"false","restricted":"true","stats":{"checkinsCount":"2","usersCount":"2","tipCount":"0"},"specials":{"count":"0"},"hereNow":{"count":"0"},"referralId":"v-1392477968"},{"id":"4eadc8a2dab4a75e0a3ef975","name":"Bus Stop KM","location":{"lat":"51.533813","lng":"-0.077023","distance":"75","cc":"GB","city":"Hackney","state":"Greater London","country":"United Kingdom"},"categories":[{"id":"4bf58dd8d48988d12b951735","name":"Bus Line","pluralName":"Bus Lines","shortName":"Bus","icon":{"prefix":"https:\/\/ss1.4sqi.net\/img\/categories_v2\/travel\/busstation_","suffix":".png"},"primary":"true"}],"verified":"false","restricted":"true","stats":{"checkinsCount":"5","usersCount":"5","tipCount":"0"},"specials":{"count":"0"},"hereNow":{"count":"0"},"referralId":"v-1392477968"},{"id":"512bae34e4b0ce667505dd65","name":"Baris Cafe","location":{"lat":"51.533785","lng":"-0.077114","distance":"73","cc":"GB","city":"London","state":"Greater London","country":"United Kingdom"},"categories":[{"id":"4bf58dd8d48988d1c0941735","name":"Mediterranean Restaurant","pluralName":"Mediterranean Restaurants","shortName":"Mediterranean","icon":{"prefix":"https:\/\/ss1.4sqi.net\/img\/categories_v2\/food\/mediterranean_","suffix":".png"},"primary":"true"}],"verified":"false","restricted":"true","stats":{"checkinsCount":"1","usersCount":"1","tipCount":"0"},"specials":{"count":"0"},"hereNow":{"count":"0"},"referralId":"v-1392477968"},{"id":"50db79eae4b08a4c1f87f0b5","name":"Eros","location":{"address":"Pearson Street","lat":"51.53314317655798","lng":"-0.07803451678380825","distance":"128","cc":"GB","city":"London","state":"Greater London","country":"United Kingdom"},"categories":[{"id":"4bf58dd8d48988d1ed941735","name":"Spa","pluralName":"Spas","shortName":"Spa","icon":{"prefix":"https:\/\/ss1.4sqi.net\/img\/categories_v2\/shops\/spa_","suffix":".png"},"primary":"true"}],"verified":"false","restricted":"true","stats":{"checkinsCount":"4","usersCount":"4","tipCount":"0"},"specials":{"count":"0"},"hereNow":{"count":"0"},"referralId":"v-1392477968"},{"id":"4d94a7ba3048b1f7b0103664","name":"Muss Hair Studio","location":{"address":"233 Kingsland Road","lat":"51.53365215568501","lng":"-0.07705429209538879","distance":"87","postalCode":"E2 8AN","cc":"GB","city":"Hackney","state":"Greater London","country":"United Kingdom"},"categories":[{"id":"4bf58dd8d48988d110951735","name":"Salon \/ Barbershop","pluralName":"Salons \/ Barbershops","shortName":"Salon \/ Barbershop","icon":{"prefix":"https:\/\/ss1.4sqi.net\/img\/categories_v2\/shops\/salon_barber_","suffix":".png"},"primary":"true"}],"verified":"false","restricted":"true","stats":{"checkinsCount":"10","usersCount":"5","tipCount":"0"},"specials":{"count":"0"},"hereNow":{"count":"0"},"referralId":"v-1392477968"},{"id":"50fc1650e4b0aa46b8ba38df","name":"Ply Spa","location":{"lat":"51.53391929888334","lng":"-0.07684262697310316","distance":"78","cc":"GB","city":"London","state":"Greater London","country":"United Kingdom"},"categories":[{"id":"4bf58dd8d48988d1ed941735","name":"Spa","pluralName":"Spas","shortName":"Spa","icon":{"prefix":"https:\/\/ss1.4sqi.net\/img\/categories_v2\/shops\/spa_","suffix":".png"},"primary":"true"}],"verified":"false","restricted":"true","stats":{"checkinsCount":"3","usersCount":"3","tipCount":"0"},"specials":{"count":"0"},"hereNow":{"count":"0"},"referralId":"v-1392477968"}],"confident":"true"}}