{"meta":{"code":"200"},"response":{"venues":[{"id":"4ad85d94f964a520161121e3","name":"The Eagle","contact":{"phone":"+442072500507","formattedPhone":"+44 20 7250 0507"},"location":{"address":"2 Shepherdess Walk","crossStreet":"at City Road","lat":"51.52848632389523","lng":"-0.09207980968388037","distance":"102","postalCode":"N1 7LB","cc":"GB","city":"London","state":"Greater London","country":"United Kingdom"},"categories":[{"id":"4bf58dd8d48988d11b941735","name":"Pub","pluralName":"Pubs","shortName":"Pub","icon":{"prefix":"https:\/\/ss1.4sqi.net\/img\/categories_v2\/nightlife\/pub_","suffix":".png"},"primary":"true"}],"verified":"false","restricted":"true","stats":{"checkinsCount":"2656","usersCount":"1281","tipCount":"41"},"url":"http:\/\/theeaglehoxton.co.uk","menu":{"type":"Menu","label":"Menu","anchor":"View Menu","url":"https:\/\/foursquare.com\/v\/the-eagle\/4ad85d94f964a520161121e3\/menu","mobileUrl":"https:\/\/foursquare.com\/v\/4ad85d94f964a520161121e3\/device_menu"},"specials":{"count":"0"},"hereNow":{"count":"0"},"referralId":"v-1392477980"},{"id":"4b0c11f5f964a5206c3623e3","name":"BSG (UK) at 230 City Rd","contact":{"phone":"+442034166400","formattedPhone":"+44 20 3416 6400","twitter":"bsguk"},"location":{"address":"230 City Road","lat":"51.52850379721947","lng":"-0.09334087371826172","distance":"95","postalCode":"EC1V2TT","cc":"GB","city":"London","state":"Greater London","country":"United Kingdom"},"categories":[{"id":"4bf58dd8d48988d125941735","name":"Tech Startup","pluralName":"Tech Startups","shortName":"Tech Startup","icon":{"prefix":"https:\/\/ss1.4sqi.net\/img\/categories_v2\/shops\/technology_","suffix":".png"},"primary":"true"}],"verified":"true","restricted":"true","stats":{"checkinsCount":"734","usersCount":"66","tipCount":"2"},"url":"http:\/\/www.bsgdelivers.com","specials":{"count":"0"},"hereNow":{"count":"0"},"venuePage":{"id":"36139716"},"storeId":"003","referralId":"v-1392477980"},{"id":"4b484a24f964a5202d4b26e3","name":"La Lampara Sandwich Shop","contact":{"phone":"+442074900019","formattedPhone":"+44 20 7490 0019"},"location":{"address":"216 City Road","lat":"51.52859377449329","lng":"-0.09264816587448023","distance":"78","postalCode":"EC1V 2PN","cc":"GB","city":"London","state":"Greater London","country":"United Kingdom"},"categories":[{"id":"4bf58dd8d48988d1c5941735","name":"Sandwich Place","pluralName":"Sandwich Places","shortName":"Sandwiches","icon":{"prefix":"https:\/\/ss1.4sqi.net\/img\/categories_v2\/food\/sandwiches_","suffix":".png"},"primary":"true"}],"verified":"false","restricted":"true","stats":{"checkinsCount":"209","usersCount":"31","tipCount":"1"},"specials":{"count":"0"},"hereNow":{"count":"0"},"referralId":"v-1392477980"},{"id":"4cc09af467a3b1f74481c30e","name":"East Bloc","contact":{"twitter":"eastbloc1"},"location":{"address":"217 City Rd","lat":"51.5282146509399","lng":"-0.09167766859700795","distance":"142","postalCode":"EC1V 1JN","cc":"GB","city":"Shoreditch","state":"Greater London","country":"United Kingdom"},"categories":[{"id":"4bf58dd8d48988d1d8941735","name":"Gay Bar","pluralName":"Gay Bars","shortName":"Gay Bar","icon":{"prefix":"https:\/\/ss1.4sqi.net\/img\/categories_v2\/nightlife\/gaybar_","suffix":".png"},"primary":"true"}],"verified":"false","restricted":"true","stats":{"checkinsCount":"559","usersCount":"320","tipCount":"4"},"url":"http:\/\/www.eastbloc.co.uk","specials":{"count":"0"},"hereNow":{"count":"1","groups":[{"type":"others","name":"Other people here","count":"1"}]},"referralId":"v-1392477980"},{"id":"4b4b89c1f964a5208a9f26e3","name":"William IV Pub","contact":{"phone":"+442031193012","formattedPhone":"+44 20 3119 3012"},"location":{"address":"7 Sheperdess Walk","lat":"51.5303499465718","lng":"-0.09230951128658678","distance":"122","postalCode":"N1 7QE","cc":"GB","city":"London","state":"Greater London","country":"United Kingdom"},"categories":[{"id":"4bf58dd8d48988d155941735","name":"Gastropub","pluralName":"Gastropubs","shortName":"Gastropub","icon":{"prefix":"https:\/\/ss1.4sqi.net\/img\/categories_v2\/food\/gastropub_","suffix":".png"},"primary":"true"}],"verified":"false","restricted":"true","stats":{"checkinsCount":"809","usersCount":"437","tipCount":"22"},"reservations":{"url":"http:\/\/www.toptable.co.uk\/single.aspx?rid=59950&ref=9601"},"menu":{"type":"Menu","label":"Menu","anchor":"View Menu","url":"https:\/\/foursquare.com\/v\/william-iv-pub\/4b4b89c1f964a5208a9f26e3\/menu","mobileUrl":"https:\/\/foursquare.com\/v\/4b4b89c1f964a5208a9f26e3\/device_menu"},"specials":{"count":"0"},"hereNow":{"count":"0"},"referralId":"v-1392477980"},{"id":"5003dcfce4b066e96fdc45e1","name":"Advanced 365","location":{"address":"230 City Road","lat":"51.52860355361409","lng":"-0.09298172969327216","distance":"77","postalCode":"Ec1v 2tt","cc":"GB","city":"London","state":"Greater London","country":"United Kingdom"},"categories":[{"id":"4bf58dd8d48988d124941735","name":"Office","pluralName":"Offices","shortName":"Office","icon":{"prefix":"https:\/\/ss1.4sqi.net\/img\/categories_v2\/building\/default_","suffix":".png"},"primary":"true"}],"verified":"false","restricted":"true","stats":{"checkinsCount":"203","usersCount":"24","tipCount":"0"},"specials":{"count":"0"},"hereNow":{"count":"0"},"referralId":"v-1392477980"},{"id":"4acee315f964a52004d220e3","name":"The Shepherdess","contact":{"phone":"+442072532463","formattedPhone":"+44 20 7253 2463"},"location":{"address":"221 City Rd","crossStreet":"Shepherdess Walk","lat":"51.52831","lng":"-0.091709","distance":"132","postalCode":"EC1V 1JN","cc":"GB","city":"London","state":"Greater London","country":"United Kingdom"},"categories":[{"id":"4bf58dd8d48988d143941735","name":"Breakfast Spot","pluralName":"Breakfast Spots","shortName":"Breakfast","icon":{"prefix":"https:\/\/ss1.4sqi.net\/img\/categories_v2\/food\/breakfast_","suffix":".png"},"primary":"true"}],"verified":"false","restricted":"true","stats":{"checkinsCount":"1274","usersCount":"332","tipCount":"12"},"specials":{"count":"0"},"hereNow":{"count":"0"},"referralId":"v-1392477980"},{"id":"4f91734de4b0ff5a518e78a2","name":"Decoded","contact":{"twitter":"decodedco"},"location":{"address":"20 Underwood Row","lat":"51.52954898064604","lng":"-0.0922671297442868","distance":"47","cc":"GB","city":"London","state":"Greater London","country":"United Kingdom"},"categories":[{"id":"4bf58dd8d48988d1a0941735","name":"College Classroom","pluralName":"College Classrooms","shortName":"Classroom","icon":{"prefix":"https:\/\/ss1.4sqi.net\/img\/categories_v2\/education\/classroom_","suffix":".png"},"primary":"true"}],"verified":"false","restricted":"true","stats":{"checkinsCount":"157","usersCount":"89","tipCount":"1"},"specials":{"count":"0"},"hereNow":{"count":"0"},"referralId":"v-1392477980"},{"id":"4bc6d29ab387d13a5765c2e8","name":"The Royal Star","contact":{"phone":"+442072537323","formattedPhone":"+44 20 7253 7323","twitter":"royalstarlondon"},"location":{"address":"220 City Rd","lat":"51.528475509518195","lng":"-0.09262491079517822","distance":"91","postalCode":"EC1V 2PN","cc":"GB","city":"Islington","state":"Greater London","country":"United Kingdom"},"categories":[{"id":"4bf58dd8d48988d11b941735","name":"Pub","pluralName":"Pubs","shortName":"Pub","icon":{"prefix":"https:\/\/ss1.4sqi.net\/img\/categories_v2\/nightlife\/pub_","suffix":".png"},"primary":"true"}],"verified":"true","restricted":"true","stats":{"checkinsCount":"431","usersCount":"188","tipCount":"12"},"url":"http:\/\/theroyalstar.co.uk","reservations":{"url":"http:\/\/www.toptable.co.uk\/single.aspx?rid=93717&ref=9601"},"specials":{"count":"0"},"hereNow":{"count":"0"},"venuePage":{"id":"45456147"},"storeId":"","referralId":"v-1392477980"},{"id":"52fa9cd011d2e4544b183095","name":"Bus Stop Q","location":{"lat":"51.529265620981384","lng":"-0.09349488625703671","distance":"47","cc":"GB","country":"United Kingdom"},"categories":[{"id":"4bf58dd8d48988d12b951735","name":"Bus Line","pluralName":"Bus Lines","shortName":"Bus","icon":{"prefix":"https:\/\/ss1.4sqi.net\/img\/categories_v2\/travel\/busstation_","suffix":".png"},"primary":"true"}],"verified":"false","restricted":"true","stats":{"checkinsCount":"1","usersCount":"1","tipCount":"0"},"specials":{"count":"0"},"hereNow":{"count":"0"},"referralId":"v-1392477980"},{"id":"4f2a70dbe4b0035923dcf548","name":"1 Shepherdess Walk","location":{"lat":"51.52964652916612","lng":"-0.092577428736545","distance":"42","cc":"GB","country":"United Kingdom"},"verified":"false","restricted":"true","stats":{"checkinsCount":"41","usersCount":"15","tipCount":"0"},"specials":{"count":"0"},"hereNow":{"count":"0"},"referralId":"v-1392477980"},{"id":"4b3b3e75f964a520c57125e3","name":"Shoreditch Police Station","contact":{"phone":"+442072531212","formattedPhone":"+44 20 7253 1212"},"location":{"address":"4-6 Shepherdess Walk","lat":"51.528535","lng":"-0.09197831153869629","distance":"101","postalCode":"N1 7LF","cc":"GB","city":"Hackney","state":"Greater London","country":"United Kingdom"},"categories":[{"id":"4bf58dd8d48988d12e941735","name":"Police Station","pluralName":"Police Stations","shortName":"Police Station","icon":{"prefix":"https:\/\/ss1.4sqi.net\/img\/categories_v2\/building\/government_policestation_","suffix":".png"},"primary":"true"}],"verified":"false","restricted":"true","stats":{"checkinsCount":"111","usersCount":"71","tipCount":"1"},"specials":{"count":"0"},"hereNow":{"count":"0"},"referralId":"v-1392477980"},{"id":"51042c65e4b05d0d30b866cb","name":"Banya No.1","location":{"address":"17 Micawber Street","lat":"51.52994788736618","lng":"-0.09453659962990561","distance":"140","postalCode":"N9 8NF","cc":"GB","city":"London","state":"Greater London","country":"United Kingdom"},"categories":[{"id":"4bf58dd8d48988d1ed941735","name":"Spa","pluralName":"Spas","shortName":"Spa","icon":{"prefix":"https:\/\/ss1.4sqi.net\/img\/categories_v2\/shops\/spa_","suffix":".png"},"primary":"true"}],"verified":"false","restricted":"true","stats":{"checkinsCount":"88","usersCount":"61","tipCount":"6"},"specials":{"count":"0"},"hereNow":{"count":"0"},"referralId":"v-1392477980"},{"id":"4b484a94f964a520324b26e3","name":"Aquila Cafe","contact":{"phone":"+442072533936","formattedPhone":"+44 20 7253 3936"},"location":{"address":"214 City Road","lat":"51.52826350812216","lng":"-0.09226799011230469","distance":"120","postalCode":"EC1V 2PN","cc":"GB","city":"London","state":"Greater London","country":"United Kingdom"},"categories":[{"id":"4bf58dd8d48988d1c5941735","name":"Sandwich Place","pluralName":"Sandwich Places","shortName":"Sandwiches","icon":{"prefix":"https:\/\/ss1.4sqi.net\/img\/categories_v2\/food\/sandwiches_","suffix":".png"},"primary":"true"}],"verified":"false","restricted":"true","stats":{"checkinsCount":"152","usersCount":"35","tipCount":"1"},"specials":{"count":"0"},"hereNow":{"count":"0"},"referralId":"v-1392477980"},{"id":"4cc68a84d43ba143968674f8","name":"Advanced Health & Care","location":{"address":"226-236 City road","lat":"51.528556","lng":"-0.093446","distance":"92","postalCode":"EC1V 2TT","cc":"GB","city":"Islington","state":"Greater London","country":"United Kingdom"},"categories":[{"id":"4bf58dd8d48988d124941735","name":"Office","pluralName":"Offices","shortName":"Office","icon":{"prefix":"https:\/\/ss1.4sqi.net\/img\/categories_v2\/building\/default_","suffix":".png"},"primary":"true"}],"verified":"false","restricted":"true","stats":{"checkinsCount":"49","usersCount":"5","tipCount":"0"},"specials":{"count":"0"},"hereNow":{"count":"0"},"referralId":"v-1392477980"},{"id":"5286712511d2f68ee608fbe3","name":"Mindjumpers London","location":{"address":"8 Shepherdess Walk","lat":"51.52887158029108","lng":"-0.09184002814246561","distance":"81","postalCode":"N1 7LB","cc":"GB","city":"London","state":"Greater London","country":"United Kingdom"},"categories":[{"id":"4bf58dd8d48988d124941735","name":"Office","pluralName":"Offices","shortName":"Office","icon":{"prefix":"https:\/\/ss1.4sqi.net\/img\/categories_v2\/building\/default_","suffix":".png"},"primary":"true"}],"verified":"false","restricted":"true","stats":{"checkinsCount":"16","usersCount":"3","tipCount":"0"},"specials":{"count":"0"},"hereNow":{"count":"0"},"referralId":"v-1392477980"},{"id":"4c3c0cfe7d00d13a0d713850","name":"Windsor Terrace Bus Stop S","location":{"address":"City Rd., Islington","lat":"51.5287521475278","lng":"-0.09356094547220456","distance":"79","postalCode":"EC1V","cc":"GB","city":"London","state":"Greater London","country":"United Kingdom"},"categories":[{"id":"4bf58dd8d48988d1fe931735","name":"Bus Station","pluralName":"Bus Stations","shortName":"Bus Station","icon":{"prefix":"https:\/\/ss1.4sqi.net\/img\/categories_v2\/travel\/busstation_","suffix":".png"},"primary":"true"}],"verified":"false","restricted":"true","stats":{"checkinsCount":"412","usersCount":"80","tipCount":"2"},"url":"http:\/\/tfl.gov.uk","specials":{"count":"0"},"hereNow":{"count":"0"},"referralId":"v-1392477980"},{"id":"4f43c31ee4b0acfe4293a279","name":"MARS London","contact":{"phone":"+442031193200","formattedPhone":"+44 20 3119 3200","twitter":"wearemarslondon"},"location":{"address":"230 City Road","lat":"51.528490676540954","lng":"-0.09319363125938815","distance":"92","postalCode":"EC1V 2TT","cc":"GB","city":"London","state":"Greater London","country":"United Kingdom"},"categories":[{"id":"4bf58dd8d48988d124941735","name":"Office","pluralName":"Offices","shortName":"Office","icon":{"prefix":"https:\/\/ss1.4sqi.net\/img\/categories_v2\/building\/default_","suffix":".png"},"primary":"true"}],"verified":"false","restricted":"true","stats":{"checkinsCount":"64","usersCount":"13","tipCount":"1"},"url":"http:\/\/www.marslondon.co.uk","specials":{"count":"0"},"hereNow":{"count":"0"},"referralId":"v-1392477980"},{"id":"4b3b3e25f964a520c27125e3","name":"City Style Dry Cleaners","contact":{"phone":"+442074908791","formattedPhone":"+44 20 7490 8791"},"location":{"address":"206 City Road","lat":"51.52938187122345","lng":"-0.0935051","distance":"49","postalCode":"EC1V 2PH","cc":"GB","city":"Islington","state":"Greater London","country":"United Kingdom"},"categories":[{"id":"4bf58dd8d48988d1fc941735","name":"Laundry Service","pluralName":"Laundry Services","shortName":"Laundry","icon":{"prefix":"https:\/\/ss1.4sqi.net\/img\/categories_v2\/shops\/laundry_","suffix":".png"},"primary":"true"}],"verified":"false","restricted":"true","stats":{"checkinsCount":"18","usersCount":"9","tipCount":"1"},"specials":{"count":"0"},"hereNow":{"count":"0"},"referralId":"v-1392477980"},{"id":"4ccc9387c9b8468880dcbdc3","name":"East Block Club","location":{"address":"217 City Rd.","lat":"51.528321824523395","lng":"-0.09191226437958827","distance":"124","postalCode":"EC1V 1JN","cc":"GB","city":"Hackney","state":"Greater London","country":"United Kingdom"},"categories":[{"id":"4bf58dd8d48988d1e5931735","name":"Music Venue","pluralName":"Music Venues","shortName":"Music Venue","icon":{"prefix":"https:\/\/ss1.4sqi.net\/img\/categories_v2\/arts_entertainment\/musicvenue_","suffix":".png"},"primary":"true"}],"verified":"false","restricted":"true","stats":{"checkinsCount":"31","usersCount":"27","tipCount":"0"},"specials":{"count":"0"},"hereNow":{"count":"0"},"referralId":"v-1392477980"},{"id":"4d105a5b49586a31944f3dcc","name":"(untitled) - digital agency","contact":{"phone":"+442078717939","formattedPhone":"+44 20 7871 7939","twitter":"untitledlondon"},"location":{"address":"St. Matthews House","crossStreet":"Shepherdess Walk","lat":"51.5293781718421","lng":"-0.09233236312866211","distance":"34","postalCode":"N1 7LH","cc":"GB","city":"London","state":"Greater London","country":"United Kingdom"},"categories":[{"id":"4bf58dd8d48988d124941735","name":"Office","pluralName":"Offices","shortName":"Office","icon":{"prefix":"https:\/\/ss1.4sqi.net\/img\/categories_v2\/building\/default_","suffix":".png"},"primary":"true"}],"verified":"false","restricted":"true","stats":{"checkinsCount":"23","usersCount":"9","tipCount":"0"},"specials":{"count":"0"},"hereNow":{"count":"0"},"referralId":"v-1392477980"},{"id":"515bffe8e4b0a9800c788bde","name":"230 City Road","location":{"lat":"51.528918","lng":"-0.092989","distance":"43","cc":"GB","country":"United Kingdom"},"categories":[{"id":"4bf58dd8d48988d130941735","name":"Building","pluralName":"Buildings","shortName":"Building","icon":{"prefix":"https:\/\/ss1.4sqi.net\/img\/categories_v2\/building\/default_","suffix":".png"},"primary":"true"}],"verified":"false","restricted":"true","stats":{"checkinsCount":"1","usersCount":"1","tipCount":"0"},"specials":{"count":"0"},"hereNow":{"count":"0"},"referralId":"v-1392477980"},{"id":"524c1ce911d202199cd25e02","name":"Block Solutions","location":{"lat":"51.5293513610959","lng":"-0.0921697542071342","distance":"44","cc":"GB","country":"United Kingdom"},"verified":"false","restricted":"true","stats":{"checkinsCount":"0","usersCount":"0","tipCount":"0"},"specials":{"count":"0"},"hereNow":{"count":"0"},"referralId":"v-1392477980"},{"id":"4fe207bce5e8a880be43b484","name":"WhiteSpace Hoxton","contact":{"twitter":"whitespaceldn"},"location":{"address":"Unit 20, 16-24 Underwood Street","lat":"51.52994550517158","lng":"-0.0912165641784668","distance":"131","postalCode":"N1 7JQ","cc":"GB","city":"London","state":"Greater London","country":"United Kingdom"},"categories":[{"id":"4bf58dd8d48988d125941735","name":"Tech Startup","pluralName":"Tech Startups","shortName":"Tech Startup","icon":{"prefix":"https:\/\/ss1.4sqi.net\/img\/categories_v2\/shops\/technology_","suffix":".png"},"primary":"true"}],"verified":"false","restricted":"true","stats":{"checkinsCount":"67","usersCount":"10","tipCount":"0"},"specials":{"count":"0"},"hereNow":{"count":"0"},"referralId":"v-1392477980"},{"id":"51701f54e4b017b07c842d7f","name":"La Marzocco UK","location":{"address":"14c Shepherdess Walk","lat":"51.529102951272904","lng":"-0.09142166915644825","distance":"97","postalCode":"N1 7LB","cc":"GB","city":"London","state":"Greater London","country":"United Kingdom"},"categories":[{"id":"4bf58dd8d48988d124941735","name":"Office","pluralName":"Offices","shortName":"Office","icon":{"prefix":"https:\/\/ss1.4sqi.net\/img\/categories_v2\/building\/default_","suffix":".png"},"primary":"true"}],"verified":"false","restricted":"true","stats":{"checkinsCount":"9","usersCount":"8","tipCount":"0"},"specials":{"count":"0"},"hereNow":{"count":"0"},"referralId":"v-1392477980"},{"id":"4db025e643a1bea42bb08681","name":"The Stroke Association","location":{"lat":"51.52874153569624","lng":"-0.09404981898994443","distance":"105","postalCode":"EC1V 1","cc":"GB","city":"Hackney","state":"Greater London","country":"United Kingdom"},"categories":[{"id":"4bf58dd8d48988d124941735","name":"Office","pluralName":"Offices","shortName":"Office","icon":{"prefix":"https:\/\/ss1.4sqi.net\/img\/categories_v2\/building\/default_","suffix":".png"},"primary":"true"}],"verified":"false","restricted":"true","stats":{"checkinsCount":"57","usersCount":"13","tipCount":"0"},"specials":{"count":"0"},"hereNow":{"count":"0"},"referralId":"v-1392477980"},{"id":"4c07b5bfb4aa0f4791fd6562","name":"The Big Coolster","location":{"lat":"51.528831","lng":"-0.092521","distance":"54","cc":"GB","country":"United Kingdom"},"categories":[{"id":"4bf58dd8d48988d1e4941735","name":"Campground","pluralName":"Campgrounds","shortName":"Campground","icon":{"prefix":"https:\/\/ss1.4sqi.net\/img\/categories_v2\/parks_outdoors\/campground_","suffix":".png"},"primary":"true"}],"verified":"false","restricted":"true","stats":{"checkinsCount":"9","usersCount":"6","tipCount":"0"},"specials":{"count":"0"},"hereNow":{"count":"0"},"referralId":"v-1392477980"},{"id":"4c0fa89398102d7f818ce506","name":"Jamie Oliver Ltd.","location":{"lat":"51.529221428137525","lng":"-0.09069923407026553","distance":"145","cc":"GB","country":"United Kingdom"},"categories":[{"id":"4bf58dd8d48988d124941735","name":"Office","pluralName":"Offices","shortName":"Office","icon":{"prefix":"https:\/\/ss1.4sqi.net\/img\/categories_v2\/building\/default_","suffix":".png"},"primary":"true"}],"verified":"false","restricted":"true","stats":{"checkinsCount":"194","usersCount":"66","tipCount":"2"},"specials":{"count":"0"},"hereNow":{"count":"0"},"referralId":"v-1392477980"},{"id":"4b3cf32cf964a520578a25e3","name":"Micawber Court","location":{"address":"Windsor Terrace","lat":"51.52930130000001","lng":"-0.09359046000000001","distance":"54","postalCode":"N1 7T","cc":"GB","city":"London","state":"Greater London","country":"United Kingdom"},"categories":[{"id":"4bf58dd8d48988d130941735","name":"Building","pluralName":"Buildings","shortName":"Building","icon":{"prefix":"https:\/\/ss1.4sqi.net\/img\/categories_v2\/building\/default_","suffix":".png"},"primary":"true"}],"verified":"false","restricted":"true","stats":{"checkinsCount":"254","usersCount":"13","tipCount":"0"},"specials":{"count":"0"},"hereNow":{"count":"0"},"referralId":"v-1392477980"},{"id":"4e3826fa31515ead5b4c077b","name":"Hangar Seven","contact":{"phone":"+448456255747","formattedPhone":"+44 845 625 5747","twitter":"hangarseven"},"location":{"address":"230 City Road","lat":"51.528490447858445","lng":"-0.09324431419372559","distance":"94","postalCode":"ec1v 2qy","cc":"GB","city":"London","state":"Greater London","country":"United Kingdom"},"categories":[{"id":"4bf58dd8d48988d130941735","name":"Building","pluralName":"Buildings","shortName":"Building","icon":{"prefix":"https:\/\/ss1.4sqi.net\/img\/categories_v2\/building\/default_","suffix":".png"},"primary":"true"}],"verified":"false","restricted":"true","stats":{"checkinsCount":"43","usersCount":"24","tipCount":"0"},"specials":{"count":"0"},"hereNow":{"count":"0"},"referralId":"v-1392477980"}],"confident":"false"}}