{"meta":{"code":"200"},"response":{"venues":[{"id":"4ac518f7f964a520c6af20e3","name":"London St Pancras International Railway Station (STP)","contact":{"phone":"+448457484950","formattedPhone":"+44 845 748 4950","twitter":"nationalrailenq","facebook":"94740547473"},"location":{"address":"Pancras Rd","lat":"51.53120028789537","lng":"-0.1263427734375","distance":"358","postalCode":"NW1 2QP","cc":"GB","city":"London","state":"Greater London","country":"United Kingdom"},"categories":[{"id":"4bf58dd8d48988d129951735","name":"Train Station","pluralName":"Train Stations","shortName":"Train Station","icon":{"prefix":"https:\/\/ss1.4sqi.net\/img\/categories_v2\/travel\/trainstation_","suffix":".png"},"primary":"true"}],"verified":"true","restricted":"true","stats":{"checkinsCount":"87231","usersCount":"36059","tipCount":"232"},"url":"http:\/\/www.nationalrail.co.uk\/stations\/stp\/details.html","specials":{"count":"0"},"hereNow":{"count":"13","groups":[{"type":"others","name":"Other people here","count":"13"}]},"storeId":"STP","referralId":"v-1392477963"},{"id":"4bcc08273740b7139c756365","name":"London St Pancras International Station \u2014 Eurostar Terminal","contact":{"phone":"+442078437688","formattedPhone":"+44 20 7843 7688","twitter":"eurostar"},"location":{"address":"Pancras Rd","lat":"51.53157404627683","lng":"-0.12617111206054688","distance":"322","postalCode":"NW1 2QP","cc":"GB","city":"London","state":"Greater London","country":"United Kingdom"},"categories":[{"id":"4bf58dd8d48988d129951735","name":"Train Station","pluralName":"Train Stations","shortName":"Train Station","icon":{"prefix":"https:\/\/ss1.4sqi.net\/img\/categories_v2\/travel\/trainstation_","suffix":".png"},"primary":"true"}],"verified":"true","restricted":"true","stats":{"checkinsCount":"61965","usersCount":"32037","tipCount":"209"},"url":"http:\/\/www.eurostar.com","specials":{"count":"0"},"hereNow":{"count":"9","groups":[{"type":"others","name":"Other people here","count":"9"}]},"storeId":"","referralId":"v-1392477963"},{"id":"4c6d4ba36af58cfa91ff8817","name":"Platform 11","location":{"address":"St Pancras Intl. Station (STP)","lat":"51.533233554094885","lng":"-0.12727044635578777","distance":"123","postalCode":"N1C 4QP","cc":"GB","city":"London","state":"Greater London","country":"United Kingdom"},"categories":[{"id":"4f4531504b9074f6e4fb0102","name":"Platform","pluralName":"Platforms","shortName":"Platform","icon":{"prefix":"https:\/\/ss1.4sqi.net\/img\/categories_v2\/travel\/trainstation_","suffix":".png"},"primary":"true"}],"verified":"false","restricted":"true","stats":{"checkinsCount":"1067","usersCount":"504","tipCount":"7"},"specials":{"count":"0"},"hereNow":{"count":"1","groups":[{"type":"others","name":"Other people here","count":"1"}]},"referralId":"v-1392477963"},{"id":"4ae7271ff964a520e8a821e3","name":"Central St. Martins College","location":{"address":"1 Granary Square","lat":"51.5349777760233","lng":"-0.1247549057006836","distance":"224","postalCode":"N1C 4AA\ufeff","cc":"GB","city":"London","state":"Greater London","country":"United Kingdom"},"categories":[{"id":"4bf58dd8d48988d1ae941735","name":"University","pluralName":"Universities","shortName":"University","icon":{"prefix":"https:\/\/ss1.4sqi.net\/img\/categories_v2\/education\/default_","suffix":".png"},"primary":"true"}],"verified":"false","restricted":"true","stats":{"checkinsCount":"1187","usersCount":"438","tipCount":"10"},"specials":{"count":"0"},"hereNow":{"count":"0"},"referralId":"v-1392477963"},{"id":"4ad6445cf964a520350621e3","name":"Le Pain Quotidien","contact":{"phone":"+442074866154","formattedPhone":"+44 20 7486 6154","twitter":"le_pain_q_uk"},"location":{"address":"Unit 4, St Pancras International Station","crossStreet":"at Euston Rd.","lat":"51.5318677114238","lng":"-0.1272439956665039","distance":"272","postalCode":"N1C 4QL","cc":"GB","city":"Camden Town","state":"Greater London","country":"United Kingdom"},"categories":[{"id":"4bf58dd8d48988d16d941735","name":"Caf\u00e9","pluralName":"Caf\u00e9s","shortName":"Caf\u00e9","icon":{"prefix":"https:\/\/ss1.4sqi.net\/img\/categories_v2\/food\/cafe_","suffix":".png"},"primary":"true"}],"verified":"false","restricted":"true","stats":{"checkinsCount":"2690","usersCount":"2024","tipCount":"42"},"url":"http:\/\/www.lepainquotidien.co.uk","specials":{"count":"0"},"hereNow":{"count":"0"},"referralId":"v-1392477963"},{"id":"4b114284f964a520657923e3","name":"Platform 9\u00be","location":{"address":"King's Cross Railway Station","lat":"51.532161374676384","lng":"-0.12359619140625","distance":"375","postalCode":"N1 9AL","cc":"GB","city":"London","state":"Greater London","country":"United Kingdom"},"categories":[{"id":"4f4531504b9074f6e4fb0102","name":"Platform","pluralName":"Platforms","shortName":"Platform","icon":{"prefix":"https:\/\/ss1.4sqi.net\/img\/categories_v2\/travel\/trainstation_","suffix":".png"},"primary":"true"}],"verified":"false","restricted":"true","stats":{"checkinsCount":"15619","usersCount":"10026","tipCount":"117"},"specials":{"count":"0"},"hereNow":{"count":"5","groups":[{"type":"others","name":"Other people here","count":"5"}]},"referralId":"v-1392477963"},{"id":"5002cf70e4b0ebdd7341a082","name":"Caravan","contact":{"phone":"+442071017661","formattedPhone":"+44 20 7101 7661","twitter":"caravankingsx"},"location":{"address":"Granary Building, 1 Granary Sq.","crossStreet":"off Goods Way","lat":"51.53544377782903","lng":"-0.12516945947193214","distance":"223","postalCode":"N1C 4AA","cc":"GB","city":"King's Cross","state":"Greater London","country":"United Kingdom"},"categories":[{"id":"4bf58dd8d48988d1c4941735","name":"Restaurant","pluralName":"Restaurants","shortName":"Restaurant","icon":{"prefix":"https:\/\/ss1.4sqi.net\/img\/categories_v2\/food\/default_","suffix":".png"},"primary":"true"}],"verified":"true","restricted":"true","stats":{"checkinsCount":"3026","usersCount":"1756","tipCount":"70"},"url":"http:\/\/www.caravankingscross.co.uk","menu":{"type":"Menu","label":"Menu","anchor":"View Menu","url":"https:\/\/foursquare.com\/v\/caravan\/5002cf70e4b0ebdd7341a082\/menu","mobileUrl":"https:\/\/foursquare.com\/v\/5002cf70e4b0ebdd7341a082\/device_menu"},"specials":{"count":"0"},"hereNow":{"count":"3","groups":[{"type":"others","name":"Other people here","count":"3"}]},"venuePage":{"id":"68135558"},"referralId":"v-1392477963"},{"id":"4e8d753c1081e3b3545fc155","name":"Central Saint Martins College of Art and Design","contact":{"phone":"+442075147000","formattedPhone":"+44 20 7514 7000","twitter":"csm_news"},"location":{"address":"Granary Building","crossStreet":"1 Granary Square","lat":"51.53629915545821","lng":"-0.12501239776611328","distance":"295","postalCode":"N1C 4AA\ufeff","cc":"GB","city":"King's Cross","state":"Greater London","country":"United Kingdom"},"categories":[{"id":"4bf58dd8d48988d1ae941735","name":"University","pluralName":"Universities","shortName":"University","icon":{"prefix":"https:\/\/ss1.4sqi.net\/img\/categories_v2\/education\/default_","suffix":".png"},"primary":"true"}],"verified":"false","restricted":"true","stats":{"checkinsCount":"5556","usersCount":"1178","tipCount":"10"},"url":"http:\/\/www.arts.ac.uk\/csm\/","specials":{"count":"0"},"hereNow":{"count":"2","groups":[{"type":"others","name":"Other people here","count":"2"}]},"referralId":"v-1392477963"},{"id":"4c9614066b35a14356862adc","name":"St Pancras Old Church","location":{"address":"St Pancras Way","lat":"51.534832173452116","lng":"-0.13012284580724845","distance":"171","cc":"GB","city":"Camden Town","state":"Greater London","country":"United Kingdom"},"categories":[{"id":"4bf58dd8d48988d132941735","name":"Church","pluralName":"Churches","shortName":"Church","icon":{"prefix":"https:\/\/ss1.4sqi.net\/img\/categories_v2\/building\/religious_church_","suffix":".png"},"primary":"true"}],"verified":"false","restricted":"true","stats":{"checkinsCount":"592","usersCount":"372","tipCount":"9"},"specials":{"count":"0"},"hereNow":{"count":"0"},"referralId":"v-1392477963"},{"id":"4e80a8a2d3e33fe0d8c59334","name":"Granary Square","location":{"address":"Granary Sq","lat":"51.53542318959512","lng":"-0.12519745554029685","distance":"220","postalCode":"N1C","cc":"GB","city":"King's Cross","state":"Greater London","country":"United Kingdom"},"categories":[{"id":"4bf58dd8d48988d164941735","name":"Plaza","pluralName":"Plazas","shortName":"Plaza","icon":{"prefix":"https:\/\/ss1.4sqi.net\/img\/categories_v2\/parks_outdoors\/plaza_","suffix":".png"},"primary":"true"}],"verified":"false","restricted":"true","stats":{"checkinsCount":"1521","usersCount":"670","tipCount":"6"},"url":"http:\/\/www.kingscross.co.uk\/open-space-granary-square","specials":{"count":"0"},"hereNow":{"count":"1","groups":[{"type":"others","name":"Other people here","count":"1"}]},"referralId":"v-1392477963"},{"id":"4bcb44f2937ca593702ea992","name":"Fine Burger Co.","contact":{"phone":"+442072788056","formattedPhone":"+44 20 7278 8056"},"location":{"address":"The Circle, St Pancras International Station","crossStreet":"Pancras Rd.","lat":"51.53238829498314","lng":"-0.1266646385192871","distance":"225","postalCode":"NW1 2QP","cc":"GB","city":"Camden","state":"Greater London","country":"United Kingdom"},"categories":[{"id":"4bf58dd8d48988d16c941735","name":"Burger Joint","pluralName":"Burger Joints","shortName":"Burgers","icon":{"prefix":"https:\/\/ss1.4sqi.net\/img\/categories_v2\/food\/burger_","suffix":".png"},"primary":"true"}],"verified":"false","restricted":"true","stats":{"checkinsCount":"614","usersCount":"479","tipCount":"26"},"specials":{"count":"0"},"hereNow":{"count":"1","groups":[{"type":"others","name":"Other people here","count":"1"}]},"referralId":"v-1392477963"},{"id":"4b715d3cf964a52005432de3","name":"Boots","contact":{"phone":"+442078330216","formattedPhone":"+44 20 7833 0216"},"location":{"address":"The Circle","crossStreet":"St Pancras International Station","lat":"51.53280208792464","lng":"-0.12685775756835938","distance":"177","postalCode":"NW1 2QP","cc":"GB","city":"London","state":"Greater London","country":"United Kingdom"},"categories":[{"id":"4bf58dd8d48988d10f951735","name":"Drugstore \/ Pharmacy","pluralName":"Drugstores \/ Pharmacies","shortName":"Pharmacy","icon":{"prefix":"https:\/\/ss1.4sqi.net\/img\/categories_v2\/shops\/pharmacy_","suffix":".png"},"primary":"true"}],"verified":"false","restricted":"true","stats":{"checkinsCount":"706","usersCount":"296","tipCount":"1"},"specials":{"count":"0"},"hereNow":{"count":"0"},"referralId":"v-1392477963"},{"id":"4b6016a3f964a52076d529e3","name":"Starbucks","contact":{"phone":"+442072784878","formattedPhone":"+44 20 7278 4878","twitter":"starbucksuk"},"location":{"address":"St Pancras International Station","crossStreet":"The Circle","lat":"51.53211072841353","lng":"-0.1257983662762125","distance":"279","postalCode":"NW1 2QL","cc":"GB","city":"Camden","state":"Greater London","country":"United Kingdom"},"categories":[{"id":"4bf58dd8d48988d1e0931735","name":"Coffee Shop","pluralName":"Coffee Shops","shortName":"Coffee Shop","icon":{"prefix":"https:\/\/ss1.4sqi.net\/img\/categories_v2\/food\/coffeeshop_","suffix":".png"},"primary":"true"}],"verified":"true","restricted":"true","stats":{"checkinsCount":"5345","usersCount":"3225","tipCount":"44"},"url":"http:\/\/www.starbucks.co.uk","specials":{"count":"0"},"hereNow":{"count":"0"},"referralId":"v-1392477963"},{"id":"4bb516f5f562ef3b56782e97","name":"Des Vins","contact":{"phone":"+442077138730","formattedPhone":"+44 20 7713 8730","twitter":"desvins1"},"location":{"address":"Unit 12a Ground Floor","crossStreet":"St Pancras Station","lat":"51.53238829498314","lng":"-0.12712597846984863","distance":"216","postalCode":"NW1 2QP","cc":"GB","city":"London","state":"Greater London","country":"United Kingdom"},"categories":[{"id":"4bf58dd8d48988d116941735","name":"Bar","pluralName":"Bars","shortName":"Bar","icon":{"prefix":"https:\/\/ss1.4sqi.net\/img\/categories_v2\/nightlife\/bar_","suffix":".png"},"primary":"true"}],"verified":"true","restricted":"true","stats":{"checkinsCount":"760","usersCount":"552","tipCount":"17"},"url":"http:\/\/www.desvins.co.uk","specials":{"count":"0"},"hereNow":{"count":"0"},"venuePage":{"id":"33326229"},"storeId":"","referralId":"v-1392477963"},{"id":"51a9193f498e89db9cbb744b","name":"Grain Store","contact":{"phone":"+442073244466","formattedPhone":"+44 20 7324 4466","twitter":"grainstorekx"},"location":{"address":"Granary Square","crossStreet":"1-3 Stable St","lat":"51.53548469713402","lng":"-0.12545206183450835","distance":"210","postalCode":"N1C 4AB","cc":"GB","city":"London","state":"Greater London","country":"United Kingdom"},"categories":[{"id":"4bf58dd8d48988d1c4941735","name":"Restaurant","pluralName":"Restaurants","shortName":"Restaurant","icon":{"prefix":"https:\/\/ss1.4sqi.net\/img\/categories_v2\/food\/default_","suffix":".png"},"primary":"true"}],"verified":"false","restricted":"true","stats":{"checkinsCount":"615","usersCount":"532","tipCount":"34"},"url":"http:\/\/www.grainstore.com","reservations":{"url":"http:\/\/www.toptable.co.uk\/single.aspx?rid=96561&ref=9601"},"menu":{"type":"Menu","label":"Menu","anchor":"View Menu","url":"https:\/\/foursquare.com\/v\/grain-store\/51a9193f498e89db9cbb744b\/menu","mobileUrl":"https:\/\/foursquare.com\/v\/51a9193f498e89db9cbb744b\/device_menu"},"specials":{"count":"0"},"hereNow":{"count":"0"},"referralId":"v-1392477963"},{"id":"4ba64244f964a520f83f39e3","name":"Eurostar Business Premier Lounge","contact":{"twitter":"eurostar"},"location":{"address":"St Pancras International Station","lat":"51.53144056149285","lng":"-0.12604236602783203","distance":"339","postalCode":"NW1 2QP","cc":"GB","city":"London","state":"Greater London","country":"United Kingdom"},"categories":[{"id":"4f04b25d2fb6e1c99f3db0c0","name":"Travel Lounge","pluralName":"Travel Lounges","shortName":"Lounge","icon":{"prefix":"https:\/\/ss1.4sqi.net\/img\/categories_v2\/travel\/lounge_","suffix":".png"},"primary":"true"}],"verified":"true","restricted":"true","stats":{"checkinsCount":"6334","usersCount":"3015","tipCount":"34"},"specials":{"count":"0"},"hereNow":{"count":"1","groups":[{"type":"others","name":"Other people here","count":"1"}]},"referralId":"v-1392477963"},{"id":"52435c0b498e2278c9d3e038","name":"St Pancras","location":{"address":"Everywhere!","lat":"51.53645681242798","lng":"-0.12865177567703853","distance":"248","cc":"GB","city":"St Pancras","state":"Greater London","country":"United Kingdom"},"categories":[{"id":"4f2a25ac4b909258e854f55f","name":"Neighborhood","pluralName":"Neighborhoods","shortName":"Neighborhood","icon":{"prefix":"https:\/\/ss1.4sqi.net\/img\/categories_v2\/parks_outdoors\/neighborhood_","suffix":".png"},"primary":"true"}],"verified":"false","restricted":"true","stats":{"checkinsCount":"187","usersCount":"70","tipCount":"0"},"specials":{"count":"0"},"hereNow":{"count":"2","groups":[{"type":"others","name":"Other people here","count":"2"}]},"referralId":"v-1392477963"},{"id":"52a5a0b711d28c7fe9f6a12c","name":"Chenies Place Bus Stop","location":{"address":"Chenies Place","lat":"51.53409862465886","lng":"-0.12956575200209788","distance":"123","postalCode":"N","cc":"GB","city":"London","state":"Greater London","country":"United Kingdom"},"categories":[{"id":"4bf58dd8d48988d1fe931735","name":"Bus Station","pluralName":"Bus Stations","shortName":"Bus Station","icon":{"prefix":"https:\/\/ss1.4sqi.net\/img\/categories_v2\/travel\/busstation_","suffix":".png"},"primary":"true"}],"verified":"false","restricted":"true","stats":{"checkinsCount":"22","usersCount":"2","tipCount":"1"},"specials":{"count":"0"},"hereNow":{"count":"0"},"referralId":"v-1392477963"},{"id":"4ae9aad0f964a52093b521e3","name":"Sourced Market","contact":{"phone":"+442078339352","formattedPhone":"+44 20 7833 9352","twitter":"sourcedmarket"},"location":{"address":"28a-28b, St Pancras Railway Station","crossStreet":"Pancras Rd.","lat":"51.532181397101894","lng":"-0.1263749599456787","distance":"254","postalCode":"NW1 2QP","cc":"GB","city":"King's Cross","state":"Greater London","country":"United Kingdom"},"categories":[{"id":"4bf58dd8d48988d146941735","name":"Deli \/ Bodega","pluralName":"Delis \/ Bodegas","shortName":"Deli \/ Bodega","icon":{"prefix":"https:\/\/ss1.4sqi.net\/img\/categories_v2\/food\/deli_","suffix":".png"},"primary":"true"}],"verified":"true","restricted":"true","stats":{"checkinsCount":"1645","usersCount":"709","tipCount":"39"},"url":"http:\/\/www.sourcedmarket.com","specials":{"count":"0"},"hereNow":{"count":"0"},"venuePage":{"id":"33499822"},"storeId":"","referralId":"v-1392477963"},{"id":"4d1ca292c17ff04d4d3ec841","name":"Platform 12","location":{"address":"St Pancras Intl. Station (STP)","lat":"51.53178762111703","lng":"-0.1265573501586914","distance":"291","postalCode":"N1C 4QP","cc":"GB","city":"London","state":"Greater London","country":"United Kingdom"},"categories":[{"id":"4f4531504b9074f6e4fb0102","name":"Platform","pluralName":"Platforms","shortName":"Platform","icon":{"prefix":"https:\/\/ss1.4sqi.net\/img\/categories_v2\/travel\/trainstation_","suffix":".png"},"primary":"true"}],"verified":"false","restricted":"true","stats":{"checkinsCount":"810","usersCount":"313","tipCount":"3"},"specials":{"count":"0"},"hereNow":{"count":"0"},"referralId":"v-1392477963"},{"id":"4f634969e4b0ce431bfee234","name":"The Parcel Yard","contact":{"phone":"+442077137258","formattedPhone":"+44 20 7713 7258","twitter":"theparcelyard"},"location":{"address":"Kings Cross Station","lat":"51.532199908509405","lng":"-0.12411642312437783","distance":"345","postalCode":"N1 9AL","cc":"GB","city":"Camden","state":"Greater London","country":"United Kingdom"},"categories":[{"id":"4bf58dd8d48988d11b941735","name":"Pub","pluralName":"Pubs","shortName":"Pub","icon":{"prefix":"https:\/\/ss1.4sqi.net\/img\/categories_v2\/nightlife\/pub_","suffix":".png"},"primary":"true"}],"verified":"false","restricted":"true","stats":{"checkinsCount":"2400","usersCount":"1316","tipCount":"54"},"url":"http:\/\/www.parcelyard.co.uk","menu":{"type":"Menu","label":"Menu","anchor":"View Menu","url":"https:\/\/foursquare.com\/v\/the-parcel-yard-camden-greater-london\/4f634969e4b0ce431bfee234\/menu","mobileUrl":"https:\/\/foursquare.com\/v\/4f634969e4b0ce431bfee234\/device_menu"},"specials":{"count":"0"},"hereNow":{"count":"2","groups":[{"type":"others","name":"Other people here","count":"2"}]},"referralId":"v-1392477963"},{"id":"4bb1cb94f964a5206ba33ce3","name":"Platform 1","location":{"address":"St Pancras Intl. Station (STP)","lat":"51.53259211830564","lng":"-0.12758575056776322","distance":"189","postalCode":"N1C 4QP","cc":"GB","city":"London","state":"Greater London","country":"United Kingdom"},"categories":[{"id":"4f4531504b9074f6e4fb0102","name":"Platform","pluralName":"Platforms","shortName":"Platform","icon":{"prefix":"https:\/\/ss1.4sqi.net\/img\/categories_v2\/travel\/trainstation_","suffix":".png"},"primary":"true"}],"verified":"false","restricted":"true","stats":{"checkinsCount":"894","usersCount":"486","tipCount":"3"},"specials":{"count":"0"},"hereNow":{"count":"0"},"referralId":"v-1392477963"},{"id":"4c63ef9cedd320a1cc86b029","name":"Platform 2","location":{"address":"St Pancras Intl. Station (STP)","lat":"51.53229390230872","lng":"-0.12743071848040707","distance":"223","postalCode":"N1C 4QP","cc":"GB","city":"London","state":"Greater London","country":"United Kingdom"},"categories":[{"id":"4f4531504b9074f6e4fb0102","name":"Platform","pluralName":"Platforms","shortName":"Platform","icon":{"prefix":"https:\/\/ss1.4sqi.net\/img\/categories_v2\/travel\/trainstation_","suffix":".png"},"primary":"true"}],"verified":"false","restricted":"true","stats":{"checkinsCount":"863","usersCount":"404","tipCount":"2"},"specials":{"count":"0"},"hereNow":{"count":"0"},"referralId":"v-1392477963"},{"id":"4e8c37c37bebcada8da23b27","name":"KERB KX","contact":{"twitter":"kerb_"},"location":{"address":"King's Blvd","crossStreet":"at Goods Way","lat":"51.534483917296136","lng":"-0.12415409088134766","distance":"253","postalCode":"N1 9AP","cc":"GB","city":"King's Cross","state":"Greater London","country":"United Kingdom"},"categories":[{"id":"4bf58dd8d48988d1cb941735","name":"Food Truck","pluralName":"Food Trucks","shortName":"Food Truck","icon":{"prefix":"https:\/\/ss1.4sqi.net\/img\/categories_v2\/food\/streetfood_","suffix":".png"},"primary":"true"}],"verified":"false","restricted":"true","stats":{"checkinsCount":"1702","usersCount":"585","tipCount":"17"},"specials":{"count":"0"},"hereNow":{"count":"0"},"referralId":"v-1392477963"},{"id":"4c6c284765eda09341224bd0","name":"Platform 9","location":{"address":"King's Cross Station (KGX)","lat":"51.53306904911656","lng":"-0.12400388717651367","distance":"296","postalCode":"N1 9AP","cc":"GB","city":"London","state":"Greater London","country":"United Kingdom"},"categories":[{"id":"4f4531504b9074f6e4fb0102","name":"Platform","pluralName":"Platforms","shortName":"Platform","icon":{"prefix":"https:\/\/ss1.4sqi.net\/img\/categories_v2\/travel\/trainstation_","suffix":".png"},"primary":"true"}],"verified":"false","restricted":"true","stats":{"checkinsCount":"2858","usersCount":"832","tipCount":"5"},"specials":{"count":"0"},"hereNow":{"count":"0"},"referralId":"v-1392477963"},{"id":"5274f93411d27167918dae23","name":"Viewing Platform","location":{"lat":"51.534530507187704","lng":"-0.12566117665115636","distance":"150","cc":"GB","country":"United Kingdom"},"categories":[{"id":"4bf58dd8d48988d162941735","name":"Other Great Outdoors","pluralName":"Other Great Outdoors","shortName":"Other Outdoors","icon":{"prefix":"https:\/\/ss1.4sqi.net\/img\/categories_v2\/parks_outdoors\/outdoors_","suffix":".png"},"primary":"true"}],"verified":"false","restricted":"true","stats":{"checkinsCount":"34","usersCount":"5","tipCount":"0"},"specials":{"count":"0"},"hereNow":{"count":"0"},"referralId":"v-1392477963"},{"id":"4e92d2d855037de99d80f88b","name":"The Library @ Central Saint Martin's","location":{"address":"Granary Building, 1 Granary Square","lat":"51.53554674326155","lng":"-0.12504340147761872","distance":"236","cc":"GB","city":"London","state":"Greater London","country":"United Kingdom"},"categories":[{"id":"4bf58dd8d48988d1a7941735","name":"College Library","pluralName":"College Libraries","shortName":"Library","icon":{"prefix":"https:\/\/ss1.4sqi.net\/img\/categories_v2\/building\/library_","suffix":".png"},"primary":"true"}],"verified":"false","restricted":"true","stats":{"checkinsCount":"951","usersCount":"207","tipCount":"1"},"specials":{"count":"0"},"hereNow":{"count":"0"},"referralId":"v-1392477963"},{"id":"4bd303c4b221c9b679a0d8d0","name":"Camley Street Natural Park","contact":{"phone":"+442078332311","formattedPhone":"+44 20 7833 2311"},"location":{"address":"12 Camley St.","lat":"51.53546182760173","lng":"-0.1277027408993293","distance":"130","postalCode":"NW1 1","cc":"GB","city":"Camden Town","state":"Greater London","country":"United Kingdom"},"categories":[{"id":"4bf58dd8d48988d163941735","name":"Park","pluralName":"Parks","shortName":"Park","icon":{"prefix":"https:\/\/ss1.4sqi.net\/img\/categories_v2\/parks_outdoors\/park_","suffix":".png"},"primary":"true"}],"verified":"false","restricted":"true","stats":{"checkinsCount":"223","usersCount":"129","tipCount":"5"},"specials":{"count":"0"},"hereNow":{"count":"0"},"referralId":"v-1392477963"},{"id":"4b61e4b7f964a5209f292ae3","name":"YO! Sushi","contact":{"phone":"+442070847121","formattedPhone":"+44 20 7084 7121","twitter":"yosushi"},"location":{"address":"Unit 27 - The Circle","crossStreet":"St Pancras International Station","lat":"51.53201454","lng":"-0.125849247","distance":"287","postalCode":"N1C 4QL","cc":"GB","city":"King's Cross","state":"Greater London","country":"United Kingdom"},"categories":[{"id":"4bf58dd8d48988d1d2941735","name":"Sushi Restaurant","pluralName":"Sushi Restaurants","shortName":"Sushi","icon":{"prefix":"https:\/\/ss1.4sqi.net\/img\/categories_v2\/food\/sushi_","suffix":".png"},"primary":"true"}],"verified":"true","restricted":"true","stats":{"checkinsCount":"1217","usersCount":"851","tipCount":"22"},"url":"http:\/\/www.yosushi.com","specials":{"count":"0"},"hereNow":{"count":"0"},"storeId":"STPN","referralId":"v-1392477963"},{"id":"52da23b5498eae507f2ae12b","name":"Platform 8","location":{"address":"St. Pancras International Railway Station","lat":"51.53308948514484","lng":"-0.12772924327810734","distance":"133","cc":"GB","country":"United Kingdom"},"categories":[{"id":"4f4531504b9074f6e4fb0102","name":"Platform","pluralName":"Platforms","shortName":"Platform","icon":{"prefix":"https:\/\/ss1.4sqi.net\/img\/categories_v2\/travel\/trainstation_","suffix":".png"},"primary":"true"}],"verified":"false","restricted":"true","stats":{"checkinsCount":"6","usersCount":"6","tipCount":"0"},"specials":{"count":"0"},"hereNow":{"count":"0"},"referralId":"v-1392477963"}],"confident":"true"}}