{"meta":{"code":"200"},"response":{"venues":[{"id":"4e07092918a8382643b1bca3","name":"Long White Cloud","location":{"address":"151 Hackney Rd.","lat":"51.530324","lng":"-0.07366","distance":"129","postalCode":"E2 8JL","cc":"GB","city":"London","state":"Greater London","country":"United Kingdom"},"categories":[{"id":"4bf58dd8d48988d16d941735","name":"Caf\u00e9","pluralName":"Caf\u00e9s","shortName":"Caf\u00e9","icon":{"prefix":"https:\/\/ss1.4sqi.net\/img\/categories_v2\/food\/cafe_","suffix":".png"},"primary":"true"}],"verified":"false","restricted":"true","stats":{"checkinsCount":"655","usersCount":"290","tipCount":"13"},"url":"http:\/\/longwhitecloudhoxton.com","reservations":{"url":"http:\/\/www.toptable.co.uk\/single.aspx?rid=92151&ref=9601"},"menu":{"type":"Menu","label":"Menu","anchor":"View Menu","url":"https:\/\/foursquare.com\/v\/long-white-cloud\/4e07092918a8382643b1bca3\/menu","mobileUrl":"https:\/\/foursquare.com\/v\/4e07092918a8382643b1bca3\/device_menu"},"specials":{"count":"0"},"hereNow":{"count":"2","groups":[{"type":"others","name":"Other people here","count":"2"}]},"referralId":"v-1392477982"},{"id":"4ac518f3f964a5209fae20e3","name":"Columbia Road Flower Market","contact":{"phone":"+442076130876","formattedPhone":"+44 20 7613 0876","twitter":"columbiaroad"},"location":{"address":"Columbia Rd.","crossStreet":"near Ravenscroft St.","lat":"51.529358148183654","lng":"-0.0695657730102539","distance":"224","postalCode":"E2 7RG","cc":"GB","city":"Shoreditch","state":"Greater London","country":"United Kingdom"},"categories":[{"id":"4bf58dd8d48988d11b951735","name":"Flower Shop","pluralName":"Flower Shops","shortName":"Flower Shop","icon":{"prefix":"https:\/\/ss1.4sqi.net\/img\/categories_v2\/shops\/flowershop_","suffix":".png"},"primary":"true"}],"verified":"false","restricted":"true","stats":{"checkinsCount":"6301","usersCount":"3674","tipCount":"76"},"url":"http:\/\/www.columbiaroad.info","specials":{"count":"0"},"hereNow":{"count":"0"},"referralId":"v-1392477982"},{"id":"529f9914498edf741fd295d2","name":"Clutch","location":{"lat":"51.529843","lng":"-0.070929","distance":"143","cc":"GB","country":"United Kingdom"},"categories":[{"id":"4d4ae6fc7a7b7dea34424761","name":"Fried Chicken Joint","pluralName":"Fried Chicken Joints","shortName":"Fried Chicken","icon":{"prefix":"https:\/\/ss1.4sqi.net\/img\/categories_v2\/food\/friedchicken_","suffix":".png"},"primary":"true"}],"verified":"false","restricted":"true","stats":{"checkinsCount":"33","usersCount":"28","tipCount":"3"},"specials":{"count":"0"},"hereNow":{"count":"1","groups":[{"type":"others","name":"Other people here","count":"1"}]},"referralId":"v-1392477982"},{"id":"4bf854b38d30d13afa950018","name":"Joiners Arms","location":{"address":"116-118 Hackney Rd","lat":"51.529571","lng":"-0.074774","distance":"140","postalCode":"E2 7QL","cc":"GB","city":"Shoreditch","state":"Greater London","country":"United Kingdom"},"categories":[{"id":"4bf58dd8d48988d1d8941735","name":"Gay Bar","pluralName":"Gay Bars","shortName":"Gay Bar","icon":{"prefix":"https:\/\/ss1.4sqi.net\/img\/categories_v2\/nightlife\/gaybar_","suffix":".png"},"primary":"true"}],"verified":"false","restricted":"true","stats":{"checkinsCount":"1328","usersCount":"768","tipCount":"16"},"url":"http:\/\/www.thejoinershoreditch.com","specials":{"count":"0"},"hereNow":{"count":"0"},"referralId":"v-1392477982"},{"id":"5113bb56e4b0fc65f96b2ad9","name":"Tesco Express","location":{"address":"452 Hackney Road","lat":"51.52934546739485","lng":"-0.07400760729150932","distance":"83","postalCode":"E2 9EG","cc":"GB","country":"United Kingdom"},"categories":[{"id":"4d954b0ea243a5684a65b473","name":"Convenience Store","pluralName":"Convenience Stores","shortName":"Convenience Stores","icon":{"prefix":"https:\/\/ss1.4sqi.net\/img\/categories_v2\/shops\/conveniencestore_","suffix":".png"},"primary":"true"}],"verified":"false","restricted":"true","stats":{"checkinsCount":"33","usersCount":"15","tipCount":"0"},"specials":{"count":"0"},"hereNow":{"count":"0"},"referralId":"v-1392477982"},{"id":"4b08090bf964a520ad0223e3","name":"The Premises","contact":{"phone":"+442076842230","formattedPhone":"+44 20 7684 2230"},"location":{"address":"209 Hackney Rd","crossStreet":"near Ravenscroft Street","lat":"51.53093331574417","lng":"-0.07153987884521484","distance":"202","postalCode":"E2 8JL","cc":"GB","city":"London","state":"Greater London","country":"United Kingdom"},"categories":[{"id":"4bf58dd8d48988d1c4941735","name":"Restaurant","pluralName":"Restaurants","shortName":"Restaurant","icon":{"prefix":"https:\/\/ss1.4sqi.net\/img\/categories_v2\/food\/default_","suffix":".png"},"primary":"true"}],"verified":"false","restricted":"true","stats":{"checkinsCount":"721","usersCount":"426","tipCount":"15"},"url":"http:\/\/www.premisesstudios.com\/cafe\/","specials":{"count":"0"},"hereNow":{"count":"1","groups":[{"type":"others","name":"Other people here","count":"1"}]},"referralId":"v-1392477982"},{"id":"4ac518c5f964a520d8a420e3","name":"The Birdcage","contact":{"phone":"+442077390250","formattedPhone":"+44 20 7739 0250"},"location":{"address":"80 Columbia Road","lat":"51.52832629156059","lng":"-0.07119141540775854","distance":"154","postalCode":"E2 7QB","cc":"GB","city":"London","state":"Greater London","country":"United Kingdom"},"categories":[{"id":"4bf58dd8d48988d11b941735","name":"Pub","pluralName":"Pubs","shortName":"Pub","icon":{"prefix":"https:\/\/ss1.4sqi.net\/img\/categories_v2\/nightlife\/pub_","suffix":".png"},"primary":"true"}],"verified":"false","restricted":"true","stats":{"checkinsCount":"1030","usersCount":"642","tipCount":"15"},"specials":{"count":"0"},"hereNow":{"count":"0"},"referralId":"v-1392477982"},{"id":"51c2e2b58bbd62891efee038","name":"Sager & Wilde","contact":{"twitter":"sagerandwilde"},"location":{"address":"193 Hackney Rd","crossStreet":"Weymouth Terrace","lat":"51.53087658396035","lng":"-0.07215142250061035","distance":"182","postalCode":"E2 8JL","cc":"GB","city":"London","state":"Greater London","country":"United Kingdom"},"categories":[{"id":"4bf58dd8d48988d123941735","name":"Wine Bar","pluralName":"Wine Bars","shortName":"Wine Bar","icon":{"prefix":"https:\/\/ss1.4sqi.net\/img\/categories_v2\/nightlife\/wine_","suffix":".png"},"primary":"true"}],"verified":"false","restricted":"true","stats":{"checkinsCount":"213","usersCount":"176","tipCount":"14"},"url":"http:\/\/www.sagerandwilde.com","specials":{"count":"0"},"hereNow":{"count":"0"},"referralId":"v-1392477982"},{"id":"4c5ea2092815c9284215b867","name":"Cakehole Cafe at Vintage Heaven","location":{"address":"82 Columbia Road","lat":"51.52825984338402","lng":"-0.07093994115809937","distance":"172","postalCode":"E2 7QB","cc":"GB","city":"London","state":"Greater London","country":"United Kingdom"},"categories":[{"id":"4bf58dd8d48988d1e0931735","name":"Coffee Shop","pluralName":"Coffee Shops","shortName":"Coffee Shop","icon":{"prefix":"https:\/\/ss1.4sqi.net\/img\/categories_v2\/food\/coffeeshop_","suffix":".png"},"primary":"true"}],"verified":"false","restricted":"true","stats":{"checkinsCount":"176","usersCount":"111","tipCount":"7"},"specials":{"count":"0"},"hereNow":{"count":"1","groups":[{"type":"others","name":"Other people here","count":"1"}]},"referralId":"v-1392477982"},{"id":"51b1b8de8bbd74b5356b9bb2","name":"The Liquor Cabinet","contact":{"twitter":"liquorcabinete2","facebook":"521608637902844"},"location":{"address":"184 Hackney Rd","crossStreet":"Entrance on Hassard St","lat":"51.53049948265929","lng":"-0.07248401641845703","distance":"136","postalCode":"E2 7QL","cc":"GB","city":"London","state":"Greater London","country":"United Kingdom"},"categories":[{"id":"4bf58dd8d48988d11e941735","name":"Cocktail Bar","pluralName":"Cocktail Bars","shortName":"Cocktail","icon":{"prefix":"https:\/\/ss1.4sqi.net\/img\/categories_v2\/nightlife\/cocktails_","suffix":".png"},"primary":"true"}],"verified":"true","restricted":"true","stats":{"checkinsCount":"81","usersCount":"38","tipCount":"5"},"url":"http:\/\/www.liquorcabinet.co.uk","specials":{"count":"1","items":[{"id":"5255c26e7e4877ab8da562b5","type":"count","message":"Enjoy \u00a31 off any house drink!","description":"Unlocked on your 1st check-in","icon":"newbie","title":"Newbie Special","provider":"foursquare","redemption":"standard","page":{"id":"66775475","firstName":"The Liquor Cabinet","gender":"none","photo":{"prefix":"https:\/\/irs1.4sqi.net\/img\/user\/","suffix":"\/66775475-UABM0C0ZFZMQB5DU.jpg"},"type":"venuePage","venue":{"id":"51b1b8de8bbd74b5356b9bb2"},"tips":{"count":"0"},"homeCity":"London","bio":"","contact":{"facebook":"521608637902844"}}}]},"hereNow":{"count":"0"},"venuePage":{"id":"66775475"},"storeId":"","referralId":"v-1392477982"},{"id":"4c59a57b6407d13a86b3b228","name":"TfL Bus 48","contact":{"phone":"+443432221234","formattedPhone":"+44 343 222 1234","twitter":"tflbusalerts"},"location":{"address":"Moving Target!","lat":"51.530224291652814","lng":"-0.07389948288900385","distance":"128","cc":"GB","city":"London","state":"Greater London","country":"United Kingdom"},"categories":[{"id":"4bf58dd8d48988d12b951735","name":"Bus Line","pluralName":"Bus Lines","shortName":"Bus","icon":{"prefix":"https:\/\/ss1.4sqi.net\/img\/categories_v2\/travel\/busstation_","suffix":".png"},"primary":"true"}],"verified":"false","restricted":"true","stats":{"checkinsCount":"531","usersCount":"173","tipCount":"5"},"url":"http:\/\/tfl.gov.uk","specials":{"count":"0"},"hereNow":{"count":"0"},"referralId":"v-1392477982"},{"id":"4ceed4e213aea143e6e16f9f","name":"Brawn","contact":{"phone":"+442077295692","formattedPhone":"+44 20 7729 5692"},"location":{"address":"49 Columbia Rd","lat":"51.528921","lng":"-0.070256","distance":"181","postalCode":"E2 7RG","cc":"GB","city":"Shoreditch","state":"Greater London","country":"United Kingdom"},"categories":[{"id":"4bf58dd8d48988d1c4941735","name":"Restaurant","pluralName":"Restaurants","shortName":"Restaurant","icon":{"prefix":"https:\/\/ss1.4sqi.net\/img\/categories_v2\/food\/default_","suffix":".png"},"primary":"true"}],"verified":"false","restricted":"true","stats":{"checkinsCount":"777","usersCount":"574","tipCount":"26"},"url":"http:\/\/www.brawn.co","reservations":{"url":"http:\/\/www.toptable.co.uk\/single.aspx?rid=95334&ref=9601"},"menu":{"type":"Menu","label":"Menu","anchor":"View Menu","url":"https:\/\/foursquare.com\/v\/brawn\/4ceed4e213aea143e6e16f9f\/menu","mobileUrl":"https:\/\/foursquare.com\/v\/4ceed4e213aea143e6e16f9f\/device_menu"},"specials":{"count":"0"},"hereNow":{"count":"0"},"referralId":"v-1392477982"},{"id":"51503314e4b0e3990045b1d9","name":"East End","location":{"lat":"51.528531963676","lng":"-0.07233172435326969","distance":"90","cc":"GB","country":"United Kingdom"},"categories":[{"id":"4f2a25ac4b909258e854f55f","name":"Neighborhood","pluralName":"Neighborhoods","shortName":"Neighborhood","icon":{"prefix":"https:\/\/ss1.4sqi.net\/img\/categories_v2\/parks_outdoors\/neighborhood_","suffix":".png"},"primary":"true"}],"verified":"false","restricted":"true","stats":{"checkinsCount":"22","usersCount":"17","tipCount":"0"},"specials":{"count":"0"},"hereNow":{"count":"0"},"referralId":"v-1392477982"},{"id":"5122758fe4b027b3b36b7384","name":"Looking Glass Cocktail Club","contact":{"phone":"+442076133936","formattedPhone":"+44 20 7613 3936","twitter":"lookingglasse2"},"location":{"address":"49 Hackney Rd.","crossStreet":"Colombia Rd.","lat":"51.52818469724424","lng":"-0.07604086494428743","distance":"255","postalCode":"E2 7NX","cc":"GB","city":"London","state":"Greater London","country":"United Kingdom"},"categories":[{"id":"4bf58dd8d48988d11e941735","name":"Cocktail Bar","pluralName":"Cocktail Bars","shortName":"Cocktail","icon":{"prefix":"https:\/\/ss1.4sqi.net\/img\/categories_v2\/nightlife\/cocktails_","suffix":".png"},"primary":"true"}],"verified":"true","restricted":"true","stats":{"checkinsCount":"262","usersCount":"200","tipCount":"8"},"url":"http:\/\/lookingglasslondon.co.uk","specials":{"count":"0"},"hereNow":{"count":"0"},"venuePage":{"id":"60161261"},"storeId":"","referralId":"v-1392477982"},{"id":"4cf24d251c158cfac0d9d6b5","name":"Ravenscroft Park","location":{"address":"Columbia Rd.","lat":"51.52892180064665","lng":"-0.07139807731077252","distance":"105","cc":"GB","city":"Bethnal Green","state":"Greater London","country":"United Kingdom"},"categories":[{"id":"4bf58dd8d48988d163941735","name":"Park","pluralName":"Parks","shortName":"Park","icon":{"prefix":"https:\/\/ss1.4sqi.net\/img\/categories_v2\/parks_outdoors\/park_","suffix":".png"},"primary":"true"}],"verified":"false","restricted":"true","stats":{"checkinsCount":"114","usersCount":"53","tipCount":"0"},"specials":{"count":"0"},"hereNow":{"count":"0"},"referralId":"v-1392477982"},{"id":"4d454ad9e198721e4ba8c48b","name":"Cafe 12","location":{"address":"12 Hackney Rd.","lat":"51.528271924211005","lng":"-0.07596043035235382","distance":"246","cc":"GB","city":"Poplar","state":"Greater London","country":"United Kingdom"},"categories":[{"id":"4bf58dd8d48988d110941735","name":"Italian Restaurant","pluralName":"Italian Restaurants","shortName":"Italian","icon":{"prefix":"https:\/\/ss1.4sqi.net\/img\/categories_v2\/food\/italian_","suffix":".png"},"primary":"true"}],"verified":"false","restricted":"true","stats":{"checkinsCount":"92","usersCount":"63","tipCount":"2"},"specials":{"count":"0"},"hereNow":{"count":"0"},"referralId":"v-1392477982"},{"id":"52bdef1e498edf023f6778b5","name":"Pelter Street","location":{"lat":"51.52879","lng":"-0.074579","distance":"134","cc":"GB","country":"United Kingdom"},"verified":"false","restricted":"true","stats":{"checkinsCount":"4","usersCount":"3","tipCount":"0"},"specials":{"count":"0"},"hereNow":{"count":"0"},"referralId":"v-1392477982"},{"id":"4e23029462e1964dbb76f804","name":"Fun Fair","location":{"lat":"51.52962440660678","lng":"-0.07254916137458171","distance":"41","cc":"GB","country":"United Kingdom"},"categories":[{"id":"4bf58dd8d48988d1f1931735","name":"General Entertainment","pluralName":"General Entertainment","shortName":"Entertainment","icon":{"prefix":"https:\/\/ss1.4sqi.net\/img\/categories_v2\/arts_entertainment\/default_","suffix":".png"},"primary":"true"}],"verified":"false","restricted":"true","stats":{"checkinsCount":"3","usersCount":"3","tipCount":"0"},"specials":{"count":"0"},"hereNow":{"count":"0"},"referralId":"v-1392477982"},{"id":"4ccfd2e6de0f6dcb4a706663","name":"Groom Dog City","location":{"address":"7-17 Ravenscroft St","lat":"51.53062629878491","lng":"-0.07112217612990641","distance":"188","postalCode":"E2 7","cc":"GB","city":"Poplar","state":"Greater London","country":"United Kingdom"},"categories":[{"id":"4bf58dd8d48988d100951735","name":"Pet Store","pluralName":"Pet Stores","shortName":"Pet Store","icon":{"prefix":"https:\/\/ss1.4sqi.net\/img\/categories_v2\/shops\/pet_store_","suffix":".png"},"primary":"true"}],"verified":"false","restricted":"true","stats":{"checkinsCount":"53","usersCount":"13","tipCount":"1"},"specials":{"count":"0"},"hereNow":{"count":"0"},"referralId":"v-1392477982"},{"id":"4c9ec33646978cfa2d3da57f","name":"Long Street Workshops","location":{"address":"Long Street","lat":"51.52935539353378","lng":"-0.07587699281402174","distance":"213","postalCode":"E28HN","cc":"GB","city":"Hackney","state":"Greater London","country":"United Kingdom"},"categories":[{"id":"4bf58dd8d48988d130941735","name":"Building","pluralName":"Buildings","shortName":"Building","icon":{"prefix":"https:\/\/ss1.4sqi.net\/img\/categories_v2\/building\/default_","suffix":".png"},"primary":"true"}],"verified":"false","restricted":"true","stats":{"checkinsCount":"638","usersCount":"97","tipCount":"0"},"specials":{"count":"0"},"hereNow":{"count":"0"},"referralId":"v-1392477982"},{"id":"4cfa264ec671721e3ea6bb18","name":"Mak's News","location":{"address":"152 Columbia Road","lat":"51.52960602993902","lng":"-0.07056810040995046","distance":"158","cc":"GB","city":"Bethnal Green","state":"Greater London","country":"United Kingdom"},"categories":[{"id":"4bf58dd8d48988d1ff941735","name":"Miscellaneous Shop","pluralName":"Miscellaneous Shops","shortName":"Shop","icon":{"prefix":"https:\/\/ss1.4sqi.net\/img\/categories_v2\/shops\/default_","suffix":".png"},"primary":"true"}],"verified":"false","restricted":"true","stats":{"checkinsCount":"3","usersCount":"3","tipCount":"0"},"specials":{"count":"0"},"hereNow":{"count":"0"},"referralId":"v-1392477982"},{"id":"4d9cc0eda1ec8cfae803f349","name":"Michael Jackson Sculpture","location":{"address":"Hackney road","crossStreet":"Dawson st","lat":"51.52939010300566","lng":"-0.07349235987844963","distance":"49","cc":"GB","city":"London","state":"Greater London","country":"United Kingdom"},"categories":[{"id":"4bf58dd8d48988d1e2931735","name":"Art Gallery","pluralName":"Art Galleries","shortName":"Art Gallery","icon":{"prefix":"https:\/\/ss1.4sqi.net\/img\/categories_v2\/arts_entertainment\/artgallery_","suffix":".png"},"primary":"true"}],"verified":"false","restricted":"true","stats":{"checkinsCount":"8","usersCount":"3","tipCount":"0"},"specials":{"count":"0"},"hereNow":{"count":"0"},"referralId":"v-1392477982"},{"id":"50eaed2ce4b0a6e29323d34f","name":"Harman Estate Baseball","location":{"lat":"51.53009578317457","lng":"-0.07413446129572834","distance":"128","cc":"GB","city":"London","state":"Greater London","country":"United Kingdom"},"categories":[{"id":"4bf58dd8d48988d18c941735","name":"Baseball Stadium","pluralName":"Baseball Stadiums","shortName":"Baseball","icon":{"prefix":"https:\/\/ss1.4sqi.net\/img\/categories_v2\/arts_entertainment\/stadium_baseball_","suffix":".png"},"primary":"true"}],"verified":"false","restricted":"true","stats":{"checkinsCount":"8","usersCount":"5","tipCount":"0"},"specials":{"count":"0"},"hereNow":{"count":"0"},"referralId":"v-1392477982"},{"id":"4b0ed99ef964a520df5b23e3","name":"Ye Olde Axe","location":{"address":"69 Hackney Road","lat":"51.528897","lng":"-0.075357","distance":"182","postalCode":"E2 8ET","cc":"GB","city":"London","state":"Greater London","country":"United Kingdom"},"categories":[{"id":"4bf58dd8d48988d1d6941735","name":"Strip Club","pluralName":"Strip Clubs","shortName":"Strip Club","icon":{"prefix":"https:\/\/ss1.4sqi.net\/img\/categories_v2\/nightlife\/stripclub_","suffix":".png"},"primary":"true"}],"verified":"false","restricted":"true","stats":{"checkinsCount":"150","usersCount":"122","tipCount":"2"},"specials":{"count":"0"},"hereNow":{"count":"0"},"referralId":"v-1392477982"},{"id":"51274e8ce4b0655094b4c6d3","name":"Tribesports","contact":{"twitter":"tribesports"},"location":{"address":"Cremer Business Centre, 37 Cremer St","lat":"51.53027411539888","lng":"-0.07628156758990141","distance":"264","postalCode":"E2 8HD","cc":"GB","city":"London","state":"Greater London","country":"United Kingdom"},"categories":[{"id":"4bf58dd8d48988d125941735","name":"Tech Startup","pluralName":"Tech Startups","shortName":"Tech Startup","icon":{"prefix":"https:\/\/ss1.4sqi.net\/img\/categories_v2\/shops\/technology_","suffix":".png"},"primary":"true"}],"verified":"false","restricted":"true","stats":{"checkinsCount":"68","usersCount":"7","tipCount":"0"},"specials":{"count":"0"},"hereNow":{"count":"0"},"referralId":"v-1392477982"},{"id":"4c4c39a0f7cc1b8da30c0141","name":"Suck & Chew","location":{"lat":"51.52926146547449","lng":"-0.06955225309146602","distance":"225","cc":"GB","country":"United Kingdom"},"categories":[{"id":"4bf58dd8d48988d1f9941735","name":"Food & Drink Shop","pluralName":"Food & Drink Shops","shortName":"Food & Drink","icon":{"prefix":"https:\/\/ss1.4sqi.net\/img\/categories_v2\/shops\/foodanddrink_","suffix":".png"},"primary":"true"}],"verified":"false","restricted":"true","stats":{"checkinsCount":"40","usersCount":"38","tipCount":"2"},"specials":{"count":"0"},"hereNow":{"count":"0"},"referralId":"v-1392477982"},{"id":"4ebbd8e54901a730a8b1d189","name":"Web Design Company","contact":{"twitter":"potterandweb"},"location":{"address":"1st Floor, 59","crossStreet":"Rivington St","lat":"51.5297316","lng":"-0.0733777","distance":"63","postalCode":"EC2A 3QQ","cc":"GB","city":"London","state":"Greater London","country":"United Kingdom"},"categories":[{"id":"4bf58dd8d48988d124941735","name":"Office","pluralName":"Offices","shortName":"Office","icon":{"prefix":"https:\/\/ss1.4sqi.net\/img\/categories_v2\/building\/default_","suffix":".png"},"primary":"true"}],"verified":"false","restricted":"true","stats":{"checkinsCount":"3","usersCount":"3","tipCount":"0"},"specials":{"count":"0"},"hereNow":{"count":"0"},"referralId":"v-1392477982"},{"id":"4ead83686da1a0e3a4833851","name":"Arch 402 Gallery","location":{"address":"37 Cremer St.","lat":"51.53061321854865","lng":"-0.07592662470334752","distance":"261","postalCode":"E2 8HD","cc":"GB","city":"Hackney","state":"Greater London","country":"United Kingdom"},"categories":[{"id":"4bf58dd8d48988d1e2931735","name":"Art Gallery","pluralName":"Art Galleries","shortName":"Art Gallery","icon":{"prefix":"https:\/\/ss1.4sqi.net\/img\/categories_v2\/arts_entertainment\/artgallery_","suffix":".png"},"primary":"true"}],"verified":"false","restricted":"true","stats":{"checkinsCount":"129","usersCount":"112","tipCount":"2"},"specials":{"count":"0"},"hereNow":{"count":"0"},"referralId":"v-1392477982"},{"id":"4b5e044cf964a520517929e3","name":"The Dorset Club","location":{"address":"Ravenscoft Street","lat":"51.529779","lng":"-0.07217","distance":"69","cc":"GB","city":"London","state":"Greater London","country":"United Kingdom"},"categories":[{"id":"4bf58dd8d48988d1e9931735","name":"Rock Club","pluralName":"Rock Clubs","shortName":"Rock Club","icon":{"prefix":"https:\/\/ss1.4sqi.net\/img\/categories_v2\/arts_entertainment\/musicvenue_rockclub_","suffix":".png"},"primary":"true"}],"verified":"false","restricted":"true","stats":{"checkinsCount":"4","usersCount":"2","tipCount":"0"},"specials":{"count":"0"},"hereNow":{"count":"0"},"referralId":"v-1392477982"},{"id":"4f64d45be4b087553d3c99b5","name":"Bethnal Green Academy","location":{"lat":"51.52781356805987","lng":"-0.07047750495329788","distance":"230","cc":"GB","country":"United Kingdom"},"verified":"false","restricted":"true","stats":{"checkinsCount":"114","usersCount":"27","tipCount":"0"},"specials":{"count":"0"},"hereNow":{"count":"0"},"referralId":"v-1392477982"}],"confident":"true"}}