{"meta":{"code":"200"},"response":{"venues":[{"id":"4bbf8ae4abf4952185d2bd93","name":"Ffionas","contact":{"phone":"+442079374152","formattedPhone":"+44 20 7937 4152","twitter":"ffionasnotes"},"location":{"address":"51 Kensington Church Street","lat":"51.504091289568535","lng":"-0.19270062446594238","distance":"23","postalCode":"W8 4BA","cc":"GB","city":"London","state":"Greater London","country":"United Kingdom"},"categories":[{"id":"4bf58dd8d48988d1c4941735","name":"Restaurant","pluralName":"Restaurants","shortName":"Restaurant","icon":{"prefix":"https:\/\/ss1.4sqi.net\/img\/categories_v2\/food\/default_","suffix":".png"},"primary":"true"}],"verified":"false","restricted":"true","stats":{"checkinsCount":"258","usersCount":"155","tipCount":"18"},"url":"http:\/\/www.ffionas.com","menu":{"type":"Menu","label":"Menu","anchor":"View Menu","url":"https:\/\/foursquare.com\/v\/ffionas\/4bbf8ae4abf4952185d2bd93\/menu","mobileUrl":"https:\/\/foursquare.com\/v\/4bbf8ae4abf4952185d2bd93\/device_menu"},"specials":{"count":"0"},"hereNow":{"count":"0"},"referralId":"v-1392478035"},{"id":"4f3af539e4b0f7c8c656f299","name":"Vicarage Court","location":{"address":"Brunswick Gardens","crossStreet":"Vicarage Gate","lat":"51.50426940817107","lng":"-0.19206642888276992","distance":"51","cc":"GB","city":"Kensington","state":"Greater London","country":"United Kingdom"},"categories":[{"id":"4d954b06a243a5684965b473","name":"Residential Building (Apartment \/ Condo)","pluralName":"Residential Buildings (Apartments \/ Condos)","shortName":"Residential","icon":{"prefix":"https:\/\/ss1.4sqi.net\/img\/categories_v2\/building\/apartment_","suffix":".png"},"primary":"true"}],"verified":"false","restricted":"true","stats":{"checkinsCount":"249","usersCount":"29","tipCount":"1"},"specials":{"count":"0"},"hereNow":{"count":"0"},"referralId":"v-1392478035"},{"id":"4e4e0efdc65bb313ba728a07","name":"Blanche Eatery (Kensington Church St)","contact":{"phone":"+442087412888","formattedPhone":"+44 20 8741 2888"},"location":{"address":"32b Kensington Church Street","lat":"51.504081272180606","lng":"-0.19208908081054688","distance":"54","postalCode":"W8 4HA","cc":"GB","city":"London","state":"Greater London","country":"United Kingdom"},"categories":[{"id":"4bf58dd8d48988d16d941735","name":"Caf\u00e9","pluralName":"Caf\u00e9s","shortName":"Caf\u00e9","icon":{"prefix":"https:\/\/ss1.4sqi.net\/img\/categories_v2\/food\/cafe_","suffix":".png"},"primary":"true"}],"verified":"false","restricted":"true","stats":{"checkinsCount":"178","usersCount":"101","tipCount":"6"},"specials":{"count":"0"},"hereNow":{"count":"0"},"referralId":"v-1392478035"},{"id":"4adc7c97f964a5209e2c21e3","name":"Starbucks","contact":{"twitter":"starbucksuk"},"location":{"address":"28a Kensington Church Street, Unit 5, Lancer Square","crossStreet":"Unit 5, Lancer Sq.","lat":"51.50323980373086","lng":"-0.19123077392578125","distance":"159","postalCode":"W8 4EP","cc":"GB","city":"London","state":"Greater London","country":"United Kingdom"},"categories":[{"id":"4bf58dd8d48988d1e0931735","name":"Coffee Shop","pluralName":"Coffee Shops","shortName":"Coffee Shop","icon":{"prefix":"https:\/\/ss1.4sqi.net\/img\/categories_v2\/food\/coffeeshop_","suffix":".png"},"primary":"true"}],"verified":"true","restricted":"true","stats":{"checkinsCount":"1292","usersCount":"573","tipCount":"4"},"url":"http:\/\/starbucks.co.uk","specials":{"count":"0"},"hereNow":{"count":"1","groups":[{"type":"others","name":"Other people here","count":"1"}]},"storeId":"12271","referralId":"v-1392478035"},{"id":"4d9deeb7c99fb60cdd60d28b","name":"Mulberry Head Office","location":{"lat":"51.50364956562219","lng":"-0.1916471320509205","distance":"107","cc":"GB","country":"United Kingdom"},"categories":[{"id":"4bf58dd8d48988d124941735","name":"Office","pluralName":"Offices","shortName":"Office","icon":{"prefix":"https:\/\/ss1.4sqi.net\/img\/categories_v2\/building\/default_","suffix":".png"},"primary":"true"}],"verified":"false","restricted":"true","stats":{"checkinsCount":"119","usersCount":"58","tipCount":"0"},"specials":{"count":"0"},"hereNow":{"count":"1","groups":[{"type":"others","name":"Other people here","count":"1"}]},"referralId":"v-1392478035"},{"id":"51eed669498e5c8c0ffc373e","name":"Core Logics Pilates","contact":{"phone":"+442073683334","formattedPhone":"+44 20 7368 3334"},"location":{"address":"58-60 Kensington Church Street","lat":"51.504461","lng":"-0.193221","distance":"34","postalCode":"W8 4DB","cc":"GB","city":"London","state":"Greater London","country":"United Kingdom"},"categories":[{"id":"4bf58dd8d48988d176941735","name":"Gym","pluralName":"Gyms","shortName":"Gym","icon":{"prefix":"https:\/\/ss1.4sqi.net\/img\/categories_v2\/building\/gym_","suffix":".png"},"primary":"true"}],"verified":"false","restricted":"true","stats":{"checkinsCount":"44","usersCount":"1","tipCount":"0"},"specials":{"count":"0"},"hereNow":{"count":"0"},"referralId":"v-1392478035"},{"id":"50ba151ee4b03a9fda3241ad","name":"Candella Tea Room","location":{"address":"Kensington Church Street","lat":"51.50400773279419","lng":"-0.1920977039186744","distance":"58","cc":"GB","country":"United Kingdom"},"categories":[{"id":"4bf58dd8d48988d1dc931735","name":"Tea Room","pluralName":"Tea Rooms","shortName":"Tea Room","icon":{"prefix":"https:\/\/ss1.4sqi.net\/img\/categories_v2\/food\/tearoom_","suffix":".png"},"primary":"true"}],"verified":"false","restricted":"true","stats":{"checkinsCount":"77","usersCount":"54","tipCount":"3"},"specials":{"count":"0"},"hereNow":{"count":"0"},"referralId":"v-1392478035"},{"id":"4ac518f2f964a52087ae20e3","name":"Patisserie Valerie","contact":{"phone":"+442079379574","formattedPhone":"+44 20 7937 9574"},"location":{"address":"27 Church St.","lat":"51.50343848518276","lng":"-0.19185304641723633","distance":"115","postalCode":"W8 4LL","cc":"GB","city":"Kensington","state":"Greater London","country":"United Kingdom"},"categories":[{"id":"4bf58dd8d48988d16a941735","name":"Bakery","pluralName":"Bakeries","shortName":"Bakery","icon":{"prefix":"https:\/\/ss1.4sqi.net\/img\/categories_v2\/food\/bakery_","suffix":".png"},"primary":"true"}],"verified":"false","restricted":"true","stats":{"checkinsCount":"300","usersCount":"243","tipCount":"13"},"specials":{"count":"0"},"hereNow":{"count":"1","groups":[{"type":"others","name":"Other people here","count":"1"}]},"referralId":"v-1392478035"},{"id":"4ff031f9e4b0730ed84fe57e","name":"Church Of Our Lady Of Carmel & Saint Simon Stock","location":{"address":"41 Kensington Church St","lat":"51.50377675855682","lng":"-0.1926003544631215","distance":"58","postalCode":"W8 4BB","cc":"GB","city":"London","state":"Greater London","country":"United Kingdom"},"categories":[{"id":"4bf58dd8d48988d132941735","name":"Church","pluralName":"Churches","shortName":"Church","icon":{"prefix":"https:\/\/ss1.4sqi.net\/img\/categories_v2\/building\/religious_church_","suffix":".png"},"primary":"true"}],"verified":"false","restricted":"true","stats":{"checkinsCount":"71","usersCount":"27","tipCount":"0"},"specials":{"count":"0"},"hereNow":{"count":"0"},"referralId":"v-1392478035"},{"id":"4e7a404cdab48d815e78c0d5","name":"Romano's Italian Restaurant","location":{"address":"32 Kensington Church Street","lat":"51.50398727848813","lng":"-0.1921946093720446","distance":"53","cc":"GB","city":"London","state":"Greater London","country":"United Kingdom"},"categories":[{"id":"4bf58dd8d48988d110941735","name":"Italian Restaurant","pluralName":"Italian Restaurants","shortName":"Italian","icon":{"prefix":"https:\/\/ss1.4sqi.net\/img\/categories_v2\/food\/italian_","suffix":".png"},"primary":"true"}],"verified":"false","restricted":"true","stats":{"checkinsCount":"71","usersCount":"48","tipCount":"0"},"specials":{"count":"0"},"hereNow":{"count":"0"},"referralId":"v-1392478035"},{"id":"4ac518bef964a520f2a220e3","name":"Elephant & Castle","contact":{"phone":"+442073680901","formattedPhone":"+44 20 7368 0901"},"location":{"address":"40 Holland St.","lat":"51.50294595394508","lng":"-0.19350528717041016","distance":"157","postalCode":"W8 4LT","cc":"GB","city":"Kensington","state":"Greater London","country":"United Kingdom"},"categories":[{"id":"4bf58dd8d48988d11b941735","name":"Pub","pluralName":"Pubs","shortName":"Pub","icon":{"prefix":"https:\/\/ss1.4sqi.net\/img\/categories_v2\/nightlife\/pub_","suffix":".png"},"primary":"true"}],"verified":"false","restricted":"true","stats":{"checkinsCount":"665","usersCount":"405","tipCount":"14"},"specials":{"count":"0"},"hereNow":{"count":"0"},"referralId":"v-1392478035"},{"id":"4e54f64ce4cd76151a436698","name":"Uk Barber Shop","location":{"address":"Kensington Church St","lat":"51.504140422086145","lng":"-0.19255847680181487","distance":"23","cc":"GB","city":"London","state":"Greater London","country":"United Kingdom"},"categories":[{"id":"4bf58dd8d48988d110951735","name":"Salon \/ Barbershop","pluralName":"Salons \/ Barbershops","shortName":"Salon \/ Barbershop","icon":{"prefix":"https:\/\/ss1.4sqi.net\/img\/categories_v2\/shops\/salon_barber_","suffix":".png"},"primary":"true"}],"verified":"false","restricted":"true","stats":{"checkinsCount":"8","usersCount":"6","tipCount":"0"},"specials":{"count":"0"},"hereNow":{"count":"0"},"referralId":"v-1392478035"},{"id":"4dd797e41f6ee1468325e5b8","name":"Tide","contact":{"phone":"+442079371500","formattedPhone":"+44 20 7937 1500"},"location":{"address":"53 Kensington Church St","lat":"51.50423718323012","lng":"-0.19267329940197964","distance":"10","cc":"GB","city":"Kensington","state":"Greater London","country":"United Kingdom"},"categories":[{"id":"4bf58dd8d48988d1fc941735","name":"Laundry Service","pluralName":"Laundry Services","shortName":"Laundry","icon":{"prefix":"https:\/\/ss1.4sqi.net\/img\/categories_v2\/shops\/laundry_","suffix":".png"},"primary":"true"}],"verified":"false","restricted":"true","stats":{"checkinsCount":"26","usersCount":"10","tipCount":"0"},"specials":{"count":"0"},"hereNow":{"count":"0"},"referralId":"v-1392478035"},{"id":"4b655f6bf964a520c2ee2ae3","name":"Caf\u00e9 Rouge","contact":{"phone":"+442079384200","formattedPhone":"+44 20 7938 4200","twitter":"caferougetweet","facebook":"207511922592337"},"location":{"address":"2 Lancer Square, Kensington Church St","lat":"51.50316258537062","lng":"-0.19115532026189633","distance":"169","postalCode":"W8 4EH","cc":"GB","city":"London","state":"Greater London","country":"United Kingdom"},"categories":[{"id":"4bf58dd8d48988d10c941735","name":"French Restaurant","pluralName":"French Restaurants","shortName":"French","icon":{"prefix":"https:\/\/ss1.4sqi.net\/img\/categories_v2\/food\/french_","suffix":".png"},"primary":"true"}],"verified":"true","restricted":"true","stats":{"checkinsCount":"593","usersCount":"389","tipCount":"8"},"url":"http:\/\/www.caferouge.co.uk\/french-restaurant\/lancer-square","specials":{"count":"0"},"hereNow":{"count":"0"},"storeId":"8103822","referralId":"v-1392478035"},{"id":"4d28e2e58292236ae7c31dbb","name":"Vicarage Gate","contact":{"phone":"0000","formattedPhone":"0000"},"location":{"address":"Kensington High St.","lat":"51.50467019430472","lng":"-0.19191845754552056","distance":"74","postalCode":"W8 4BY","cc":"GB","city":"London","state":"Greater London","country":"United Kingdom"},"categories":[{"id":"4bf58dd8d48988d1fa931735","name":"Hotel","pluralName":"Hotels","shortName":"Hotel","icon":{"prefix":"https:\/\/ss1.4sqi.net\/img\/categories_v2\/travel\/hotel_","suffix":".png"},"primary":"true"}],"verified":"false","restricted":"true","stats":{"checkinsCount":"412","usersCount":"62","tipCount":"1"},"specials":{"count":"0"},"hereNow":{"count":"0"},"referralId":"v-1392478035"},{"id":"4be3dce02ff376b07b664fed","name":"Warner Music International","location":{"address":"28 Kensington Church Street","crossStreet":"The Warner Building","lat":"51.50317301985501","lng":"-0.19150972366333008","distance":"153","postalCode":"W8 4EP","cc":"GB","city":"Kensington","state":"Greater London","country":"United Kingdom"},"categories":[{"id":"4bf58dd8d48988d124941735","name":"Office","pluralName":"Offices","shortName":"Office","icon":{"prefix":"https:\/\/ss1.4sqi.net\/img\/categories_v2\/building\/default_","suffix":".png"},"primary":"true"}],"verified":"false","restricted":"true","stats":{"checkinsCount":"425","usersCount":"183","tipCount":"2"},"specials":{"count":"0"},"hereNow":{"count":"0"},"referralId":"v-1392478035"},{"id":"4b6c8154f964a5205f3f2ce3","name":"Thai Origin","location":{"address":"Kensington Church St","lat":"51.504168","lng":"-0.192792","distance":"13","cc":"GB","city":"Kensington","state":"Greater London","country":"United Kingdom"},"categories":[{"id":"4bf58dd8d48988d149941735","name":"Thai Restaurant","pluralName":"Thai Restaurants","shortName":"Thai","icon":{"prefix":"https:\/\/ss1.4sqi.net\/img\/categories_v2\/food\/thai_","suffix":".png"},"primary":"true"}],"verified":"false","restricted":"true","stats":{"checkinsCount":"33","usersCount":"26","tipCount":"0"},"specials":{"count":"0"},"hereNow":{"count":"0"},"referralId":"v-1392478035"},{"id":"4eac0e888b8180c90c15336a","name":"Anthony Fletcher","location":{"address":"55 Kensington Church Street","lat":"51.50416562240703","lng":"-0.19289836713809355","distance":"15","cc":"GB","city":"Kensington","state":"Greater London","country":"United Kingdom"},"categories":[{"id":"4bf58dd8d48988d110951735","name":"Salon \/ Barbershop","pluralName":"Salons \/ Barbershops","shortName":"Salon \/ Barbershop","icon":{"prefix":"https:\/\/ss1.4sqi.net\/img\/categories_v2\/shops\/salon_barber_","suffix":".png"},"primary":"true"}],"verified":"false","restricted":"true","stats":{"checkinsCount":"4","usersCount":"2","tipCount":"0"},"specials":{"count":"0"},"hereNow":{"count":"0"},"referralId":"v-1392478035"},{"id":"4ac518e0f964a5201aaa20e3","name":"Randa Restaurant","contact":{"phone":"+442079375363","formattedPhone":"+44 20 7937 5363"},"location":{"address":"23 Kensington Church Street","lat":"51.503309652033096","lng":"-0.1916616625164608","distance":"134","postalCode":"W8 4LF","cc":"GB","city":"London","state":"Greater London","country":"United Kingdom"},"categories":[{"id":"4bf58dd8d48988d115941735","name":"Middle Eastern Restaurant","pluralName":"Middle Eastern Restaurants","shortName":"Middle Eastern","icon":{"prefix":"https:\/\/ss1.4sqi.net\/img\/categories_v2\/food\/default_","suffix":".png"},"primary":"true"}],"verified":"true","restricted":"true","stats":{"checkinsCount":"166","usersCount":"121","tipCount":"13"},"url":"http:\/\/www.randa-restaurant.com","reservations":{"url":"http:\/\/www.toptable.co.uk\/single.aspx?rid=73675&ref=9601"},"menu":{"type":"Menu","label":"Menu","anchor":"View Menu","url":"https:\/\/foursquare.com\/v\/randa-restaurant-london-greater-london\/4ac518e0f964a5201aaa20e3\/menu","mobileUrl":"https:\/\/foursquare.com\/v\/4ac518e0f964a5201aaa20e3\/device_menu"},"specials":{"count":"0"},"hereNow":{"count":"0"},"referralId":"v-1392478035"},{"id":"5123945ee4b0bcdf6e574a36","name":"Baby Spa","location":{"lat":"51.5032447953791","lng":"-0.19106363575375743","distance":"167","cc":"GB","country":"United Kingdom"},"categories":[{"id":"4bf58dd8d48988d1ed941735","name":"Spa","pluralName":"Spas","shortName":"Spa","icon":{"prefix":"https:\/\/ss1.4sqi.net\/img\/categories_v2\/shops\/spa_","suffix":".png"},"primary":"true"}],"verified":"false","restricted":"true","stats":{"checkinsCount":"23","usersCount":"11","tipCount":"1"},"specials":{"count":"0"},"hereNow":{"count":"0"},"referralId":"v-1392478035"},{"id":"4ac518f5f964a52015af20e3","name":"Toni & Guy","location":{"address":"28 Church St.","lat":"51.50316228642711","lng":"-0.19167104382887717","distance":"147","postalCode":"W8 4EP","cc":"GB","city":"Kensington","state":"Greater London","country":"United Kingdom"},"categories":[{"id":"4bf58dd8d48988d110951735","name":"Salon \/ Barbershop","pluralName":"Salons \/ Barbershops","shortName":"Salon \/ Barbershop","icon":{"prefix":"https:\/\/ss1.4sqi.net\/img\/categories_v2\/shops\/salon_barber_","suffix":".png"},"primary":"true"}],"verified":"false","restricted":"true","stats":{"checkinsCount":"155","usersCount":"46","tipCount":"1"},"specials":{"count":"0"},"hereNow":{"count":"0"},"referralId":"v-1392478035"},{"id":"52c81eb8498ed41cb72ab274","name":"Filosophy","location":{"address":"Holland street","lat":"51.50329540808182","lng":"-0.19182380396162926","distance":"129","cc":"GB","country":"United Kingdom"},"categories":[{"id":"4bf58dd8d48988d16d941735","name":"Caf\u00e9","pluralName":"Caf\u00e9s","shortName":"Caf\u00e9","icon":{"prefix":"https:\/\/ss1.4sqi.net\/img\/categories_v2\/food\/cafe_","suffix":".png"},"primary":"true"}],"verified":"false","restricted":"true","stats":{"checkinsCount":"4","usersCount":"2","tipCount":"0"},"specials":{"count":"0"},"hereNow":{"count":"0"},"referralId":"v-1392478035"},{"id":"5049e9abe4b0fd02e417e8ff","name":"Kensington Nails","location":{"lat":"51.504215","lng":"-0.193098","distance":"22","cc":"GB","country":"United Kingdom"},"categories":[{"id":"4f04aa0c2fb6e1c99f3db0b8","name":"Nail Salon","pluralName":"Nail Salons","shortName":"Nail Salon","icon":{"prefix":"https:\/\/ss1.4sqi.net\/img\/categories_v2\/shops\/nailsalon_","suffix":".png"},"primary":"true"}],"verified":"false","restricted":"true","stats":{"checkinsCount":"4","usersCount":"4","tipCount":"0"},"specials":{"count":"0"},"hereNow":{"count":"0"},"referralId":"v-1392478035"},{"id":"4ac518bdf964a520d7a220e3","name":"The Catherine Wheel","location":{"address":"23 Kensington Church Street","lat":"51.504239","lng":"-0.193147","distance":"24","postalCode":"W8 4LF","cc":"GB","city":"London","state":"Greater London","country":"United Kingdom"},"categories":[{"id":"4bf58dd8d48988d11b941735","name":"Pub","pluralName":"Pubs","shortName":"Pub","icon":{"prefix":"https:\/\/ss1.4sqi.net\/img\/categories_v2\/nightlife\/pub_","suffix":".png"},"primary":"true"}],"verified":"false","restricted":"true","stats":{"checkinsCount":"0","usersCount":"0","tipCount":"0"},"specials":{"count":"0"},"hereNow":{"count":"0"},"referralId":"v-1392478035"},{"id":"4f893bd7e4b07f1a3532c019","name":"Pure Stitch","location":{"lat":"51.50446779102605","lng":"-0.19317559915437565","distance":"32","cc":"GB","country":"United Kingdom"},"categories":[{"id":"4bf58dd8d48988d104951735","name":"Boutique","pluralName":"Boutiques","shortName":"Boutique","icon":{"prefix":"https:\/\/ss1.4sqi.net\/img\/categories_v2\/shops\/apparel_boutique_","suffix":".png"},"primary":"true"}],"verified":"false","restricted":"true","stats":{"checkinsCount":"8","usersCount":"4","tipCount":"1"},"specials":{"count":"0"},"hereNow":{"count":"0"},"referralId":"v-1392478035"},{"id":"4caf627a562d224b94a20d88","name":"Hair & Beauty","location":{"lat":"51.50437","lng":"-0.193297","distance":"35","cc":"GB","country":"United Kingdom"},"verified":"false","restricted":"true","stats":{"checkinsCount":"4","usersCount":"4","tipCount":"0"},"specials":{"count":"0"},"hereNow":{"count":"0"},"referralId":"v-1392478035"},{"id":"4ac518f1f964a5202bae20e3","name":"The Fay Lucas Gallery","location":{"address":"50 Kensington Church Street","lat":"51.504306","lng":"-0.193332","distance":"36","postalCode":"W8 4DA","cc":"GB","city":"London","state":"Greater London","country":"United Kingdom"},"categories":[{"id":"4bf58dd8d48988d103951735","name":"Clothing Store","pluralName":"Clothing Stores","shortName":"Apparel","icon":{"prefix":"https:\/\/ss1.4sqi.net\/img\/categories_v2\/shops\/apparel_","suffix":".png"},"primary":"true"}],"verified":"false","restricted":"true","stats":{"checkinsCount":"1","usersCount":"1","tipCount":"0"},"specials":{"count":"0"},"hereNow":{"count":"0"},"referralId":"v-1392478035"},{"id":"4ac518e1f964a5205caa20e3","name":"The Terrace Restaurant","location":{"address":"33 Holland Street","lat":"51.50288595608998","lng":"-0.19387763274614592","distance":"173","postalCode":"W8 4LX","cc":"GB","city":"London","state":"Greater London","country":"United Kingdom"},"categories":[{"id":"4bf58dd8d48988d1c4941735","name":"Restaurant","pluralName":"Restaurants","shortName":"Restaurant","icon":{"prefix":"https:\/\/ss1.4sqi.net\/img\/categories_v2\/food\/default_","suffix":".png"},"primary":"true"}],"verified":"false","restricted":"true","stats":{"checkinsCount":"13","usersCount":"12","tipCount":"3"},"menu":{"type":"Menu","label":"Menu","anchor":"View Menu","url":"https:\/\/foursquare.com\/v\/the-terrace-restaurant\/4ac518e1f964a5205caa20e3\/menu","mobileUrl":"https:\/\/foursquare.com\/v\/4ac518e1f964a5205caa20e3\/device_menu"},"specials":{"count":"0"},"hereNow":{"count":"0"},"referralId":"v-1392478035"},{"id":"4ebdd41f7ee54e4cd1ca463f","name":"TfL Bus 28","contact":{"twitter":"tflbusalerts"},"location":{"address":"Moving Target!","lat":"51.50543026060531","lng":"-0.19354820251464844","distance":"137","cc":"GB","city":"London","state":"Greater London","country":"United Kingdom"},"categories":[{"id":"4bf58dd8d48988d12b951735","name":"Bus Line","pluralName":"Bus Lines","shortName":"Bus","icon":{"prefix":"https:\/\/ss1.4sqi.net\/img\/categories_v2\/travel\/busstation_","suffix":".png"},"primary":"true"}],"verified":"false","restricted":"true","stats":{"checkinsCount":"257","usersCount":"106","tipCount":"2"},"url":"http:\/\/tfl.gov.uk","specials":{"count":"0"},"hereNow":{"count":"0"},"referralId":"v-1392478035"},{"id":"4c8101492f1c236a9d5f2b43","name":"Kensington and Chelsea Town Hall","location":{"address":"54 Hornton St.","lat":"51.5033815338795","lng":"-0.19422777007697256","distance":"141","postalCode":"W8 7","cc":"GB","city":"Kensington","state":"Greater London","country":"United Kingdom"},"categories":[{"id":"4bf58dd8d48988d129941735","name":"City Hall","pluralName":"City Halls","shortName":"City Hall","icon":{"prefix":"https:\/\/ss1.4sqi.net\/img\/categories_v2\/building\/cityhall_","suffix":".png"},"primary":"true"}],"verified":"false","restricted":"true","stats":{"checkinsCount":"251","usersCount":"137","tipCount":"0"},"specials":{"count":"0"},"hereNow":{"count":"0"},"referralId":"v-1392478035"}],"confident":"true"}}