{"meta":{"code":"200"},"response":{"venues":[{"id":"4ac518d1f964a520caa620e3","name":"Little Venice","location":{"address":"Blomfield Rd.","lat":"51.52257629597823","lng":"-0.1876688003540039","distance":"190","postalCode":"W2 1TH","cc":"GB","city":"London","state":"Greater London","country":"United Kingdom"},"categories":[{"id":"4bf58dd8d48988d1e0941735","name":"Harbor \/ Marina","pluralName":"Harbors \/ Marinas","shortName":"Harbor \/ Marina","icon":{"prefix":"https:\/\/ss1.4sqi.net\/img\/categories_v2\/parks_outdoors\/harbor_","suffix":".png"},"primary":"true"}],"verified":"false","restricted":"true","stats":{"checkinsCount":"4140","usersCount":"1911","tipCount":"19"},"specials":{"count":"0"},"hereNow":{"count":"0"},"referralId":"v-1392477983"},{"id":"514dd602e4b02f70d8109601","name":"The Truscott Arms","contact":{"phone":"+442072669198","formattedPhone":"+44 20 7266 9198","twitter":"thetruscottarms"},"location":{"address":"55 Shirland Rd","crossStreet":"at Elnathan Mews","lat":"51.52418663895106","lng":"-0.1887278333622141","distance":"65","postalCode":"W9 2JD","cc":"GB","city":"London","state":"Greater London","country":"United Kingdom"},"categories":[{"id":"4bf58dd8d48988d11b941735","name":"Pub","pluralName":"Pubs","shortName":"Pub","icon":{"prefix":"https:\/\/ss1.4sqi.net\/img\/categories_v2\/nightlife\/pub_","suffix":".png"},"primary":"true"}],"verified":"false","restricted":"true","stats":{"checkinsCount":"374","usersCount":"169","tipCount":"12"},"url":"http:\/\/www.thetruscottarms.com","reservations":{"url":"http:\/\/www.toptable.co.uk\/single.aspx?rid=42769&ref=9601"},"menu":{"type":"Menu","label":"Menu","anchor":"View Menu","url":"https:\/\/foursquare.com\/v\/the-truscott-arms\/514dd602e4b02f70d8109601\/menu","mobileUrl":"https:\/\/foursquare.com\/v\/514dd602e4b02f70d8109601\/device_menu"},"specials":{"count":"0"},"hereNow":{"count":"0"},"referralId":"v-1392477983"},{"id":"4d65208489238cfa52859536","name":"Daniela's Lounge","contact":{"phone":"+442072890008","formattedPhone":"+44 20 7289 0008"},"location":{"address":"49 Shirland Road","lat":"51.52414083480835","lng":"-0.18865207","distance":"61","postalCode":"W9 2JD","cc":"GB","city":"London","state":"Greater London","country":"United Kingdom"},"categories":[{"id":"4bf58dd8d48988d16d941735","name":"Caf\u00e9","pluralName":"Caf\u00e9s","shortName":"Caf\u00e9","icon":{"prefix":"https:\/\/ss1.4sqi.net\/img\/categories_v2\/food\/cafe_","suffix":".png"},"primary":"true"}],"verified":"false","restricted":"true","stats":{"checkinsCount":"162","usersCount":"80","tipCount":"4"},"specials":{"count":"0"},"hereNow":{"count":"0"},"referralId":"v-1392477983"},{"id":"4ac518e1f964a52065aa20e3","name":"The Waterway","contact":{"phone":"+442072663557","formattedPhone":"+44 20 7266 3557"},"location":{"address":"54 Formosa St.","lat":"51.522675","lng":"-0.187816","distance":"179","postalCode":"W9 2JU","cc":"GB","city":"Maida Vale","state":"Greater London","country":"United Kingdom"},"categories":[{"id":"4bf58dd8d48988d1c4941735","name":"Restaurant","pluralName":"Restaurants","shortName":"Restaurant","icon":{"prefix":"https:\/\/ss1.4sqi.net\/img\/categories_v2\/food\/default_","suffix":".png"},"primary":"true"}],"verified":"false","restricted":"true","stats":{"checkinsCount":"2153","usersCount":"1286","tipCount":"32"},"url":"http:\/\/www.thewaterway.co.uk","reservations":{"url":"http:\/\/www.toptable.co.uk\/single.aspx?rid=6753&ref=9601"},"menu":{"type":"Menu","label":"Menu","anchor":"View Menu","url":"https:\/\/foursquare.com\/v\/the-waterway\/4ac518e1f964a52065aa20e3\/menu","mobileUrl":"https:\/\/foursquare.com\/v\/4ac518e1f964a52065aa20e3\/device_menu"},"specials":{"count":"0"},"hereNow":{"count":"0"},"referralId":"v-1392477983"},{"id":"4ba77c2cf964a5206f9739e3","name":"BBC Maida Vale Studios","location":{"address":"Delaware Rd","lat":"51.52599649144442","lng":"-0.19082977794527753","distance":"282","cc":"GB","city":"Paddington","state":"Greater London","country":"United Kingdom"},"categories":[{"id":"4bf58dd8d48988d1f1931735","name":"General Entertainment","pluralName":"General Entertainment","shortName":"Entertainment","icon":{"prefix":"https:\/\/ss1.4sqi.net\/img\/categories_v2\/arts_entertainment\/default_","suffix":".png"},"primary":"true"}],"verified":"false","restricted":"true","stats":{"checkinsCount":"681","usersCount":"308","tipCount":"3"},"specials":{"count":"0"},"hereNow":{"count":"0"},"referralId":"v-1392477983"},{"id":"4ae5031df964a52001a021e3","name":"The Prince Alfred","contact":{"phone":"+442072863287","formattedPhone":"+44 20 7286 3287"},"location":{"address":"5A Formosa St","lat":"51.524375","lng":"-0.184941","distance":"198","postalCode":"W9 1EE","cc":"GB","city":"London","state":"Greater London","country":"United Kingdom"},"categories":[{"id":"4bf58dd8d48988d11b941735","name":"Pub","pluralName":"Pubs","shortName":"Pub","icon":{"prefix":"https:\/\/ss1.4sqi.net\/img\/categories_v2\/nightlife\/pub_","suffix":".png"},"primary":"true"}],"verified":"false","restricted":"true","stats":{"checkinsCount":"1536","usersCount":"714","tipCount":"12"},"url":"http:\/\/www.theprincealfred.com","reservations":{"url":"http:\/\/www.toptable.co.uk\/single.aspx?rid=45085&ref=9601"},"menu":{"type":"Menu","label":"Menu","anchor":"View Menu","url":"https:\/\/foursquare.com\/v\/the-prince-alfred\/4ae5031df964a52001a021e3\/menu","mobileUrl":"https:\/\/foursquare.com\/v\/4ae5031df964a52001a021e3\/device_menu"},"specials":{"count":"0"},"hereNow":{"count":"0"},"referralId":"v-1392477983"},{"id":"4c10b693ce640f47ab4f3a52","name":"The Amadeus Centre","location":{"address":"50 Shirland Road","crossStreet":"Braden Street","lat":"51.524291038513184","lng":"-0.189218","distance":"98","postalCode":"W9 2JA","cc":"GB","city":"London","state":"Greater London","country":"United Kingdom"},"categories":[{"id":"4bf58dd8d48988d171941735","name":"Event Space","pluralName":"Event Spaces","shortName":"Event Space","icon":{"prefix":"https:\/\/ss1.4sqi.net\/img\/categories_v2\/building\/eventspace_","suffix":".png"},"primary":"true"}],"verified":"false","restricted":"true","stats":{"checkinsCount":"105","usersCount":"79","tipCount":"1"},"specials":{"count":"0"},"hereNow":{"count":"0"},"referralId":"v-1392477983"},{"id":"4ad3ba98f964a520f8e520e3","name":"Idlewild","contact":{"phone":"+442072669198","formattedPhone":"+44 20 7266 9198","twitter":"idlewild55"},"location":{"address":"55 Shirland Rd","lat":"51.524314","lng":"-0.188813","distance":"70","postalCode":"W9 2JD","cc":"GB","city":"London","state":"Greater London","country":"United Kingdom"},"categories":[{"id":"4bf58dd8d48988d116941735","name":"Bar","pluralName":"Bars","shortName":"Bar","icon":{"prefix":"https:\/\/ss1.4sqi.net\/img\/categories_v2\/nightlife\/bar_","suffix":".png"},"primary":"true"}],"verified":"false","restricted":"true","stats":{"checkinsCount":"609","usersCount":"286","tipCount":"17"},"specials":{"count":"0"},"hereNow":{"count":"0"},"referralId":"v-1392477983"},{"id":"4c3b4d295810a593d76dba3c","name":"Toast Cafe","location":{"lat":"51.52455764765684","lng":"-0.18457757193674043","distance":"225","cc":"GB","city":"Paddington","state":"Greater London","country":"United Kingdom"},"categories":[{"id":"4bf58dd8d48988d16d941735","name":"Caf\u00e9","pluralName":"Caf\u00e9s","shortName":"Caf\u00e9","icon":{"prefix":"https:\/\/ss1.4sqi.net\/img\/categories_v2\/food\/cafe_","suffix":".png"},"primary":"true"}],"verified":"false","restricted":"true","stats":{"checkinsCount":"350","usersCount":"146","tipCount":"12"},"specials":{"count":"0"},"hereNow":{"count":"0"},"referralId":"v-1392477983"},{"id":"4b502251f964a520491d27e3","name":"TfL Bus 6","contact":{"twitter":"tflbusalerts"},"location":{"address":"Moving Target!","lat":"51.52487262675978","lng":"-0.19054412841796875","distance":"200","cc":"GB","city":"London","state":"Greater London","country":"United Kingdom"},"categories":[{"id":"4bf58dd8d48988d12b951735","name":"Bus Line","pluralName":"Bus Lines","shortName":"Bus","icon":{"prefix":"https:\/\/ss1.4sqi.net\/img\/categories_v2\/travel\/busstation_","suffix":".png"},"primary":"true"}],"verified":"false","restricted":"true","stats":{"checkinsCount":"198","usersCount":"93","tipCount":"0"},"url":"http:\/\/tfl.gov.uk","specials":{"count":"0"},"hereNow":{"count":"0"},"referralId":"v-1392477983"},{"id":"4ae8d130f964a5208eb221e3","name":"Red Pepper","location":{"address":"8 Formosa St","lat":"51.52454229996564","lng":"-0.18465244279477128","distance":"220","postalCode":"W9 1EE","cc":"GB","city":"London","state":"Greater London","country":"United Kingdom"},"categories":[{"id":"4bf58dd8d48988d110941735","name":"Italian Restaurant","pluralName":"Italian Restaurants","shortName":"Italian","icon":{"prefix":"https:\/\/ss1.4sqi.net\/img\/categories_v2\/food\/italian_","suffix":".png"},"primary":"true"}],"verified":"false","restricted":"true","stats":{"checkinsCount":"581","usersCount":"193","tipCount":"12"},"menu":{"type":"Menu","label":"Menu","anchor":"View Menu","url":"https:\/\/foursquare.com\/v\/red-pepper\/4ae8d130f964a5208eb221e3\/menu","mobileUrl":"https:\/\/foursquare.com\/v\/4ae8d130f964a5208eb221e3\/device_menu"},"specials":{"count":"0"},"hereNow":{"count":"0"},"referralId":"v-1392477983"},{"id":"4ac518b5f964a520c7a020e3","name":"The Colonnade Hotel","contact":{"phone":"+442072861052","formattedPhone":"+44 20 7286 1052"},"location":{"address":"2 Warrington Crescent","lat":"51.52435742385382","lng":"-0.1845129822127418","distance":"227","postalCode":"W9 1ER","cc":"GB","city":"London","state":"Greater London","country":"United Kingdom"},"categories":[{"id":"4bf58dd8d48988d1fa931735","name":"Hotel","pluralName":"Hotels","shortName":"Hotel","icon":{"prefix":"https:\/\/ss1.4sqi.net\/img\/categories_v2\/travel\/hotel_","suffix":".png"},"primary":"true"}],"verified":"true","restricted":"true","stats":{"checkinsCount":"361","usersCount":"157","tipCount":"4"},"specials":{"count":"1","items":[{"id":"4cab0f52d250bfb7e128ca63","type":"frequency","message":"Thanks for checking-in! We'd like to offer you 10% off your next stay with us or any of our sister properties @ http:\/\/www.theetoncollection.co.uk Type  foursquare into booking page 2 unlock discount.","description":"Unlocked every check-in","icon":"check-in","title":"Check-in Special","provider":"foursquare","redemption":"standard"}]},"hereNow":{"count":"0"},"referralId":"v-1392477983"},{"id":"4e3acf32ae6019d8e5d731bb","name":"Little Venice Pilates","contact":{"phone":"+442072865000","formattedPhone":"+44 20 7286 5000"},"location":{"address":"28 Bristol Gardens","lat":"51.523148321133014","lng":"-0.18633931651184846","distance":"162","postalCode":"W9 2JQ","cc":"GB","city":"Paddington","state":"Greater London","country":"United Kingdom"},"categories":[{"id":"4bf58dd8d48988d102941735","name":"Yoga Studio","pluralName":"Yoga Studios","shortName":"Yoga Studio","icon":{"prefix":"https:\/\/ss1.4sqi.net\/img\/categories_v2\/shops\/gym_yogastudio_","suffix":".png"},"primary":"true"}],"verified":"false","restricted":"true","stats":{"checkinsCount":"122","usersCount":"19","tipCount":"0"},"url":"http:\/\/www.littlevenicepilates.com","specials":{"count":"0"},"hereNow":{"count":"0"},"referralId":"v-1392477983"},{"id":"4f0c5744e4b0ece6d137f417","name":"St Mary Magdalene Primary School","location":{"address":"Rowington Close","lat":"51.52222019182377","lng":"-0.18920459732349387","distance":"249","cc":"GB","country":"United Kingdom"},"categories":[{"id":"4bf58dd8d48988d13b941735","name":"School","pluralName":"Schools","shortName":"School","icon":{"prefix":"https:\/\/ss1.4sqi.net\/img\/categories_v2\/building\/school_","suffix":".png"},"primary":"true"}],"verified":"false","restricted":"true","stats":{"checkinsCount":"32","usersCount":"3","tipCount":"0"},"specials":{"count":"0"},"hereNow":{"count":"0"},"referralId":"v-1392477983"},{"id":"516a90d5498e0104034447ad","name":"Charfield Court Bus Stop","location":{"lat":"51.523947","lng":"-0.188312","distance":"51","cc":"GB","country":"United Kingdom"},"categories":[{"id":"4bf58dd8d48988d1fe931735","name":"Bus Station","pluralName":"Bus Stations","shortName":"Bus Station","icon":{"prefix":"https:\/\/ss1.4sqi.net\/img\/categories_v2\/travel\/busstation_","suffix":".png"},"primary":"true"}],"verified":"false","restricted":"true","stats":{"checkinsCount":"3","usersCount":"1","tipCount":"0"},"specials":{"count":"0"},"hereNow":{"count":"0"},"referralId":"v-1392477983"},{"id":"51688c4ee4b0dd3094d2cf99","name":"32a Bristol Gardens","location":{"lat":"51.523278","lng":"-0.186479","distance":"145","cc":"GB","country":"United Kingdom"},"categories":[{"id":"4bf58dd8d48988d11c941735","name":"Sake Bar","pluralName":"Sake Bars","shortName":"Sake Bar","icon":{"prefix":"https:\/\/ss1.4sqi.net\/img\/categories_v2\/nightlife\/sake_","suffix":".png"},"primary":"true"}],"verified":"false","restricted":"true","stats":{"checkinsCount":"44","usersCount":"5","tipCount":"0"},"specials":{"count":"0"},"hereNow":{"count":"0"},"referralId":"v-1392477983"},{"id":"4aef23b7f964a520f7d521e3","name":"Paddington sport club","location":{"address":"Castellain Rd, London","lat":"51.52641844263292","lng":"-0.18985175178595703","distance":"276","postalCode":"W9 1HQ","cc":"GB","city":"London","state":"Greater London","country":"United Kingdom"},"categories":[{"id":"4bf58dd8d48988d176941735","name":"Gym","pluralName":"Gyms","shortName":"Gym","icon":{"prefix":"https:\/\/ss1.4sqi.net\/img\/categories_v2\/building\/gym_","suffix":".png"},"primary":"true"}],"verified":"false","restricted":"true","stats":{"checkinsCount":"68","usersCount":"30","tipCount":"2"},"specials":{"count":"0"},"hereNow":{"count":"0"},"referralId":"v-1392477984"},{"id":"4bc779df6501c9b675813e29","name":"Maida Vale Library","contact":{"phone":"+442076411300","formattedPhone":"+44 20 7641 1300","twitter":"wcclibraries"},"location":{"address":"Sutherland Ave.","crossStreet":"at Shirland Rd","lat":"51.52475247278768","lng":"-0.1905226707458496","distance":"195","postalCode":"W9 2QT","cc":"GB","city":"London","state":"Greater London","country":"United Kingdom"},"categories":[{"id":"4bf58dd8d48988d12f941735","name":"Library","pluralName":"Libraries","shortName":"Library","icon":{"prefix":"https:\/\/ss1.4sqi.net\/img\/categories_v2\/building\/library_","suffix":".png"},"primary":"true"}],"verified":"false","restricted":"true","stats":{"checkinsCount":"88","usersCount":"47","tipCount":"2"},"url":"http:\/\/www.westminster.gov.uk\/libraries","specials":{"count":"0"},"hereNow":{"count":"0"},"referralId":"v-1392477984"},{"id":"4be47c4d2468c928d2d7fe42","name":"Formosa Dining Rooms (Prince Alfred)","contact":{"phone":"+442072863287","formattedPhone":"+44 20 7286 3287"},"location":{"address":"5A Formosa St","lat":"51.52444921118274","lng":"-0.18492844588011065","distance":"199","postalCode":"W9 1EE","cc":"GB","city":"London","state":"Greater London","country":"United Kingdom"},"categories":[{"id":"4bf58dd8d48988d1c4941735","name":"Restaurant","pluralName":"Restaurants","shortName":"Restaurant","icon":{"prefix":"https:\/\/ss1.4sqi.net\/img\/categories_v2\/food\/default_","suffix":".png"},"primary":"true"}],"verified":"false","restricted":"true","stats":{"checkinsCount":"208","usersCount":"100","tipCount":"2"},"url":"http:\/\/www.theprincealfred.com","specials":{"count":"0"},"hereNow":{"count":"0"},"referralId":"v-1392477984"},{"id":"4cf5315a2eb25941ebeebda1","name":"Mydestinationinfo.com","location":{"address":"18A Pindock Mews","lat":"51.524671","lng":"-0.186955","distance":"72","postalCode":"18A Pindock","cc":"GB","city":"London","state":"Greater London","country":"United Kingdom"},"verified":"false","restricted":"true","stats":{"checkinsCount":"6","usersCount":"3","tipCount":"0"},"specials":{"count":"0"},"hereNow":{"count":"0"},"referralId":"v-1392477984"},{"id":"518a2dfa498e02a9f73dbc7e","name":"Ludmilla Salon","location":{"address":"59 Shirland Road","lat":"51.5244","lng":"-0.1892","distance":"97","cc":"GB","city":"London","state":"Greater London","country":"United Kingdom"},"categories":[{"id":"4bf58dd8d48988d110951735","name":"Salon \/ Barbershop","pluralName":"Salons \/ Barbershops","shortName":"Salon \/ Barbershop","icon":{"prefix":"https:\/\/ss1.4sqi.net\/img\/categories_v2\/shops\/salon_barber_","suffix":".png"},"primary":"true"}],"verified":"false","restricted":"true","stats":{"checkinsCount":"4","usersCount":"1","tipCount":"0"},"specials":{"count":"0"},"hereNow":{"count":"0"},"referralId":"v-1392477984"},{"id":"4f19454ce4b00ed353a24b30","name":"Station Cafe","location":{"address":"Warwick Avenue","lat":"51.524107781972866","lng":"-0.18666815845329676","distance":"81","cc":"GB","country":"United Kingdom"},"categories":[{"id":"4bf58dd8d48988d16d941735","name":"Caf\u00e9","pluralName":"Caf\u00e9s","shortName":"Caf\u00e9","icon":{"prefix":"https:\/\/ss1.4sqi.net\/img\/categories_v2\/food\/cafe_","suffix":".png"},"primary":"true"}],"verified":"false","restricted":"true","stats":{"checkinsCount":"4","usersCount":"2","tipCount":"0"},"specials":{"count":"0"},"hereNow":{"count":"0"},"referralId":"v-1392477984"},{"id":"4e341408b0fb17f64f899f1d","name":"Saint Saviour","location":{"lat":"51.523752199360096","lng":"-0.1841248621590148","distance":"261","cc":"GB","city":"Paddington","state":"Greater London","country":"United Kingdom"},"categories":[{"id":"4bf58dd8d48988d132941735","name":"Church","pluralName":"Churches","shortName":"Church","icon":{"prefix":"https:\/\/ss1.4sqi.net\/img\/categories_v2\/building\/religious_church_","suffix":".png"},"primary":"true"}],"verified":"false","restricted":"true","stats":{"checkinsCount":"10","usersCount":"7","tipCount":"0"},"specials":{"count":"0"},"hereNow":{"count":"0"},"referralId":"v-1392477984"},{"id":"52319b9511d28b73757b6b3e","name":"My Destination HQ","contact":{"twitter":"mydestination"},"location":{"address":"Pindock Mews","crossStreet":"Little Venice","lat":"51.524824","lng":"-0.186903","distance":"86","cc":"GB","city":"London","state":"Greater London","country":"United Kingdom"},"categories":[{"id":"4f04b25d2fb6e1c99f3db0c0","name":"Travel Lounge","pluralName":"Travel Lounges","shortName":"Lounge","icon":{"prefix":"https:\/\/ss1.4sqi.net\/img\/categories_v2\/travel\/lounge_","suffix":".png"},"primary":"true"}],"verified":"false","restricted":"true","stats":{"checkinsCount":"1","usersCount":"1","tipCount":"0"},"specials":{"count":"0"},"hereNow":{"count":"0"},"referralId":"v-1392477984"},{"id":"50e8417be4b092492802f35a","name":"volic","location":{"address":"shirland road","lat":"51.52440149703365","lng":"-0.18920670266148099","distance":"98","cc":"GB","country":"United Kingdom"},"categories":[{"id":"4bf58dd8d48988d119951735","name":"Wine Shop","pluralName":"Wine Shops","shortName":"Wine Shop","icon":{"prefix":"https:\/\/ss1.4sqi.net\/img\/categories_v2\/shops\/food_wineshop_","suffix":".png"},"primary":"true"}],"verified":"false","restricted":"true","stats":{"checkinsCount":"9","usersCount":"7","tipCount":"1"},"specials":{"count":"0"},"hereNow":{"count":"0"},"referralId":"v-1392477984"},{"id":"4ac518c6f964a5201ea520e3","name":"Amoul","location":{"address":"14 Formosa Street","lat":"51.52452649165954","lng":"-0.18496329512591148","distance":"198","postalCode":"W9 1EE","cc":"GB","city":"London","state":"Greater London","country":"United Kingdom"},"categories":[{"id":"4bf58dd8d48988d16d941735","name":"Caf\u00e9","pluralName":"Caf\u00e9s","shortName":"Caf\u00e9","icon":{"prefix":"https:\/\/ss1.4sqi.net\/img\/categories_v2\/food\/cafe_","suffix":".png"},"primary":"true"}],"verified":"false","restricted":"true","stats":{"checkinsCount":"243","usersCount":"94","tipCount":"9"},"reservations":{"url":"http:\/\/www.toptable.co.uk\/single.aspx?rid=96399&ref=9601"},"menu":{"type":"Menu","label":"Menu","anchor":"View Menu","url":"https:\/\/foursquare.com\/v\/amoul\/4ac518c6f964a5201ea520e3\/menu","mobileUrl":"https:\/\/foursquare.com\/v\/4ac518c6f964a5201ea520e3\/device_menu"},"specials":{"count":"0"},"hereNow":{"count":"0"},"referralId":"v-1392477984"},{"id":"50e85260d63efa41d9901ea1","name":"Pindock Mews","location":{"address":"3 Pindock Mews","lat":"51.52485927633408","lng":"-0.186767578125","distance":"95","cc":"GB","city":"London","state":"Greater London","country":"United Kingdom"},"categories":[{"id":"4f2a25ac4b909258e854f55f","name":"Neighborhood","pluralName":"Neighborhoods","shortName":"Neighborhood","icon":{"prefix":"https:\/\/ss1.4sqi.net\/img\/categories_v2\/parks_outdoors\/neighborhood_","suffix":".png"},"primary":"true"}],"verified":"false","restricted":"true","stats":{"checkinsCount":"0","usersCount":"0","tipCount":"1"},"specials":{"count":"0"},"hereNow":{"count":"0"},"referralId":"v-1392477984"},{"id":"4ea56663dab4725271275350","name":"Blink Fairy","location":{"address":"Sutherland avenue","crossStreet":"Harrow ave","lat":"51.5248483268491","lng":"-0.18910044180028596","distance":"109","cc":"GB","country":"United Kingdom"},"categories":[{"id":"4bf58dd8d48988d10c951735","name":"Cosmetics Shop","pluralName":"Cosmetics Shops","shortName":"Cosmetics","icon":{"prefix":"https:\/\/ss1.4sqi.net\/img\/categories_v2\/shops\/beauty_cosmetic_","suffix":".png"},"primary":"true"}],"verified":"false","restricted":"true","stats":{"checkinsCount":"2","usersCount":"2","tipCount":"0"},"specials":{"count":"0"},"hereNow":{"count":"0"},"referralId":"v-1392477984"},{"id":"4f413a51e4b0e40825a70161","name":"71 Shirland","location":{"lat":"51.525591","lng":"-0.187886","distance":"145","cc":"GB","country":"United Kingdom"},"verified":"false","restricted":"true","stats":{"checkinsCount":"1","usersCount":"1","tipCount":"0"},"specials":{"count":"0"},"hereNow":{"count":"0"},"referralId":"v-1392477984"},{"id":"4f199151e4b099f9dcb79bbe","name":"Dasini","location":{"address":"Formosa Street","lat":"51.52408284168799","lng":"-0.18620786066301317","distance":"112","cc":"GB","country":"United Kingdom"},"categories":[{"id":"4bf58dd8d48988d1fc941735","name":"Laundry Service","pluralName":"Laundry Services","shortName":"Laundry","icon":{"prefix":"https:\/\/ss1.4sqi.net\/img\/categories_v2\/shops\/laundry_","suffix":".png"},"primary":"true"}],"verified":"false","restricted":"true","stats":{"checkinsCount":"3","usersCount":"2","tipCount":"0"},"specials":{"count":"0"},"hereNow":{"count":"0"},"referralId":"v-1392477984"}],"confident":"true"}}