{"meta":{"code":"200"},"response":{"venues":[{"id":"4b8146dbf964a520439d30e3","name":"Marriott Grosvenor House Hotel","contact":{"phone":"+442074996363","formattedPhone":"+44 20 7499 6363","twitter":"grosvenor_house"},"location":{"address":"86-90 Park Ln","lat":"51.50868903816219","lng":"-0.1540231704711914","distance":"107","postalCode":"W1K 7TN","cc":"GB","city":"London","state":"Greater London","country":"United Kingdom"},"categories":[{"id":"4bf58dd8d48988d1fa931735","name":"Hotel","pluralName":"Hotels","shortName":"Hotel","icon":{"prefix":"https:\/\/ss1.4sqi.net\/img\/categories_v2\/travel\/hotel_","suffix":".png"},"primary":"true"}],"verified":"false","restricted":"true","stats":{"checkinsCount":"7792","usersCount":"3897","tipCount":"68"},"url":"http:\/\/www.marriott.co.uk\/hotels\/travel\/longh-grosvenor-house-a-jw-marriott-hotel\/","reservations":{"url":"http:\/\/www.toptable.co.uk\/single.aspx?rid=17209&ref=9601"},"menu":{"type":"Menu","label":"Menu","anchor":"View Menu","url":"https:\/\/foursquare.com\/v\/marriott-grosvenor-house-hotel\/4b8146dbf964a520439d30e3\/menu","mobileUrl":"https:\/\/foursquare.com\/v\/4b8146dbf964a520439d30e3\/device_menu"},"specials":{"count":"0"},"hereNow":{"count":"0"},"referralId":"v-1392478026"},{"id":"4ad739bff964a5200a0921e3","name":"Richoux Mayfair","contact":{"phone":"+442076295228","formattedPhone":"+44 20 7629 5228"},"location":{"address":"41A South Audley Street","lat":"51.50992791118851","lng":"-0.15198385783336832","distance":"90","postalCode":"W1K 2PS","cc":"GB","city":"London","state":"Greater London","country":"United Kingdom"},"categories":[{"id":"4bf58dd8d48988d16d941735","name":"Caf\u00e9","pluralName":"Caf\u00e9s","shortName":"Caf\u00e9","icon":{"prefix":"https:\/\/ss1.4sqi.net\/img\/categories_v2\/food\/cafe_","suffix":".png"},"primary":"true"}],"verified":"false","restricted":"true","stats":{"checkinsCount":"874","usersCount":"542","tipCount":"16"},"url":"http:\/\/www.richouxmayfair.com\/menus.php","reservations":{"url":"http:\/\/www.toptable.co.uk\/single.aspx?rid=85885&ref=9601"},"menu":{"type":"Menu","label":"Menu","anchor":"View Menu","url":"https:\/\/foursquare.com\/v\/richoux-mayfair\/4ad739bff964a5200a0921e3\/menu","mobileUrl":"https:\/\/foursquare.com\/v\/4ad739bff964a5200a0921e3\/device_menu"},"specials":{"count":"0"},"hereNow":{"count":"0"},"referralId":"v-1392478026"},{"id":"4ac518bcf964a5207ea220e3","name":"The Audley","contact":{"phone":"+442074991843","formattedPhone":"+44 20 7499 1843"},"location":{"address":"41 Mount St","crossStreet":"at South Audley St","lat":"51.50970401963339","lng":"-0.15168428421020508","distance":"90","postalCode":"W1K 2RX","cc":"GB","city":"Mayfair","state":"Greater London","country":"United Kingdom"},"categories":[{"id":"4bf58dd8d48988d11b941735","name":"Pub","pluralName":"Pubs","shortName":"Pub","icon":{"prefix":"https:\/\/ss1.4sqi.net\/img\/categories_v2\/nightlife\/pub_","suffix":".png"},"primary":"true"}],"verified":"false","restricted":"true","stats":{"checkinsCount":"1617","usersCount":"1054","tipCount":"18"},"url":"http:\/\/www.taylor-walker.co.uk\/pub\/audley-mayfair\/c3003\/","specials":{"count":"0"},"hereNow":{"count":"0"},"referralId":"v-1392478026"},{"id":"4ac518dcf964a5204aa920e3","name":"Kai","contact":{"phone":"+442074931456","formattedPhone":"+44 20 7493 1456","twitter":"kaimayfair"},"location":{"address":"65 South Audley St.","lat":"51.50881482307086","lng":"-0.1513879099462739","distance":"111","postalCode":"W1K 2QU","cc":"GB","city":"Mayfair","state":"Greater London","country":"United Kingdom"},"categories":[{"id":"4bf58dd8d48988d145941735","name":"Chinese Restaurant","pluralName":"Chinese Restaurants","shortName":"Chinese","icon":{"prefix":"https:\/\/ss1.4sqi.net\/img\/categories_v2\/food\/chinese_","suffix":".png"},"primary":"true"}],"verified":"false","restricted":"true","stats":{"checkinsCount":"1062","usersCount":"470","tipCount":"18"},"url":"http:\/\/www.kaimayfair.co.uk","reservations":{"url":"http:\/\/www.toptable.co.uk\/single.aspx?rid=7087&ref=9601"},"menu":{"type":"Menu","label":"Menu","anchor":"View Menu","url":"https:\/\/foursquare.com\/v\/kai\/4ac518dcf964a5204aa920e3\/menu","mobileUrl":"https:\/\/foursquare.com\/v\/4ac518dcf964a5204aa920e3\/device_menu"},"specials":{"count":"0"},"hereNow":{"count":"1","groups":[{"type":"others","name":"Other people here","count":"1"}]},"referralId":"v-1392478026"},{"id":"4ee0de839911bd13a9681799","name":"34 Restaurant","contact":{"phone":"+442033503434","formattedPhone":"+44 20 3350 3434","twitter":"capriceholdings"},"location":{"address":"34 Grosvenor Sq","lat":"51.51025605634259","lng":"-0.15210594874676564","distance":"117","postalCode":"W1K 2HD","cc":"GB","city":"London","state":"Greater London","country":"United Kingdom"},"categories":[{"id":"4bf58dd8d48988d1cc941735","name":"Steakhouse","pluralName":"Steakhouses","shortName":"Steakhouse","icon":{"prefix":"https:\/\/ss1.4sqi.net\/img\/categories_v2\/food\/steakhouse_","suffix":".png"},"primary":"true"}],"verified":"false","restricted":"true","stats":{"checkinsCount":"441","usersCount":"314","tipCount":"16"},"reservations":{"url":"http:\/\/www.toptable.co.uk\/single.aspx?rid=98403&ref=9601"},"menu":{"type":"Menu","label":"Menu","anchor":"View Menu","url":"https:\/\/foursquare.com\/v\/34-restaurant\/4ee0de839911bd13a9681799\/menu","mobileUrl":"https:\/\/foursquare.com\/v\/4ee0de839911bd13a9681799\/device_menu"},"specials":{"count":"0"},"hereNow":{"count":"2","groups":[{"type":"others","name":"Other people here","count":"2"}]},"referralId":"v-1392478026"},{"id":"4b3a2ab1f964a520d16125e3","name":"Marc by Marc Jacobs","contact":{"phone":"+442074087050","formattedPhone":"+44 20 7408 7050"},"location":{"address":"56 South Audley Street","lat":"51.50970285972941","lng":"-0.15171776633037357","distance":"88","postalCode":"W1K 2QJ","cc":"GB","city":"London","state":"Greater London","country":"United Kingdom"},"categories":[{"id":"4bf58dd8d48988d103951735","name":"Clothing Store","pluralName":"Clothing Stores","shortName":"Apparel","icon":{"prefix":"https:\/\/ss1.4sqi.net\/img\/categories_v2\/shops\/apparel_","suffix":".png"},"primary":"true"}],"verified":"false","restricted":"true","stats":{"checkinsCount":"1165","usersCount":"700","tipCount":"9"},"url":"http:\/\/www.marcjacobs.com","specials":{"count":"0"},"hereNow":{"count":"0"},"referralId":"v-1392478026"},{"id":"4affed13f964a5204b3a22e3","name":"Mount Street Gardens","location":{"address":"Mount street","lat":"51.50953007373578","lng":"-0.15031585669853842","distance":"174","cc":"GB","city":"London","state":"Greater London","country":"United Kingdom"},"categories":[{"id":"4bf58dd8d48988d163941735","name":"Park","pluralName":"Parks","shortName":"Park","icon":{"prefix":"https:\/\/ss1.4sqi.net\/img\/categories_v2\/parks_outdoors\/park_","suffix":".png"},"primary":"true"}],"verified":"false","restricted":"true","stats":{"checkinsCount":"789","usersCount":"365","tipCount":"6"},"specials":{"count":"0"},"hereNow":{"count":"0"},"referralId":"v-1392478026"},{"id":"4ac518d8f964a52085a820e3","name":"Scott's","contact":{"twitter":"capriceholdings"},"location":{"address":"20 Mount St.","lat":"51.50974974863149","lng":"-0.15086267845070342","distance":"143","postalCode":"W1K 2HE","cc":"GB","city":"Mayfair","state":"Greater London","country":"United Kingdom"},"categories":[{"id":"4bf58dd8d48988d1ce941735","name":"Seafood Restaurant","pluralName":"Seafood Restaurants","shortName":"Seafood","icon":{"prefix":"https:\/\/ss1.4sqi.net\/img\/categories_v2\/food\/seafood_","suffix":".png"},"primary":"true"}],"verified":"false","restricted":"true","stats":{"checkinsCount":"1535","usersCount":"1093","tipCount":"38"},"url":"http:\/\/www.caprice-holdings.co.uk","specials":{"count":"0"},"hereNow":{"count":"0"},"referralId":"v-1392478026"},{"id":"4e7c71b79a523f16b2afbbbe","name":"Marriott Grosvenor House Executive Lounge","location":{"address":"86-90 Park Ln","lat":"51.50955360178458","lng":"-0.15491237272814026","distance":"149","postalCode":"W1K 7TN","cc":"GB","city":"London","state":"Greater London","country":"United Kingdom"},"categories":[{"id":"4f04b25d2fb6e1c99f3db0c0","name":"Travel Lounge","pluralName":"Travel Lounges","shortName":"Lounge","icon":{"prefix":"https:\/\/ss1.4sqi.net\/img\/categories_v2\/travel\/lounge_","suffix":".png"},"primary":"true"}],"verified":"false","restricted":"true","stats":{"checkinsCount":"854","usersCount":"520","tipCount":"14"},"specials":{"count":"0"},"hereNow":{"count":"1","groups":[{"type":"others","name":"Other people here","count":"1"}]},"referralId":"v-1392478026"},{"id":"4c385f5218e72d7ff92e18f5","name":"Christian Louboutin","contact":{"phone":"+442074910033","formattedPhone":"+44 20 7491 0033","twitter":"louboutinworld"},"location":{"address":"17 Mount St","lat":"51.509832315124086","lng":"-0.15072497907172977","distance":"156","postalCode":"W1K 2RJ","cc":"GB","city":"Mayfair","state":"Greater London","country":"United Kingdom"},"categories":[{"id":"4bf58dd8d48988d107951735","name":"Shoe Store","pluralName":"Shoe Stores","shortName":"Shoes","icon":{"prefix":"https:\/\/ss1.4sqi.net\/img\/categories_v2\/shops\/apparel_shoestore_","suffix":".png"},"primary":"true"}],"verified":"false","restricted":"true","stats":{"checkinsCount":"580","usersCount":"406","tipCount":"5"},"specials":{"count":"0"},"hereNow":{"count":"0"},"referralId":"v-1392478026"},{"id":"4bfd26cc83bbd13a8ded62c5","name":"Mount Street Deli","contact":{"phone":"+442074996843","formattedPhone":"+44 20 7499 6843","twitter":"capriceholdings"},"location":{"address":"100 Mount St.","lat":"51.50982","lng":"-0.150529","distance":"168","postalCode":"W1K 2TG","cc":"GB","city":"Mayfair","state":"Greater London","country":"United Kingdom"},"categories":[{"id":"4bf58dd8d48988d146941735","name":"Deli \/ Bodega","pluralName":"Delis \/ Bodegas","shortName":"Deli \/ Bodega","icon":{"prefix":"https:\/\/ss1.4sqi.net\/img\/categories_v2\/food\/deli_","suffix":".png"},"primary":"true"}],"verified":"false","restricted":"true","stats":{"checkinsCount":"582","usersCount":"269","tipCount":"8"},"menu":{"type":"Menu","label":"Menu","anchor":"View Menu","url":"https:\/\/foursquare.com\/v\/mount-street-deli-mayfair-greater-london\/4bfd26cc83bbd13a8ded62c5\/menu","mobileUrl":"https:\/\/foursquare.com\/v\/4bfd26cc83bbd13a8ded62c5\/device_menu"},"specials":{"count":"0"},"hereNow":{"count":"0"},"referralId":"v-1392478026"},{"id":"525c048f498e1c203ae87816","name":"Pringle Of Scotland","location":{"lat":"51.50961084583723","lng":"-0.15105168884966638","distance":"126","cc":"GB","country":"United Kingdom"},"categories":[{"id":"4bf58dd8d48988d104951735","name":"Boutique","pluralName":"Boutiques","shortName":"Boutique","icon":{"prefix":"https:\/\/ss1.4sqi.net\/img\/categories_v2\/shops\/apparel_boutique_","suffix":".png"},"primary":"true"}],"verified":"false","restricted":"true","stats":{"checkinsCount":"8","usersCount":"3","tipCount":"0"},"specials":{"count":"0"},"hereNow":{"count":"1","groups":[{"type":"others","name":"Other people here","count":"1"}]},"referralId":"v-1392478026"},{"id":"4fa1190fe4b0e6e2124515cc","name":"Marc Jacobs","location":{"address":"Walton Street","lat":"51.5095429428587","lng":"-0.151964695817507","distance":"64","cc":"GB","country":"United Kingdom"},"categories":[{"id":"4bf58dd8d48988d104951735","name":"Boutique","pluralName":"Boutiques","shortName":"Boutique","icon":{"prefix":"https:\/\/ss1.4sqi.net\/img\/categories_v2\/shops\/apparel_boutique_","suffix":".png"},"primary":"true"}],"verified":"false","restricted":"true","stats":{"checkinsCount":"23","usersCount":"21","tipCount":"0"},"specials":{"count":"0"},"hereNow":{"count":"0"},"referralId":"v-1392478026"},{"id":"4bc81e8792b376b0faea503a","name":"BMW Park Lane","contact":{"phone":"+442074093355","formattedPhone":"+44 20 7409 3355"},"location":{"address":"63-70 Park Ln","lat":"51.508077150867315","lng":"-0.15421219924876792","distance":"166","postalCode":"W1K 7TP","cc":"GB","city":"Mayfair","state":"Greater London","country":"United Kingdom"},"categories":[{"id":"4eb1c1623b7b52c0e1adc2ec","name":"Car Dealership","pluralName":"Car Dealerships","shortName":"Car Dealer","icon":{"prefix":"https:\/\/ss1.4sqi.net\/img\/categories_v2\/shops\/automotive_","suffix":".png"},"primary":"true"}],"verified":"true","restricted":"true","stats":{"checkinsCount":"400","usersCount":"287","tipCount":"1"},"url":"http:\/\/www.bmwparklane.com","specials":{"count":"0"},"hereNow":{"count":"1","groups":[{"type":"others","name":"Other people here","count":"1"}]},"storeId":"2451","referralId":"v-1392478026"},{"id":"4bdc42ba63c5c9b6f2f32a68","name":"Indonesian Embassy","contact":{"phone":"+442074997661","formattedPhone":"+44 20 7499 7661"},"location":{"address":"38 Grosvenor Sq.","crossStreet":"South Audley St.","lat":"51.510685592048155","lng":"-0.1515340805053711","distance":"178","postalCode":"W1K 2PE","cc":"GB","city":"Mayfair","state":"Greater London","country":"United Kingdom"},"categories":[{"id":"4bf58dd8d48988d12c951735","name":"Embassy \/ Consulate","pluralName":"Embassies \/ Consulates","shortName":"Embassy","icon":{"prefix":"https:\/\/ss1.4sqi.net\/img\/categories_v2\/travel\/embassy_","suffix":".png"},"primary":"true"}],"verified":"false","restricted":"true","stats":{"checkinsCount":"611","usersCount":"328","tipCount":"3"},"url":"http:\/\/www.indonesianembassy.org.uk","specials":{"count":"0"},"hereNow":{"count":"1","groups":[{"type":"others","name":"Other people here","count":"1"}]},"referralId":"v-1392478026"},{"id":"50896c8be4b0f94297081043","name":"Starbucks","location":{"address":"Park Lane Market","crossStreet":"Marriott","lat":"51.50973848150315","lng":"-0.15517658086646746","distance":"171","cc":"GB","country":"United Kingdom"},"categories":[{"id":"4bf58dd8d48988d1e0931735","name":"Coffee Shop","pluralName":"Coffee Shops","shortName":"Coffee Shop","icon":{"prefix":"https:\/\/ss1.4sqi.net\/img\/categories_v2\/food\/coffeeshop_","suffix":".png"},"primary":"true"}],"verified":"false","restricted":"true","stats":{"checkinsCount":"185","usersCount":"142","tipCount":"3"},"specials":{"count":"0"},"hereNow":{"count":"0"},"referralId":"v-1392478026"},{"id":"4ea865c9f7903beac0e493fc","name":"Great Room - Grosvenor House","location":{"address":"Park Lane","lat":"51.50967261157044","lng":"-0.15551055889555648","distance":"192","cc":"GB","city":"London","state":"Greater London","country":"United Kingdom"},"categories":[{"id":"4bf58dd8d48988d171941735","name":"Event Space","pluralName":"Event Spaces","shortName":"Event Space","icon":{"prefix":"https:\/\/ss1.4sqi.net\/img\/categories_v2\/building\/eventspace_","suffix":".png"},"primary":"true"}],"verified":"false","restricted":"true","stats":{"checkinsCount":"375","usersCount":"282","tipCount":"4"},"specials":{"count":"0"},"hereNow":{"count":"0"},"referralId":"v-1392478026"},{"id":"519b76f2498e5673250f13ce","name":"Ometria","contact":{"twitter":"ometriadata"},"location":{"address":"38 Park Street","lat":"51.509508","lng":"-0.153972","distance":"84","postalCode":"W1K 2JF","cc":"GB","city":"London","state":"Greater London","country":"United Kingdom"},"categories":[{"id":"4bf58dd8d48988d125941735","name":"Tech Startup","pluralName":"Tech Startups","shortName":"Tech Startup","icon":{"prefix":"https:\/\/ss1.4sqi.net\/img\/categories_v2\/shops\/technology_","suffix":".png"},"primary":"true"}],"verified":"false","restricted":"true","stats":{"checkinsCount":"30","usersCount":"10","tipCount":"0"},"specials":{"count":"0"},"hereNow":{"count":"0"},"referralId":"v-1392478026"},{"id":"52d53cd9498e96ea81da7dd5","name":"Jumeirah Grosvenor House","location":{"lat":"51.509005909097155","lng":"-0.1544839863972647","distance":"120","cc":"GB","country":"United Kingdom"},"categories":[{"id":"4bf58dd8d48988d1fa931735","name":"Hotel","pluralName":"Hotels","shortName":"Hotel","icon":{"prefix":"https:\/\/ss1.4sqi.net\/img\/categories_v2\/travel\/hotel_","suffix":".png"},"primary":"true"}],"verified":"false","restricted":"true","stats":{"checkinsCount":"26","usersCount":"10","tipCount":"1"},"specials":{"count":"0"},"hereNow":{"count":"0"},"referralId":"v-1392478026"},{"id":"4be2c8711dd22d7fb8c694bd","name":"George","location":{"address":"Mount St","crossStreet":"So Audleu","lat":"51.509562","lng":"-0.151653","distance":"85","cc":"GB","city":"London","state":"Greater London","country":"United Kingdom"},"categories":[{"id":"4bf58dd8d48988d1c4941735","name":"Restaurant","pluralName":"Restaurants","shortName":"Restaurant","icon":{"prefix":"https:\/\/ss1.4sqi.net\/img\/categories_v2\/food\/default_","suffix":".png"},"primary":"true"}],"verified":"false","restricted":"true","stats":{"checkinsCount":"262","usersCount":"157","tipCount":"4"},"specials":{"count":"0"},"hereNow":{"count":"0"},"referralId":"v-1392478026"},{"id":"52cd61d9498e87c5b57a01a5","name":"Sins of a Father zone","location":{"lat":"51.50995252600884","lng":"-0.15448486089236418","distance":"137","cc":"GB","country":"United Kingdom"},"categories":[{"id":"4bf58dd8d48988d17e941735","name":"Indie Movie Theater","pluralName":"Indie Movie Theaters","shortName":"Indie Theater","icon":{"prefix":"https:\/\/ss1.4sqi.net\/img\/categories_v2\/arts_entertainment\/movietheater_indietheater_","suffix":".png"},"primary":"true"}],"verified":"false","restricted":"true","stats":{"checkinsCount":"5","usersCount":"1","tipCount":"0"},"specials":{"count":"0"},"hereNow":{"count":"0"},"referralId":"v-1392478026"},{"id":"4c3709a8dfb0e21eedfbaba8","name":"Rick Owens","location":{"address":"64 S Audley St.","crossStreet":"Alford street","lat":"51.50914860727902","lng":"-0.15174146978103872","distance":"75","cc":"GB","city":"London","state":"Greater London","country":"United Kingdom"},"categories":[{"id":"4bf58dd8d48988d104951735","name":"Boutique","pluralName":"Boutiques","shortName":"Boutique","icon":{"prefix":"https:\/\/ss1.4sqi.net\/img\/categories_v2\/shops\/apparel_boutique_","suffix":".png"},"primary":"true"}],"verified":"false","restricted":"true","stats":{"checkinsCount":"52","usersCount":"33","tipCount":"1"},"specials":{"count":"0"},"hereNow":{"count":"0"},"referralId":"v-1392478026"},{"id":"4bee69693686c9b69d7d246e","name":"MINI Park Lane","contact":{"phone":"+442078192077","formattedPhone":"+44 20 7819 2077","twitter":"mini_parklane"},"location":{"address":"70 Park Lane","lat":"51.508548279221024","lng":"-0.1544975554725827","distance":"143","postalCode":"W1K 7TT","cc":"GB","city":"Mayfair","state":"Greater London","country":"United Kingdom"},"categories":[{"id":"4bf58dd8d48988d124951735","name":"Automotive Shop","pluralName":"Automotive Shops","shortName":"Automotive","icon":{"prefix":"https:\/\/ss1.4sqi.net\/img\/categories_v2\/shops\/automotive_","suffix":".png"},"primary":"true"}],"verified":"true","restricted":"true","stats":{"checkinsCount":"262","usersCount":"192","tipCount":"3"},"url":"http:\/\/miniparklane.com","specials":{"count":"0"},"hereNow":{"count":"0"},"storeId":"","referralId":"v-1392478026"},{"id":"4ec8fcc0f5b9e88194497ec0","name":"Egyptian Embassy","location":{"address":"South St","lat":"51.508382866654436","lng":"-0.1520098271760823","distance":"114","cc":"GB","city":"London","state":"Greater London","country":"United Kingdom"},"categories":[{"id":"4bf58dd8d48988d12c951735","name":"Embassy \/ Consulate","pluralName":"Embassies \/ Consulates","shortName":"Embassy","icon":{"prefix":"https:\/\/ss1.4sqi.net\/img\/categories_v2\/travel\/embassy_","suffix":".png"},"primary":"true"}],"verified":"false","restricted":"true","stats":{"checkinsCount":"35","usersCount":"27","tipCount":"0"},"specials":{"count":"0"},"hereNow":{"count":"0"},"referralId":"v-1392478026"},{"id":"4bacfc25f964a52057213be3","name":"Red Bar At Grosvenor House Hotel","contact":{"phone":"+442074996363","formattedPhone":"+44 20 7499 6363","twitter":"redbar_jw"},"location":{"address":"111 Park Lane","lat":"51.509444","lng":"-0.155446","distance":"183","postalCode":"W1K 7TN","cc":"GB","city":"Mayfair","state":"Greater London","country":"United Kingdom"},"categories":[{"id":"4bf58dd8d48988d116941735","name":"Bar","pluralName":"Bars","shortName":"Bar","icon":{"prefix":"https:\/\/ss1.4sqi.net\/img\/categories_v2\/nightlife\/bar_","suffix":".png"},"primary":"true"}],"verified":"false","restricted":"true","stats":{"checkinsCount":"238","usersCount":"186","tipCount":"2"},"specials":{"count":"0"},"hereNow":{"count":"0"},"referralId":"v-1392478026"},{"id":"4ac518faf964a52023b020e3","name":"John Frieda","location":{"address":"4 Aldford Street","lat":"51.50877020545088","lng":"-0.15189","distance":"85","postalCode":"W1K 2AE","cc":"GB","city":"London","state":"Greater London","country":"United Kingdom"},"categories":[{"id":"4bf58dd8d48988d110951735","name":"Salon \/ Barbershop","pluralName":"Salons \/ Barbershops","shortName":"Salon \/ Barbershop","icon":{"prefix":"https:\/\/ss1.4sqi.net\/img\/categories_v2\/shops\/salon_barber_","suffix":".png"},"primary":"true"}],"verified":"false","restricted":"true","stats":{"checkinsCount":"61","usersCount":"31","tipCount":"1"},"specials":{"count":"0"},"hereNow":{"count":"0"},"referralId":"v-1392478026"},{"id":"505ca6c3e4b0fa2eba2a8074","name":"Sadie Coles","location":{"address":"8 Belfour Mews","lat":"51.50909126567527","lng":"-0.15136256659531977","distance":"102","cc":"GB","country":"United Kingdom"},"categories":[{"id":"4bf58dd8d48988d1e2931735","name":"Art Gallery","pluralName":"Art Galleries","shortName":"Art Gallery","icon":{"prefix":"https:\/\/ss1.4sqi.net\/img\/categories_v2\/arts_entertainment\/artgallery_","suffix":".png"},"primary":"true"}],"verified":"false","restricted":"true","stats":{"checkinsCount":"16","usersCount":"13","tipCount":"0"},"specials":{"count":"0"},"hereNow":{"count":"0"},"referralId":"v-1392478026"},{"id":"4fc8d952e4b0936e6f730662","name":"Ultimate Performance","location":{"address":"2 Park St.","lat":"51.5085398908508","lng":"-0.1534055062211066","distance":"93","postalCode":"W1K 2XA","cc":"GB","city":"London","state":"Greater London","country":"United Kingdom"},"categories":[{"id":"4bf58dd8d48988d176941735","name":"Gym","pluralName":"Gyms","shortName":"Gym","icon":{"prefix":"https:\/\/ss1.4sqi.net\/img\/categories_v2\/building\/gym_","suffix":".png"},"primary":"true"}],"verified":"false","restricted":"true","stats":{"checkinsCount":"120","usersCount":"15","tipCount":"0"},"specials":{"count":"0"},"hereNow":{"count":"0"},"referralId":"v-1392478026"},{"id":"508aa5c3e4b0c9eb71120d98","name":"MDC Massimo de carlo","location":{"lat":"51.509948650209495","lng":"-0.1518003107049491","distance":"101","cc":"GB","country":"United Kingdom"},"categories":[{"id":"4bf58dd8d48988d1e2931735","name":"Art Gallery","pluralName":"Art Galleries","shortName":"Art Gallery","icon":{"prefix":"https:\/\/ss1.4sqi.net\/img\/categories_v2\/arts_entertainment\/artgallery_","suffix":".png"},"primary":"true"}],"verified":"false","restricted":"true","stats":{"checkinsCount":"4","usersCount":"4","tipCount":"0"},"specials":{"count":"0"},"hereNow":{"count":"0"},"referralId":"v-1392478026"},{"id":"52716cc511d25849ddd47602","name":"55 Park lane","location":{"lat":"51.5078893475192","lng":"-0.15261628147083467","distance":"156","cc":"GB","country":"United Kingdom"},"categories":[{"id":"4d954b06a243a5684965b473","name":"Residential Building (Apartment \/ Condo)","pluralName":"Residential Buildings (Apartments \/ Condos)","shortName":"Residential","icon":{"prefix":"https:\/\/ss1.4sqi.net\/img\/categories_v2\/building\/apartment_","suffix":".png"},"primary":"true"}],"verified":"false","restricted":"true","stats":{"checkinsCount":"6","usersCount":"4","tipCount":"0"},"specials":{"count":"0"},"hereNow":{"count":"0"},"referralId":"v-1392478026"}],"confident":"true"}}