{"meta":{"code":"200"},"response":{"venues":[{"id":"4c6ce8d923c1a1cd4bdf1acf","name":"Camden Town","location":{"address":"Everywhere!","lat":"51.53907526203596","lng":"-0.14265060424804688","distance":"26","postalCode":"NW1","cc":"GB","city":"Camden","state":"Greater London","country":"United Kingdom"},"categories":[{"id":"4f2a25ac4b909258e854f55f","name":"Neighborhood","pluralName":"Neighborhoods","shortName":"Neighborhood","icon":{"prefix":"https:\/\/ss1.4sqi.net\/img\/categories_v2\/parks_outdoors\/neighborhood_","suffix":".png"},"primary":"true"}],"verified":"false","restricted":"true","stats":{"checkinsCount":"26512","usersCount":"13519","tipCount":"75"},"specials":{"count":"0"},"hereNow":{"count":"6","groups":[{"type":"others","name":"Other people here","count":"6"}]},"referralId":"v-1392477949"},{"id":"4b6d5983f964a5203c722ce3","name":"Soho Gym","contact":{"phone":"+442074824524","formattedPhone":"+44 20 7482 4524"},"location":{"address":"93-199 Camden High St.","lat":"51.539279475694784","lng":"-0.14302928873495802","distance":"15","postalCode":"NW1 7BT","cc":"GB","city":"Camden","state":"Greater London","country":"United Kingdom"},"categories":[{"id":"4bf58dd8d48988d176941735","name":"Gym","pluralName":"Gyms","shortName":"Gym","icon":{"prefix":"https:\/\/ss1.4sqi.net\/img\/categories_v2\/building\/gym_","suffix":".png"},"primary":"true"}],"verified":"false","restricted":"true","stats":{"checkinsCount":"1995","usersCount":"175","tipCount":"8"},"specials":{"count":"0"},"hereNow":{"count":"0"},"referralId":"v-1392477949"},{"id":"4ee61a462da504839760f91a","name":"The World's End","contact":{"phone":"+442074821932","formattedPhone":"+44 20 7482 1932","twitter":"londonirishpubs"},"location":{"address":"174 Camden High St","lat":"51.539203873004254","lng":"-0.14218006727999907","distance":"44","postalCode":"NW1 0NE","cc":"GB","city":"Camden Town","state":"Greater London","country":"United Kingdom"},"categories":[{"id":"4bf58dd8d48988d11b941735","name":"Pub","pluralName":"Pubs","shortName":"Pub","icon":{"prefix":"https:\/\/ss1.4sqi.net\/img\/categories_v2\/nightlife\/pub_","suffix":".png"},"primary":"true"}],"verified":"true","restricted":"true","stats":{"checkinsCount":"5232","usersCount":"3810","tipCount":"44"},"url":"http:\/\/www.theworldsend.co.uk","specials":{"count":"0"},"hereNow":{"count":"2","groups":[{"type":"others","name":"Other people here","count":"2"}]},"storeId":"","referralId":"v-1392477949"},{"id":"4f7ee8d6e4b04fb0c37670b0","name":"Vans","location":{"address":"Camden Town","lat":"51.539239","lng":"-0.142756","distance":"6","cc":"GB","country":"United Kingdom"},"categories":[{"id":"4bf58dd8d48988d107951735","name":"Shoe Store","pluralName":"Shoe Stores","shortName":"Shoes","icon":{"prefix":"https:\/\/ss1.4sqi.net\/img\/categories_v2\/shops\/apparel_shoestore_","suffix":".png"},"primary":"true"}],"verified":"false","restricted":"true","stats":{"checkinsCount":"262","usersCount":"238","tipCount":"1"},"specials":{"count":"0"},"hereNow":{"count":"0"},"referralId":"v-1392477949"},{"id":"4ac518c9f964a520a8a520e3","name":"The Underworld","location":{"address":"174 Camden High St.","lat":"51.53921539754178","lng":"-0.1424252986907959","distance":"27","postalCode":"NW1 0NE","cc":"GB","city":"London","state":"Greater London","country":"United Kingdom"},"categories":[{"id":"4bf58dd8d48988d1e5931735","name":"Music Venue","pluralName":"Music Venues","shortName":"Music Venue","icon":{"prefix":"https:\/\/ss1.4sqi.net\/img\/categories_v2\/arts_entertainment\/musicvenue_","suffix":".png"},"primary":"true"}],"verified":"false","restricted":"true","stats":{"checkinsCount":"2118","usersCount":"1223","tipCount":"22"},"url":"http:\/\/www.theunderworldcamden.co.uk","specials":{"count":"0"},"hereNow":{"count":"0"},"referralId":"v-1392477949"},{"id":"4ac518c7f964a52072a520e3","name":"Jazz Cafe","contact":{"twitter":"jazzcafecamden"},"location":{"address":"5 Parkway","lat":"51.538866467974174","lng":"-0.14295304550167517","distance":"48","postalCode":"NW1 7PG","cc":"GB","city":"Camden Town","state":"Greater London","country":"United Kingdom"},"categories":[{"id":"4bf58dd8d48988d1e7931735","name":"Jazz Club","pluralName":"Jazz Clubs","shortName":"Jazz Club","icon":{"prefix":"https:\/\/ss1.4sqi.net\/img\/categories_v2\/arts_entertainment\/musicvenue_jazzclub_","suffix":".png"},"primary":"true"}],"verified":"false","restricted":"true","stats":{"checkinsCount":"1908","usersCount":"1468","tipCount":"24"},"url":"http:\/\/www.jazzcafe.co.uk","menu":{"type":"Menu","label":"Menu","anchor":"View Menu","url":"https:\/\/foursquare.com\/v\/jazz-cafe\/4ac518c7f964a52072a520e3\/menu","mobileUrl":"https:\/\/foursquare.com\/v\/4ac518c7f964a52072a520e3\/device_menu"},"specials":{"count":"0"},"events":{"count":"1","summary":"Juliette Ashby, Vula, Don-e and Nathan Watson","items":[{"id":"52ca0eb7498e53908f7356b7","name":"Juliette Ashby, Vula, Don-e and Nathan Watson","categories":[{"id":"4e0a4b91bd41eda0d6092f89","name":"Concert","pluralName":"Concerts","shortName":"Concert","icon":{"prefix":"https:\/\/ss1.4sqi.net\/img\/categories_v2\/arts_entertainment\/musicvenue_","suffix":".png"},"primary":"true"}],"startAt":"1392490800","endAt":"1392512400","allDay":"false","timeZone":"Europe\/London","text":"","url":"http:\/\/www.songkick.com\/concerts\/19107884-juliette-ashby-at-jazz-cafe?utm_source=4436&utm_medium=partner","provider":{"name":"songkick","iconUrl":{"prefix":"https:\/\/playfoursquare.s3.amazonaws.com\/events\/images\/partners\/sk\/","sizes":["20","40"],"name":"\/logo.png"},"urlText":"more info"},"stats":{"checkinsCount":"0","usersCount":"0"}}]},"hereNow":{"count":"1","groups":[{"type":"others","name":"Other people here","count":"1"}]},"referralId":"v-1392477949"},{"id":"4ac518c8f964a52083a520e3","name":"Electric Ballroom","contact":{"phone":"+442074859006","formattedPhone":"+44 20 7485 9006","twitter":"eballroomcamden"},"location":{"address":"184 Camden High St.","lat":"51.53986071696258","lng":"-0.14275714783116733","distance":"63","postalCode":"NW1 8QP","cc":"GB","city":"London","state":"Greater London","country":"United Kingdom"},"categories":[{"id":"4bf58dd8d48988d11f941735","name":"Nightclub","pluralName":"Nightclubs","shortName":"Nightclub","icon":{"prefix":"https:\/\/ss1.4sqi.net\/img\/categories_v2\/nightlife\/nightclub_","suffix":".png"},"primary":"true"}],"verified":"false","restricted":"true","stats":{"checkinsCount":"3038","usersCount":"2118","tipCount":"38"},"url":"http:\/\/www.electricballroom.co.uk","specials":{"count":"0"},"hereNow":{"count":"0"},"referralId":"v-1392477949"},{"id":"4bfed4a24e5d0f475b3a7d1f","name":"Camden Eye","contact":{"phone":"+442072672622","formattedPhone":"+44 20 7267 2622","twitter":"camdeneye"},"location":{"address":"2 Kentish Town Rd","lat":"51.53933217680037","lng":"-0.14225363731384277","distance":"38","postalCode":"NW1 9NX","cc":"GB","city":"Camden Town","state":"Greater London","country":"United Kingdom"},"categories":[{"id":"4bf58dd8d48988d11b941735","name":"Pub","pluralName":"Pubs","shortName":"Pub","icon":{"prefix":"https:\/\/ss1.4sqi.net\/img\/categories_v2\/nightlife\/pub_","suffix":".png"},"primary":"true"}],"verified":"false","restricted":"true","stats":{"checkinsCount":"1491","usersCount":"1244","tipCount":"15"},"url":"http:\/\/www.thecamdeneye.co.uk","specials":{"count":"0"},"hereNow":{"count":"1","groups":[{"type":"others","name":"Other people here","count":"1"}]},"referralId":"v-1392477949"},{"id":"4bbc43ee51b89c74fc3d872a","name":"EAT.","contact":{"phone":"+442076368378","formattedPhone":"+44 20 7636 8378","twitter":"eat_news"},"location":{"address":"185 Camden High St.","crossStreet":"at Parkway","lat":"51.538568101360575","lng":"-0.1426076889038086","distance":"81","postalCode":"NW1 7JY","cc":"GB","city":"Camden","state":"Greater London","country":"United Kingdom"},"categories":[{"id":"4bf58dd8d48988d1c5941735","name":"Sandwich Place","pluralName":"Sandwich Places","shortName":"Sandwiches","icon":{"prefix":"https:\/\/ss1.4sqi.net\/img\/categories_v2\/food\/sandwiches_","suffix":".png"},"primary":"true"}],"verified":"true","restricted":"true","stats":{"checkinsCount":"734","usersCount":"296","tipCount":"2"},"url":"http:\/\/www.eat.co.uk","specials":{"count":"0"},"hereNow":{"count":"0"},"storeId":"EAT - Camden","referralId":"v-1392477949"},{"id":"52227eba11d2300526ce9364","name":"Camden Market","location":{"address":"343 Camden Road","lat":"51.53919855707839","lng":"-0.14328047221923026","distance":"34","postalCode":"N1 4WR","cc":"GB","city":"London","state":"Greater London","country":"United Kingdom"},"categories":[{"id":"4bf58dd8d48988d127951735","name":"Arts & Crafts Store","pluralName":"Arts & Crafts Stores","shortName":"Arts & Crafts","icon":{"prefix":"https:\/\/ss1.4sqi.net\/img\/categories_v2\/shops\/artstore_","suffix":".png"},"primary":"true"}],"verified":"false","restricted":"true","stats":{"checkinsCount":"25","usersCount":"25","tipCount":"0"},"specials":{"count":"0"},"hereNow":{"count":"0"},"referralId":"v-1392477949"},{"id":"4ad30b02f964a52000e320e3","name":"Starbucks","contact":{"phone":"+442074857798","formattedPhone":"+44 20 7485 7798","twitter":"starbucksuk"},"location":{"address":"4\/6 Parkway","lat":"51.538764960451715","lng":"-0.1430046558380127","distance":"59","postalCode":"NW1 7AA","cc":"GB","city":"Camden Town","state":"Greater London","country":"United Kingdom"},"categories":[{"id":"4bf58dd8d48988d1e0931735","name":"Coffee Shop","pluralName":"Coffee Shops","shortName":"Coffee Shop","icon":{"prefix":"https:\/\/ss1.4sqi.net\/img\/categories_v2\/food\/coffeeshop_","suffix":".png"},"primary":"true"}],"verified":"true","restricted":"true","stats":{"checkinsCount":"1836","usersCount":"921","tipCount":"17"},"url":"http:\/\/starbucks.co.uk","specials":{"count":"0"},"hereNow":{"count":"0"},"storeId":"12195","referralId":"v-1392477949"},{"id":"4bb71b2d6edc76b02bce311c","name":"Barclays","location":{"address":"Camden High St","crossStreet":"at Parkway","lat":"51.539207","lng":"-0.142776","distance":"9","cc":"GB","city":"Camden","state":"Greater London","country":"United Kingdom"},"categories":[{"id":"4bf58dd8d48988d10a951735","name":"Bank","pluralName":"Banks","shortName":"Bank","icon":{"prefix":"https:\/\/ss1.4sqi.net\/img\/categories_v2\/shops\/financial_","suffix":".png"},"primary":"true"}],"verified":"false","restricted":"true","stats":{"checkinsCount":"249","usersCount":"134","tipCount":"3"},"specials":{"count":"0"},"hereNow":{"count":"0"},"referralId":"v-1392477949"},{"id":"4b62dcb0f964a52017562ae3","name":"American Apparel","contact":{"phone":"+442072842623","formattedPhone":"+44 20 7284 2623","twitter":"americanapparel","facebook":"5677674978"},"location":{"address":"197 Camden High St","lat":"51.539304","lng":"-0.142925","distance":"8","postalCode":"NW1 7BT","cc":"GB","city":"London","state":"Greater London","country":"United Kingdom"},"categories":[{"id":"4bf58dd8d48988d1f4941735","name":"Design Studio","pluralName":"Design Studios","shortName":"Design","icon":{"prefix":"https:\/\/ss1.4sqi.net\/img\/categories_v2\/shops\/design_","suffix":".png"},"primary":"true"}],"verified":"true","restricted":"true","stats":{"checkinsCount":"250","usersCount":"202","tipCount":"3"},"url":"http:\/\/shopaa.org\/HKm86n","specials":{"count":"0"},"hereNow":{"count":"0"},"storeId":"LO8","referralId":"v-1392477949"},{"id":"4acf7cfef964a52007d420e3","name":"The Black Heart","contact":{"phone":"+442074289730","formattedPhone":"+44 20 7428 9730","twitter":"theblack_heart"},"location":{"address":"3 Greenland Pl","lat":"51.53887075124568","lng":"-0.14174008213060685","distance":"87","postalCode":"NW1 0AP","cc":"GB","city":"London","state":"Greater London","country":"United Kingdom"},"categories":[{"id":"4bf58dd8d48988d11b941735","name":"Pub","pluralName":"Pubs","shortName":"Pub","icon":{"prefix":"https:\/\/ss1.4sqi.net\/img\/categories_v2\/nightlife\/pub_","suffix":".png"},"primary":"true"}],"verified":"false","restricted":"true","stats":{"checkinsCount":"2661","usersCount":"1226","tipCount":"24"},"url":"http:\/\/www.ourblackheart.com","specials":{"count":"0"},"hereNow":{"count":"0"},"referralId":"v-1392477949"},{"id":"4adb6d89f964a520582721e3","name":"Odeon","contact":{"phone":"+442074824576","formattedPhone":"+44 20 7482 4576","twitter":"odeontheatres"},"location":{"address":"14 The Parkway","lat":"51.539011692051496","lng":"-0.14387869010920348","distance":"80","postalCode":"NW1 7AA","cc":"GB","city":"Camden Town","state":"Greater London","country":"United Kingdom"},"categories":[{"id":"4bf58dd8d48988d180941735","name":"Multiplex","pluralName":"Multiplexes","shortName":"Cineplex","icon":{"prefix":"https:\/\/ss1.4sqi.net\/img\/categories_v2\/arts_entertainment\/movietheater_cineplex_","suffix":".png"},"primary":"true"}],"verified":"false","restricted":"true","stats":{"checkinsCount":"1876","usersCount":"1093","tipCount":"18"},"specials":{"count":"0"},"events":{"count":"14","summary":"14 movies"},"hereNow":{"count":"0"},"referralId":"v-1392477949"},{"id":"4ba88d53f964a520b8df39e3","name":"Diabetes UK","contact":{"phone":"+442074241000","formattedPhone":"+44 20 7424 1000","twitter":"diabetesuk"},"location":{"address":"10 Parkway","lat":"51.538812","lng":"-0.143068","distance":"56","postalCode":"NW1 7AA","cc":"GB","city":"London","state":"Greater London","country":"United Kingdom"},"categories":[{"id":"4bf58dd8d48988d124941735","name":"Office","pluralName":"Offices","shortName":"Office","icon":{"prefix":"https:\/\/ss1.4sqi.net\/img\/categories_v2\/building\/default_","suffix":".png"},"primary":"true"}],"verified":"false","restricted":"true","stats":{"checkinsCount":"1233","usersCount":"31","tipCount":"3"},"specials":{"count":"0"},"hereNow":{"count":"0"},"referralId":"v-1392477949"},{"id":"4b0c2a89f964a5202b3823e3","name":"Bento Cafe","contact":{"phone":"+442074823990","formattedPhone":"+44 20 7482 3990"},"location":{"address":"9 Parkway","lat":"51.53875495068795","lng":"-0.1431119441986084","distance":"63","postalCode":"NW1 7PG","cc":"GB","city":"Camden","state":"Greater London","country":"United Kingdom"},"categories":[{"id":"4bf58dd8d48988d111941735","name":"Japanese Restaurant","pluralName":"Japanese Restaurants","shortName":"Japanese","icon":{"prefix":"https:\/\/ss1.4sqi.net\/img\/categories_v2\/food\/japanese_","suffix":".png"},"primary":"true"}],"verified":"false","restricted":"true","stats":{"checkinsCount":"1358","usersCount":"728","tipCount":"34"},"menu":{"type":"Menu","label":"Menu","anchor":"View Menu","url":"https:\/\/foursquare.com\/v\/bento-cafe\/4b0c2a89f964a5202b3823e3\/menu","mobileUrl":"https:\/\/foursquare.com\/v\/4b0c2a89f964a5202b3823e3\/device_menu"},"specials":{"count":"0"},"hereNow":{"count":"0"},"referralId":"v-1392477949"},{"id":"51f023e3498e6ec70f7ecb3a","name":"Urban Outfitters","contact":{"twitter":"uoeurope"},"location":{"address":"211 Camden High St","lat":"51.53952659796891","lng":"-0.14349616431274773","distance":"54","postalCode":"NW1 7BT","cc":"GB","city":"London","state":"Greater London","country":"United Kingdom"},"categories":[{"id":"4bf58dd8d48988d103951735","name":"Clothing Store","pluralName":"Clothing Stores","shortName":"Apparel","icon":{"prefix":"https:\/\/ss1.4sqi.net\/img\/categories_v2\/shops\/apparel_","suffix":".png"},"primary":"true"}],"verified":"false","restricted":"true","stats":{"checkinsCount":"185","usersCount":"171","tipCount":"2"},"url":"http:\/\/www.urbanoutfitters.co.uk","specials":{"count":"0"},"hereNow":{"count":"0"},"referralId":"v-1392477949"},{"id":"4b741b40f964a52032c82de3","name":"HSBC Camden Town","location":{"address":"176 Camden High Street","lat":"51.539198222749924","lng":"-0.14268434476402128","distance":"13","postalCode":"NW1 8QL","cc":"GB","city":"London","state":"Greater London","country":"United Kingdom"},"categories":[{"id":"4bf58dd8d48988d10a951735","name":"Bank","pluralName":"Banks","shortName":"Bank","icon":{"prefix":"https:\/\/ss1.4sqi.net\/img\/categories_v2\/shops\/financial_","suffix":".png"},"primary":"true"}],"verified":"false","restricted":"true","stats":{"checkinsCount":"244","usersCount":"96","tipCount":"2"},"specials":{"count":"0"},"hereNow":{"count":"0"},"referralId":"v-1392477949"},{"id":"4b6fe367f964a52009ff2ce3","name":"Costa Coffee","location":{"address":"Camden High St.","crossStreet":"Parkway","lat":"51.53868821887338","lng":"-0.14267206192016602","distance":"67","cc":"GB","city":"Camden Town","state":"Greater London","country":"United Kingdom"},"categories":[{"id":"4bf58dd8d48988d16d941735","name":"Caf\u00e9","pluralName":"Caf\u00e9s","shortName":"Caf\u00e9","icon":{"prefix":"https:\/\/ss1.4sqi.net\/img\/categories_v2\/food\/cafe_","suffix":".png"},"primary":"true"}],"verified":"false","restricted":"true","stats":{"checkinsCount":"664","usersCount":"425","tipCount":"5"},"specials":{"count":"0"},"hereNow":{"count":"0"},"referralId":"v-1392477949"},{"id":"5058346de4b0e26b44a77704","name":"Fruit Stall","location":{"address":"Camden High Street","lat":"51.539082","lng":"-0.142892","distance":"23","cc":"GB","city":"London","state":"Greater London","country":"United Kingdom"},"categories":[{"id":"4bf58dd8d48988d1cb941735","name":"Food Truck","pluralName":"Food Trucks","shortName":"Food Truck","icon":{"prefix":"https:\/\/ss1.4sqi.net\/img\/categories_v2\/food\/streetfood_","suffix":".png"},"primary":"true"}],"verified":"false","restricted":"true","stats":{"checkinsCount":"4","usersCount":"2","tipCount":"0"},"specials":{"count":"0"},"hereNow":{"count":"0"},"referralId":"v-1392477949"},{"id":"4b462493f964a520e61726e3","name":"Caff\u00e8 Nero","contact":{"phone":"+442074852478","formattedPhone":"+44 20 7485 2478"},"location":{"address":"11 Parkway","lat":"51.53883169215377","lng":"-0.1431816816329956","distance":"57","postalCode":"NW1 7PQ","cc":"GB","city":"Camden","state":"Greater London","country":"United Kingdom"},"categories":[{"id":"4bf58dd8d48988d1e0931735","name":"Coffee Shop","pluralName":"Coffee Shops","shortName":"Coffee Shop","icon":{"prefix":"https:\/\/ss1.4sqi.net\/img\/categories_v2\/food\/coffeeshop_","suffix":".png"},"primary":"true"}],"verified":"false","restricted":"true","stats":{"checkinsCount":"692","usersCount":"382","tipCount":"6"},"specials":{"count":"0"},"hereNow":{"count":"0"},"referralId":"v-1392477949"},{"id":"4bcc46fa0687ef3b9ceadecc","name":"Holland & Barrett","contact":{"phone":"+442074859477","formattedPhone":"+44 20 7485 9477","twitter":"holland_barrett"},"location":{"address":"191-200 High St","crossStreet":"at Unit Plaza House Development","lat":"51.53916868575445","lng":"-0.14291882514953613","distance":"15","postalCode":"NW1 7BT","cc":"GB","city":"Camden Town","state":"Greater London","country":"United Kingdom"},"categories":[{"id":"50aa9e744b90af0d42d5de0e","name":"Health Food Store","pluralName":"Health Food Stores","shortName":"Health Food Store","icon":{"prefix":"https:\/\/ss1.4sqi.net\/img\/categories_v2\/shops\/food_grocery_","suffix":".png"},"primary":"true"}],"verified":"false","restricted":"true","stats":{"checkinsCount":"77","usersCount":"46","tipCount":"1"},"url":"http:\/\/www.hollandandbarrett.com","specials":{"count":"0"},"hereNow":{"count":"0"},"referralId":"v-1392477949"},{"id":"51b5ad8f498ebc87cf57aa1f","name":"Rebelstate Clothing","location":{"lat":"51.539346694090256","lng":"-0.14276153134359224","distance":"7","cc":"GB","country":"United Kingdom"},"categories":[{"id":"4bf58dd8d48988d104951735","name":"Boutique","pluralName":"Boutiques","shortName":"Boutique","icon":{"prefix":"https:\/\/ss1.4sqi.net\/img\/categories_v2\/shops\/apparel_boutique_","suffix":".png"},"primary":"true"}],"verified":"false","restricted":"true","stats":{"checkinsCount":"6","usersCount":"5","tipCount":"0"},"specials":{"count":"0"},"hereNow":{"count":"0"},"referralId":"v-1392477949"},{"id":"4ae0b0eef964a520ad8121e3","name":"The Bucks Head","contact":{"phone":"+442072841513","formattedPhone":"+44 20 7284 1513"},"location":{"address":"202 Camden High Street","lat":"51.54017806962857","lng":"-0.14352344148672638","distance":"110","cc":"GB","city":"London","state":"Greater London","country":"United Kingdom"},"categories":[{"id":"4bf58dd8d48988d11b941735","name":"Pub","pluralName":"Pubs","shortName":"Pub","icon":{"prefix":"https:\/\/ss1.4sqi.net\/img\/categories_v2\/nightlife\/pub_","suffix":".png"},"primary":"true"}],"verified":"false","restricted":"true","stats":{"checkinsCount":"1191","usersCount":"1064","tipCount":"25"},"specials":{"count":"0"},"hereNow":{"count":"0"},"referralId":"v-1392477949"},{"id":"4ac518baf964a520f8a120e3","name":"Black Cap","contact":{"phone":"+442074850538","formattedPhone":"+44 20 7485 0538","twitter":"blackcap_camden"},"location":{"address":"171 Camden High St","lat":"51.53847473415317","lng":"-0.14243399843681995","distance":"94","postalCode":"NW1 7JY","cc":"GB","city":"Camden Town","state":"Greater London","country":"United Kingdom"},"categories":[{"id":"4bf58dd8d48988d1d8941735","name":"Gay Bar","pluralName":"Gay Bars","shortName":"Gay Bar","icon":{"prefix":"https:\/\/ss1.4sqi.net\/img\/categories_v2\/nightlife\/gaybar_","suffix":".png"},"primary":"true"}],"verified":"false","restricted":"true","stats":{"checkinsCount":"1238","usersCount":"680","tipCount":"12"},"url":"http:\/\/www.theblackcap.com","menu":{"type":"Menu","label":"Menu","anchor":"View Menu","url":"https:\/\/foursquare.com\/v\/black-cap\/4ac518baf964a520f8a120e3\/menu","mobileUrl":"https:\/\/foursquare.com\/v\/4ac518baf964a520f8a120e3\/device_menu"},"specials":{"count":"0"},"hereNow":{"count":"0"},"referralId":"v-1392477949"},{"id":"4ade3b73f964a520217421e3","name":"Hach\u00e9","contact":{"phone":"+442074859100","formattedPhone":"+44 20 7485 9100","twitter":"hacheburgers"},"location":{"address":"24 Inverness St","lat":"51.539509522635605","lng":"-0.14425610307679912","distance":"103","postalCode":"NW1 7HJ","cc":"GB","city":"Camden Town","state":"Greater London","country":"United Kingdom"},"categories":[{"id":"4bf58dd8d48988d16c941735","name":"Burger Joint","pluralName":"Burger Joints","shortName":"Burgers","icon":{"prefix":"https:\/\/ss1.4sqi.net\/img\/categories_v2\/food\/burger_","suffix":".png"},"primary":"true"}],"verified":"true","restricted":"true","stats":{"checkinsCount":"1460","usersCount":"1068","tipCount":"45"},"url":"http:\/\/www.hacheburgers.com","specials":{"count":"0"},"hereNow":{"count":"0"},"venuePage":{"id":"34356321"},"storeId":"","referralId":"v-1392477949"},{"id":"4b96587ef964a52040c734e3","name":"Superdrug","location":{"address":"201 Camden High St.","lat":"51.53938258396447","lng":"-0.1431403473438521","distance":"25","cc":"GB","city":"Camden Town","state":"Greater London","country":"United Kingdom"},"categories":[{"id":"4bf58dd8d48988d10f951735","name":"Drugstore \/ Pharmacy","pluralName":"Drugstores \/ Pharmacies","shortName":"Pharmacy","icon":{"prefix":"https:\/\/ss1.4sqi.net\/img\/categories_v2\/shops\/pharmacy_","suffix":".png"},"primary":"true"}],"verified":"true","restricted":"true","stats":{"checkinsCount":"134","usersCount":"86","tipCount":"0"},"specials":{"count":"0"},"hereNow":{"count":"0"},"referralId":"v-1392477949"},{"id":"4efde682722e0f0770222d62","name":"Woody Grill","contact":{"phone":"+442086169587","formattedPhone":"+44 20 8616 9587"},"location":{"address":"1a Camden Road","crossStreet":"Bayham Street","lat":"51.53946568031913","lng":"-0.14199049118320184","distance":"59","postalCode":"NW1 9LG","cc":"GB","city":"Camden Town","state":"Greater London","country":"United Kingdom"},"categories":[{"id":"4bf58dd8d48988d115941735","name":"Middle Eastern Restaurant","pluralName":"Middle Eastern Restaurants","shortName":"Middle Eastern","icon":{"prefix":"https:\/\/ss1.4sqi.net\/img\/categories_v2\/food\/default_","suffix":".png"},"primary":"true"}],"verified":"false","restricted":"true","stats":{"checkinsCount":"328","usersCount":"213","tipCount":"10"},"specials":{"count":"0"},"hereNow":{"count":"0"},"referralId":"v-1392477949"},{"id":"4bae7e68f964a5202cb93be3","name":"Made in Brasil","location":{"address":"12 Inverness St.","lat":"51.53974257010371","lng":"-0.14402389526367188","distance":"98","postalCode":"NW1 7HJ","cc":"GB","city":"Camden","state":"Greater London","country":"United Kingdom"},"categories":[{"id":"4bf58dd8d48988d116941735","name":"Bar","pluralName":"Bars","shortName":"Bar","icon":{"prefix":"https:\/\/ss1.4sqi.net\/img\/categories_v2\/nightlife\/bar_","suffix":".png"},"primary":"true"}],"verified":"false","restricted":"true","stats":{"checkinsCount":"1093","usersCount":"891","tipCount":"33"},"url":"http:\/\/www.made-in-brasil.co.uk","menu":{"type":"Menu","label":"Menu","anchor":"View Menu","url":"https:\/\/foursquare.com\/v\/made-in-brasil\/4bae7e68f964a5202cb93be3\/menu","mobileUrl":"https:\/\/foursquare.com\/v\/4bae7e68f964a5202cb93be3\/device_menu"},"specials":{"count":"0"},"hereNow":{"count":"0"},"referralId":"v-1392477949"}],"confident":"true"}}