{"meta":{"code":"200"},"response":{"venues":[{"id":"4ac518cef964a52022a620e3","name":"Millennium Bridge","contact":{"phone":"+442075254925","formattedPhone":"+44 20 7525 4925"},"location":{"address":"Millennium Bridge","crossStreet":"btwn St Paul's and Bankside","lat":"51.50951705106139","lng":"-0.09849071502685547","distance":"53","postalCode":"SE1 2PW","cc":"GB","city":"London","state":"Greater London","country":"United Kingdom"},"categories":[{"id":"4bf58dd8d48988d1df941735","name":"Bridge","pluralName":"Bridges","shortName":"Bridge","icon":{"prefix":"https:\/\/ss1.4sqi.net\/img\/categories_v2\/parks_outdoors\/bridge_","suffix":".png"},"primary":"true"}],"verified":"false","restricted":"true","stats":{"checkinsCount":"12034","usersCount":"9394","tipCount":"64"},"specials":{"count":"0"},"hereNow":{"count":"3","groups":[{"type":"others","name":"Other people here","count":"3"}]},"referralId":"v-1392478032"},{"id":"4ac518d3f964a52076a720e3","name":"Tate Modern","contact":{"phone":"+442078878888","formattedPhone":"+44 20 7887 8888","twitter":"tate"},"location":{"address":"53 Bankside","lat":"51.507607256702116","lng":"-0.0994563102722168","distance":"219","postalCode":"SE1 9TG","cc":"GB","city":"Southwark","state":"Greater London","country":"United Kingdom"},"categories":[{"id":"4bf58dd8d48988d1e2931735","name":"Art Gallery","pluralName":"Art Galleries","shortName":"Art Gallery","icon":{"prefix":"https:\/\/ss1.4sqi.net\/img\/categories_v2\/arts_entertainment\/artgallery_","suffix":".png"},"primary":"true"}],"verified":"true","restricted":"true","stats":{"checkinsCount":"51515","usersCount":"39660","tipCount":"373"},"url":"http:\/\/www.tate.org.uk","menu":{"type":"Menu","label":"Menu","anchor":"View Menu","url":"https:\/\/foursquare.com\/v\/tate-modern\/4ac518d3f964a52076a720e3\/menu","mobileUrl":"https:\/\/foursquare.com\/v\/4ac518d3f964a52076a720e3\/device_menu"},"specials":{"count":"0"},"hereNow":{"count":"43","groups":[{"type":"others","name":"Other people here","count":"43"}]},"referralId":"v-1392478032"},{"id":"4ad64197f964a5201d0621e3","name":"Shakespeare's Globe Theatre","contact":{"phone":"+442074019919","formattedPhone":"+44 20 7401 9919","twitter":"the_globe","facebook":"23565920773"},"location":{"address":"21 New Globe Walk","lat":"51.508114762313845","lng":"-0.09694576263427734","distance":"143","postalCode":"SE1 9DT","cc":"GB","city":"London","state":"Greater London","country":"United Kingdom"},"categories":[{"id":"4bf58dd8d48988d137941735","name":"Theater","pluralName":"Theaters","shortName":"Theater","icon":{"prefix":"https:\/\/ss1.4sqi.net\/img\/categories_v2\/arts_entertainment\/performingarts_theater_","suffix":".png"},"primary":"true"}],"verified":"true","restricted":"true","stats":{"checkinsCount":"10234","usersCount":"8309","tipCount":"93"},"url":"http:\/\/www.shakespearesglobe.com","specials":{"count":"0"},"hereNow":{"count":"3","groups":[{"type":"others","name":"Other people here","count":"3"}]},"venuePage":{"id":"33413232"},"storeId":"","referralId":"v-1392478032"},{"id":"4b92768ff964a5206dfb33e3","name":"Bankside Pier","contact":{"phone":"+443432221234","formattedPhone":"+44 343 222 1234","twitter":"tflofficial","facebook":"212038972186253"},"location":{"address":"Bankside","lat":"51.508735781226605","lng":"-0.09665608406066895","distance":"100","postalCode":"SE1 9DT","cc":"GB","city":"Southwark","state":"Greater London","country":"United Kingdom"},"categories":[{"id":"4e74f6cabd41c4836eac4c31","name":"Pier","pluralName":"Pier","shortName":"Pier","icon":{"prefix":"https:\/\/ss1.4sqi.net\/img\/categories_v2\/travel\/ferry_pier_","suffix":".png"},"primary":"true"}],"verified":"true","restricted":"true","stats":{"checkinsCount":"1134","usersCount":"846","tipCount":"4"},"url":"http:\/\/www.tfl.gov.uk\/river","specials":{"count":"0"},"hereNow":{"count":"0"},"storeId":"","referralId":"v-1392478032"},{"id":"4e87141a5c5c136a48b22085","name":"Bankside Beach","location":{"address":"Bankside","lat":"51.50840857876848","lng":"-0.10007858276367188","distance":"185","postalCode":"SE1","cc":"GB","city":"London","state":"Greater London","country":"United Kingdom"},"categories":[{"id":"4bf58dd8d48988d1e2941735","name":"Beach","pluralName":"Beaches","shortName":"Beach","icon":{"prefix":"https:\/\/ss1.4sqi.net\/img\/categories_v2\/parks_outdoors\/beach_","suffix":".png"},"primary":"true"}],"verified":"false","restricted":"true","stats":{"checkinsCount":"565","usersCount":"307","tipCount":"2"},"specials":{"count":"0"},"hereNow":{"count":"1","groups":[{"type":"others","name":"Other people here","count":"1"}]},"referralId":"v-1392478032"},{"id":"4ac518bff964a5205da320e3","name":"Swan at the Globe","contact":{"phone":"+442079289444","formattedPhone":"+44 20 7928 9444"},"location":{"address":"21 New Globe Walk","lat":"51.50851297064889","lng":"-0.09671219587850817","distance":"114","postalCode":"SE1 9DT","cc":"GB","city":"London","state":"Greater London","country":"United Kingdom"},"categories":[{"id":"4bf58dd8d48988d1c4941735","name":"Restaurant","pluralName":"Restaurants","shortName":"Restaurant","icon":{"prefix":"https:\/\/ss1.4sqi.net\/img\/categories_v2\/food\/default_","suffix":".png"},"primary":"true"}],"verified":"false","restricted":"true","stats":{"checkinsCount":"2120","usersCount":"1554","tipCount":"32"},"url":"http:\/\/www.loveswan.co.uk","reservations":{"url":"http:\/\/www.toptable.co.uk\/single.aspx?rid=78802&ref=9601"},"specials":{"count":"0"},"hereNow":{"count":"0"},"referralId":"v-1392478032"},{"id":"4b4cd381f964a52076c026e3","name":"PizzaExpress","contact":{"phone":"+442074013977","formattedPhone":"+44 20 7401 3977","twitter":"pizzaexpress"},"location":{"address":"Benbow House","lat":"51.5085038","lng":"-0.09593103","distance":"156","postalCode":"SE1 9DS","cc":"GB","city":"24 New Globe Walk","state":"Greater London","country":"United Kingdom"},"categories":[{"id":"4bf58dd8d48988d1ca941735","name":"Pizza Place","pluralName":"Pizza Places","shortName":"Pizza","icon":{"prefix":"https:\/\/ss1.4sqi.net\/img\/categories_v2\/food\/pizza_","suffix":".png"},"primary":"true"}],"verified":"true","restricted":"true","stats":{"checkinsCount":"1229","usersCount":"1024","tipCount":"7"},"url":"http:\/\/www.pizzaexpress.com","specials":{"count":"0"},"hereNow":{"count":"1","groups":[{"type":"others","name":"Other people here","count":"1"}]},"storeId":"","referralId":"v-1392478032"},{"id":"4b0018abf964a520bf3a22e3","name":"Starbucks","contact":{"twitter":"starbucksuk"},"location":{"address":"Unit 1-3 Benbow House, New Globe Walk (Emerson Street)","crossStreet":"At Benbow House, Emerson St.","lat":"51.507984951710945","lng":"-0.09634404611711173","distance":"176","postalCode":"SE1 9DS","cc":"GB","city":"London","state":"Greater London","country":"United Kingdom"},"categories":[{"id":"4bf58dd8d48988d1e0931735","name":"Coffee Shop","pluralName":"Coffee Shops","shortName":"Coffee Shop","icon":{"prefix":"https:\/\/ss1.4sqi.net\/img\/categories_v2\/food\/coffeeshop_","suffix":".png"},"primary":"true"}],"verified":"true","restricted":"true","stats":{"checkinsCount":"2093","usersCount":"1017","tipCount":"8"},"url":"http:\/\/starbucks.co.uk","menu":{"type":"Menu","label":"Menu","anchor":"View Menu","url":"https:\/\/foursquare.com\/v\/starbucks\/4b0018abf964a520bf3a22e3\/menu","mobileUrl":"https:\/\/foursquare.com\/v\/4b0018abf964a520bf3a22e3\/device_menu"},"specials":{"count":"0"},"hereNow":{"count":"0"},"storeId":"12223","referralId":"v-1392478032"},{"id":"4acdd490f964a5202bcd20e3","name":"Tate Modern Members' Room","location":{"address":"Tate Modern","crossStreet":"Bankside","lat":"51.50779214701171","lng":"-0.09964703220426202","distance":"209","cc":"GB","city":"London","state":"Greater London","country":"United Kingdom"},"categories":[{"id":"4bf58dd8d48988d1e2931735","name":"Art Gallery","pluralName":"Art Galleries","shortName":"Art Gallery","icon":{"prefix":"https:\/\/ss1.4sqi.net\/img\/categories_v2\/arts_entertainment\/artgallery_","suffix":".png"},"primary":"true"}],"verified":"false","restricted":"true","stats":{"checkinsCount":"2050","usersCount":"1231","tipCount":"20"},"specials":{"count":"0"},"hereNow":{"count":"1","groups":[{"type":"others","name":"Other people here","count":"1"}]},"referralId":"v-1392478032"},{"id":"52150c4c498ec1df69dff06b","name":"By The Thames","location":{"lat":"51.50856811885181","lng":"-0.09747024008050478","distance":"83","cc":"GB","country":"United Kingdom"},"categories":[{"id":"4eb1d4dd4b900d56c88a45fd","name":"River","pluralName":"Rivers","shortName":"River","icon":{"prefix":"https:\/\/ss1.4sqi.net\/img\/categories_v2\/parks_outdoors\/river_","suffix":".png"},"primary":"true"}],"verified":"false","restricted":"true","stats":{"checkinsCount":"34","usersCount":"27","tipCount":"0"},"specials":{"count":"0"},"hereNow":{"count":"0"},"referralId":"v-1392478032"},{"id":"525d408911d25aa5106de51f","name":"Paul Klee Making Visible","location":{"address":"Tate Modern","lat":"51.50788474892459","lng":"-0.09932023048685516","distance":"188","cc":"GB","city":"London","state":"Greater London","country":"United Kingdom"},"categories":[{"id":"4bf58dd8d48988d1e2931735","name":"Art Gallery","pluralName":"Art Galleries","shortName":"Art Gallery","icon":{"prefix":"https:\/\/ss1.4sqi.net\/img\/categories_v2\/arts_entertainment\/artgallery_","suffix":".png"},"primary":"true"}],"verified":"false","restricted":"true","stats":{"checkinsCount":"445","usersCount":"435","tipCount":"14"},"url":"http:\/\/www.tate.org.uk\/whats-on\/tate-modern\/exhibition\/ey-exhibition-paul-klee-making-visible","specials":{"count":"0"},"hereNow":{"count":"0"},"referralId":"v-1392478032"},{"id":"4ac518e3f964a520c5aa20e3","name":"The Real Greek","contact":{"phone":"+442076200162","formattedPhone":"+44 20 7620 0162"},"location":{"address":"2A Southwark Bridge Road","lat":"51.508224943706374","lng":"-0.09527742862701416","distance":"211","postalCode":"SE1 9HA","cc":"GB","city":"London","state":"Greater London","country":"United Kingdom"},"categories":[{"id":"4bf58dd8d48988d10e941735","name":"Greek Restaurant","pluralName":"Greek Restaurants","shortName":"Greek","icon":{"prefix":"https:\/\/ss1.4sqi.net\/img\/categories_v2\/food\/greek_","suffix":".png"},"primary":"true"}],"verified":"false","restricted":"true","stats":{"checkinsCount":"1123","usersCount":"939","tipCount":"40"},"specials":{"count":"0"},"hereNow":{"count":"1","groups":[{"type":"others","name":"Other people here","count":"1"}]},"referralId":"v-1392478032"},{"id":"4e108a0552b1655efa3db959","name":"Tate Modern Grass Square","location":{"address":"Jubilee Walkway","lat":"51.508234960183394","lng":"-0.09982109069824219","distance":"182","postalCode":"SE1 9","cc":"GB","city":"London","state":"Greater London","country":"United Kingdom"},"categories":[{"id":"4bf58dd8d48988d163941735","name":"Park","pluralName":"Parks","shortName":"Park","icon":{"prefix":"https:\/\/ss1.4sqi.net\/img\/categories_v2\/parks_outdoors\/park_","suffix":".png"},"primary":"true"}],"verified":"false","restricted":"true","stats":{"checkinsCount":"549","usersCount":"426","tipCount":"2"},"specials":{"count":"0"},"hereNow":{"count":"0"},"referralId":"v-1392478032"},{"id":"4ac518e3f964a520c4aa20e3","name":"Tate Modern Restaurant","contact":{"phone":"+442074015020","formattedPhone":"+44 20 7401 5020"},"location":{"address":"53 Bankside, Southwark","lat":"51.50788452550081","lng":"-0.09955749649444179","distance":"198","postalCode":"SE1 9TG","cc":"GB","city":"London","state":"Greater London","country":"United Kingdom"},"categories":[{"id":"4bf58dd8d48988d1c4941735","name":"Restaurant","pluralName":"Restaurants","shortName":"Restaurant","icon":{"prefix":"https:\/\/ss1.4sqi.net\/img\/categories_v2\/food\/default_","suffix":".png"},"primary":"true"}],"verified":"false","restricted":"true","stats":{"checkinsCount":"1339","usersCount":"1258","tipCount":"28"},"url":"http:\/\/www.tate.org.uk","menu":{"type":"Menu","label":"Menu","anchor":"View Menu","url":"https:\/\/foursquare.com\/v\/tate-modern-restaurant\/4ac518e3f964a520c4aa20e3\/menu","mobileUrl":"https:\/\/foursquare.com\/v\/4ac518e3f964a520c4aa20e3\/device_menu"},"specials":{"count":"0"},"hereNow":{"count":"0"},"referralId":"v-1392478032"},{"id":"4b8fd62cf964a520b86433e3","name":"Northbank","contact":{"phone":"+442073299299","formattedPhone":"+44 20 7329 9299"},"location":{"address":"1 Paul's Walk","lat":"51.510531306266785","lng":"-0.097807","distance":"138","postalCode":"EC4V 3QH","cc":"GB","city":"Millennium Bridge","state":"Greater London","country":"United Kingdom"},"categories":[{"id":"4bf58dd8d48988d155941735","name":"Gastropub","pluralName":"Gastropubs","shortName":"Gastropub","icon":{"prefix":"https:\/\/ss1.4sqi.net\/img\/categories_v2\/food\/gastropub_","suffix":".png"},"primary":"true"}],"verified":"false","restricted":"true","stats":{"checkinsCount":"221","usersCount":"199","tipCount":"7"},"url":"http:\/\/www.northbankrestaurant.com","menu":{"type":"Menu","label":"Menu","anchor":"View Menu","url":"https:\/\/foursquare.com\/v\/northbank\/4b8fd62cf964a520b86433e3\/menu","mobileUrl":"https:\/\/foursquare.com\/v\/4b8fd62cf964a520b86433e3\/device_menu"},"specials":{"count":"0"},"hereNow":{"count":"1","groups":[{"type":"others","name":"Other people here","count":"1"}]},"referralId":"v-1392478032"},{"id":"4dfcee38fa76c83b6e7e70be","name":"North Bank Restaurant","location":{"lat":"51.5098261449104","lng":"-0.09776200376746078","distance":"59","cc":"GB","city":"Camberwell","state":"Greater London","country":"United Kingdom"},"categories":[{"id":"4d4b7105d754a06374d81259","name":"Food","pluralName":"Food","shortName":"Food","icon":{"prefix":"https:\/\/ss1.4sqi.net\/img\/categories_v2\/food\/default_","suffix":".png"},"primary":"true"}],"verified":"false","restricted":"true","stats":{"checkinsCount":"25","usersCount":"24","tipCount":"0"},"specials":{"count":"0"},"hereNow":{"count":"0"},"referralId":"v-1392478032"},{"id":"4f004796b8f787cad17efdd5","name":"Jubilee Walkway","location":{"lat":"51.508496809792625","lng":"-0.09857530362556191","distance":"103","cc":"GB","country":"United Kingdom"},"categories":[{"id":"4bf58dd8d48988d1df941735","name":"Bridge","pluralName":"Bridges","shortName":"Bridge","icon":{"prefix":"https:\/\/ss1.4sqi.net\/img\/categories_v2\/parks_outdoors\/bridge_","suffix":".png"},"primary":"true"}],"verified":"false","restricted":"true","stats":{"checkinsCount":"417","usersCount":"304","tipCount":"1"},"specials":{"count":"0"},"hereNow":{"count":"0"},"referralId":"v-1392478032"},{"id":"52fe48b5498e7d97def23f47","name":"Richard Hamilton At Tate Modern","location":{"lat":"51.508006","lng":"-0.09932","distance":"177","cc":"GB","country":"United Kingdom"},"categories":[{"id":"4bf58dd8d48988d1e2931735","name":"Art Gallery","pluralName":"Art Galleries","shortName":"Art Gallery","icon":{"prefix":"https:\/\/ss1.4sqi.net\/img\/categories_v2\/arts_entertainment\/artgallery_","suffix":".png"},"primary":"true"}],"verified":"false","restricted":"true","stats":{"checkinsCount":"6","usersCount":"6","tipCount":"0"},"specials":{"count":"0"},"hereNow":{"count":"1","groups":[{"type":"others","name":"Other people here","count":"1"}]},"referralId":"v-1392478032"},{"id":"4c8a38621eafb1f7251e7835","name":"Tate Modern Bookshop","contact":{"phone":"+442074015167","formattedPhone":"+44 20 7401 5167"},"location":{"address":"Tate Modern","crossStreet":"Bankside","lat":"51.50779736717376","lng":"-0.09973935173192731","distance":"213","postalCode":"SE1 9TG","cc":"GB","city":"London","state":"Greater London","country":"United Kingdom"},"categories":[{"id":"4bf58dd8d48988d114951735","name":"Bookstore","pluralName":"Bookstores","shortName":"Bookstore","icon":{"prefix":"https:\/\/ss1.4sqi.net\/img\/categories_v2\/shops\/bookstore_","suffix":".png"},"primary":"true"}],"verified":"false","restricted":"true","stats":{"checkinsCount":"683","usersCount":"619","tipCount":"1"},"specials":{"count":"0"},"hereNow":{"count":"0"},"referralId":"v-1392478032"},{"id":"4ac518c1f964a520e2a320e3","name":"The Samuel Pepys","contact":{"phone":"+442074891871","formattedPhone":"+44 20 7489 1871"},"location":{"address":"Stew Ln.","crossStreet":"48 Upper Thames St.","lat":"51.50997121546238","lng":"-0.09642650767126941","distance":"121","postalCode":"EC4V 3PT","cc":"GB","city":"London","state":"Greater London","country":"United Kingdom"},"categories":[{"id":"4bf58dd8d48988d116941735","name":"Bar","pluralName":"Bars","shortName":"Bar","icon":{"prefix":"https:\/\/ss1.4sqi.net\/img\/categories_v2\/nightlife\/bar_","suffix":".png"},"primary":"true"}],"verified":"true","restricted":"true","stats":{"checkinsCount":"305","usersCount":"225","tipCount":"8"},"url":"http:\/\/www.thesamuelpepys.co.uk","reservations":{"url":"http:\/\/www.toptable.co.uk\/single.aspx?rid=95991&ref=9601"},"menu":{"type":"Menu","label":"Menu","anchor":"View Menu","url":"https:\/\/foursquare.com\/v\/the-samuel-pepys\/4ac518c1f964a520e2a320e3\/menu","mobileUrl":"https:\/\/foursquare.com\/v\/4ac518c1f964a520e2a320e3\/device_menu"},"specials":{"count":"0"},"hereNow":{"count":"0"},"referralId":"v-1392478032"},{"id":"4b0be2a4f964a5206e3423e3","name":"EAT.","contact":{"phone":"+442076368331","formattedPhone":"+44 20 7636 8331","twitter":"eat_news"},"location":{"address":"2A Southwark Bridge Road","lat":"51.50820665567296","lng":"-0.09497358477983119","distance":"230","postalCode":"SE1 9HA","cc":"GB","city":"London","state":"Greater London","country":"United Kingdom"},"categories":[{"id":"4bf58dd8d48988d1c5941735","name":"Sandwich Place","pluralName":"Sandwich Places","shortName":"Sandwiches","icon":{"prefix":"https:\/\/ss1.4sqi.net\/img\/categories_v2\/food\/sandwiches_","suffix":".png"},"primary":"true"}],"verified":"true","restricted":"true","stats":{"checkinsCount":"875","usersCount":"504","tipCount":"10"},"url":"http:\/\/www.eat.co.uk","specials":{"count":"0"},"hereNow":{"count":"0"},"storeId":"EAT - Riverside","referralId":"v-1392478032"},{"id":"4c24ffeea852c928dc16e46c","name":"Zizzi","contact":{"phone":"+442074017407","formattedPhone":"+44 20 7401 7407","twitter":"wearezizzi"},"location":{"address":"Unit 4, Mezzanine Level, Riverside Hs, Southwark Bridge Rd","lat":"51.50826167077801","lng":"-0.09527206420898438","distance":"209","postalCode":"SE1 9HA","cc":"GB","city":"London","state":"Greater London","country":"United Kingdom"},"categories":[{"id":"4bf58dd8d48988d110941735","name":"Italian Restaurant","pluralName":"Italian Restaurants","shortName":"Italian","icon":{"prefix":"https:\/\/ss1.4sqi.net\/img\/categories_v2\/food\/italian_","suffix":".png"},"primary":"true"}],"verified":"false","restricted":"true","stats":{"checkinsCount":"623","usersCount":"525","tipCount":"13"},"url":"http:\/\/www.zizzi.co.uk\/venue\/index\/bankside","reservations":{"url":"http:\/\/www.toptable.co.uk\/single.aspx?rid=55371&ref=9601"},"menu":{"type":"Menu","label":"Menu","anchor":"View Menu","url":"https:\/\/foursquare.com\/v\/zizzi\/4c24ffeea852c928dc16e46c\/menu","mobileUrl":"https:\/\/foursquare.com\/v\/4c24ffeea852c928dc16e46c\/device_menu"},"specials":{"count":"0"},"hereNow":{"count":"0"},"referralId":"v-1392478032"},{"id":"518c025a498ea67bd167609f","name":"Shakespeare Globe Theatre Bookshop","location":{"lat":"51.50825598840035","lng":"-0.09738352818369382","distance":"118","cc":"GB","country":"United Kingdom"},"categories":[{"id":"4bf58dd8d48988d114951735","name":"Bookstore","pluralName":"Bookstores","shortName":"Bookstore","icon":{"prefix":"https:\/\/ss1.4sqi.net\/img\/categories_v2\/shops\/bookstore_","suffix":".png"},"primary":"true"}],"verified":"false","restricted":"true","stats":{"checkinsCount":"47","usersCount":"47","tipCount":"0"},"specials":{"count":"0"},"hereNow":{"count":"0"},"referralId":"v-1392478032"},{"id":"4af00c9ff964a52082da21e3","name":"Ofcom","contact":{"phone":"+442079813000","formattedPhone":"+44 20 7981 3000","twitter":"ofcom"},"location":{"address":"2a Southwark Bridge Road","crossStreet":"River Thames","lat":"51.508078555533174","lng":"-0.09503655725115807","distance":"234","postalCode":"SE1 9HA","cc":"GB","city":"London","state":"Greater London","country":"United Kingdom"},"categories":[{"id":"4bf58dd8d48988d124941735","name":"Office","pluralName":"Offices","shortName":"Office","icon":{"prefix":"https:\/\/ss1.4sqi.net\/img\/categories_v2\/building\/default_","suffix":".png"},"primary":"true"}],"verified":"false","restricted":"true","stats":{"checkinsCount":"700","usersCount":"107","tipCount":"1"},"url":"http:\/\/www.ofcom.org.uk","specials":{"count":"0"},"hereNow":{"count":"0"},"referralId":"v-1392478032"},{"id":"4c921bc9ae96a0933adda846","name":"Turbine Hall","location":{"address":"Tate Modern","lat":"51.50749953167364","lng":"-0.09975614355146473","distance":"240","postalCode":"SE1","cc":"GB","city":"Bankside","state":"Greater London","country":"United Kingdom"},"categories":[{"id":"4bf58dd8d48988d18f941735","name":"Art Museum","pluralName":"Art Museums","shortName":"Art Museum","icon":{"prefix":"https:\/\/ss1.4sqi.net\/img\/categories_v2\/arts_entertainment\/museum_art_","suffix":".png"},"primary":"true"}],"verified":"false","restricted":"true","stats":{"checkinsCount":"939","usersCount":"768","tipCount":"2"},"specials":{"count":"0"},"hereNow":{"count":"0"},"referralId":"v-1392478032"},{"id":"4e47a5241f6e29f10db63074","name":"Tate Modern Espresso Bar","location":{"address":"53 Bankside","crossStreet":"Level 4","lat":"51.50793588151899","lng":"-0.09945348126876556","distance":"189","cc":"GB","city":"London","state":"Greater London","country":"United Kingdom"},"categories":[{"id":"4bf58dd8d48988d1e0931735","name":"Coffee Shop","pluralName":"Coffee Shops","shortName":"Coffee Shop","icon":{"prefix":"https:\/\/ss1.4sqi.net\/img\/categories_v2\/food\/coffeeshop_","suffix":".png"},"primary":"true"}],"verified":"false","restricted":"true","stats":{"checkinsCount":"501","usersCount":"475","tipCount":"9"},"menu":{"type":"Menu","label":"Menu","anchor":"View Menu","url":"https:\/\/foursquare.com\/v\/tate-modern-espresso-bar\/4e47a5241f6e29f10db63074\/menu","mobileUrl":"https:\/\/foursquare.com\/v\/4e47a5241f6e29f10db63074\/device_menu"},"specials":{"count":"0"},"hereNow":{"count":"0"},"referralId":"v-1392478032"},{"id":"528b7b90498ec1ac74ae0f88","name":"Mira Schendel at Tate Modern","location":{"lat":"51.507859143704835","lng":"-0.0988337338239905","distance":"174","cc":"GB","country":"United Kingdom"},"categories":[{"id":"4bf58dd8d48988d1e2931735","name":"Art Gallery","pluralName":"Art Galleries","shortName":"Art Gallery","icon":{"prefix":"https:\/\/ss1.4sqi.net\/img\/categories_v2\/arts_entertainment\/artgallery_","suffix":".png"},"primary":"true"}],"verified":"false","restricted":"true","stats":{"checkinsCount":"21","usersCount":"21","tipCount":"0"},"specials":{"count":"0"},"hereNow":{"count":"0"},"referralId":"v-1392478032"},{"id":"4ad6eaf6f964a520610821e3","name":"Millennium Bridge House","location":{"address":"2 Lambeth Hill","lat":"51.51145294737889","lng":"-0.0978009468987067","distance":"240","postalCode":"EC4V 4GG","cc":"GB","city":"London","state":"Greater London","country":"United Kingdom"},"categories":[{"id":"4bf58dd8d48988d124941735","name":"Office","pluralName":"Offices","shortName":"Office","icon":{"prefix":"https:\/\/ss1.4sqi.net\/img\/categories_v2\/building\/default_","suffix":".png"},"primary":"true"}],"verified":"false","restricted":"true","stats":{"checkinsCount":"422","usersCount":"137","tipCount":"1"},"specials":{"count":"0"},"hereNow":{"count":"0"},"referralId":"v-1392478032"},{"id":"52d1bf69498e56474cfec4b5","name":"The Sam Wanamaker Playhouse","contact":{"phone":"+442074019919","formattedPhone":"+44 20 7401 9919","twitter":"the_globe"},"location":{"address":"21 New Globe Walk","lat":"51.50817991442506","lng":"-0.09633292522947647","distance":"160","postalCode":"SE1 9DT","cc":"GB","city":"London","state":"Greater London","country":"United Kingdom"},"categories":[{"id":"4bf58dd8d48988d137941735","name":"Theater","pluralName":"Theaters","shortName":"Theater","icon":{"prefix":"https:\/\/ss1.4sqi.net\/img\/categories_v2\/arts_entertainment\/performingarts_theater_","suffix":".png"},"primary":"true"}],"verified":"false","restricted":"true","stats":{"checkinsCount":"31","usersCount":"24","tipCount":"2"},"specials":{"count":"0"},"hereNow":{"count":"0"},"referralId":"v-1392478032"},{"id":"4bca1e58937ca593d62aa792","name":"Tas Pide","contact":{"phone":"+442079283300","formattedPhone":"+44 20 7928 3300"},"location":{"address":"20-22 New Globe Walk","crossStreet":"at Park St.","lat":"51.507760600000005","lng":"-0.096459","distance":"193","postalCode":"SE1 9DR","cc":"GB","city":"London","state":"Greater London","country":"United Kingdom"},"categories":[{"id":"4f04af1f2fb6e1c99f3db0bb","name":"Turkish Restaurant","pluralName":"Turkish Restaurants","shortName":"Turkish","icon":{"prefix":"https:\/\/ss1.4sqi.net\/img\/categories_v2\/food\/turkish_","suffix":".png"},"primary":"true"}],"verified":"false","restricted":"true","stats":{"checkinsCount":"523","usersCount":"437","tipCount":"16"},"specials":{"count":"0"},"hereNow":{"count":"0"},"referralId":"v-1392478032"}],"confident":"true"}}