{"meta":{"code":"200"},"response":{"venues":[{"id":"4ac518cef964a52013a620e3","name":"Kensington Palace","contact":{"phone":"+448444827777","formattedPhone":"+44 844 482 7777"},"location":{"address":"Kensington Gardens","lat":"51.505144034215654","lng":"-0.18805501918882328","distance":"96","postalCode":"W8 4PX","cc":"GB","city":"Kensington","state":"Greater London","country":"United Kingdom"},"categories":[{"id":"4deefb944765f83613cdba6e","name":"Historic Site","pluralName":"Historic Sites","shortName":"Historic Site","icon":{"prefix":"https:\/\/ss1.4sqi.net\/img\/categories_v2\/arts_entertainment\/historicsite_","suffix":".png"},"primary":"true"}],"verified":"true","restricted":"true","stats":{"checkinsCount":"4443","usersCount":"3596","tipCount":"39"},"url":"http:\/\/www.hrp.org.uk","specials":{"count":"0"},"hereNow":{"count":"2","groups":[{"type":"others","name":"Other people here","count":"2"}]},"referralId":"v-1392478036"},{"id":"4ac518b5f964a520a0a020e3","name":"Royal Garden Hotel","location":{"address":"2-24 Kensington High St","lat":"51.502552988661776","lng":"-0.18793501641472635","distance":"193","postalCode":"W8 4PT","cc":"GB","city":"Kensington","state":"Greater London","country":"United Kingdom"},"categories":[{"id":"4bf58dd8d48988d1fa931735","name":"Hotel","pluralName":"Hotels","shortName":"Hotel","icon":{"prefix":"https:\/\/ss1.4sqi.net\/img\/categories_v2\/travel\/hotel_","suffix":".png"},"primary":"true"}],"verified":"false","restricted":"true","stats":{"checkinsCount":"3316","usersCount":"1579","tipCount":"30"},"menu":{"type":"Menu","label":"Menu","anchor":"View Menu","url":"https:\/\/foursquare.com\/v\/royal-garden-hotel\/4ac518b5f964a520a0a020e3\/menu","mobileUrl":"https:\/\/foursquare.com\/v\/4ac518b5f964a520a0a020e3\/device_menu"},"specials":{"count":"0"},"hereNow":{"count":"0"},"referralId":"v-1392478036"},{"id":"4b3b67e9f964a520627325e3","name":"Virgin Active Health Club","contact":{"phone":"+442077610000","formattedPhone":"+44 20 7761 0000"},"location":{"address":"17A Old Ct. Pl.","lat":"51.50240005613578","lng":"-0.18977678750727053","distance":"250","postalCode":"W8 4PL","cc":"GB","city":"London","state":"Greater London","country":"United Kingdom"},"categories":[{"id":"4bf58dd8d48988d176941735","name":"Gym","pluralName":"Gyms","shortName":"Gym","icon":{"prefix":"https:\/\/ss1.4sqi.net\/img\/categories_v2\/building\/gym_","suffix":".png"},"primary":"true"}],"verified":"false","restricted":"true","stats":{"checkinsCount":"3375","usersCount":"327","tipCount":"16"},"specials":{"count":"0"},"hereNow":{"count":"4","groups":[{"type":"others","name":"Other people here","count":"4"}]},"referralId":"v-1392478036"},{"id":"507f1929e4b0c90c2af2e44a","name":"Bodo's Schloss","location":{"address":"2a Kensington High Street","lat":"51.50252631055732","lng":"-0.18772582029304036","distance":"196","postalCode":"W8 4RE","cc":"GB","city":"Kensington","state":"Greater London","country":"United Kingdom"},"categories":[{"id":"4bf58dd8d48988d11f941735","name":"Nightclub","pluralName":"Nightclubs","shortName":"Nightclub","icon":{"prefix":"https:\/\/ss1.4sqi.net\/img\/categories_v2\/nightlife\/nightclub_","suffix":".png"},"primary":"true"}],"verified":"false","restricted":"true","stats":{"checkinsCount":"569","usersCount":"479","tipCount":"14"},"url":"http:\/\/www.bodosschloss.com","reservations":{"url":"http:\/\/www.toptable.co.uk\/single.aspx?rid=92835&ref=9601"},"menu":{"type":"Menu","label":"Menu","anchor":"View Menu","url":"https:\/\/foursquare.com\/v\/bodos-schloss\/507f1929e4b0c90c2af2e44a\/menu","mobileUrl":"https:\/\/foursquare.com\/v\/507f1929e4b0c90c2af2e44a\/device_menu"},"specials":{"count":"0"},"hereNow":{"count":"0"},"referralId":"v-1392478036"},{"id":"4d723c2527ddb60c1393ca1b","name":"Aubaine","contact":{"phone":"+442073680950","formattedPhone":"+44 20 7368 0950","twitter":"aubaine_uk"},"location":{"address":"Kensington High St.","lat":"51.50237557937818","lng":"-0.1889365763422359","distance":"227","postalCode":"W8 5ED","cc":"GB","city":"Kensington","state":"Greater London","country":"United Kingdom"},"categories":[{"id":"4bf58dd8d48988d10c941735","name":"French Restaurant","pluralName":"French Restaurants","shortName":"French","icon":{"prefix":"https:\/\/ss1.4sqi.net\/img\/categories_v2\/food\/french_","suffix":".png"},"primary":"true"}],"verified":"true","restricted":"true","stats":{"checkinsCount":"945","usersCount":"714","tipCount":"7"},"url":"http:\/\/aubaine.co.uk","specials":{"count":"0"},"hereNow":{"count":"0"},"storeId":"","referralId":"v-1392478036"},{"id":"4b76a02bf964a5202f552ee3","name":"Whole Foods Market Restaurant","contact":{"phone":"+442073684500","formattedPhone":"+44 20 7368 4500","twitter":"wfm_kensington"},"location":{"address":"63-97 Kensington High St","lat":"51.501937500498094","lng":"-0.1903080940246582","distance":"314","postalCode":"W8 5SE","cc":"GB","city":"Kensington","state":"Greater London","country":"United Kingdom"},"categories":[{"id":"4bf58dd8d48988d1c4941735","name":"Restaurant","pluralName":"Restaurants","shortName":"Restaurant","icon":{"prefix":"https:\/\/ss1.4sqi.net\/img\/categories_v2\/food\/default_","suffix":".png"},"primary":"true"}],"verified":"false","restricted":"true","stats":{"checkinsCount":"3707","usersCount":"2242","tipCount":"43"},"url":"http:\/\/wholefoodsmarket.com\/stores\/kensington\/","specials":{"count":"0"},"hereNow":{"count":"1","groups":[{"type":"others","name":"Other people here","count":"1"}]},"referralId":"v-1392478036"},{"id":"4b5f37b3f964a520fbad29e3","name":"Min Jiang","contact":{"phone":"+442073611988","formattedPhone":"+44 20 7361 1988"},"location":{"address":"2-24 Kensington High St.","lat":"51.50253188966721","lng":"-0.18792629241943357","distance":"195","postalCode":"W8 4PT","cc":"GB","city":"London","state":"Greater London","country":"United Kingdom"},"categories":[{"id":"4bf58dd8d48988d145941735","name":"Chinese Restaurant","pluralName":"Chinese Restaurants","shortName":"Chinese","icon":{"prefix":"https:\/\/ss1.4sqi.net\/img\/categories_v2\/food\/chinese_","suffix":".png"},"primary":"true"}],"verified":"false","restricted":"true","stats":{"checkinsCount":"357","usersCount":"274","tipCount":"11"},"url":"http:\/\/minjiang.co.uk","reservations":{"url":"http:\/\/www.toptable.co.uk\/single.aspx?rid=71524&ref=9601"},"menu":{"type":"Menu","label":"Menu","anchor":"View Menu","url":"https:\/\/foursquare.com\/v\/min-jiang\/4b5f37b3f964a520fbad29e3\/menu","mobileUrl":"https:\/\/foursquare.com\/v\/4b5f37b3f964a520fbad29e3\/device_menu"},"specials":{"count":"0"},"hereNow":{"count":"1","groups":[{"type":"others","name":"Other people here","count":"1"}]},"referralId":"v-1392478036"},{"id":"4afb23def964a520771b22e3","name":"Wagamama","contact":{"phone":"+442073761717","formattedPhone":"+44 20 7376 1717"},"location":{"address":"26 Kensington High St.","lat":"51.502358248689056","lng":"-0.1890850067138672","distance":"232","postalCode":"W8 4PF","cc":"GB","city":"Kensington","state":"Greater London","country":"United Kingdom"},"categories":[{"id":"4bf58dd8d48988d1d1941735","name":"Ramen \/ Noodle House","pluralName":"Ramen \/ Noodle House","shortName":"Ramen \/ Noodles","icon":{"prefix":"https:\/\/ss1.4sqi.net\/img\/categories_v2\/food\/ramen_","suffix":".png"},"primary":"true"}],"verified":"false","restricted":"true","stats":{"checkinsCount":"1408","usersCount":"1078","tipCount":"23"},"url":"http:\/\/wagamama.com","specials":{"count":"0"},"hereNow":{"count":"0"},"referralId":"v-1392478036"},{"id":"4b16ab4ff964a520c0bb23e3","name":"Starbucks","contact":{"twitter":"starbucksuk"},"location":{"address":"25a Kensington High St,","lat":"51.502144535807645","lng":"-0.1879262924194336","distance":"238","postalCode":"W8 5NP","cc":"GB","city":"London","state":"Greater London","country":"United Kingdom"},"categories":[{"id":"4bf58dd8d48988d1e0931735","name":"Coffee Shop","pluralName":"Coffee Shops","shortName":"Coffee Shop","icon":{"prefix":"https:\/\/ss1.4sqi.net\/img\/categories_v2\/food\/coffeeshop_","suffix":".png"},"primary":"true"}],"verified":"true","restricted":"true","stats":{"checkinsCount":"1068","usersCount":"703","tipCount":"11"},"url":"http:\/\/starbucks.co.uk","specials":{"count":"0"},"hereNow":{"count":"0"},"storeId":"12004","referralId":"v-1392478036"},{"id":"4ff8139de4b04f767834f69e","name":"Kensington Palace Cafe & Gift Shop","location":{"lat":"51.50543160703892","lng":"-0.18724329426392508","distance":"132","cc":"GB","country":"United Kingdom"},"categories":[{"id":"4bf58dd8d48988d16d941735","name":"Caf\u00e9","pluralName":"Caf\u00e9s","shortName":"Caf\u00e9","icon":{"prefix":"https:\/\/ss1.4sqi.net\/img\/categories_v2\/food\/cafe_","suffix":".png"},"primary":"true"}],"verified":"false","restricted":"true","stats":{"checkinsCount":"78","usersCount":"70","tipCount":"0"},"specials":{"count":"0"},"hereNow":{"count":"0"},"referralId":"v-1392478036"},{"id":"4aeb1850f964a5203cbe21e3","name":"Stick & Bowl","location":{"address":"31 Kensington High St","lat":"51.5023799538475","lng":"-0.18879935145378113","distance":"223","cc":"GB","city":"Kensington","state":"Greater London","country":"United Kingdom"},"categories":[{"id":"4bf58dd8d48988d145941735","name":"Chinese Restaurant","pluralName":"Chinese Restaurants","shortName":"Chinese","icon":{"prefix":"https:\/\/ss1.4sqi.net\/img\/categories_v2\/food\/chinese_","suffix":".png"},"primary":"true"}],"verified":"false","restricted":"true","stats":{"checkinsCount":"741","usersCount":"342","tipCount":"20"},"specials":{"count":"0"},"hereNow":{"count":"0"},"referralId":"v-1392478036"},{"id":"4adc7c97f964a5209e2c21e3","name":"Starbucks","contact":{"twitter":"starbucksuk"},"location":{"address":"28a Kensington Church Street, Unit 5, Lancer Square","crossStreet":"Unit 5, Lancer Sq.","lat":"51.50323980373086","lng":"-0.19123077392578125","distance":"264","postalCode":"W8 4EP","cc":"GB","city":"London","state":"Greater London","country":"United Kingdom"},"categories":[{"id":"4bf58dd8d48988d1e0931735","name":"Coffee Shop","pluralName":"Coffee Shops","shortName":"Coffee Shop","icon":{"prefix":"https:\/\/ss1.4sqi.net\/img\/categories_v2\/food\/coffeeshop_","suffix":".png"},"primary":"true"}],"verified":"true","restricted":"true","stats":{"checkinsCount":"1292","usersCount":"573","tipCount":"4"},"url":"http:\/\/starbucks.co.uk","specials":{"count":"0"},"hereNow":{"count":"1","groups":[{"type":"others","name":"Other people here","count":"1"}]},"storeId":"12271","referralId":"v-1392478036"},{"id":"4ac518bdf964a520d6a220e3","name":"Old Goat Tavern","location":{"address":"3 Kensington High St.","lat":"51.50242030620575","lng":"-0.1878511905670166","distance":"208","postalCode":"W8 5NP","cc":"GB","city":"London","state":"Greater London","country":"United Kingdom"},"categories":[{"id":"4bf58dd8d48988d11b941735","name":"Pub","pluralName":"Pubs","shortName":"Pub","icon":{"prefix":"https:\/\/ss1.4sqi.net\/img\/categories_v2\/nightlife\/pub_","suffix":".png"},"primary":"true"}],"verified":"false","restricted":"true","stats":{"checkinsCount":"653","usersCount":"481","tipCount":"5"},"specials":{"count":"0"},"hereNow":{"count":"0"},"referralId":"v-1392478036"},{"id":"5244833111d292acfab035f2","name":"Nineteen Ten Mexican Kitchen","location":{"address":"19 Kensington High St","lat":"51.502335738125716","lng":"-0.1881680206285483","distance":"218","postalCode":"W8 5NP","cc":"GB","city":"Kensington","state":"Greater London","country":"United Kingdom"},"categories":[{"id":"4bf58dd8d48988d1c1941735","name":"Mexican Restaurant","pluralName":"Mexican Restaurants","shortName":"Mexican","icon":{"prefix":"https:\/\/ss1.4sqi.net\/img\/categories_v2\/food\/mexican_","suffix":".png"},"primary":"true"}],"verified":"false","restricted":"true","stats":{"checkinsCount":"23","usersCount":"22","tipCount":"0"},"specials":{"count":"0"},"hereNow":{"count":"0"},"referralId":"v-1392478036"},{"id":"4ac518c7f964a52063a520e3","name":"Archangel","contact":{"phone":"+442079384137","formattedPhone":"+44 20 7938 4137"},"location":{"address":"11-13 Kensington High Street","lat":"51.50215789289211","lng":"-0.1881086826324463","distance":"238","postalCode":"W8 5NP","cc":"GB","city":"London","state":"Greater London","country":"United Kingdom"},"categories":[{"id":"4bf58dd8d48988d11f941735","name":"Nightclub","pluralName":"Nightclubs","shortName":"Nightclub","icon":{"prefix":"https:\/\/ss1.4sqi.net\/img\/categories_v2\/nightlife\/nightclub_","suffix":".png"},"primary":"true"}],"verified":"false","restricted":"true","stats":{"checkinsCount":"714","usersCount":"538","tipCount":"14"},"menu":{"type":"Menu","label":"Menu","anchor":"View Menu","url":"https:\/\/foursquare.com\/v\/archangel\/4ac518c7f964a52063a520e3\/menu","mobileUrl":"https:\/\/foursquare.com\/v\/4ac518c7f964a52063a520e3\/device_menu"},"specials":{"count":"0"},"hereNow":{"count":"0"},"referralId":"v-1392478036"},{"id":"4ac518eff964a5205dad20e3","name":"Urban Outfitters","location":{"address":"36-38 Kensington High Street","lat":"51.50232888100592","lng":"-0.1892870305610014","distance":"241","postalCode":"W8 4PF","cc":"GB","city":"London","state":"Greater London","country":"United Kingdom"},"categories":[{"id":"4bf58dd8d48988d103951735","name":"Clothing Store","pluralName":"Clothing Stores","shortName":"Apparel","icon":{"prefix":"https:\/\/ss1.4sqi.net\/img\/categories_v2\/shops\/apparel_","suffix":".png"},"primary":"true"}],"verified":"false","restricted":"true","stats":{"checkinsCount":"773","usersCount":"571","tipCount":"3"},"specials":{"count":"0"},"hereNow":{"count":"0"},"referralId":"v-1392478036"},{"id":"4b05ad4cf964a520d4e022e3","name":"My Old Dutch","contact":{"phone":"+442079376090","formattedPhone":"+44 20 7937 6090"},"location":{"address":"16 Kensington Church St","crossStreet":"Kensington High St","lat":"51.502732243819835","lng":"-0.19118785858154297","distance":"291","postalCode":"W8  4EP","cc":"GB","city":"London","state":"Greater London","country":"United Kingdom"},"categories":[{"id":"4bf58dd8d48988d1c4941735","name":"Restaurant","pluralName":"Restaurants","shortName":"Restaurant","icon":{"prefix":"https:\/\/ss1.4sqi.net\/img\/categories_v2\/food\/default_","suffix":".png"},"primary":"true"}],"verified":"false","restricted":"true","stats":{"checkinsCount":"836","usersCount":"647","tipCount":"19"},"url":"http:\/\/www.myolddutch.com","reservations":{"url":"http:\/\/www.toptable.co.uk\/single.aspx?rid=93549&ref=9601"},"menu":{"type":"Menu","label":"Menu","anchor":"View Menu","url":"https:\/\/foursquare.com\/v\/my-old-dutch\/4b05ad4cf964a520d4e022e3\/menu","mobileUrl":"https:\/\/foursquare.com\/v\/4b05ad4cf964a520d4e022e3\/device_menu"},"specials":{"count":"0"},"hereNow":{"count":"0"},"referralId":"v-1392478036"},{"id":"4ad08db4f964a5206cd820e3","name":"Orangery at Kensington Palace","contact":{"phone":"+442031666112","formattedPhone":"+44 20 3166 6112"},"location":{"address":"Kensington Gardens","lat":"51.50703296721856","lng":"-0.18754005432128906","distance":"305","postalCode":"W8 6LU","cc":"GB","city":"London","state":"Greater London","country":"United Kingdom"},"categories":[{"id":"4bf58dd8d48988d1dc931735","name":"Tea Room","pluralName":"Tea Rooms","shortName":"Tea Room","icon":{"prefix":"https:\/\/ss1.4sqi.net\/img\/categories_v2\/food\/tearoom_","suffix":".png"},"primary":"true"}],"verified":"true","restricted":"true","stats":{"checkinsCount":"1259","usersCount":"1114","tipCount":"29"},"reservations":{"url":"http:\/\/www.toptable.co.uk\/single.aspx?rid=96018&ref=9601"},"menu":{"type":"Menu","label":"Menu","anchor":"View Menu","url":"https:\/\/foursquare.com\/v\/orangery-at-kensington-palace\/4ad08db4f964a5206cd820e3\/menu","mobileUrl":"https:\/\/foursquare.com\/v\/4ad08db4f964a5206cd820e3\/device_menu"},"specials":{"count":"0"},"hereNow":{"count":"0"},"referralId":"v-1392478036"},{"id":"4b69d2f1f964a52078b62be3","name":"Giraffe","contact":{"phone":"+442079381221","formattedPhone":"+44 20 7938 1221","twitter":"giraffetweet"},"location":{"address":"7 Kensington High St.","lat":"51.502282","lng":"-0.18789","distance":"223","postalCode":"W8 5NP","cc":"GB","city":"London","state":"Greater London","country":"United Kingdom"},"categories":[{"id":"4bf58dd8d48988d1c4941735","name":"Restaurant","pluralName":"Restaurants","shortName":"Restaurant","icon":{"prefix":"https:\/\/ss1.4sqi.net\/img\/categories_v2\/food\/default_","suffix":".png"},"primary":"true"}],"verified":"false","restricted":"true","stats":{"checkinsCount":"650","usersCount":"507","tipCount":"10"},"specials":{"count":"0"},"hereNow":{"count":"0"},"referralId":"v-1392478036"},{"id":"4b39011af964a5200b5425e3","name":"Cote","contact":{"phone":"+442079384147","formattedPhone":"+44 20 7938 4147"},"location":{"address":"47 Kensington Ct.","lat":"51.501970319330574","lng":"-0.18885493202171236","distance":"268","postalCode":"W8 5DA","cc":"GB","city":"Kensington","state":"Greater London","country":"United Kingdom"},"categories":[{"id":"4bf58dd8d48988d10c941735","name":"French Restaurant","pluralName":"French Restaurants","shortName":"French","icon":{"prefix":"https:\/\/ss1.4sqi.net\/img\/categories_v2\/food\/french_","suffix":".png"},"primary":"true"}],"verified":"false","restricted":"true","stats":{"checkinsCount":"671","usersCount":"404","tipCount":"23"},"url":"http:\/\/www.cote-restaurants.co.uk","menu":{"type":"Menu","label":"Menu","anchor":"View Menu","url":"https:\/\/foursquare.com\/v\/cote\/4b39011af964a5200b5425e3\/menu","mobileUrl":"https:\/\/foursquare.com\/v\/4b39011af964a5200b5425e3\/device_menu"},"specials":{"count":"0"},"hereNow":{"count":"0"},"referralId":"v-1392478036"},{"id":"4f7761afe4b05cde60d5cd10","name":"Spaghetti House","contact":{"phone":"+442079378961","formattedPhone":"+44 20 7937 8961","twitter":"spaghetti_house"},"location":{"address":"9 Kensington High St","lat":"51.50256201591308","lng":"-0.18795980247924007","distance":"192","postalCode":"W8 5NP","cc":"GB","city":"London","state":"Greater London","country":"United Kingdom"},"categories":[{"id":"4bf58dd8d48988d110941735","name":"Italian Restaurant","pluralName":"Italian Restaurants","shortName":"Italian","icon":{"prefix":"https:\/\/ss1.4sqi.net\/img\/categories_v2\/food\/italian_","suffix":".png"},"primary":"true"}],"verified":"true","restricted":"true","stats":{"checkinsCount":"127","usersCount":"118","tipCount":"4"},"url":"http:\/\/www.spaghettihouse.co.uk\/index.php","reservations":{"url":"http:\/\/www.toptable.co.uk\/single.aspx?rid=81385&ref=9601"},"menu":{"type":"Menu","label":"Menu","anchor":"View Menu","url":"https:\/\/foursquare.com\/v\/spaghetti-house\/4f7761afe4b05cde60d5cd10\/menu","mobileUrl":"https:\/\/foursquare.com\/v\/4f7761afe4b05cde60d5cd10\/device_menu"},"specials":{"count":"0"},"hereNow":{"count":"0"},"storeId":"","referralId":"v-1392478036"},{"id":"4b655f6bf964a520c2ee2ae3","name":"Caf\u00e9 Rouge","contact":{"phone":"+442079384200","formattedPhone":"+44 20 7938 4200","twitter":"caferougetweet","facebook":"207511922592337"},"location":{"address":"2 Lancer Square, Kensington Church St","lat":"51.50316258537062","lng":"-0.19115532026189633","distance":"263","postalCode":"W8 4EH","cc":"GB","city":"London","state":"Greater London","country":"United Kingdom"},"categories":[{"id":"4bf58dd8d48988d10c941735","name":"French Restaurant","pluralName":"French Restaurants","shortName":"French","icon":{"prefix":"https:\/\/ss1.4sqi.net\/img\/categories_v2\/food\/french_","suffix":".png"},"primary":"true"}],"verified":"true","restricted":"true","stats":{"checkinsCount":"593","usersCount":"389","tipCount":"8"},"url":"http:\/\/www.caferouge.co.uk\/french-restaurant\/lancer-square","specials":{"count":"0"},"hereNow":{"count":"0"},"storeId":"8103822","referralId":"v-1392478036"},{"id":"5218c83511d247f3bc922ab4","name":"Fashion Rules Kensington Palace","location":{"lat":"51.50525176927411","lng":"-0.18780782575749347","distance":"107","cc":"GB","country":"United Kingdom"},"categories":[{"id":"4deefb944765f83613cdba6e","name":"Historic Site","pluralName":"Historic Sites","shortName":"Historic Site","icon":{"prefix":"https:\/\/ss1.4sqi.net\/img\/categories_v2\/arts_entertainment\/historicsite_","suffix":".png"},"primary":"true"}],"verified":"false","restricted":"true","stats":{"checkinsCount":"18","usersCount":"18","tipCount":"0"},"specials":{"count":"0"},"hereNow":{"count":"0"},"referralId":"v-1392478036"},{"id":"4d4eccc14f67224b30716650","name":"Costa Coffee","location":{"address":"Unit 6, Lancer Square, Kensington Church Street","lat":"51.50300312028463","lng":"-0.19148087172016592","distance":"292","postalCode":"W8 4EP","cc":"GB","city":"London","state":"Greater London","country":"United Kingdom"},"categories":[{"id":"4bf58dd8d48988d1e0931735","name":"Coffee Shop","pluralName":"Coffee Shops","shortName":"Coffee Shop","icon":{"prefix":"https:\/\/ss1.4sqi.net\/img\/categories_v2\/food\/coffeeshop_","suffix":".png"},"primary":"true"}],"verified":"false","restricted":"true","stats":{"checkinsCount":"683","usersCount":"305","tipCount":"10"},"specials":{"count":"0"},"hereNow":{"count":"0"},"referralId":"v-1392478036"},{"id":"4bb9fc2b935e952137922790","name":"TK Maxx","contact":{"phone":"+442079378701","formattedPhone":"+44 20 7937 8701"},"location":{"address":"26-40 Kensington High St","lat":"51.502312","lng":"-0.189147","distance":"238","postalCode":"W8 4PF","cc":"GB","city":"London","state":"Greater London","country":"United Kingdom"},"categories":[{"id":"4bf58dd8d48988d103951735","name":"Clothing Store","pluralName":"Clothing Stores","shortName":"Apparel","icon":{"prefix":"https:\/\/ss1.4sqi.net\/img\/categories_v2\/shops\/apparel_","suffix":".png"},"primary":"true"}],"verified":"true","restricted":"true","stats":{"checkinsCount":"663","usersCount":"477","tipCount":"8"},"url":"http:\/\/www.tkmaxx.com","specials":{"count":"0"},"hereNow":{"count":"0"},"storeId":"137","referralId":"v-1392478036"},{"id":"4b7ae887f964a5205b452fe3","name":"Prince Of Wales","contact":{"phone":"+442079370867","formattedPhone":"+44 20 7937 0867"},"location":{"address":"8 Kensington Church St","lat":"51.50225139237363","lng":"-0.19097328186035156","distance":"315","postalCode":"W8 4EP","cc":"GB","city":"Kensington","state":"Greater London","country":"United Kingdom"},"categories":[{"id":"4bf58dd8d48988d11b941735","name":"Pub","pluralName":"Pubs","shortName":"Pub","icon":{"prefix":"https:\/\/ss1.4sqi.net\/img\/categories_v2\/nightlife\/pub_","suffix":".png"},"primary":"true"}],"verified":"false","restricted":"true","stats":{"checkinsCount":"779","usersCount":"644","tipCount":"9"},"specials":{"count":"0"},"hereNow":{"count":"0"},"referralId":"v-1392478036"},{"id":"4ac518b6f964a520d6a020e3","name":"The Milestone Hotel","contact":{"phone":"+442079171000","formattedPhone":"+44 20 7917 1000","twitter":"milestonehotel","facebook":"125028440899852"},"location":{"address":"1 Kensington Court","lat":"51.50209825600497","lng":"-0.18661484859362465","distance":"257","postalCode":"W8 5DL","cc":"GB","city":"London","state":"Greater London","country":"United Kingdom"},"categories":[{"id":"4bf58dd8d48988d1fa931735","name":"Hotel","pluralName":"Hotels","shortName":"Hotel","icon":{"prefix":"https:\/\/ss1.4sqi.net\/img\/categories_v2\/travel\/hotel_","suffix":".png"},"primary":"true"}],"verified":"true","restricted":"true","stats":{"checkinsCount":"524","usersCount":"265","tipCount":"17"},"url":"http:\/\/www.milestonehotel.com","specials":{"count":"1","items":[{"id":"5285e55b498e107ab62861ca","type":"frequency","message":"It's Champagne Time! Check in while dining with us and receive a FREE glass of Champagne, offer valid when enjoying Lunch or Dinner in Chenestons as well as Afternoon Tea in the Park Lounge","photo":{"id":"5285e55a11d2ccd57ce37102","createdAt":"1384506714","prefix":"https:\/\/irs0.4sqi.net\/img\/general\/","suffix":"\/46650968_HiqT271ueDSLT4raeB2Wq3ZrSjg5zeObQT5WjQlzQ3g.jpg","width":"2448","height":"2448"},"description":"Unlocked every check-in","finePrint":"Available with any main course ordered from our lunch or dinner menu or traditional afternoon tea. Limited to one glass per check in.","icon":"check-in","title":"Check-in Special","provider":"foursquare","redemption":"standard","page":{"id":"46650968","firstName":"The Milestone Hotel","gender":"none","photo":{"prefix":"https:\/\/irs0.4sqi.net\/img\/user\/","suffix":"\/46650968-CXCZDYUZNWPZ4GSW.png"},"type":"venuePage","venue":{"id":"4ac518b6f964a520d6a020e3"},"tips":{"count":"1"},"homeCity":"London, UK","bio":"","contact":{"twitter":"milestonehotel"}}}]},"hereNow":{"count":"0"},"venuePage":{"id":"46650968"},"referralId":"v-1392478036"},{"id":"4ac518e1f964a5205baa20e3","name":"Park Terrace Restaurant","location":{"address":"2-24 Kensington High Street","lat":"51.50265485516719","lng":"-0.18757178077497463","distance":"182","postalCode":"W8 4PT","cc":"GB","city":"London","state":"Greater London","country":"United Kingdom"},"categories":[{"id":"4bf58dd8d48988d1c4941735","name":"Restaurant","pluralName":"Restaurants","shortName":"Restaurant","icon":{"prefix":"https:\/\/ss1.4sqi.net\/img\/categories_v2\/food\/default_","suffix":".png"},"primary":"true"}],"verified":"false","restricted":"true","stats":{"checkinsCount":"179","usersCount":"111","tipCount":"0"},"url":"http:\/\/www.royalgardenhotel.co.uk\/Restaurants-Bars\/Park-Terrace","reservations":{"url":"http:\/\/www.toptable.co.uk\/single.aspx?rid=71458&ref=9601"},"menu":{"type":"Menu","label":"Menu","anchor":"View Menu","url":"https:\/\/foursquare.com\/v\/park-terrace-restaurant\/4ac518e1f964a5205baa20e3\/menu","mobileUrl":"https:\/\/foursquare.com\/v\/4ac518e1f964a5205baa20e3\/device_menu"},"specials":{"count":"0"},"hereNow":{"count":"1","groups":[{"type":"others","name":"Other people here","count":"1"}]},"referralId":"v-1392478036"},{"id":"4b714792f964a5202d3f2de3","name":"The Round Pond","location":{"address":"Kensington Gardens","lat":"51.50619040631455","lng":"-0.18460168333199622","distance":"306","cc":"GB","country":"United Kingdom"},"categories":[{"id":"4bf58dd8d48988d161941735","name":"Lake","pluralName":"Lakes","shortName":"Lake","icon":{"prefix":"https:\/\/ss1.4sqi.net\/img\/categories_v2\/parks_outdoors\/lake_","suffix":".png"},"primary":"true"}],"verified":"false","restricted":"true","stats":{"checkinsCount":"1660","usersCount":"1002","tipCount":"7"},"specials":{"count":"0"},"hereNow":{"count":"0"},"referralId":"v-1392478036"},{"id":"4d21bb99f7a9a143e1b3389f","name":"Kensington Palace Bus Stop","location":{"address":"Kensington Rd","lat":"51.502372068431576","lng":"-0.18800522786449855","distance":"213","postalCode":"W8 5","cc":"GB","city":"Kensington","state":"Greater London","country":"United Kingdom"},"categories":[{"id":"4bf58dd8d48988d12b951735","name":"Bus Line","pluralName":"Bus Lines","shortName":"Bus","icon":{"prefix":"https:\/\/ss1.4sqi.net\/img\/categories_v2\/travel\/busstation_","suffix":".png"},"primary":"true"}],"verified":"false","restricted":"true","stats":{"checkinsCount":"377","usersCount":"146","tipCount":"0"},"specials":{"count":"0"},"hereNow":{"count":"0"},"referralId":"v-1392478036"}],"confident":"true"}}