{"meta":{"code":"200"},"response":{"venues":[{"id":"4ac518d3f964a5204da720e3","name":"Barbican Centre","contact":{"phone":"+442076388891","formattedPhone":"+44 20 7638 8891","twitter":"barbicancentre"},"location":{"address":"Silk St","lat":"51.51969236771462","lng":"-0.09372711181640625","distance":"78","postalCode":"EC2Y 8DS","cc":"GB","city":"London","state":"Greater London","country":"United Kingdom"},"categories":[{"id":"4bf58dd8d48988d1f2931735","name":"Performing Arts Venue","pluralName":"Performing Arts Venues","shortName":"Performing Arts","icon":{"prefix":"https:\/\/ss1.4sqi.net\/img\/categories_v2\/arts_entertainment\/default_","suffix":".png"},"primary":"true"}],"verified":"false","restricted":"true","stats":{"checkinsCount":"11620","usersCount":"6517","tipCount":"73"},"url":"http:\/\/www.barbican.org.uk","specials":{"count":"0"},"events":{"count":"4","summary":"4 movies"},"hereNow":{"count":"4","groups":[{"type":"others","name":"Other people here","count":"4"}]},"referralId":"v-1392478006"},{"id":"4c1cd32bb306c928426b64b7","name":"Barbican Art Gallery","contact":{"phone":"+442076388891","formattedPhone":"+44 20 7638 8891","twitter":"barbicancentre"},"location":{"address":"Barbican Centre","crossStreet":"Silk St.","lat":"51.51968010723192","lng":"-0.09387581232275953","distance":"86","postalCode":"EC2Y 8DS","cc":"GB","city":"London","state":"Greater London","country":"United Kingdom"},"categories":[{"id":"4bf58dd8d48988d1e2931735","name":"Art Gallery","pluralName":"Art Galleries","shortName":"Art Gallery","icon":{"prefix":"https:\/\/ss1.4sqi.net\/img\/categories_v2\/arts_entertainment\/artgallery_","suffix":".png"},"primary":"true"}],"verified":"false","restricted":"true","stats":{"checkinsCount":"1767","usersCount":"1381","tipCount":"13"},"specials":{"count":"0"},"hereNow":{"count":"7","groups":[{"type":"others","name":"Other people here","count":"7"}]},"referralId":"v-1392478006"},{"id":"4acddf9bf964a5205dcd20e3","name":"Barbican Estate","location":{"address":"Silk Street","lat":"51.51921169524832","lng":"-0.09364128112792969","distance":"58","postalCode":"EC2Y 8DS","cc":"GB","city":"London","state":"Greater London","country":"United Kingdom"},"categories":[{"id":"4f2a25ac4b909258e854f55f","name":"Neighborhood","pluralName":"Neighborhoods","shortName":"Neighborhood","icon":{"prefix":"https:\/\/ss1.4sqi.net\/img\/categories_v2\/parks_outdoors\/neighborhood_","suffix":".png"},"primary":"true"}],"verified":"false","restricted":"true","stats":{"checkinsCount":"1711","usersCount":"191","tipCount":"0"},"specials":{"count":"0"},"hereNow":{"count":"0"},"referralId":"v-1392478006"},{"id":"4ac518e7f964a52040ab20e3","name":"Barbican Theatre","contact":{"phone":"+442076388891","formattedPhone":"+44 20 7638 8891","twitter":"barbicancentre"},"location":{"address":"Silk St.","crossStreet":"in Barbican Centre","lat":"51.51980903186559","lng":"-0.09332197391011846","distance":"68","postalCode":"EC2Y 8DS","cc":"GB","city":"London","state":"Greater London","country":"United Kingdom"},"categories":[{"id":"4bf58dd8d48988d137941735","name":"Theater","pluralName":"Theaters","shortName":"Theater","icon":{"prefix":"https:\/\/ss1.4sqi.net\/img\/categories_v2\/arts_entertainment\/performingarts_theater_","suffix":".png"},"primary":"true"}],"verified":"false","restricted":"true","stats":{"checkinsCount":"935","usersCount":"681","tipCount":"8"},"specials":{"count":"0"},"hereNow":{"count":"0"},"referralId":"v-1392478006"},{"id":"4c937119418ea1cdbf63ad85","name":"Barbican Concert Hall","location":{"address":"Barbican Centre","crossStreet":"Silk St.","lat":"51.51947480023753","lng":"-0.0938465788101883","distance":"75","postalCode":"EC2Y 8DS","cc":"GB","city":"London","state":"Greater London","country":"United Kingdom"},"categories":[{"id":"4bf58dd8d48988d1e5931735","name":"Music Venue","pluralName":"Music Venues","shortName":"Music Venue","icon":{"prefix":"https:\/\/ss1.4sqi.net\/img\/categories_v2\/arts_entertainment\/musicvenue_","suffix":".png"},"primary":"true"}],"verified":"false","restricted":"true","stats":{"checkinsCount":"1446","usersCount":"1023","tipCount":"3"},"specials":{"count":"0"},"hereNow":{"count":"1","groups":[{"type":"others","name":"Other people here","count":"1"}]},"referralId":"v-1392478006"},{"id":"4c91e73051d9b1f758358446","name":"Barbican Food Hall","contact":{"phone":"+442076384141","formattedPhone":"+44 20 7638 4141","twitter":"barbicancentre"},"location":{"address":"Barbican Centre","crossStreet":"Silk St.","lat":"51.51937191996743","lng":"-0.09411334991455078","distance":"91","postalCode":"EC2Y 8DS","cc":"GB","city":"London","state":"Greater London","country":"United Kingdom"},"categories":[{"id":"4bf58dd8d48988d120951735","name":"Food Court","pluralName":"Food Courts","shortName":"Food Court","icon":{"prefix":"https:\/\/ss1.4sqi.net\/img\/categories_v2\/shops\/food_foodcourt_","suffix":".png"},"primary":"true"}],"verified":"false","restricted":"true","stats":{"checkinsCount":"985","usersCount":"600","tipCount":"16"},"menu":{"type":"Menu","label":"Menu","anchor":"View Menu","url":"https:\/\/foursquare.com\/v\/barbican-food-hall\/4c91e73051d9b1f758358446\/menu","mobileUrl":"https:\/\/foursquare.com\/v\/4c91e73051d9b1f758358446\/device_menu"},"specials":{"count":"0"},"hereNow":{"count":"0"},"referralId":"v-1392478006"},{"id":"521f8b2611d2530aaede1c41","name":"Gin Joint","contact":{"phone":"+442075883008","formattedPhone":"+44 20 7588 3008","twitter":"ginjoint_london"},"location":{"address":"The Barbican","crossStreet":"Silk Street","lat":"51.51931588809519","lng":"-0.09381157152921873","distance":"69","postalCode":"EC2Y 8DS","cc":"GB","city":"London","state":"Greater London","country":"United Kingdom"},"categories":[{"id":"4bf58dd8d48988d11e941735","name":"Cocktail Bar","pluralName":"Cocktail Bars","shortName":"Cocktail","icon":{"prefix":"https:\/\/ss1.4sqi.net\/img\/categories_v2\/nightlife\/cocktails_","suffix":".png"},"primary":"true"}],"verified":"false","restricted":"true","stats":{"checkinsCount":"74","usersCount":"65","tipCount":"7"},"url":"http:\/\/searcys.co.uk\/venues\/gin-joint\/","specials":{"count":"0"},"hereNow":{"count":"0"},"referralId":"v-1392478006"},{"id":"4ad2f6dff964a520e7e220e3","name":"Barbican Public Library","location":{"address":"Silk Street","lat":"51.519444350739676","lng":"-0.09393749741526448","distance":"80","postalCode":"EC2Y 8DS","cc":"GB","city":"London","state":"Greater London","country":"United Kingdom"},"categories":[{"id":"4bf58dd8d48988d12f941735","name":"Library","pluralName":"Libraries","shortName":"Library","icon":{"prefix":"https:\/\/ss1.4sqi.net\/img\/categories_v2\/building\/library_","suffix":".png"},"primary":"true"}],"verified":"false","restricted":"true","stats":{"checkinsCount":"284","usersCount":"123","tipCount":"5"},"specials":{"count":"0"},"hereNow":{"count":"1","groups":[{"type":"others","name":"Other people here","count":"1"}]},"referralId":"v-1392478006"},{"id":"4fddf618e4b09d4fccb862ac","name":"Barbican Reflection Pools","location":{"lat":"51.519423170587665","lng":"-0.09389254778907201","distance":"76","cc":"GB","country":"United Kingdom"},"categories":[{"id":"4bf58dd8d48988d162941735","name":"Other Great Outdoors","pluralName":"Other Great Outdoors","shortName":"Other Outdoors","icon":{"prefix":"https:\/\/ss1.4sqi.net\/img\/categories_v2\/parks_outdoors\/outdoors_","suffix":".png"},"primary":"true"}],"verified":"false","restricted":"true","stats":{"checkinsCount":"19","usersCount":"19","tipCount":"0"},"specials":{"count":"0"},"hereNow":{"count":"1","groups":[{"type":"others","name":"Other people here","count":"1"}]},"referralId":"v-1392478006"},{"id":"52766b1b11d20d4bad273eb4","name":"Barbican Pop Art exhibition","location":{"lat":"51.51973158980755","lng":"-0.09396785469185326","distance":"94","cc":"GB","country":"United Kingdom"},"categories":[{"id":"4bf58dd8d48988d1e2931735","name":"Art Gallery","pluralName":"Art Galleries","shortName":"Art Gallery","icon":{"prefix":"https:\/\/ss1.4sqi.net\/img\/categories_v2\/arts_entertainment\/artgallery_","suffix":".png"},"primary":"true"}],"verified":"false","restricted":"true","stats":{"checkinsCount":"93","usersCount":"88","tipCount":"0"},"specials":{"count":"0"},"hereNow":{"count":"0"},"referralId":"v-1392478006"},{"id":"4bf4ecfc98ac0f47798c64a8","name":"Barbican Highwalk","location":{"address":"London Wall","crossStreet":"Monkwell Sq","lat":"51.51840388703795","lng":"-0.09425282478332518","distance":"140","postalCode":"EC2Y 8DS","cc":"GB","city":"London","state":"Greater London","country":"United Kingdom"},"categories":[{"id":"4bf58dd8d48988d165941735","name":"Scenic Lookout","pluralName":"Scenic Lookouts","shortName":"Scenic Lookout","icon":{"prefix":"https:\/\/ss1.4sqi.net\/img\/categories_v2\/parks_outdoors\/sceniclookout_","suffix":".png"},"primary":"true"}],"verified":"false","restricted":"true","stats":{"checkinsCount":"902","usersCount":"338","tipCount":"4"},"specials":{"count":"0"},"hereNow":{"count":"0"},"referralId":"v-1392478006"},{"id":"4bf7edc04a67c928825c24cf","name":"Barbican Conservatory","location":{"address":"Barbican Centre","lat":"51.5199425831378","lng":"-0.09309133193505285","distance":"75","cc":"GB","city":"London","state":"Greater London","country":"United Kingdom"},"categories":[{"id":"4bf58dd8d48988d162941735","name":"Other Great Outdoors","pluralName":"Other Great Outdoors","shortName":"Other Outdoors","icon":{"prefix":"https:\/\/ss1.4sqi.net\/img\/categories_v2\/parks_outdoors\/outdoors_","suffix":".png"},"primary":"true"}],"verified":"false","restricted":"true","stats":{"checkinsCount":"264","usersCount":"219","tipCount":"9"},"specials":{"count":"0"},"hereNow":{"count":"0"},"referralId":"v-1392478006"},{"id":"4fc26374e4b05b850379289a","name":"Barbican Garden","location":{"lat":"51.519276365419515","lng":"-0.09203782930505167","distance":"53","cc":"GB","country":"United Kingdom"},"categories":[{"id":"4d954b06a243a5684965b473","name":"Residential Building (Apartment \/ Condo)","pluralName":"Residential Buildings (Apartments \/ Condos)","shortName":"Residential","icon":{"prefix":"https:\/\/ss1.4sqi.net\/img\/categories_v2\/building\/apartment_","suffix":".png"},"primary":"true"}],"verified":"false","restricted":"true","stats":{"checkinsCount":"83","usersCount":"40","tipCount":"0"},"specials":{"count":"0"},"hereNow":{"count":"0"},"referralId":"v-1392478006"},{"id":"4be27778b02ec9b6e80b4dc0","name":"Authentic Living","location":{"address":"Speed House","crossStreet":"Barbican","lat":"51.51955884809397","lng":"-0.09276151657104492","distance":"30","postalCode":"EC2Y 8AU","cc":"GB","city":"London","state":"Greater London","country":"United Kingdom"},"categories":[{"id":"4bf58dd8d48988d124941735","name":"Office","pluralName":"Offices","shortName":"Office","icon":{"prefix":"https:\/\/ss1.4sqi.net\/img\/categories_v2\/building\/default_","suffix":".png"},"primary":"true"}],"verified":"false","restricted":"true","stats":{"checkinsCount":"20","usersCount":"1","tipCount":"0"},"specials":{"count":"0"},"hereNow":{"count":"0"},"referralId":"v-1392478006"},{"id":"4dc13463e4cda3b87f1b9895","name":"Shakespeare Tower","location":{"address":"Barbican","lat":"51.52004380573017","lng":"-0.09470904854513854","distance":"156","cc":"GB","city":"London","state":"Greater London","country":"United Kingdom"},"categories":[{"id":"4d954b06a243a5684965b473","name":"Residential Building (Apartment \/ Condo)","pluralName":"Residential Buildings (Apartments \/ Condos)","shortName":"Residential","icon":{"prefix":"https:\/\/ss1.4sqi.net\/img\/categories_v2\/building\/apartment_","suffix":".png"},"primary":"true"}],"verified":"false","restricted":"true","stats":{"checkinsCount":"889","usersCount":"90","tipCount":"1"},"specials":{"count":"0"},"hereNow":{"count":"0"},"referralId":"v-1392478006"},{"id":"4f3be67f6d860dd7f857480f","name":"The Jugged Hare","contact":{"phone":"+442076140138","formattedPhone":"+44 20 7614 0138","twitter":"thejuggedhare"},"location":{"address":"47 Chiswell St","crossStreet":"Silk St","lat":"51.520862650356385","lng":"-0.0921928882598877","distance":"180","postalCode":"EC1Y 4SA","cc":"GB","city":"London","state":"Greater London","country":"United Kingdom"},"categories":[{"id":"4bf58dd8d48988d155941735","name":"Gastropub","pluralName":"Gastropubs","shortName":"Gastropub","icon":{"prefix":"https:\/\/ss1.4sqi.net\/img\/categories_v2\/food\/gastropub_","suffix":".png"},"primary":"true"}],"verified":"true","restricted":"true","stats":{"checkinsCount":"1717","usersCount":"1071","tipCount":"24"},"url":"http:\/\/www.thejuggedhare.com","reservations":{"url":"http:\/\/www.toptable.co.uk\/single.aspx?rid=81061&ref=9601"},"menu":{"type":"Menu","label":"Menu","anchor":"View Menu","url":"https:\/\/foursquare.com\/v\/the-jugged-hare\/4f3be67f6d860dd7f857480f\/menu","mobileUrl":"https:\/\/foursquare.com\/v\/4f3be67f6d860dd7f857480f\/device_menu"},"specials":{"count":"0"},"hereNow":{"count":"1","groups":[{"type":"others","name":"Other people here","count":"1"}]},"venuePage":{"id":"39619738"},"storeId":"","referralId":"v-1392478006"},{"id":"506dc59be4b0515e0d00d884","name":"99 Speed House","location":{"lat":"51.51926611169827","lng":"-0.09143240647911396","distance":"94","cc":"GB","country":"United Kingdom"},"categories":[{"id":"4d954b06a243a5684965b473","name":"Residential Building (Apartment \/ Condo)","pluralName":"Residential Buildings (Apartments \/ Condos)","shortName":"Residential","icon":{"prefix":"https:\/\/ss1.4sqi.net\/img\/categories_v2\/building\/apartment_","suffix":".png"},"primary":"true"}],"verified":"false","restricted":"true","stats":{"checkinsCount":"26","usersCount":"3","tipCount":"0"},"specials":{"count":"0"},"hereNow":{"count":"0"},"referralId":"v-1392478006"},{"id":"50bfabdae4b030ae4895818c","name":"Barbican Cinemas 2&3","location":{"address":"Beech St.","lat":"51.5208002568307","lng":"-0.09269233372839698","distance":"168","postalCode":"EC2Y 8AE","cc":"GB","city":"London","state":"Greater London","country":"United Kingdom"},"categories":[{"id":"4bf58dd8d48988d17f941735","name":"Movie Theater","pluralName":"Movie Theaters","shortName":"Movie Theater","icon":{"prefix":"https:\/\/ss1.4sqi.net\/img\/categories_v2\/arts_entertainment\/movietheater_","suffix":".png"},"primary":"true"}],"verified":"false","restricted":"true","stats":{"checkinsCount":"520","usersCount":"352","tipCount":"7"},"url":"http:\/\/www.barbican.org.uk\/film","specials":{"count":"0"},"hereNow":{"count":"0"},"referralId":"v-1392478006"},{"id":"4bd2efb077b29c74498f8f82","name":"Lakeside Terrace","location":{"address":"Barbican Centre","crossStreet":"Silk St.","lat":"51.519365243948734","lng":"-0.09395241737365723","distance":"80","postalCode":"EC2Y 8DS","cc":"GB","city":"London","state":"Greater London","country":"United Kingdom"},"categories":[{"id":"4bf58dd8d48988d161941735","name":"Lake","pluralName":"Lakes","shortName":"Lake","icon":{"prefix":"https:\/\/ss1.4sqi.net\/img\/categories_v2\/parks_outdoors\/lake_","suffix":".png"},"primary":"true"}],"verified":"false","restricted":"true","stats":{"checkinsCount":"558","usersCount":"289","tipCount":"5"},"specials":{"count":"0"},"hereNow":{"count":"0"},"referralId":"v-1392478006"},{"id":"4ac518e8f964a5209aab20e3","name":"Guildhall School of Music & Drama","contact":{"phone":"+442076282571","formattedPhone":"+44 20 7628 2571","twitter":"guildhallschool"},"location":{"address":"Silk St.","lat":"51.51954853896974","lng":"-0.09164515940070443","distance":"85","postalCode":"EC2Y 8DT","cc":"GB","city":"London","state":"Greater London","country":"United Kingdom"},"categories":[{"id":"5032792091d4c4b30a586d5c","name":"Concert Hall","pluralName":"Concert Halls","shortName":"Concert Hall","icon":{"prefix":"https:\/\/ss1.4sqi.net\/img\/categories_v2\/arts_entertainment\/musicvenue_","suffix":".png"},"primary":"true"}],"verified":"false","restricted":"true","stats":{"checkinsCount":"600","usersCount":"150","tipCount":"3"},"specials":{"count":"0"},"hereNow":{"count":"0"},"referralId":"v-1392478006"},{"id":"4ae178b7f964a5202d8621e3","name":"Linklaters","location":{"address":"One Silk Street","lat":"51.52018454215609","lng":"-0.091644359138363","distance":"127","cc":"GB","city":"London","state":"Greater London","country":"United Kingdom"},"categories":[{"id":"4bf58dd8d48988d124941735","name":"Office","pluralName":"Offices","shortName":"Office","icon":{"prefix":"https:\/\/ss1.4sqi.net\/img\/categories_v2\/building\/default_","suffix":".png"},"primary":"true"}],"verified":"false","restricted":"true","stats":{"checkinsCount":"467","usersCount":"138","tipCount":"1"},"specials":{"count":"0"},"hereNow":{"count":"0"},"referralId":"v-1392478006"},{"id":"5240934411d26ab2fe919a2d","name":"Barbican Cinema 1","location":{"lat":"51.52035862545736","lng":"-0.09284515734962276","distance":"119","cc":"GB","country":"United Kingdom"},"categories":[{"id":"4bf58dd8d48988d17e941735","name":"Indie Movie Theater","pluralName":"Indie Movie Theaters","shortName":"Indie Theater","icon":{"prefix":"https:\/\/ss1.4sqi.net\/img\/categories_v2\/arts_entertainment\/movietheater_indietheater_","suffix":".png"},"primary":"true"}],"verified":"false","restricted":"true","stats":{"checkinsCount":"39","usersCount":"33","tipCount":"1"},"specials":{"count":"0"},"hereNow":{"count":"0"},"referralId":"v-1392478006"},{"id":"4c1bb04ab4e62d7f5eccd993","name":"The Red Room at the Barbican Centre","location":{"address":"Silk Street","lat":"51.519852590742715","lng":"-0.09294390678405762","distance":"63","postalCode":"EC2Y 8DS","cc":"GB","city":"London","state":"Greater London","country":"United Kingdom"},"categories":[{"id":"4bf58dd8d48988d116941735","name":"Bar","pluralName":"Bars","shortName":"Bar","icon":{"prefix":"https:\/\/ss1.4sqi.net\/img\/categories_v2\/nightlife\/bar_","suffix":".png"},"primary":"true"}],"verified":"false","restricted":"true","stats":{"checkinsCount":"89","usersCount":"34","tipCount":"2"},"specials":{"count":"0"},"hereNow":{"count":"0"},"referralId":"v-1392478006"},{"id":"4ad61fd8f964a520350521e3","name":"The Brewery","contact":{"phone":"+442076388811","formattedPhone":"+44 20 7638 8811","twitter":"thebreweryvenue"},"location":{"address":"Chiswell St","lat":"51.52048","lng":"-0.091075","distance":"178","postalCode":"EC1Y 4SD","cc":"GB","city":"London","state":"Greater London","country":"United Kingdom"},"categories":[{"id":"4bf58dd8d48988d171941735","name":"Event Space","pluralName":"Event Spaces","shortName":"Event Space","icon":{"prefix":"https:\/\/ss1.4sqi.net\/img\/categories_v2\/building\/eventspace_","suffix":".png"},"primary":"true"}],"verified":"true","restricted":"true","stats":{"checkinsCount":"3656","usersCount":"2556","tipCount":"20"},"url":"http:\/\/www.thebrewery.co.uk","specials":{"count":"0"},"hereNow":{"count":"0"},"venuePage":{"id":"49119477"},"storeId":"","referralId":"v-1392478006"},{"id":"4b4b8cb7f964a520f09f26e3","name":"City of London School for Girls","contact":{"phone":"+442078475500","formattedPhone":"+44 20 7847 5500"},"location":{"address":"St. Giles Terrace","crossStreet":"Next to Barbican Centre","lat":"51.518971518268856","lng":"-0.0940345171953112","distance":"92","postalCode":"EC2Y 8BB,","cc":"GB","city":"London","state":"Greater London","country":"United Kingdom"},"categories":[{"id":"4bf58dd8d48988d13d941735","name":"High School","pluralName":"High Schools","shortName":"High School","icon":{"prefix":"https:\/\/ss1.4sqi.net\/img\/categories_v2\/building\/school_","suffix":".png"},"primary":"true"}],"verified":"false","restricted":"true","stats":{"checkinsCount":"193","usersCount":"66","tipCount":"0"},"specials":{"count":"0"},"hereNow":{"count":"0"},"referralId":"v-1392478006"},{"id":"4dac7375f7b145b3703b6c6a","name":"Macquarie (Ropemaker Place)","location":{"address":"28 Ropemaker St","crossStreet":"Milton St","lat":"51.51971907159177","lng":"-0.09063720703125","distance":"157","postalCode":"EC2Y 9","cc":"GB","city":"London","state":"Greater London","country":"United Kingdom"},"categories":[{"id":"4bf58dd8d48988d174941735","name":"Coworking Space","pluralName":"Coworking Spaces","shortName":"Coworking Space","icon":{"prefix":"https:\/\/ss1.4sqi.net\/img\/categories_v2\/building\/office_coworkingspace_","suffix":".png"},"primary":"true"}],"verified":"false","restricted":"true","stats":{"checkinsCount":"249","usersCount":"24","tipCount":"0"},"specials":{"count":"0"},"hereNow":{"count":"0"},"referralId":"v-1392478006"},{"id":"5120aecee4b00c9528e09649","name":"Costa","location":{"address":"Barbican Centre","crossStreet":"Silk St","lat":"51.519499","lng":"-0.093952","distance":"82","cc":"GB","city":"London","state":"Greater London","country":"United Kingdom"},"categories":[{"id":"4bf58dd8d48988d1e0931735","name":"Coffee Shop","pluralName":"Coffee Shops","shortName":"Coffee Shop","icon":{"prefix":"https:\/\/ss1.4sqi.net\/img\/categories_v2\/food\/coffeeshop_","suffix":".png"},"primary":"true"}],"verified":"false","restricted":"true","stats":{"checkinsCount":"18","usersCount":"16","tipCount":"0"},"specials":{"count":"0"},"hereNow":{"count":"0"},"referralId":"v-1392478006"},{"id":"4cb1f23fef1b370444554700","name":"Barbican Lounge","contact":{"phone":"+442076388891","formattedPhone":"+44 20 7638 8891","twitter":"barbicancentre"},"location":{"address":"Barbican Centre","crossStreet":"Silk St.","lat":"51.519278455616465","lng":"-0.09387731552124023","distance":"74","postalCode":"EC2Y 8DS","cc":"GB","city":"London","state":"Greater London","country":"United Kingdom"},"categories":[{"id":"4bf58dd8d48988d121941735","name":"Lounge","pluralName":"Lounges","shortName":"Lounge","icon":{"prefix":"https:\/\/ss1.4sqi.net\/img\/categories_v2\/nightlife\/lounge_","suffix":".png"},"primary":"true"}],"verified":"false","restricted":"true","stats":{"checkinsCount":"252","usersCount":"183","tipCount":"6"},"specials":{"count":"0"},"hereNow":{"count":"0"},"referralId":"v-1392478006"},{"id":"4bbf352430c99c74bdc35411","name":"The Curve, Barbican","contact":{"phone":"+442073827043","formattedPhone":"+44 20 7382 7043"},"location":{"address":"Barbican Centre, Silk Street","lat":"51.51989130146359","lng":"-0.09362871396634338","distance":"88","postalCode":"EC2Y 8DS","cc":"GB","city":"London","state":"Greater London","country":"United Kingdom"},"categories":[{"id":"4bf58dd8d48988d1e2931735","name":"Art Gallery","pluralName":"Art Galleries","shortName":"Art Gallery","icon":{"prefix":"https:\/\/ss1.4sqi.net\/img\/categories_v2\/arts_entertainment\/artgallery_","suffix":".png"},"primary":"true"}],"verified":"false","restricted":"true","stats":{"checkinsCount":"164","usersCount":"128","tipCount":"2"},"specials":{"count":"0"},"hereNow":{"count":"0"},"referralId":"v-1392478006"},{"id":"5248cac511d2bd1145c332b0","name":"The Heron","location":{"address":"5 Moor Lane","lat":"51.51995573154469","lng":"-0.09064509768717093","distance":"166","postalCode":"EC2Y 9AP","cc":"GB","city":"London","state":"Greater London","country":"United Kingdom"},"categories":[{"id":"4d954b06a243a5684965b473","name":"Residential Building (Apartment \/ Condo)","pluralName":"Residential Buildings (Apartments \/ Condos)","shortName":"Residential","icon":{"prefix":"https:\/\/ss1.4sqi.net\/img\/categories_v2\/building\/apartment_","suffix":".png"},"primary":"true"}],"verified":"false","restricted":"true","stats":{"checkinsCount":"40","usersCount":"18","tipCount":"1"},"specials":{"count":"0"},"hereNow":{"count":"0"},"referralId":"v-1392478006"}],"confident":"true"}}