{"meta":{"code":"200"},"response":{"venues":[{"id":"4bb37b5b35f0c9b6b96bbc83","name":"BBC Western House","contact":{"phone":"+442075804468","formattedPhone":"+44 20 7580 4468"},"location":{"address":"99 Great Portland Street","lat":"51.51917831502756","lng":"-0.14261841773986816","distance":"17","postalCode":"W1A 1AA","cc":"GB","city":"London","state":"Greater London","country":"United Kingdom"},"categories":[{"id":"4bf58dd8d48988d130941735","name":"Building","pluralName":"Buildings","shortName":"Building","icon":{"prefix":"https:\/\/ss1.4sqi.net\/img\/categories_v2\/building\/default_","suffix":".png"},"primary":"true"}],"verified":"false","restricted":"true","stats":{"checkinsCount":"504","usersCount":"199","tipCount":"2"},"specials":{"count":"0"},"hereNow":{"count":"0"},"referralId":"v-1392478001"},{"id":"4ae811e5f964a5200cae21e3","name":"BBC Broadcasting House","contact":{"twitter":"bbc"},"location":{"address":"Portland Place","lat":"51.518357539776645","lng":"-0.14323394829882335","distance":"107","postalCode":"W1A 1AA","cc":"GB","city":"London","state":"Greater London","country":"United Kingdom"},"categories":[{"id":"4bf58dd8d48988d130941735","name":"Building","pluralName":"Buildings","shortName":"Building","icon":{"prefix":"https:\/\/ss1.4sqi.net\/img\/categories_v2\/building\/default_","suffix":".png"},"primary":"true"}],"verified":"false","restricted":"true","stats":{"checkinsCount":"6688","usersCount":"2679","tipCount":"17"},"url":"http:\/\/www.bbc.co.uk\/broadcastinghouse\/","specials":{"count":"0"},"hereNow":{"count":"0"},"referralId":"v-1392478001"},{"id":"51c4acbc498edf9523619af7","name":"Picture Restaurant","location":{"address":"110 Great Portland Street","lat":"51.51932331830118","lng":"-0.14237619137298083","distance":"29","cc":"GB","country":"United Kingdom"},"categories":[{"id":"4bf58dd8d48988d1c4941735","name":"Restaurant","pluralName":"Restaurants","shortName":"Restaurant","icon":{"prefix":"https:\/\/ss1.4sqi.net\/img\/categories_v2\/food\/default_","suffix":".png"},"primary":"true"}],"verified":"false","restricted":"true","stats":{"checkinsCount":"100","usersCount":"91","tipCount":"7"},"menu":{"type":"Menu","label":"Menu","anchor":"View Menu","url":"https:\/\/foursquare.com\/v\/picture-restaurant\/51c4acbc498edf9523619af7\/menu","mobileUrl":"https:\/\/foursquare.com\/v\/51c4acbc498edf9523619af7\/device_menu"},"specials":{"count":"0"},"hereNow":{"count":"0"},"referralId":"v-1392478001"},{"id":"4c48a4f9c047be9a5c863479","name":"BBC Club West One","contact":{"phone":"+442077650891","formattedPhone":"+44 20 7765 0891"},"location":{"address":"99 Great Portland Street","lat":"51.51931851179036","lng":"-0.1425647735595703","distance":"16","postalCode":"W1A 1AA","cc":"GB","city":"London","state":"Greater London","country":"United Kingdom"},"categories":[{"id":"4bf58dd8d48988d116941735","name":"Bar","pluralName":"Bars","shortName":"Bar","icon":{"prefix":"https:\/\/ss1.4sqi.net\/img\/categories_v2\/nightlife\/bar_","suffix":".png"},"primary":"true"}],"verified":"false","restricted":"true","stats":{"checkinsCount":"169","usersCount":"77","tipCount":"2"},"specials":{"count":"0"},"hereNow":{"count":"0"},"referralId":"v-1392478001"},{"id":"52b16d2211d2cc9b9657e06d","name":"Imagine Nation UK","location":{"address":"111-113 Great Portland Street","lat":"51.51902061982271","lng":"-0.1425487365391146","distance":"34","postalCode":"W1W 6QQ","cc":"GB","city":"London","state":"Greater London","country":"United Kingdom"},"categories":[{"id":"4bf58dd8d48988d124941735","name":"Office","pluralName":"Offices","shortName":"Office","icon":{"prefix":"https:\/\/ss1.4sqi.net\/img\/categories_v2\/building\/default_","suffix":".png"},"primary":"true"}],"verified":"false","restricted":"true","stats":{"checkinsCount":"13","usersCount":"1","tipCount":"0"},"specials":{"count":"0"},"hereNow":{"count":"0"},"referralId":"v-1392478001"},{"id":"4b1ee494f964a520292124e3","name":"Horse and Groom","contact":{"phone":"+442075804726","formattedPhone":"+44 20 7580 4726"},"location":{"address":"128 Great Portland St.","crossStreet":"New Cavendish St.","lat":"51.51982588694383","lng":"-0.14263451099395752","distance":"60","postalCode":"W1W 6PS","cc":"GB","city":"London","state":"Greater London","country":"United Kingdom"},"categories":[{"id":"4bf58dd8d48988d11b941735","name":"Pub","pluralName":"Pubs","shortName":"Pub","icon":{"prefix":"https:\/\/ss1.4sqi.net\/img\/categories_v2\/nightlife\/pub_","suffix":".png"},"primary":"true"}],"verified":"false","restricted":"true","stats":{"checkinsCount":"1297","usersCount":"420","tipCount":"7"},"specials":{"count":"0"},"hereNow":{"count":"0"},"referralId":"v-1392478001"},{"id":"4b06ca1ff964a52045f022e3","name":"The Yorkshire Grey","contact":{"phone":"+442076364788","formattedPhone":"+44 20 7636 4788"},"location":{"address":"46 Langham St","lat":"51.518917948465955","lng":"-0.14153480529785156","distance":"97","postalCode":"W1W 7AX","cc":"GB","city":"London","state":"Greater London","country":"United Kingdom"},"categories":[{"id":"4bf58dd8d48988d11b941735","name":"Pub","pluralName":"Pubs","shortName":"Pub","icon":{"prefix":"https:\/\/ss1.4sqi.net\/img\/categories_v2\/nightlife\/pub_","suffix":".png"},"primary":"true"}],"verified":"false","restricted":"true","stats":{"checkinsCount":"1331","usersCount":"672","tipCount":"17"},"specials":{"count":"0"},"hereNow":{"count":"0"},"referralId":"v-1392478001"},{"id":"4de3a77d2271bfb844b765b1","name":"The Aquatic Design Centre","contact":{"phone":"+442075806764","formattedPhone":"+44 20 7580 6764"},"location":{"address":"107-110 Great Portland Street","lat":"51.519682368929345","lng":"-0.1426337372701667","distance":"45","postalCode":"W1W 6PP","cc":"GB","city":"Paddington","state":"Greater London","country":"United Kingdom"},"categories":[{"id":"4bf58dd8d48988d100951735","name":"Pet Store","pluralName":"Pet Stores","shortName":"Pet Store","icon":{"prefix":"https:\/\/ss1.4sqi.net\/img\/categories_v2\/shops\/pet_store_","suffix":".png"},"primary":"true"}],"verified":"false","restricted":"true","stats":{"checkinsCount":"186","usersCount":"100","tipCount":"6"},"specials":{"count":"0"},"hereNow":{"count":"0"},"referralId":"v-1392478001"},{"id":"51c57714498e0c20decb76b3","name":"Caff\u00e8 Nero","location":{"address":"BBC Broadcasting House, Portland Place","lat":"51.51840862994615","lng":"-0.14326762965489667","distance":"103","postalCode":"W1A 1AA","cc":"GB","city":"London","state":"Greater London","country":"United Kingdom"},"categories":[{"id":"4bf58dd8d48988d1e0931735","name":"Coffee Shop","pluralName":"Coffee Shops","shortName":"Coffee Shop","icon":{"prefix":"https:\/\/ss1.4sqi.net\/img\/categories_v2\/food\/coffeeshop_","suffix":".png"},"primary":"true"}],"verified":"false","restricted":"true","stats":{"checkinsCount":"184","usersCount":"53","tipCount":"1"},"specials":{"count":"0"},"hereNow":{"count":"0"},"referralId":"v-1392478001"},{"id":"4bd8b360e914a593251f54fa","name":"Portland Food & Wine","contact":{"phone":"+442072551081","formattedPhone":"+44 20 7255 1081"},"location":{"address":"104 Great Portland Street","lat":"51.519143831758335","lng":"-0.14247399391732907","distance":"27","postalCode":"W1W 6PE\u200e","cc":"GB","city":"London","state":"Greater London","country":"United Kingdom"},"categories":[{"id":"4bf58dd8d48988d118951735","name":"Grocery Store","pluralName":"Grocery Stores","shortName":"Grocery Store","icon":{"prefix":"https:\/\/ss1.4sqi.net\/img\/categories_v2\/shops\/food_grocery_","suffix":".png"},"primary":"true"}],"verified":"false","restricted":"true","stats":{"checkinsCount":"95","usersCount":"27","tipCount":"0"},"specials":{"count":"0"},"hereNow":{"count":"0"},"referralId":"v-1392478001"},{"id":"4b3a198df964a5201a6125e3","name":"Nanis Cafe","contact":{"phone":"+442076371060","formattedPhone":"+44 20 7637 1060"},"location":{"address":"134 Great Portland Street","lat":"51.51998610950219","lng":"-0.14252185821533203","distance":"80","postalCode":"W1W 6PX","cc":"GB","city":"London","state":"Greater London","country":"United Kingdom"},"categories":[{"id":"4bf58dd8d48988d16d941735","name":"Caf\u00e9","pluralName":"Caf\u00e9s","shortName":"Caf\u00e9","icon":{"prefix":"https:\/\/ss1.4sqi.net\/img\/categories_v2\/food\/cafe_","suffix":".png"},"primary":"true"}],"verified":"false","restricted":"true","stats":{"checkinsCount":"349","usersCount":"117","tipCount":"6"},"url":"http:\/\/www.nanis.co.uk","specials":{"count":"0"},"hereNow":{"count":"0"},"referralId":"v-1392478001"},{"id":"4b4b378ff964a520b19426e3","name":"Astor, Court Hotel","location":{"address":"20 Hallam Street","lat":"51.519783","lng":"-0.143328","distance":"65","postalCode":"W1W 6JQ","cc":"GB","city":"London","state":"Greater London","country":"United Kingdom"},"categories":[{"id":"4bf58dd8d48988d1fa931735","name":"Hotel","pluralName":"Hotels","shortName":"Hotel","icon":{"prefix":"https:\/\/ss1.4sqi.net\/img\/categories_v2\/travel\/hotel_","suffix":".png"},"primary":"true"}],"verified":"false","restricted":"true","stats":{"checkinsCount":"107","usersCount":"70","tipCount":"5"},"specials":{"count":"0"},"hereNow":{"count":"0"},"referralId":"v-1392478001"},{"id":"4bd8749d5cf276b0ac4b9d00","name":"Pret A Manger","contact":{"phone":"+442079325340","formattedPhone":"+44 20 7932 5340","twitter":"pret","facebook":"162638680417951"},"location":{"address":"136 Great Portland St","crossStreet":"New Cavendish Street","lat":"51.5202340186508","lng":"-0.142614204267046","distance":"106","postalCode":"W1W 6PY","cc":"GB","city":"London","state":"Greater London","country":"United Kingdom"},"categories":[{"id":"4bf58dd8d48988d1c5941735","name":"Sandwich Place","pluralName":"Sandwich Places","shortName":"Sandwiches","icon":{"prefix":"https:\/\/ss1.4sqi.net\/img\/categories_v2\/food\/sandwiches_","suffix":".png"},"primary":"true"}],"verified":"true","restricted":"true","stats":{"checkinsCount":"859","usersCount":"302","tipCount":"10"},"url":"http:\/\/www.pret.com","specials":{"count":"0"},"hereNow":{"count":"0"},"storeId":"140","referralId":"v-1392478001"},{"id":"52e218a3498ef044f6cbc67c","name":"Gleeds","location":{"address":"95 New Cavendish Street","lat":"51.520112332174754","lng":"-0.14392013305001677","distance":"119","cc":"GB","city":"London","state":"Greater London","country":"United Kingdom"},"categories":[{"id":"4bf58dd8d48988d124941735","name":"Office","pluralName":"Offices","shortName":"Office","icon":{"prefix":"https:\/\/ss1.4sqi.net\/img\/categories_v2\/building\/default_","suffix":".png"},"primary":"true"}],"verified":"false","restricted":"true","stats":{"checkinsCount":"14","usersCount":"1","tipCount":"0"},"specials":{"count":"0"},"hereNow":{"count":"0"},"referralId":"v-1392478001"},{"id":"4c7f59a9fb13a1cdf066a0a4","name":"BBC Brock House","location":{"address":"19 Langham St","lat":"51.51903556795641","lng":"-0.14294752469347763","distance":"29","postalCode":"W1W 6BP","cc":"GB","city":"London","state":"Greater London","country":"United Kingdom"},"categories":[{"id":"4bf58dd8d48988d124941735","name":"Office","pluralName":"Offices","shortName":"Office","icon":{"prefix":"https:\/\/ss1.4sqi.net\/img\/categories_v2\/building\/default_","suffix":".png"},"primary":"true"}],"verified":"false","restricted":"true","stats":{"checkinsCount":"123","usersCount":"42","tipCount":"0"},"specials":{"count":"0"},"hereNow":{"count":"0"},"referralId":"v-1392478001"},{"id":"4c2caa982219c928746ea648","name":"NKD Ambition","contact":{"phone":"+442072087258","formattedPhone":"+44 20 7208 7258"},"location":{"address":"91 New Cavendish Street","lat":"51.52014995180391","lng":"-0.14258745777037365","distance":"96","postalCode":"W1W 6XE","cc":"GB","city":"London","state":"Greater London","country":"United Kingdom"},"categories":[{"id":"4bf58dd8d48988d175941735","name":"Gym \/ Fitness Center","pluralName":"Gyms or Fitness Centers","shortName":"Gym \/ Fitness","icon":{"prefix":"https:\/\/ss1.4sqi.net\/img\/categories_v2\/building\/gym_","suffix":".png"},"primary":"true"}],"verified":"false","restricted":"true","stats":{"checkinsCount":"106","usersCount":"10","tipCount":"0"},"specials":{"count":"0"},"hereNow":{"count":"0"},"referralId":"v-1392478001"},{"id":"4bf1a225324cc9b60345cc92","name":"Hallam Hotel","location":{"address":"12 Hallam Street","lat":"51.51925620583869","lng":"-0.1431524080451658","distance":"24","cc":"GB","city":"Paddington","state":"Greater London","country":"United Kingdom"},"categories":[{"id":"4bf58dd8d48988d1ee931735","name":"Hostel","pluralName":"Hostels","shortName":"Hostel","icon":{"prefix":"https:\/\/ss1.4sqi.net\/img\/categories_v2\/travel\/hostel_","suffix":".png"},"primary":"true"}],"verified":"false","restricted":"true","stats":{"checkinsCount":"98","usersCount":"34","tipCount":"3"},"specials":{"count":"0"},"hereNow":{"count":"0"},"referralId":"v-1392478001"},{"id":"4fb68abde4b064d5382e2b48","name":"Dressipi","contact":{"twitter":"dressipi"},"location":{"address":"94 Great Portland Street","lat":"51.51872812704817","lng":"-0.14222952242253017","distance":"74","cc":"GB","country":"United Kingdom"},"categories":[{"id":"4bf58dd8d48988d125941735","name":"Tech Startup","pluralName":"Tech Startups","shortName":"Tech Startup","icon":{"prefix":"https:\/\/ss1.4sqi.net\/img\/categories_v2\/shops\/technology_","suffix":".png"},"primary":"true"}],"verified":"false","restricted":"true","stats":{"checkinsCount":"23","usersCount":"1","tipCount":"1"},"specials":{"count":"0"},"hereNow":{"count":"0"},"referralId":"v-1392478001"},{"id":"4f9a9046e4b0f1efa6a75b99","name":"Media Caf\u00e9","location":{"address":"BBC Broadcasting House","crossStreet":"Portland Place","lat":"51.518741718846584","lng":"-0.1434867164943376","distance":"77","postalCode":"W1","cc":"GB","city":"London","state":"Greater London","country":"United Kingdom"},"categories":[{"id":"4bf58dd8d48988d16d941735","name":"Caf\u00e9","pluralName":"Caf\u00e9s","shortName":"Caf\u00e9","icon":{"prefix":"https:\/\/ss1.4sqi.net\/img\/categories_v2\/food\/cafe_","suffix":".png"},"primary":"true"}],"verified":"false","restricted":"true","stats":{"checkinsCount":"97","usersCount":"47","tipCount":"1"},"specials":{"count":"0"},"hereNow":{"count":"0"},"referralId":"v-1392478001"},{"id":"50f84d59e4b0961be2a4aad2","name":"Tank magazine exhibition","location":{"lat":"51.51925605232833","lng":"-0.14291591810614773","distance":"8","cc":"GB","country":"United Kingdom"},"categories":[{"id":"4bf58dd8d48988d1e2931735","name":"Art Gallery","pluralName":"Art Galleries","shortName":"Art Gallery","icon":{"prefix":"https:\/\/ss1.4sqi.net\/img\/categories_v2\/arts_entertainment\/artgallery_","suffix":".png"},"primary":"true"}],"verified":"false","restricted":"true","stats":{"checkinsCount":"4","usersCount":"4","tipCount":"0"},"specials":{"count":"0"},"hereNow":{"count":"0"},"referralId":"v-1392478001"},{"id":"4ad85ee7f964a5201b1121e3","name":"Covestor office","location":{"address":"1 Duchess St","lat":"51.519301624915855","lng":"-0.14337036279496282","distance":"39","cc":"GB","city":"London","state":"Greater London","country":"United Kingdom"},"categories":[{"id":"4bf58dd8d48988d124941735","name":"Office","pluralName":"Offices","shortName":"Office","icon":{"prefix":"https:\/\/ss1.4sqi.net\/img\/categories_v2\/building\/default_","suffix":".png"},"primary":"true"}],"verified":"false","restricted":"true","stats":{"checkinsCount":"621","usersCount":"28","tipCount":"0"},"specials":{"count":"0"},"hereNow":{"count":"0"},"referralId":"v-1392478001"},{"id":"52cff4bb11d2cd42bfe676b9","name":"Abokado (Great Portland St)","contact":{"phone":"+442076378806","formattedPhone":"+44 20 7637 8806","twitter":"abokadomark"},"location":{"address":"102 Great Portland Street","lat":"51.51910259648112","lng":"-0.14400203417843252","distance":"85","postalCode":"W1W 6PD","cc":"GB","city":"London","state":"Greater London","country":"United Kingdom"},"categories":[{"id":"4bf58dd8d48988d1d2941735","name":"Sushi Restaurant","pluralName":"Sushi Restaurants","shortName":"Sushi","icon":{"prefix":"https:\/\/ss1.4sqi.net\/img\/categories_v2\/food\/sushi_","suffix":".png"},"primary":"true"}],"verified":"false","restricted":"true","stats":{"checkinsCount":"3","usersCount":"3","tipCount":"0"},"specials":{"count":"0"},"hereNow":{"count":"0"},"referralId":"v-1392478001"},{"id":"4bb4a1ad15809c74a78b1fdd","name":"The Sound Company","location":{"address":"23 Gosfield St","lat":"51.520017","lng":"-0.141994","distance":"98","postalCode":"W1W 6HG","cc":"GB","city":"London","state":"Greater London","country":"United Kingdom"},"categories":[{"id":"4bf58dd8d48988d130941735","name":"Building","pluralName":"Buildings","shortName":"Building","icon":{"prefix":"https:\/\/ss1.4sqi.net\/img\/categories_v2\/building\/default_","suffix":".png"},"primary":"true"}],"verified":"false","restricted":"true","stats":{"checkinsCount":"109","usersCount":"30","tipCount":"1"},"specials":{"count":"0"},"hereNow":{"count":"0"},"referralId":"v-1392478001"},{"id":"4bffbeb758af952153aaf1b6","name":"Maxymiser","contact":{"phone":"0203750101","formattedPhone":"0203750101","twitter":"maxymiser"},"location":{"address":"121 Great Portland Street","lat":"51.520108806306304","lng":"-0.14298382553500197","distance":"92","postalCode":"W1W 6QL","cc":"GB","city":"London","state":"Greater London","country":"United Kingdom"},"categories":[{"id":"4bf58dd8d48988d125941735","name":"Tech Startup","pluralName":"Tech Startups","shortName":"Tech Startup","icon":{"prefix":"https:\/\/ss1.4sqi.net\/img\/categories_v2\/shops\/technology_","suffix":".png"},"primary":"true"}],"verified":"false","restricted":"true","stats":{"checkinsCount":"251","usersCount":"20","tipCount":"1"},"specials":{"count":"0"},"hereNow":{"count":"0"},"referralId":"v-1392478001"},{"id":"507c3a1be4b0e1c7aebc6b75","name":"BBC Club","location":{"address":"99 Great Portland St.","lat":"51.5183023244505","lng":"-0.14199754562933717","distance":"123","postalCode":"W1","cc":"GB","city":"London","state":"Greater London","country":"United Kingdom"},"categories":[{"id":"4bf58dd8d48988d1f1931735","name":"General Entertainment","pluralName":"General Entertainment","shortName":"Entertainment","icon":{"prefix":"https:\/\/ss1.4sqi.net\/img\/categories_v2\/arts_entertainment\/default_","suffix":".png"},"primary":"true"}],"verified":"false","restricted":"true","stats":{"checkinsCount":"15","usersCount":"9","tipCount":"0"},"specials":{"count":"0"},"hereNow":{"count":"0"},"referralId":"v-1392478001"},{"id":"4c45c87474ffc928146677cc","name":"Amobee","location":{"address":"79 New Cavendish Street","lat":"51.520053","lng":"-0.143709","distance":"105","postalCode":"W1","cc":"GB","city":"London","state":"Greater London","country":"United Kingdom"},"categories":[{"id":"4bf58dd8d48988d124941735","name":"Office","pluralName":"Offices","shortName":"Office","icon":{"prefix":"https:\/\/ss1.4sqi.net\/img\/categories_v2\/building\/default_","suffix":".png"},"primary":"true"}],"verified":"false","restricted":"true","stats":{"checkinsCount":"20","usersCount":"12","tipCount":"0"},"specials":{"count":"0"},"hereNow":{"count":"0"},"referralId":"v-1392478001"},{"id":"4bcc90bbcc8cd13a9d23c1cf","name":"Crispins Great Portland Street","location":{"lat":"51.518240805920236","lng":"-0.1419051539313498","distance":"132","cc":"GB","country":"United Kingdom"},"categories":[{"id":"4bf58dd8d48988d186941735","name":"Liquor Store","pluralName":"Liquor Stores","shortName":"Liquor Store","icon":{"prefix":"https:\/\/ss1.4sqi.net\/img\/categories_v2\/shops\/food_liquor_","suffix":".png"},"primary":"true"}],"verified":"false","restricted":"true","stats":{"checkinsCount":"20","usersCount":"6","tipCount":"0"},"specials":{"count":"0"},"hereNow":{"count":"0"},"referralId":"v-1392478001"},{"id":"4c3dbf6415cb1b8dc4507cdc","name":"58 Great Portland Street","location":{"address":"58 Great Portland Street","lat":"51.51836369721443","lng":"-0.141970125673355","distance":"118","postalCode":"W1","cc":"GB","city":"City of Westminster","state":"Greater London","country":"United Kingdom"},"categories":[{"id":"4d954b06a243a5684965b473","name":"Residential Building (Apartment \/ Condo)","pluralName":"Residential Buildings (Apartments \/ Condos)","shortName":"Residential","icon":{"prefix":"https:\/\/ss1.4sqi.net\/img\/categories_v2\/building\/apartment_","suffix":".png"},"primary":"true"}],"verified":"false","restricted":"true","stats":{"checkinsCount":"21","usersCount":"7","tipCount":"0"},"specials":{"count":"0"},"hereNow":{"count":"0"},"referralId":"v-1392478001"},{"id":"4dbaae04a86ede8c0f9f6cd9","name":"Cafe Japan","location":{"lat":"51.51846028637983","lng":"-0.14246355130615682","distance":"95","cc":"GB","city":"Barnet","state":"Greater London","country":"United Kingdom"},"categories":[{"id":"4bf58dd8d48988d16d941735","name":"Caf\u00e9","pluralName":"Caf\u00e9s","shortName":"Caf\u00e9","icon":{"prefix":"https:\/\/ss1.4sqi.net\/img\/categories_v2\/food\/cafe_","suffix":".png"},"primary":"true"}],"verified":"false","restricted":"true","stats":{"checkinsCount":"14","usersCount":"5","tipCount":"0"},"specials":{"count":"0"},"hereNow":{"count":"0"},"referralId":"v-1392478001"},{"id":"52ab36e3498eb0a0e9c79315","name":"Greggs","location":{"address":"Great Portland Street","lat":"51.519651","lng":"-0.14264","distance":"41","cc":"GB","city":"London","state":"Greater London","country":"United Kingdom"},"categories":[{"id":"4bf58dd8d48988d16a941735","name":"Bakery","pluralName":"Bakeries","shortName":"Bakery","icon":{"prefix":"https:\/\/ss1.4sqi.net\/img\/categories_v2\/food\/bakery_","suffix":".png"},"primary":"true"}],"verified":"false","restricted":"true","stats":{"checkinsCount":"4","usersCount":"3","tipCount":"0"},"specials":{"count":"0"},"hereNow":{"count":"0"},"referralId":"v-1392478001"}],"confident":"true"}}