{"meta":{"code":"200"},"response":{"venues":[{"id":"4bcd9b248920b71357eb9fdc","name":"Diana Memorial Playground","location":{"address":"Gate Broad Walk","crossStreet":"Kensington Gardens","lat":"51.509059321541336","lng":"-0.18808133894172424","distance":"32","postalCode":"W2 2UH","cc":"GB","city":"London","state":"Greater London","country":"United Kingdom"},"categories":[{"id":"4bf58dd8d48988d1e7941735","name":"Playground","pluralName":"Playgrounds","shortName":"Playground","icon":{"prefix":"https:\/\/ss1.4sqi.net\/img\/categories_v2\/parks_outdoors\/playground_","suffix":".png"},"primary":"true"}],"verified":"false","restricted":"true","stats":{"checkinsCount":"1492","usersCount":"1101","tipCount":"21"},"specials":{"count":"0"},"hereNow":{"count":"0"},"referralId":"v-1392478023"},{"id":"4f19837de4b08b384e312d6a","name":"Kensington Palace Gardens","location":{"address":"51 Palace Gardens Tce.","lat":"51.508195244845965","lng":"-0.18748838505748677","distance":"123","postalCode":"W8 4","cc":"GB","city":"London","state":"Greater London","country":"United Kingdom"},"categories":[{"id":"4bf58dd8d48988d15a941735","name":"Garden","pluralName":"Gardens","shortName":"Garden","icon":{"prefix":"https:\/\/ss1.4sqi.net\/img\/categories_v2\/parks_outdoors\/garden_","suffix":".png"},"primary":"true"}],"verified":"false","restricted":"true","stats":{"checkinsCount":"2181","usersCount":"1623","tipCount":"9"},"specials":{"count":"0"},"hereNow":{"count":"0"},"referralId":"v-1392478023"},{"id":"4c13800982a3c9b62f84fbf8","name":"Kensington Park","location":{"lat":"51.509686511663105","lng":"-0.18843489097572533","distance":"62","cc":"GB","country":"United Kingdom"},"categories":[{"id":"4bf58dd8d48988d163941735","name":"Park","pluralName":"Parks","shortName":"Park","icon":{"prefix":"https:\/\/ss1.4sqi.net\/img\/categories_v2\/parks_outdoors\/park_","suffix":".png"},"primary":"true"}],"verified":"false","restricted":"true","stats":{"checkinsCount":"331","usersCount":"267","tipCount":"3"},"specials":{"count":"0"},"hereNow":{"count":"0"},"referralId":"v-1392478023"},{"id":"4bdb61a93904a593d9204a9e","name":"Black Lion","location":{"address":"123 Bayswater Rd","lat":"51.51037523333333","lng":"-0.186686","distance":"143","postalCode":"W2 3JH","cc":"GB","city":"London","state":"Greater London","country":"United Kingdom"},"categories":[{"id":"4bf58dd8d48988d11b941735","name":"Pub","pluralName":"Pubs","shortName":"Pub","icon":{"prefix":"https:\/\/ss1.4sqi.net\/img\/categories_v2\/nightlife\/pub_","suffix":".png"},"primary":"true"}],"verified":"false","restricted":"true","stats":{"checkinsCount":"955","usersCount":"714","tipCount":"10"},"specials":{"count":"0"},"hereNow":{"count":"1","groups":[{"type":"others","name":"Other people here","count":"1"}]},"referralId":"v-1392478023"},{"id":"4ac518b6f964a520e4a020e3","name":"Hilton London Hyde Park","contact":{"phone":"+442072212217","formattedPhone":"+44 20 7221 2217","twitter":"hiltonhotels"},"location":{"address":"129 Bayswater Rd","lat":"51.510348572222384","lng":"-0.1875064774721013","distance":"119","postalCode":"W2 4RJ","cc":"GB","city":"London","state":"Greater London","country":"United Kingdom"},"categories":[{"id":"4bf58dd8d48988d1fa931735","name":"Hotel","pluralName":"Hotels","shortName":"Hotel","icon":{"prefix":"https:\/\/ss1.4sqi.net\/img\/categories_v2\/travel\/hotel_","suffix":".png"},"primary":"true"}],"verified":"true","restricted":"true","stats":{"checkinsCount":"1360","usersCount":"707","tipCount":"10"},"url":"http:\/\/www.placeshilton.com\/london-hyde-park","specials":{"count":"0"},"hereNow":{"count":"0"},"storeId":"LONHPHN","referralId":"v-1392478023"},{"id":"4ad08db4f964a5206cd820e3","name":"Orangery at Kensington Palace","contact":{"phone":"+442031666112","formattedPhone":"+44 20 3166 6112"},"location":{"address":"Kensington Gardens","lat":"51.50703296721856","lng":"-0.18754005432128906","distance":"251","postalCode":"W8 6LU","cc":"GB","city":"London","state":"Greater London","country":"United Kingdom"},"categories":[{"id":"4bf58dd8d48988d1dc931735","name":"Tea Room","pluralName":"Tea Rooms","shortName":"Tea Room","icon":{"prefix":"https:\/\/ss1.4sqi.net\/img\/categories_v2\/food\/tearoom_","suffix":".png"},"primary":"true"}],"verified":"true","restricted":"true","stats":{"checkinsCount":"1259","usersCount":"1114","tipCount":"29"},"reservations":{"url":"http:\/\/www.toptable.co.uk\/single.aspx?rid=96018&ref=9601"},"menu":{"type":"Menu","label":"Menu","anchor":"View Menu","url":"https:\/\/foursquare.com\/v\/orangery-at-kensington-palace\/4ad08db4f964a5206cd820e3\/menu","mobileUrl":"https:\/\/foursquare.com\/v\/4ad08db4f964a5206cd820e3\/device_menu"},"specials":{"count":"0"},"hereNow":{"count":"0"},"referralId":"v-1392478023"},{"id":"4ac518d4f964a520c1a720e3","name":"Royal China","contact":{"phone":"+442072212535","formattedPhone":"+44 20 7221 2535"},"location":{"address":"13 Queensway","lat":"51.51090306875554","lng":"-0.1871857129314079","distance":"184","postalCode":"W2 4QJ","cc":"GB","city":"London","state":"Greater London","country":"United Kingdom"},"categories":[{"id":"4bf58dd8d48988d1f5931735","name":"Dim Sum Restaurant","pluralName":"Dim Sum Restaurants","shortName":"Dim Sum","icon":{"prefix":"https:\/\/ss1.4sqi.net\/img\/categories_v2\/food\/dimsum_","suffix":".png"},"primary":"true"}],"verified":"false","restricted":"true","stats":{"checkinsCount":"1436","usersCount":"932","tipCount":"26"},"url":"http:\/\/www2.royalchinagroup.biz","specials":{"count":"0"},"hereNow":{"count":"0"},"referralId":"v-1392478023"},{"id":"4ea00be1e5fa13c70e564c69","name":"Pirate Ship","location":{"address":"Princess Diana Memorial Playground","crossStreet":"Kensington Gardens","lat":"51.50913637718299","lng":"-0.18820067838230686","distance":"32","cc":"GB","city":"Kensington","state":"Greater London","country":"United Kingdom"},"categories":[{"id":"4bf58dd8d48988d12d951735","name":"Boat or Ferry","pluralName":"Boats or Ferries","shortName":"Boat \/ Ferry","icon":{"prefix":"https:\/\/ss1.4sqi.net\/img\/categories_v2\/travel\/boat_","suffix":".png"},"primary":"true"}],"verified":"false","restricted":"true","stats":{"checkinsCount":"124","usersCount":"95","tipCount":"0"},"specials":{"count":"0"},"hereNow":{"count":"0"},"referralId":"v-1392478023"},{"id":"4ac518d5f964a520fea720e3","name":"Mandarin Kitchen","location":{"address":"14 Queensway","lat":"51.510663","lng":"-0.187127","distance":"159","postalCode":"W2 3RX","cc":"GB","city":"London","state":"Greater London","country":"United Kingdom"},"categories":[{"id":"4bf58dd8d48988d145941735","name":"Chinese Restaurant","pluralName":"Chinese Restaurants","shortName":"Chinese","icon":{"prefix":"https:\/\/ss1.4sqi.net\/img\/categories_v2\/food\/chinese_","suffix":".png"},"primary":"true"}],"verified":"false","restricted":"true","stats":{"checkinsCount":"1066","usersCount":"745","tipCount":"28"},"specials":{"count":"0"},"hereNow":{"count":"0"},"referralId":"v-1392478023"},{"id":"4ac518f9f964a5200ab020e3","name":"Queens Ice & Bowl","contact":{"phone":"+442072290172","formattedPhone":"+44 20 7229 0172"},"location":{"address":"17 Queensway","lat":"51.51111293669556","lng":"-0.18747568130493164","distance":"204","postalCode":"W2 4QP","cc":"GB","city":"London","state":"Greater London","country":"United Kingdom"},"categories":[{"id":"4bf58dd8d48988d1e4931735","name":"Bowling Alley","pluralName":"Bowling Alleys","shortName":"Bowling Alley","icon":{"prefix":"https:\/\/ss1.4sqi.net\/img\/categories_v2\/arts_entertainment\/bowling_","suffix":".png"},"primary":"true"}],"verified":"false","restricted":"true","stats":{"checkinsCount":"1126","usersCount":"820","tipCount":"12"},"specials":{"count":"0"},"hereNow":{"count":"0"},"referralId":"v-1392478023"},{"id":"4ea9ab25dab40d1325ec06fe","name":"Taylor Walker Bayswater","location":{"lat":"51.510386139668235","lng":"-0.1867538299468819","distance":"142","cc":"GB","city":"Paddington","state":"Greater London","country":"United Kingdom"},"categories":[{"id":"4bf58dd8d48988d116941735","name":"Bar","pluralName":"Bars","shortName":"Bar","icon":{"prefix":"https:\/\/ss1.4sqi.net\/img\/categories_v2\/nightlife\/bar_","suffix":".png"},"primary":"true"}],"verified":"false","restricted":"true","stats":{"checkinsCount":"324","usersCount":"286","tipCount":"3"},"specials":{"count":"0"},"hereNow":{"count":"0"},"referralId":"v-1392478023"},{"id":"4e5bc05ea8098920b3dc0b87","name":"The Elfin Oak","location":{"address":"in Hyde Park","crossStreet":"near the Memorial Playground","lat":"51.50876082213426","lng":"-0.18780022859573364","distance":"58","postalCode":"W2 2UH","cc":"GB","city":"Kensington","state":"Greater London","country":"United Kingdom"},"categories":[{"id":"4deefb944765f83613cdba6e","name":"Historic Site","pluralName":"Historic Sites","shortName":"Historic Site","icon":{"prefix":"https:\/\/ss1.4sqi.net\/img\/categories_v2\/arts_entertainment\/historicsite_","suffix":".png"},"primary":"true"}],"verified":"false","restricted":"true","stats":{"checkinsCount":"41","usersCount":"35","tipCount":"0"},"specials":{"count":"0"},"hereNow":{"count":"0"},"referralId":"v-1392478023"},{"id":"4bcf61be0ffdce72726ab2c0","name":"Royal Bayswater Hostel London","location":{"address":"121 Bayswater Road","lat":"51.510509610863416","lng":"-0.18648770640879325","distance":"163","cc":"GB","city":"London","state":"Greater London","country":"United Kingdom"},"categories":[{"id":"4bf58dd8d48988d1ee931735","name":"Hostel","pluralName":"Hostels","shortName":"Hostel","icon":{"prefix":"https:\/\/ss1.4sqi.net\/img\/categories_v2\/travel\/hostel_","suffix":".png"},"primary":"true"}],"verified":"false","restricted":"true","stats":{"checkinsCount":"198","usersCount":"111","tipCount":"2"},"specials":{"count":"0"},"hereNow":{"count":"1","groups":[{"type":"others","name":"Other people here","count":"1"}]},"referralId":"v-1392478023"},{"id":"4d540756a64560fc916fb53a","name":"Pet Cemetery","location":{"address":"Bayswater Road","lat":"51.50981085847292","lng":"-0.18616676330566406","distance":"127","cc":"GB","city":"London","state":"Greater London","country":"United Kingdom"},"categories":[{"id":"4bf58dd8d48988d15c941735","name":"Cemetery","pluralName":"Cemeteries","shortName":"Cemetery","icon":{"prefix":"https:\/\/ss1.4sqi.net\/img\/categories_v2\/parks_outdoors\/cemetery_","suffix":".png"},"primary":"true"}],"verified":"false","restricted":"true","stats":{"checkinsCount":"327","usersCount":"64","tipCount":"1"},"specials":{"count":"0"},"hereNow":{"count":"0"},"referralId":"v-1392478023"},{"id":"5091656d3950422ec224fdb2","name":"Little Persia","contact":{"phone":"+442072438288","formattedPhone":"+44 20 7243 8288"},"location":{"address":"38 Queensway","lat":"51.51097271467499","lng":"-0.18706798553466797","distance":"194","postalCode":"W23RS","cc":"GB","city":"London","state":"Greater London","country":"United Kingdom"},"categories":[{"id":"4bf58dd8d48988d119941735","name":"Hookah Bar","pluralName":"Hookah Bars","shortName":"Hookah Bar","icon":{"prefix":"https:\/\/ss1.4sqi.net\/img\/categories_v2\/nightlife\/hookahbar_","suffix":".png"},"primary":"true"}],"verified":"true","restricted":"true","stats":{"checkinsCount":"611","usersCount":"417","tipCount":"11"},"url":"http:\/\/www.littlepersia.co.uk","reservations":{"url":"http:\/\/www.toptable.co.uk\/single.aspx?rid=76894&ref=9601"},"menu":{"type":"Menu","label":"Menu","anchor":"View Menu","url":"https:\/\/foursquare.com\/v\/little-persia\/5091656d3950422ec224fdb2\/menu","mobileUrl":"https:\/\/foursquare.com\/v\/5091656d3950422ec224fdb2\/device_menu"},"specials":{"count":"0"},"hereNow":{"count":"0"},"venuePage":{"id":"40485644"},"storeId":"","referralId":"v-1392478023"},{"id":"4b7a5cb8f964a520942a2fe3","name":"Grand Royale","location":{"address":"1 Inverness Terrace","lat":"51.51106619606999","lng":"-0.18625259399414062","distance":"225","postalCode":"W2","cc":"GB","city":"London","state":"Greater London","country":"United Kingdom"},"categories":[{"id":"4bf58dd8d48988d1fa931735","name":"Hotel","pluralName":"Hotels","shortName":"Hotel","icon":{"prefix":"https:\/\/ss1.4sqi.net\/img\/categories_v2\/travel\/hotel_","suffix":".png"},"primary":"true"}],"verified":"false","restricted":"true","stats":{"checkinsCount":"1429","usersCount":"698","tipCount":"40"},"specials":{"count":"0"},"hereNow":{"count":"0"},"referralId":"v-1392478023"},{"id":"4bb7ac6e3db7b713805d209a","name":"New Fortune Cookie","contact":{"phone":"+442077277260","formattedPhone":"+44 20 7727 7260"},"location":{"address":"1 Queensway","lat":"51.51069357265062","lng":"-0.18699155929065978","distance":"166","postalCode":"W2 4QJ","cc":"GB","city":"London","state":"Greater London","country":"United Kingdom"},"categories":[{"id":"4bf58dd8d48988d145941735","name":"Chinese Restaurant","pluralName":"Chinese Restaurants","shortName":"Chinese","icon":{"prefix":"https:\/\/ss1.4sqi.net\/img\/categories_v2\/food\/chinese_","suffix":".png"},"primary":"true"}],"verified":"false","restricted":"true","stats":{"checkinsCount":"659","usersCount":"372","tipCount":"16"},"specials":{"count":"0"},"hereNow":{"count":"0"},"referralId":"v-1392478023"},{"id":"4b84304bf964a520702631e3","name":"Taza Kebab House","contact":{"phone":"+442077277420","formattedPhone":"+44 20 7727 7420"},"location":{"address":"35A Queensway","lat":"51.51124244492545","lng":"-0.18724733381128314","distance":"220","postalCode":"W2 4QJ","cc":"GB","city":"London","state":"Greater London","country":"United Kingdom"},"categories":[{"id":"4bf58dd8d48988d115941735","name":"Middle Eastern Restaurant","pluralName":"Middle Eastern Restaurants","shortName":"Middle Eastern","icon":{"prefix":"https:\/\/ss1.4sqi.net\/img\/categories_v2\/food\/default_","suffix":".png"},"primary":"true"}],"verified":"false","restricted":"true","stats":{"checkinsCount":"603","usersCount":"363","tipCount":"18"},"specials":{"count":"0"},"hereNow":{"count":"0"},"referralId":"v-1392478023"},{"id":"4bf7f79d4a67c928c97024cf","name":"Ipanema Cafe","contact":{"phone":"+442077929050","formattedPhone":"+44 20 7792 9050"},"location":{"address":"7-9 Queensway","lat":"51.510739695406016","lng":"-0.18705007996500253","distance":"169","postalCode":"W2 4QJ","cc":"GB","city":"Paddington","state":"Greater London","country":"United Kingdom"},"categories":[{"id":"4bf58dd8d48988d16b941735","name":"Brazilian Restaurant","pluralName":"Brazilian Restaurants","shortName":"Brazilian","icon":{"prefix":"https:\/\/ss1.4sqi.net\/img\/categories_v2\/food\/brazilian_","suffix":".png"},"primary":"true"}],"verified":"false","restricted":"true","stats":{"checkinsCount":"31","usersCount":"20","tipCount":"1"},"specials":{"count":"0"},"hereNow":{"count":"1","groups":[{"type":"others","name":"Other people here","count":"1"}]},"referralId":"v-1392478023"},{"id":"4b1a6056f964a52081e923e3","name":"Costcutter Oriental Supermarket","location":{"address":"28 Queensway","lat":"51.51108021628439","lng":"-0.18742782758158757","distance":"201","cc":"GB","city":"London","state":"Greater London","country":"United Kingdom"},"categories":[{"id":"4bf58dd8d48988d118951735","name":"Grocery Store","pluralName":"Grocery Stores","shortName":"Grocery Store","icon":{"prefix":"https:\/\/ss1.4sqi.net\/img\/categories_v2\/shops\/food_grocery_","suffix":".png"},"primary":"true"}],"verified":"false","restricted":"true","stats":{"checkinsCount":"587","usersCount":"230","tipCount":"7"},"specials":{"count":"0"},"hereNow":{"count":"0"},"referralId":"v-1392478023"},{"id":"4b710b35f964a52011382de3","name":"Lo Sputino","location":{"address":"Bayswater Road","lat":"51.51019685","lng":"-0.18726","distance":"107","cc":"GB","city":"Paddington","state":"Greater London","country":"United Kingdom"},"categories":[{"id":"4bf58dd8d48988d16d941735","name":"Caf\u00e9","pluralName":"Caf\u00e9s","shortName":"Caf\u00e9","icon":{"prefix":"https:\/\/ss1.4sqi.net\/img\/categories_v2\/food\/cafe_","suffix":".png"},"primary":"true"}],"verified":"false","restricted":"true","stats":{"checkinsCount":"221","usersCount":"147","tipCount":"7"},"specials":{"count":"0"},"hereNow":{"count":"0"},"referralId":"v-1392478023"},{"id":"4dc5575b2271f27051299d21","name":"Doubletree by Hilton Hyde Park Hotel","contact":{"phone":"+442072291212","formattedPhone":"+44 20 7229 1212","twitter":"doubletree"},"location":{"address":"150 Bayswater Rd","lat":"51.51042121302812","lng":"-0.190547260464421","distance":"228","postalCode":"W2 4RT","cc":"GB","city":"London","state":"Greater London","country":"United Kingdom"},"categories":[{"id":"4bf58dd8d48988d1fa931735","name":"Hotel","pluralName":"Hotels","shortName":"Hotel","icon":{"prefix":"https:\/\/ss1.4sqi.net\/img\/categories_v2\/travel\/hotel_","suffix":".png"},"primary":"true"}],"verified":"true","restricted":"true","stats":{"checkinsCount":"1084","usersCount":"513","tipCount":"23"},"url":"http:\/\/doubletree3.hilton.com\/en\/hotels\/united-kingdom\/london-hyde-park-hotel-LONHYDI\/about\/index.html","menu":{"type":"Menu","label":"Menu","anchor":"View Menu","url":"https:\/\/foursquare.com\/v\/doubletree-by-hilton-hyde-park-hotel\/4dc5575b2271f27051299d21\/menu","mobileUrl":"https:\/\/foursquare.com\/v\/4dc5575b2271f27051299d21\/device_menu"},"specials":{"count":"0"},"hereNow":{"count":"0"},"referralId":"v-1392478023"},{"id":"509bcc76e4b08cda217d791e","name":"Queens Court","location":{"crossStreet":"Queensway","lat":"51.51129284844785","lng":"-0.18790756042479034","distance":"223","cc":"GB","city":"London","state":"Greater London","country":"United Kingdom"},"categories":[{"id":"5032891291d4c4b30a586d68","name":"Assisted Living","pluralName":"Assisted Living","shortName":"Assisted Living","icon":{"prefix":"https:\/\/ss1.4sqi.net\/img\/categories_v2\/building\/apartment_","suffix":".png"},"primary":"true"}],"verified":"false","restricted":"true","stats":{"checkinsCount":"198","usersCount":"45","tipCount":"0"},"specials":{"count":"0"},"hereNow":{"count":"0"},"referralId":"v-1392478023"},{"id":"5190adc2498eaadcd9131fac","name":"Lo Spuntino Cafe Espana","location":{"lat":"51.510302953973614","lng":"-0.18731170576899053","distance":"117","cc":"GB","country":"United Kingdom"},"categories":[{"id":"4bf58dd8d48988d16d941735","name":"Caf\u00e9","pluralName":"Caf\u00e9s","shortName":"Caf\u00e9","icon":{"prefix":"https:\/\/ss1.4sqi.net\/img\/categories_v2\/food\/cafe_","suffix":".png"},"primary":"true"}],"verified":"false","restricted":"true","stats":{"checkinsCount":"52","usersCount":"46","tipCount":"1"},"specials":{"count":"0"},"hereNow":{"count":"0"},"referralId":"v-1392478023"},{"id":"4df0d6fd1f6ea135c65cb0fc","name":"The Pizza Factory","location":{"address":"120-123 Bayswater Rd","lat":"51.510469230764656","lng":"-0.1860076233087835","distance":"180","postalCode":"W2 3","cc":"GB","city":"Paddington","state":"Greater London","country":"United Kingdom"},"categories":[{"id":"4bf58dd8d48988d1ca941735","name":"Pizza Place","pluralName":"Pizza Places","shortName":"Pizza","icon":{"prefix":"https:\/\/ss1.4sqi.net\/img\/categories_v2\/food\/pizza_","suffix":".png"},"primary":"true"}],"verified":"false","restricted":"true","stats":{"checkinsCount":"148","usersCount":"128","tipCount":"4"},"specials":{"count":"0"},"hereNow":{"count":"0"},"referralId":"v-1392478023"},{"id":"4d81e0151ec4224b4665cf92","name":"Russian Consulate","contact":{"phone":"+442072298027","formattedPhone":"+44 20 7229 8027"},"location":{"address":"5 Kensington Palace Gardens","lat":"51.5102573025501","lng":"-0.18681217676252432","distance":"127","postalCode":"W8 4QS","cc":"GB","city":"London","state":"Greater London","country":"United Kingdom"},"categories":[{"id":"4bf58dd8d48988d12c951735","name":"Embassy \/ Consulate","pluralName":"Embassies \/ Consulates","shortName":"Embassy","icon":{"prefix":"https:\/\/ss1.4sqi.net\/img\/categories_v2\/travel\/embassy_","suffix":".png"},"primary":"true"}],"verified":"false","restricted":"true","stats":{"checkinsCount":"12","usersCount":"10","tipCount":"0"},"url":"http:\/\/www.rusemblon.org","specials":{"count":"0"},"hereNow":{"count":"0"},"referralId":"v-1392478023"},{"id":"525960bd11d2435caa3f8d62","name":"Peter Pan","location":{"address":"Kensington Palace Gardens","lat":"51.5097","lng":"-0.187055","distance":"69","cc":"GB","country":"United Kingdom"},"categories":[{"id":"4bf58dd8d48988d1e7941735","name":"Playground","pluralName":"Playgrounds","shortName":"Playground","icon":{"prefix":"https:\/\/ss1.4sqi.net\/img\/categories_v2\/parks_outdoors\/playground_","suffix":".png"},"primary":"true"}],"verified":"false","restricted":"true","stats":{"checkinsCount":"2","usersCount":"2","tipCount":"0"},"specials":{"count":"0"},"hereNow":{"count":"0"},"referralId":"v-1392478023"},{"id":"4f3cd95aa17c8a4ed1dbad18","name":"Q-Park Queensway","location":{"address":"26 Queensway","lat":"51.51087923308819","lng":"-0.1870894432067871","distance":"183","postalCode":"W2 4QJ","cc":"GB","city":"London","state":"Greater London","country":"United Kingdom"},"categories":[{"id":"4c38df4de52ce0d596b336e1","name":"Parking","pluralName":"Parking","shortName":"Parking","icon":{"prefix":"https:\/\/ss1.4sqi.net\/img\/categories_v2\/building\/parking_","suffix":".png"},"primary":"true"}],"verified":"true","restricted":"true","stats":{"checkinsCount":"82","usersCount":"27","tipCount":"0"},"menu":{"type":"Menu","label":"Menu","anchor":"View Menu","url":"https:\/\/foursquare.com\/v\/qpark-queensway\/4f3cd95aa17c8a4ed1dbad18\/menu","mobileUrl":"https:\/\/foursquare.com\/v\/4f3cd95aa17c8a4ed1dbad18\/device_menu"},"specials":{"count":"0"},"hereNow":{"count":"0"},"referralId":"v-1392478023"},{"id":"5096f52ce4b08367dac3c08f","name":"Oriental Supermarket, Queensway","location":{"address":"Queensway","lat":"51.51126260117835","lng":"-0.18718516214896871","distance":"223","cc":"GB","city":"London","state":"Greater London","country":"United Kingdom"},"categories":[{"id":"4bf58dd8d48988d118951735","name":"Grocery Store","pluralName":"Grocery Stores","shortName":"Grocery Store","icon":{"prefix":"https:\/\/ss1.4sqi.net\/img\/categories_v2\/shops\/food_grocery_","suffix":".png"},"primary":"true"}],"verified":"false","restricted":"true","stats":{"checkinsCount":"48","usersCount":"35","tipCount":"1"},"specials":{"count":"0"},"hereNow":{"count":"0"},"referralId":"v-1392478023"},{"id":"4bf54314cad2c92885cd9c99","name":"Caf\u00e9 Broadwalk","location":{"lat":"51.50883931224298","lng":"-0.18780201541495523","distance":"50","cc":"GB","country":"United Kingdom"},"categories":[{"id":"4bf58dd8d48988d16d941735","name":"Caf\u00e9","pluralName":"Caf\u00e9s","shortName":"Caf\u00e9","icon":{"prefix":"https:\/\/ss1.4sqi.net\/img\/categories_v2\/food\/cafe_","suffix":".png"},"primary":"true"}],"verified":"false","restricted":"true","stats":{"checkinsCount":"43","usersCount":"38","tipCount":"0"},"specials":{"count":"0"},"hereNow":{"count":"0"},"referralId":"v-1392478023"}],"confident":"true"}}