{"meta":{"code":"200"},"response":{"venues":[{"id":"4c30b6183896e21eb8e8e590","name":"Diana, Princess of Wales Memorial Fountain","location":{"address":"The Old Police Hse","crossStreet":"Hyde Park","lat":"51.50456210431835","lng":"-0.1714789867401123","distance":"96","postalCode":"W2 2UH","cc":"GB","city":"London","state":"Greater London","country":"United Kingdom"},"categories":[{"id":"4bf58dd8d48988d12d941735","name":"Monument \/ Landmark","pluralName":"Monuments \/ Landmarks","shortName":"Landmark","icon":{"prefix":"https:\/\/ss1.4sqi.net\/img\/categories_v2\/building\/government_monument_","suffix":".png"},"primary":"true"}],"verified":"false","restricted":"true","stats":{"checkinsCount":"2584","usersCount":"2041","tipCount":"9"},"specials":{"count":"0"},"hereNow":{"count":"0"},"referralId":"v-1392478037"},{"id":"4ac518d3f964a52057a720e3","name":"Serpentine Gallery","contact":{"phone":"+442074026075","formattedPhone":"+44 20 7402 6075"},"location":{"address":"Kensington Gardens","crossStreet":"Koenig Books","lat":"51.50453643907013","lng":"-0.17480409146757364","distance":"141","postalCode":"W2 3XA","cc":"GB","city":"London","state":"Greater London","country":"United Kingdom"},"categories":[{"id":"4bf58dd8d48988d1e2931735","name":"Art Gallery","pluralName":"Art Galleries","shortName":"Art Gallery","icon":{"prefix":"https:\/\/ss1.4sqi.net\/img\/categories_v2\/arts_entertainment\/artgallery_","suffix":".png"},"primary":"true"}],"verified":"false","restricted":"true","stats":{"checkinsCount":"2571","usersCount":"2067","tipCount":"25"},"url":"http:\/\/www.serpentinegalleries.org","specials":{"count":"0"},"hereNow":{"count":"2","groups":[{"type":"others","name":"Other people here","count":"2"}]},"referralId":"v-1392478037"},{"id":"4bf925ddabdaef3ba4d0a184","name":"The Serpentine","contact":{"phone":"+443000612000","formattedPhone":"+44 300 061 2000","twitter":"rpfoundation"},"location":{"address":"Serpentine Rd","crossStreet":"at Hyde Park","lat":"51.505223240223344","lng":"-0.16741275787353516","distance":"387","postalCode":"W2 2UH","cc":"GB","city":"London","state":"Greater London","country":"United Kingdom"},"categories":[{"id":"4bf58dd8d48988d161941735","name":"Lake","pluralName":"Lakes","shortName":"Lake","icon":{"prefix":"https:\/\/ss1.4sqi.net\/img\/categories_v2\/parks_outdoors\/lake_","suffix":".png"},"primary":"true"}],"verified":"false","restricted":"true","stats":{"checkinsCount":"3772","usersCount":"2991","tipCount":"36"},"url":"http:\/\/www.royalparks.org.uk\/parks\/hyde-park","specials":{"count":"0"},"hereNow":{"count":"0"},"referralId":"v-1392478037"},{"id":"4e1b1af988770d5776e3b8ad","name":"Hyde Park Pavillion and Grounds","location":{"lat":"51.50222750127289","lng":"-0.17443383082537034","distance":"255","cc":"GB","city":"London","state":"Greater London","country":"United Kingdom"},"categories":[{"id":"4bf58dd8d48988d15a941735","name":"Garden","pluralName":"Gardens","shortName":"Garden","icon":{"prefix":"https:\/\/ss1.4sqi.net\/img\/categories_v2\/parks_outdoors\/garden_","suffix":".png"},"primary":"true"}],"verified":"false","restricted":"true","stats":{"checkinsCount":"906","usersCount":"827","tipCount":"3"},"specials":{"count":"0"},"hereNow":{"count":"0"},"referralId":"v-1392478037"},{"id":"4bd31b92caff952119ffd3f0","name":"Serpentine Bridge","location":{"address":"The Serpentine","lat":"51.50615816351301","lng":"-0.17261624336242676","distance":"208","postalCode":"2UH 2UH","cc":"GB","city":"London","state":"Greater London","country":"United Kingdom"},"categories":[{"id":"4bf58dd8d48988d1df941735","name":"Bridge","pluralName":"Bridges","shortName":"Bridge","icon":{"prefix":"https:\/\/ss1.4sqi.net\/img\/categories_v2\/parks_outdoors\/bridge_","suffix":".png"},"primary":"true"}],"verified":"false","restricted":"true","stats":{"checkinsCount":"1036","usersCount":"507","tipCount":"1"},"specials":{"count":"0"},"hereNow":{"count":"0"},"referralId":"v-1392478037"},{"id":"4b892b07f964a520922032e3","name":"Lido Cafe","location":{"address":"Hyde Park","lat":"51.504822618757885","lng":"-0.16962071656929548","distance":"228","cc":"GB","city":"London","state":"Greater London","country":"United Kingdom"},"categories":[{"id":"4bf58dd8d48988d16d941735","name":"Caf\u00e9","pluralName":"Caf\u00e9s","shortName":"Caf\u00e9","icon":{"prefix":"https:\/\/ss1.4sqi.net\/img\/categories_v2\/food\/cafe_","suffix":".png"},"primary":"true"}],"verified":"false","restricted":"true","stats":{"checkinsCount":"1257","usersCount":"1082","tipCount":"30"},"specials":{"count":"0"},"hereNow":{"count":"0"},"referralId":"v-1392478037"},{"id":"4f9e78d4e4b0606431023f10","name":"Serpentine Sackler Gallery","contact":{"phone":"+442074026075","formattedPhone":"+44 20 7402 6075"},"location":{"address":"West Carriage Drive","lat":"51.50703751683369","lng":"-0.17151300628909863","distance":"318","postalCode":"W2 2AR","cc":"GB","city":"London","state":"Greater London","country":"United Kingdom"},"categories":[{"id":"4bf58dd8d48988d1e2931735","name":"Art Gallery","pluralName":"Art Galleries","shortName":"Art Gallery","icon":{"prefix":"https:\/\/ss1.4sqi.net\/img\/categories_v2\/arts_entertainment\/artgallery_","suffix":".png"},"primary":"true"}],"verified":"false","restricted":"true","stats":{"checkinsCount":"454","usersCount":"381","tipCount":"10"},"url":"http:\/\/www.serpentinegalleries.org","specials":{"count":"0"},"hereNow":{"count":"0"},"referralId":"v-1392478037"},{"id":"4f32cbe3e4b09c2f10ef582e","name":"British Military Fitness (BMF)","location":{"address":"at Hyde Park","lat":"51.50488471834675","lng":"-0.17268373829461725","distance":"66","postalCode":"W2 3XA","cc":"GB","city":"London","state":"Greater London","country":"United Kingdom"},"categories":[{"id":"4bf58dd8d48988d175941735","name":"Gym \/ Fitness Center","pluralName":"Gyms or Fitness Centers","shortName":"Gym \/ Fitness","icon":{"prefix":"https:\/\/ss1.4sqi.net\/img\/categories_v2\/building\/gym_","suffix":".png"},"primary":"true"}],"verified":"false","restricted":"true","stats":{"checkinsCount":"229","usersCount":"33","tipCount":"0"},"url":"http:\/\/www.britmilfit.com","specials":{"count":"0"},"hereNow":{"count":"0"},"referralId":"v-1392478037"},{"id":"4acdbf7df964a520e5cc20e3","name":"Royal Geographical Society","location":{"address":"1 Kensington Gore","lat":"51.50156072462681","lng":"-0.17481802805291338","distance":"334","postalCode":"SW7 2AR","cc":"GB","city":"London","state":"Greater London","country":"United Kingdom"},"categories":[{"id":"4bf58dd8d48988d198941735","name":"College Academic Building","pluralName":"College Academic Buildings","shortName":"Academic Building","icon":{"prefix":"https:\/\/ss1.4sqi.net\/img\/categories_v2\/education\/academicbuilding_","suffix":".png"},"primary":"true"}],"verified":"false","restricted":"true","stats":{"checkinsCount":"1637","usersCount":"1212","tipCount":"13"},"specials":{"count":"0"},"hereNow":{"count":"1","groups":[{"type":"others","name":"Other people here","count":"1"}]},"referralId":"v-1392478037"},{"id":"4fa95133e4b09ce165945802","name":"Isis","location":{"address":"Hyde Park","lat":"51.50516320781466","lng":"-0.17157676009352707","distance":"129","cc":"GB","city":"London","state":"Greater London","country":"United Kingdom"},"categories":[{"id":"52e81612bcbc57f1066b79ed","name":"Outdoor Sculpture","pluralName":"Outdoor Sculptures","shortName":"Outdoor Sculpture","icon":{"prefix":"https:\/\/ss1.4sqi.net\/img\/categories_v2\/parks_outdoors\/sculpture_","suffix":".png"},"primary":"true"}],"verified":"false","restricted":"true","stats":{"checkinsCount":"102","usersCount":"80","tipCount":"0"},"specials":{"count":"0"},"hereNow":{"count":"0"},"referralId":"v-1392478037"},{"id":"4ea96edc02d5b8174ed70a7a","name":"Alexandra Gate","location":{"address":"Hyde Park","lat":"51.502114","lng":"-0.174589","distance":"271","cc":"GB","city":"London","state":"Greater London","country":"United Kingdom"},"categories":[{"id":"4bf58dd8d48988d130941735","name":"Building","pluralName":"Buildings","shortName":"Building","icon":{"prefix":"https:\/\/ss1.4sqi.net\/img\/categories_v2\/building\/default_","suffix":".png"},"primary":"true"}],"verified":"false","restricted":"true","stats":{"checkinsCount":"254","usersCount":"163","tipCount":"0"},"specials":{"count":"0"},"hereNow":{"count":"0"},"referralId":"v-1392478037"},{"id":"4f0d480fe4b03544974d26ac","name":"The Magazine","contact":{"phone":"+442072987541","formattedPhone":"+44 20 7298 7541"},"location":{"address":"West Carriage Drive, Hyde Park","lat":"51.50692826498451","lng":"-0.1724619154021758","distance":"294","postalCode":"W2 2AR","cc":"GB","city":"London","state":"Greater London","country":"United Kingdom"},"categories":[{"id":"4bf58dd8d48988d1c4941735","name":"Restaurant","pluralName":"Restaurants","shortName":"Restaurant","icon":{"prefix":"https:\/\/ss1.4sqi.net\/img\/categories_v2\/food\/default_","suffix":".png"},"primary":"true"}],"verified":"false","restricted":"true","stats":{"checkinsCount":"190","usersCount":"69","tipCount":"2"},"url":"http:\/\/www.magazine-restaurant.co.uk","specials":{"count":"0"},"hereNow":{"count":"0"},"referralId":"v-1392478037"},{"id":"4e3c1e88d4c058f9dbf2ce3c","name":"TfL Bus 414","location":{"address":"Moving Target!","lat":"51.50295666430883","lng":"-0.17332966624399523","distance":"152","cc":"GB","city":"London","state":"Greater London","country":"United Kingdom"},"categories":[{"id":"4bf58dd8d48988d12b951735","name":"Bus Line","pluralName":"Bus Lines","shortName":"Bus","icon":{"prefix":"https:\/\/ss1.4sqi.net\/img\/categories_v2\/travel\/busstation_","suffix":".png"},"primary":"true"}],"verified":"false","restricted":"true","stats":{"checkinsCount":"208","usersCount":"91","tipCount":"2"},"specials":{"count":"0"},"hereNow":{"count":"0"},"referralId":"v-1392478037"},{"id":"4de3bb0518385df2b04286f8","name":"PitP","location":{"address":"Hyde park","lat":"51.504452","lng":"-0.173545","distance":"54","postalCode":"W2 3","cc":"GB","city":"London","state":"Greater London","country":"United Kingdom"},"categories":[{"id":"4bf58dd8d48988d162941735","name":"Other Great Outdoors","pluralName":"Other Great Outdoors","shortName":"Other Outdoors","icon":{"prefix":"https:\/\/ss1.4sqi.net\/img\/categories_v2\/parks_outdoors\/outdoors_","suffix":".png"},"primary":"true"}],"verified":"false","restricted":"true","stats":{"checkinsCount":"1","usersCount":"1","tipCount":"0"},"specials":{"count":"0"},"hereNow":{"count":"0"},"referralId":"v-1392478037"},{"id":"4fcceac1e4b07d10e1b5cc70","name":"Serpentine Swimming Club","contact":{"phone":"+447941846566","formattedPhone":"+44 7941 846566","twitter":"serpsswimclub"},"location":{"address":"The Serpentine","crossStreet":"Hyde Park","lat":"51.50475625305392","lng":"-0.16937930755490577","distance":"242","postalCode":"W2 2UH","cc":"GB","city":"London","state":"Greater London","country":"United Kingdom"},"categories":[{"id":"4bf58dd8d48988d15e941735","name":"Pool","pluralName":"Pools","shortName":"Pool","icon":{"prefix":"https:\/\/ss1.4sqi.net\/img\/categories_v2\/parks_outdoors\/pool_","suffix":".png"},"primary":"true"}],"verified":"false","restricted":"true","stats":{"checkinsCount":"227","usersCount":"93","tipCount":"4"},"url":"http:\/\/www.serpentineswimmingclub.com","specials":{"count":"0"},"hereNow":{"count":"0"},"referralId":"v-1392478037"},{"id":"4c0941ca7e3fc928ada7f182","name":"TfL Bus 452","location":{"address":"Moving Target!","lat":"51.50181219829686","lng":"-0.17522635274999265","distance":"322","cc":"GB","city":"Kensington","state":"Greater London","country":"United Kingdom"},"categories":[{"id":"4bf58dd8d48988d12b951735","name":"Bus Line","pluralName":"Bus Lines","shortName":"Bus","icon":{"prefix":"https:\/\/ss1.4sqi.net\/img\/categories_v2\/travel\/busstation_","suffix":".png"},"primary":"true"}],"verified":"false","restricted":"true","stats":{"checkinsCount":"194","usersCount":"80","tipCount":"1"},"specials":{"count":"0"},"hereNow":{"count":"0"},"referralId":"v-1392478037"},{"id":"501ce45ae4b03c7750778df5","name":"Triathlon","location":{"lat":"51.50469882674195","lng":"-0.17342973573874182","distance":"62","cc":"GB","country":"United Kingdom"},"verified":"false","restricted":"true","stats":{"checkinsCount":"11","usersCount":"11","tipCount":"0"},"specials":{"count":"0"},"hereNow":{"count":"0"},"referralId":"v-1392478037"},{"id":"4f41f638e4b015f1bc1458e9","name":"Hyde Park Tennis Centre and Cafe","contact":{"phone":"+442072623474","formattedPhone":"+44 20 7262 3474"},"location":{"address":"South Carriage Drv.","lat":"51.502522397150614","lng":"-0.17347185358222664","distance":"202","postalCode":"SW1X 7","cc":"GB","city":"City of Westminster","state":"Greater London","country":"United Kingdom"},"categories":[{"id":"4e39a956bd410d7aed40cbc3","name":"Tennis Court","pluralName":"Tennis Courts","shortName":"Tennis Court","icon":{"prefix":"https:\/\/ss1.4sqi.net\/img\/categories_v2\/arts_entertainment\/stadium_tennis_","suffix":".png"},"primary":"true"}],"verified":"false","restricted":"true","stats":{"checkinsCount":"241","usersCount":"160","tipCount":"2"},"specials":{"count":"0"},"hereNow":{"count":"0"},"referralId":"v-1392478037"},{"id":"4e342df762e1733d7aa9ebd9","name":"Tfl Barclays Cycle Hire","location":{"address":"Serpentine Car Park","crossStreet":"Hyde Park","lat":"51.50505897637293","lng":"-0.1727190105909947","distance":"85","cc":"GB","city":"London","state":"Greater London","country":"United Kingdom"},"categories":[{"id":"4e4c9077bd41f78e849722f9","name":"Bike Rental \/ Bike Share","pluralName":"Bike Rentals \/ Bike Shares","shortName":"Bike","icon":{"prefix":"https:\/\/ss1.4sqi.net\/img\/categories_v2\/shops\/bikeshop_","suffix":".png"},"primary":"true"}],"verified":"false","restricted":"true","stats":{"checkinsCount":"15","usersCount":"14","tipCount":"0"},"specials":{"count":"0"},"hereNow":{"count":"0"},"referralId":"v-1392478037"},{"id":"52d6bd39498ec7f9b432d3c1","name":"The Diana, Princess of Wales Memorial Walk","location":{"lat":"51.50306159666222","lng":"-0.17687289677915055","distance":"313","cc":"GB","country":"United Kingdom"},"categories":[{"id":"4bf58dd8d48988d159941735","name":"Trail","pluralName":"Trails","shortName":"Trail","icon":{"prefix":"https:\/\/ss1.4sqi.net\/img\/categories_v2\/parks_outdoors\/hikingtrail_","suffix":".png"},"primary":"true"}],"verified":"false","restricted":"true","stats":{"checkinsCount":"4","usersCount":"4","tipCount":"0"},"specials":{"count":"0"},"hereNow":{"count":"0"},"referralId":"v-1392478037"},{"id":"4ebf341f30f82a2e12e2e043","name":"Serpentine","location":{"address":"Mile end stadium","lat":"51.50391081793554","lng":"-0.1718045094971257","distance":"80","cc":"GB","city":"London","state":"Greater London","country":"United Kingdom"},"categories":[{"id":"4bf58dd8d48988d1f4931735","name":"Racetrack","pluralName":"Racetracks","shortName":"Racetrack","icon":{"prefix":"https:\/\/ss1.4sqi.net\/img\/categories_v2\/arts_entertainment\/racetrack_","suffix":".png"},"primary":"true"}],"verified":"false","restricted":"true","stats":{"checkinsCount":"4","usersCount":"3","tipCount":"0"},"specials":{"count":"0"},"hereNow":{"count":"0"},"referralId":"v-1392478037"},{"id":"52da60a4498e599e1630a234","name":"@MarinePhys, Hyde Park","location":{"lat":"51.506249","lng":"-0.169947","distance":"294","cc":"GB","country":"United Kingdom"},"categories":[{"id":"4f4528bc4b90abdf24c9de85","name":"Athletics & Sports","pluralName":"Athletics & Sports","shortName":"Athletics & Sports","icon":{"prefix":"https:\/\/ss1.4sqi.net\/img\/categories_v2\/shops\/sports_outdoors_","suffix":".png"},"primary":"true"}],"verified":"false","restricted":"true","stats":{"checkinsCount":"4","usersCount":"1","tipCount":"0"},"specials":{"count":"0"},"hereNow":{"count":"0"},"referralId":"v-1392478037"},{"id":"4e44d509315130a66d388f2a","name":"Scandisecret","location":{"address":"Exhibition road","lat":"51.50445525317063","lng":"-0.17412900924682617","distance":"93","cc":"GB","city":"London","state":"Greater London","country":"United Kingdom"},"categories":[{"id":"4bf58dd8d48988d1c7941735","name":"Snack Place","pluralName":"Snack Places","shortName":"Snacks","icon":{"prefix":"https:\/\/ss1.4sqi.net\/img\/categories_v2\/food\/snacks_","suffix":".png"},"primary":"true"}],"verified":"false","restricted":"true","stats":{"checkinsCount":"1","usersCount":"1","tipCount":"0"},"specials":{"count":"0"},"hereNow":{"count":"0"},"referralId":"v-1392478037"},{"id":"51640675e4b0adc5d055b29f","name":"Double Decker Bus","location":{"lat":"51.502951457354406","lng":"-0.17210793556816142","distance":"156","cc":"GB","country":"United Kingdom"},"categories":[{"id":"4bf58dd8d48988d12b951735","name":"Bus Line","pluralName":"Bus Lines","shortName":"Bus","icon":{"prefix":"https:\/\/ss1.4sqi.net\/img\/categories_v2\/travel\/busstation_","suffix":".png"},"primary":"true"}],"verified":"false","restricted":"true","stats":{"checkinsCount":"19","usersCount":"18","tipCount":"0"},"specials":{"count":"0"},"hereNow":{"count":"0"},"referralId":"v-1392478037"},{"id":"52d532d1498ed305989d1ccd","name":"Lunch @ Hyde Park","location":{"lat":"51.506048","lng":"-0.169341","distance":"309","cc":"GB","country":"United Kingdom"},"categories":[{"id":"4bf58dd8d48988d128941735","name":"Cafeteria","pluralName":"Cafeterias","shortName":"Cafeteria","icon":{"prefix":"https:\/\/ss1.4sqi.net\/img\/categories_v2\/food\/cafeteria_","suffix":".png"},"primary":"true"}],"verified":"false","restricted":"true","stats":{"checkinsCount":"1","usersCount":"1","tipCount":"0"},"specials":{"count":"0"},"hereNow":{"count":"0"},"referralId":"v-1392478037"},{"id":"5027ce8fe4b05db3af1c5bd5","name":"Yoko Ono","location":{"lat":"51.504517756530824","lng":"-0.17439970681330913","distance":"113","cc":"GB","country":"United Kingdom"},"categories":[{"id":"4bf58dd8d48988d1d6941735","name":"Strip Club","pluralName":"Strip Clubs","shortName":"Strip Club","icon":{"prefix":"https:\/\/ss1.4sqi.net\/img\/categories_v2\/nightlife\/stripclub_","suffix":".png"},"primary":"true"}],"verified":"false","restricted":"true","stats":{"checkinsCount":"4","usersCount":"4","tipCount":"0"},"specials":{"count":"0"},"hereNow":{"count":"0"},"referralId":"v-1392478037"},{"id":"4f0c4a1be4b02df3ebdf7cc7","name":"Kensington Gore","location":{"crossStreet":"Kensington Gore","lat":"51.5014894979846","lng":"-0.17473868230330392","distance":"339","cc":"GB","city":"London","state":"Greater London","country":"United Kingdom"},"categories":[{"id":"4bf58dd8d48988d1f1931735","name":"General Entertainment","pluralName":"General Entertainment","shortName":"Entertainment","icon":{"prefix":"https:\/\/ss1.4sqi.net\/img\/categories_v2\/arts_entertainment\/default_","suffix":".png"},"primary":"true"}],"verified":"false","restricted":"true","stats":{"checkinsCount":"9","usersCount":"8","tipCount":"0"},"specials":{"count":"0"},"hereNow":{"count":"0"},"referralId":"v-1392478037"},{"id":"4e0a1669ae60a90eabdb12e7","name":"Burberry Serpentine Summer Party","location":{"address":"The Serpentine Gallery, Hyde Park","lat":"51.504407","lng":"-0.174404","distance":"111","cc":"GB","city":"London","state":"Greater London","country":"United Kingdom"},"categories":[{"id":"4bf58dd8d48988d1e2931735","name":"Art Gallery","pluralName":"Art Galleries","shortName":"Art Gallery","icon":{"prefix":"https:\/\/ss1.4sqi.net\/img\/categories_v2\/arts_entertainment\/artgallery_","suffix":".png"},"primary":"true"}],"verified":"false","restricted":"true","stats":{"checkinsCount":"8","usersCount":"6","tipCount":"0"},"specials":{"count":"0"},"hereNow":{"count":"0"},"referralId":"v-1392478037"},{"id":"4c13aa90b7b9c9287ee3a937","name":"Triathlon Zone","location":{"lat":"51.50444049939528","lng":"-0.1710895420819411","distance":"119","cc":"GB","country":"United Kingdom"},"categories":[{"id":"4bf58dd8d48988d115951735","name":"Bike Shop","pluralName":"Bike Shops","shortName":"Bike shop","icon":{"prefix":"https:\/\/ss1.4sqi.net\/img\/categories_v2\/shops\/bikeshop_","suffix":".png"},"primary":"true"}],"verified":"false","restricted":"true","stats":{"checkinsCount":"5","usersCount":"4","tipCount":"0"},"specials":{"count":"0"},"hereNow":{"count":"0"},"referralId":"v-1392478037"},{"id":"4e047ad31fc71937b4cd2b0b","name":"Charles Kendall & Partners","location":{"address":"7 Albert Court","crossStreet":"Prince Consort Road","lat":"51.50043479667606","lng":"-0.17578125","distance":"476","postalCode":"SW7 2BJ","cc":"GB","city":"London","state":"Greater London","country":"United Kingdom"},"categories":[{"id":"4bf58dd8d48988d124941735","name":"Office","pluralName":"Offices","shortName":"Office","icon":{"prefix":"https:\/\/ss1.4sqi.net\/img\/categories_v2\/building\/default_","suffix":".png"},"primary":"true"}],"verified":"false","restricted":"true","stats":{"checkinsCount":"332","usersCount":"7","tipCount":"1"},"specials":{"count":"0"},"hereNow":{"count":"0"},"referralId":"v-1392478037"}],"confident":"true"}}