{"meta":{"code":"200"},"response":{"venues":[{"id":"51960a82498e35404cf68346","name":"Warner Yard","contact":{"phone":"+442036979210","formattedPhone":"+44 20 3697 9210"},"location":{"address":"8 Warner Yard","lat":"51.523079","lng":"-0.111076","distance":"180","postalCode":"EC1R 5EY","cc":"GB","city":"Clerkenwell","state":"Greater London","country":"United Kingdom"},"categories":[{"id":"4bf58dd8d48988d130941735","name":"Building","pluralName":"Buildings","shortName":"Building","icon":{"prefix":"https:\/\/ss1.4sqi.net\/img\/categories_v2\/building\/default_","suffix":".png"},"primary":"true"}],"verified":"false","restricted":"true","stats":{"checkinsCount":"947","usersCount":"197","tipCount":"2"},"specials":{"count":"0"},"hereNow":{"count":"0"},"referralId":"v-1392477991"},{"id":"4dcc1a2afa76d745f064241e","name":"British Postal Museum & Archive","contact":{"phone":"+442072392570","formattedPhone":"+44 20 7239 2570","twitter":"postalheritage","facebook":"287803765766"},"location":{"address":"Freeling House, Phoenix Place","lat":"51.52401819162466","lng":"-0.11260986328125","distance":"32","postalCode":"WC1X 0DL","cc":"GB","city":"London","state":"Greater London","country":"United Kingdom"},"categories":[{"id":"4bf58dd8d48988d181941735","name":"Museum","pluralName":"Museums","shortName":"Museum","icon":{"prefix":"https:\/\/ss1.4sqi.net\/img\/categories_v2\/arts_entertainment\/museum_","suffix":".png"},"primary":"true"}],"verified":"true","restricted":"true","stats":{"checkinsCount":"40","usersCount":"29","tipCount":"1"},"url":"http:\/\/www.postalheritage.org.uk","specials":{"count":"0"},"hereNow":{"count":"0"},"venuePage":{"id":"36472703"},"storeId":"","referralId":"v-1392477991"},{"id":"4b5f0f6ff964a52029a429e3","name":"Post Office","location":{"address":"Roseberry Ave.","crossStreet":"at Farringdon Rd","lat":"51.52485927633408","lng":"-0.11096835136413574","distance":"142","postalCode":"EC1R 4SQ","cc":"GB","city":"Mount Pleasant","state":"Greater London","country":"United Kingdom"},"categories":[{"id":"4bf58dd8d48988d172941735","name":"Post Office","pluralName":"Post Offices","shortName":"Post Office","icon":{"prefix":"https:\/\/ss1.4sqi.net\/img\/categories_v2\/building\/postoffice_","suffix":".png"},"primary":"true"}],"verified":"true","restricted":"true","stats":{"checkinsCount":"474","usersCount":"199","tipCount":"9"},"url":"http:\/\/www.postoffice.co.uk","specials":{"count":"0"},"hereNow":{"count":"0"},"referralId":"v-1392477991"},{"id":"51aa1cdf498ec8aca9b82219","name":"RetailMeNot UK","location":{"address":"200 Grays Inn Road","lat":"51.52343532869013","lng":"-0.11405930477116603","distance":"128","postalCode":"WC1X 8XZ","cc":"GB","city":"London","state":"Greater London","country":"United Kingdom"},"categories":[{"id":"4bf58dd8d48988d125941735","name":"Tech Startup","pluralName":"Tech Startups","shortName":"Tech Startup","icon":{"prefix":"https:\/\/ss1.4sqi.net\/img\/categories_v2\/shops\/technology_","suffix":".png"},"primary":"true"}],"verified":"false","restricted":"true","stats":{"checkinsCount":"286","usersCount":"14","tipCount":"0"},"specials":{"count":"0"},"hereNow":{"count":"0"},"referralId":"v-1392477991"},{"id":"51d8604f498eb1cf1b91bbee","name":"Paesan","contact":{"phone":"+442078377139","formattedPhone":"+44 20 7837 7139","twitter":"paesanlondon"},"location":{"address":"2 Exmouth Market","lat":"51.52513824862535","lng":"-0.1105399623992763","distance":"183","postalCode":"EC1R 4PX","cc":"GB","city":"London","state":"Greater London","country":"United Kingdom"},"categories":[{"id":"4bf58dd8d48988d110941735","name":"Italian Restaurant","pluralName":"Italian Restaurants","shortName":"Italian","icon":{"prefix":"https:\/\/ss1.4sqi.net\/img\/categories_v2\/food\/italian_","suffix":".png"},"primary":"true"}],"verified":"false","restricted":"true","stats":{"checkinsCount":"259","usersCount":"203","tipCount":"7"},"url":"http:\/\/paesanlondon.com","reservations":{"url":"http:\/\/www.toptable.co.uk\/single.aspx?rid=97671&ref=9601"},"menu":{"type":"Menu","label":"Menu","anchor":"View Menu","url":"https:\/\/foursquare.com\/v\/paesan\/51d8604f498eb1cf1b91bbee\/menu","mobileUrl":"https:\/\/foursquare.com\/v\/51d8604f498eb1cf1b91bbee\/device_menu"},"specials":{"count":"0"},"hereNow":{"count":"0"},"referralId":"v-1392477991"},{"id":"50fe473ce4b028b4bbcd4a4a","name":"The Rosebery","location":{"address":"20 Rosebery Avenue","crossStreet":"Clerkenwell","lat":"51.52347914596938","lng":"-0.11129171121629168","distance":"138","postalCode":"EC1R 4SX","cc":"GB","city":"London","state":"Greater London","country":"United Kingdom"},"categories":[{"id":"4bf58dd8d48988d1fa931735","name":"Hotel","pluralName":"Hotels","shortName":"Hotel","icon":{"prefix":"https:\/\/ss1.4sqi.net\/img\/categories_v2\/travel\/hotel_","suffix":".png"},"primary":"true"}],"verified":"false","restricted":"true","stats":{"checkinsCount":"118","usersCount":"45","tipCount":"3"},"specials":{"count":"0"},"hereNow":{"count":"0"},"referralId":"v-1392477991"},{"id":"4acf05adf964a52048d220e3","name":"ITN","contact":{"twitter":"itv_news"},"location":{"address":"200 Grays Inn Rd.","lat":"51.52337067932019","lng":"-0.11434793472290039","distance":"147","postalCode":"WC1X 8HF","cc":"GB","city":"Holborn","state":"Greater London","country":"United Kingdom"},"categories":[{"id":"4bf58dd8d48988d124941735","name":"Office","pluralName":"Offices","shortName":"Office","icon":{"prefix":"https:\/\/ss1.4sqi.net\/img\/categories_v2\/building\/default_","suffix":".png"},"primary":"true"}],"verified":"false","restricted":"true","stats":{"checkinsCount":"1647","usersCount":"256","tipCount":"1"},"specials":{"count":"0"},"hereNow":{"count":"0"},"referralId":"v-1392477991"},{"id":"4b548f9df964a52012c027e3","name":"WildKat PR Offices","location":{"address":"2nd Floor, 7-15 Rosebery Avenue","lat":"51.52411164624846","lng":"-0.11121511459350585","distance":"111","postalCode":"EC1R 4SP","cc":"GB","city":"London","state":"Greater London","country":"United Kingdom"},"categories":[{"id":"4bf58dd8d48988d124941735","name":"Office","pluralName":"Offices","shortName":"Office","icon":{"prefix":"https:\/\/ss1.4sqi.net\/img\/categories_v2\/building\/default_","suffix":".png"},"primary":"true"}],"verified":"true","restricted":"true","stats":{"checkinsCount":"639","usersCount":"16","tipCount":"2"},"specials":{"count":"0"},"hereNow":{"count":"0"},"venuePage":{"id":"55089704"},"storeId":"","referralId":"v-1392477991"},{"id":"4de4e11bb3ad5eaa5aae041f","name":"BioMed Central","location":{"address":"236 Grays Inn road","lat":"51.52379991379369","lng":"-0.1144969230104442","distance":"129","postalCode":"WC1X 8HL","cc":"GB","city":"London","state":"Greater London","country":"United Kingdom"},"categories":[{"id":"4bf58dd8d48988d124941735","name":"Office","pluralName":"Offices","shortName":"Office","icon":{"prefix":"https:\/\/ss1.4sqi.net\/img\/categories_v2\/building\/default_","suffix":".png"},"primary":"true"}],"verified":"false","restricted":"true","stats":{"checkinsCount":"339","usersCount":"17","tipCount":"0"},"specials":{"count":"0"},"hereNow":{"count":"0"},"referralId":"v-1392477991"},{"id":"51d28dc8498e5a13e19d2432","name":"TechStars London","location":{"lat":"51.523094","lng":"-0.111166","distance":"174","cc":"GB","country":"United Kingdom"},"categories":[{"id":"4bf58dd8d48988d174941735","name":"Coworking Space","pluralName":"Coworking Spaces","shortName":"Coworking Space","icon":{"prefix":"https:\/\/ss1.4sqi.net\/img\/categories_v2\/building\/office_coworkingspace_","suffix":".png"},"primary":"true"}],"verified":"false","restricted":"true","stats":{"checkinsCount":"391","usersCount":"88","tipCount":"5"},"specials":{"count":"0"},"hereNow":{"count":"0"},"referralId":"v-1392477991"},{"id":"4adc6a16f964a5202c2c21e3","name":"ITV Network Centre","contact":{"phone":"+442071566000","formattedPhone":"+44 20 7156 6000"},"location":{"address":"200 Gray's Inn Road","lat":"51.52350197427342","lng":"-0.11433460559065795","distance":"137","postalCode":"WC1X 8HF","cc":"GB","city":"London","state":"Greater London","country":"United Kingdom"},"categories":[{"id":"4bf58dd8d48988d124941735","name":"Office","pluralName":"Offices","shortName":"Office","icon":{"prefix":"https:\/\/ss1.4sqi.net\/img\/categories_v2\/building\/default_","suffix":".png"},"primary":"true"}],"verified":"false","restricted":"true","stats":{"checkinsCount":"2330","usersCount":"338","tipCount":"6"},"url":"http:\/\/www.itv.com","specials":{"count":"0"},"hereNow":{"count":"0"},"referralId":"v-1392477991"},{"id":"4ad45029f964a52091e720e3","name":"Caff\u00e8 Nero","contact":{"phone":"+442078333050","formattedPhone":"+44 20 7833 3050"},"location":{"address":"12 Exmouth Market","lat":"51.52521973645372","lng":"-0.11016368865966797","distance":"210","postalCode":"EC1R 4QE","cc":"GB","city":"London","state":"Greater London","country":"United Kingdom"},"categories":[{"id":"4bf58dd8d48988d1e0931735","name":"Coffee Shop","pluralName":"Coffee Shops","shortName":"Coffee Shop","icon":{"prefix":"https:\/\/ss1.4sqi.net\/img\/categories_v2\/food\/coffeeshop_","suffix":".png"},"primary":"true"}],"verified":"false","restricted":"true","stats":{"checkinsCount":"1115","usersCount":"309","tipCount":"11"},"specials":{"count":"0"},"hereNow":{"count":"0"},"referralId":"v-1392477991"},{"id":"4fd09881e4b0bbb4a4a31341","name":"Royal Mail","location":{"address":"Mount Plesant","lat":"51.52394463033802","lng":"-0.11195961000949946","distance":"69","cc":"GB","city":"London","state":"Greater London","country":"United Kingdom"},"categories":[{"id":"4bf58dd8d48988d172941735","name":"Post Office","pluralName":"Post Offices","shortName":"Post Office","icon":{"prefix":"https:\/\/ss1.4sqi.net\/img\/categories_v2\/building\/postoffice_","suffix":".png"},"primary":"true"}],"verified":"false","restricted":"true","stats":{"checkinsCount":"15","usersCount":"14","tipCount":"0"},"specials":{"count":"0"},"hereNow":{"count":"0"},"referralId":"v-1392477991"},{"id":"50e3eb4fe4b092e9bf06c2e0","name":"RCN London Region","contact":{"phone":"+442078413301","formattedPhone":"+44 20 7841 3301"},"location":{"address":"9th Floor, 236 Gray's Inn Road","lat":"51.524410489138255","lng":"-0.11473546712185033","distance":"134","postalCode":"WC1X 8HL","cc":"GB","city":"London","state":"Greater London","country":"United Kingdom"},"categories":[{"id":"50328a8e91d4c4b30a586d6c","name":"Non-Profit","pluralName":"Non-Profits","shortName":"Non-Profit","icon":{"prefix":"https:\/\/ss1.4sqi.net\/img\/categories_v2\/building\/default_","suffix":".png"},"primary":"true"}],"verified":"false","restricted":"true","stats":{"checkinsCount":"175","usersCount":"5","tipCount":"0"},"specials":{"count":"0"},"hereNow":{"count":"0"},"referralId":"v-1392477991"},{"id":"4acdd211f964a52023cd20e3","name":"The Apple Tree","contact":{"phone":"+442078372365","formattedPhone":"+44 20 7837 2365"},"location":{"address":"45 Mount Pleasant","crossStreet":"at Warner St","lat":"51.5236510466029","lng":"-0.11190176010131836","distance":"94","postalCode":"WC1X 0AE","cc":"GB","city":"London","state":"Greater London","country":"United Kingdom"},"categories":[{"id":"4bf58dd8d48988d11b941735","name":"Pub","pluralName":"Pubs","shortName":"Pub","icon":{"prefix":"https:\/\/ss1.4sqi.net\/img\/categories_v2\/nightlife\/pub_","suffix":".png"},"primary":"true"}],"verified":"false","restricted":"true","stats":{"checkinsCount":"420","usersCount":"191","tipCount":"5"},"specials":{"count":"0"},"hereNow":{"count":"0"},"referralId":"v-1392477991"},{"id":"4ac518d6f964a52044a820e3","name":"Quality Chop House","contact":{"phone":"+442034906228","formattedPhone":"+44 20 3490 6228"},"location":{"address":"94 Farringdon Road","lat":"51.52470221967349","lng":"-0.11022812889912942","distance":"184","postalCode":"EC1R 3EA","cc":"GB","city":"London","state":"Greater London","country":"United Kingdom"},"categories":[{"id":"4bf58dd8d48988d1c4941735","name":"Restaurant","pluralName":"Restaurants","shortName":"Restaurant","icon":{"prefix":"https:\/\/ss1.4sqi.net\/img\/categories_v2\/food\/default_","suffix":".png"},"primary":"true"}],"verified":"false","restricted":"true","stats":{"checkinsCount":"469","usersCount":"346","tipCount":"13"},"url":"http:\/\/thequalitychophouse.com","reservations":{"url":"http:\/\/www.toptable.co.uk\/single.aspx?rid=96150&ref=9601"},"menu":{"type":"Menu","label":"Menu","anchor":"View Menu","url":"https:\/\/foursquare.com\/v\/quality-chop-house\/4ac518d6f964a52044a820e3\/menu","mobileUrl":"https:\/\/foursquare.com\/v\/4ac518d6f964a52044a820e3\/device_menu"},"specials":{"count":"0"},"hereNow":{"count":"0"},"referralId":"v-1392477991"},{"id":"4fb0f0d8e4b0fd09a9f902e0","name":"Dow Jones International","location":{"address":"222 Grays Inn Road","lat":"51.524108244782965","lng":"-0.11409638555305898","distance":"91","cc":"GB","country":"United Kingdom"},"categories":[{"id":"4bf58dd8d48988d124941735","name":"Office","pluralName":"Offices","shortName":"Office","icon":{"prefix":"https:\/\/ss1.4sqi.net\/img\/categories_v2\/building\/default_","suffix":".png"},"primary":"true"}],"verified":"false","restricted":"true","stats":{"checkinsCount":"70","usersCount":"17","tipCount":"0"},"specials":{"count":"0"},"hereNow":{"count":"0"},"referralId":"v-1392477991"},{"id":"51fbb184498ec4c5104994aa","name":"Osper","location":{"address":"8 Warner Yard","lat":"51.523109","lng":"-0.111112","distance":"175","postalCode":"EC1R 5EY","cc":"GB","city":"London","state":"Greater London","country":"United Kingdom"},"categories":[{"id":"4bf58dd8d48988d124941735","name":"Office","pluralName":"Offices","shortName":"Office","icon":{"prefix":"https:\/\/ss1.4sqi.net\/img\/categories_v2\/building\/default_","suffix":".png"},"primary":"true"}],"verified":"false","restricted":"true","stats":{"checkinsCount":"98","usersCount":"1","tipCount":"0"},"specials":{"count":"0"},"hereNow":{"count":"0"},"referralId":"v-1392477991"},{"id":"527cabbd498eca406ed40aed","name":"Yoyo","contact":{"twitter":"justyoyo"},"location":{"address":"8 Warner Yard","lat":"51.52311701219601","lng":"-0.11109709739685059","distance":"176","postalCode":"EC1R 5EY","cc":"GB","city":"London","state":"Greater London","country":"United Kingdom"},"categories":[{"id":"4bf58dd8d48988d125941735","name":"Tech Startup","pluralName":"Tech Startups","shortName":"Tech Startup","icon":{"prefix":"https:\/\/ss1.4sqi.net\/img\/categories_v2\/shops\/technology_","suffix":".png"},"primary":"true"}],"verified":"false","restricted":"true","stats":{"checkinsCount":"31","usersCount":"4","tipCount":"0"},"specials":{"count":"0"},"hereNow":{"count":"0"},"referralId":"v-1392477991"},{"id":"4fc0ad20e4b0519068593755","name":"Rosebery Court","location":{"address":"Rosebery Avenue","lat":"51.52404945579773","lng":"-0.11102422169579543","distance":"126","cc":"GB","city":"London","state":"Greater London","country":"United Kingdom"},"categories":[{"id":"4d954b06a243a5684965b473","name":"Residential Building (Apartment \/ Condo)","pluralName":"Residential Buildings (Apartments \/ Condos)","shortName":"Residential","icon":{"prefix":"https:\/\/ss1.4sqi.net\/img\/categories_v2\/building\/apartment_","suffix":".png"},"primary":"true"}],"verified":"false","restricted":"true","stats":{"checkinsCount":"149","usersCount":"16","tipCount":"0"},"specials":{"count":"0"},"hereNow":{"count":"0"},"referralId":"v-1392477991"},{"id":"5079a718e4b0602b62a7f0f6","name":"Kalbi","contact":{"phone":"+442072780008","formattedPhone":"+44 20 7278 0008"},"location":{"address":"35 Rosebery Avenue","lat":"51.52431125988891","lng":"-0.11089843435654947","distance":"131","postalCode":"EC1R 5HP","cc":"GB","city":"London","state":"Greater London","country":"United Kingdom"},"categories":[{"id":"4bf58dd8d48988d113941735","name":"Korean Restaurant","pluralName":"Korean Restaurants","shortName":"Korean","icon":{"prefix":"https:\/\/ss1.4sqi.net\/img\/categories_v2\/food\/korean_","suffix":".png"},"primary":"true"}],"verified":"false","restricted":"true","stats":{"checkinsCount":"94","usersCount":"80","tipCount":"1"},"specials":{"count":"0"},"hereNow":{"count":"0"},"referralId":"v-1392477991"},{"id":"4bea6a4ab3352d7f412555d2","name":"Springer Science + Business Media","location":{"address":"236 Grays Inn Road","lat":"51.523759221315125","lng":"-0.1149101865409399","distance":"157","cc":"GB","city":"Camden Town","state":"Greater London","country":"United Kingdom"},"categories":[{"id":"4bf58dd8d48988d124941735","name":"Office","pluralName":"Offices","shortName":"Office","icon":{"prefix":"https:\/\/ss1.4sqi.net\/img\/categories_v2\/building\/default_","suffix":".png"},"primary":"true"}],"verified":"false","restricted":"true","stats":{"checkinsCount":"374","usersCount":"46","tipCount":"0"},"specials":{"count":"0"},"hereNow":{"count":"0"},"referralId":"v-1392477991"},{"id":"4c23765d13c00f47480c89de","name":"Mount Pleasant Studio","contact":{"phone":"+442078371957","formattedPhone":"+44 20 7837 1957"},"location":{"address":"51-53 Mount Pleasant","lat":"51.52336040028353","lng":"-0.11257725370846394","distance":"104","postalCode":"WC1X 0AE","cc":"GB","city":"London","state":"Greater London","country":"United Kingdom"},"categories":[{"id":"4bf58dd8d48988d124941735","name":"Office","pluralName":"Offices","shortName":"Office","icon":{"prefix":"https:\/\/ss1.4sqi.net\/img\/categories_v2\/building\/default_","suffix":".png"},"primary":"true"}],"verified":"false","restricted":"true","stats":{"checkinsCount":"44","usersCount":"29","tipCount":"0"},"specials":{"count":"0"},"hereNow":{"count":"0"},"referralId":"v-1392477991"},{"id":"4ace09d2f964a52004ce20e3","name":"Blue Lion","location":{"address":"133 Grays Inn Rd","lat":"51.52401432095272","lng":"-0.11570460194369038","distance":"203","cc":"GB","city":"London","state":"Greater London","country":"United Kingdom"},"categories":[{"id":"4bf58dd8d48988d11b941735","name":"Pub","pluralName":"Pubs","shortName":"Pub","icon":{"prefix":"https:\/\/ss1.4sqi.net\/img\/categories_v2\/nightlife\/pub_","suffix":".png"},"primary":"true"}],"verified":"false","restricted":"true","stats":{"checkinsCount":"1160","usersCount":"390","tipCount":"13"},"specials":{"count":"0"},"hereNow":{"count":"0"},"referralId":"v-1392477991"},{"id":"4cd1568901eaf04d3ca4bd5d","name":"Costa Coffee","location":{"address":"111 Guildford Street","crossStreet":"Grays Inn Road","lat":"51.52436821282439","lng":"-0.11596402795297059","distance":"219","postalCode":"WC1N 1DP","cc":"GB","city":"London","state":"Greater London","country":"United Kingdom"},"categories":[{"id":"4bf58dd8d48988d1e0931735","name":"Coffee Shop","pluralName":"Coffee Shops","shortName":"Coffee Shop","icon":{"prefix":"https:\/\/ss1.4sqi.net\/img\/categories_v2\/food\/coffeeshop_","suffix":".png"},"primary":"true"}],"verified":"false","restricted":"true","stats":{"checkinsCount":"1046","usersCount":"317","tipCount":"6"},"specials":{"count":"0"},"hereNow":{"count":"0"},"referralId":"v-1392477991"},{"id":"4c4b262e46240f47666ceff2","name":"Little Bay Clerkenwell","contact":{"phone":"+442072781234","formattedPhone":"+44 20 7278 1234","twitter":"thelittlebay"},"location":{"address":"171 Farringdon Rd.","crossStreet":"Roseberry Ave","lat":"51.52466615790491","lng":"-0.1102111239199421","distance":"184","postalCode":"EC1R 3AL","cc":"GB","city":"Farringdon","state":"Greater London","country":"United Kingdom"},"categories":[{"id":"4bf58dd8d48988d109941735","name":"Eastern European Restaurant","pluralName":"Eastern European Restaurants","shortName":"Eastern European","icon":{"prefix":"https:\/\/ss1.4sqi.net\/img\/categories_v2\/food\/default_","suffix":".png"},"primary":"true"}],"verified":"false","restricted":"true","stats":{"checkinsCount":"500","usersCount":"334","tipCount":"22"},"url":"http:\/\/www.littlebay.co.uk","menu":{"type":"Menu","label":"Menu","anchor":"View Menu","url":"https:\/\/foursquare.com\/v\/little-bay-clerkenwell\/4c4b262e46240f47666ceff2\/menu","mobileUrl":"https:\/\/foursquare.com\/v\/4c4b262e46240f47666ceff2\/device_menu"},"specials":{"count":"0"},"hereNow":{"count":"0"},"referralId":"v-1392477991"},{"id":"51e541cd498e60b5d93ccee9","name":"Royal Mail","location":{"address":"185 Farringdon Rd","lat":"51.525277","lng":"-0.110951","distance":"168","cc":"GB","country":"United Kingdom"},"categories":[{"id":"4bf58dd8d48988d172941735","name":"Post Office","pluralName":"Post Offices","shortName":"Post Office","icon":{"prefix":"https:\/\/ss1.4sqi.net\/img\/categories_v2\/building\/postoffice_","suffix":".png"},"primary":"true"}],"verified":"false","restricted":"true","stats":{"checkinsCount":"45","usersCount":"19","tipCount":"0"},"specials":{"count":"0"},"hereNow":{"count":"0"},"referralId":"v-1392477991"},{"id":"4e857bf11081ccf253a1f4aa","name":"ITV Technology, Platforms and Business Delivery","contact":{"twitter":"itvtechnology"},"location":{"address":"200 Gray's Inn Road","lat":"51.52339738093867","lng":"-0.11447131601016736","distance":"152","postalCode":"WC1X 8HF","cc":"GB","city":"London","state":"Greater London","country":"United Kingdom"},"categories":[{"id":"4bf58dd8d48988d124941735","name":"Office","pluralName":"Offices","shortName":"Office","icon":{"prefix":"https:\/\/ss1.4sqi.net\/img\/categories_v2\/building\/default_","suffix":".png"},"primary":"true"}],"verified":"false","restricted":"true","stats":{"checkinsCount":"651","usersCount":"76","tipCount":"1"},"specials":{"count":"0"},"hereNow":{"count":"0"},"referralId":"v-1392477991"},{"id":"51c44b74498ed63471eedb68","name":"Iptvbeat UK Hq","contact":{"twitter":"iptvbeat"},"location":{"address":"8 Warner Yard","lat":"51.52305221557617","lng":"-0.11111240088939667","distance":"180","cc":"GB","city":"London","state":"Greater London","country":"United Kingdom"},"categories":[{"id":"4bf58dd8d48988d125941735","name":"Tech Startup","pluralName":"Tech Startups","shortName":"Tech Startup","icon":{"prefix":"https:\/\/ss1.4sqi.net\/img\/categories_v2\/shops\/technology_","suffix":".png"},"primary":"true"}],"verified":"false","restricted":"true","stats":{"checkinsCount":"62","usersCount":"3","tipCount":"0"},"specials":{"count":"0"},"hereNow":{"count":"0"},"referralId":"v-1392477991"},{"id":"51f9139c498e34b764814331","name":"Drivr UK HQ","contact":{"twitter":"drivr_uk"},"location":{"address":"8 Warner Yard","crossStreet":"Warner Street","lat":"51.523089","lng":"-0.111062","distance":"179","postalCode":"EC1R 5EY","cc":"GB","city":"London","state":"Greater London","country":"United Kingdom"},"categories":[{"id":"4bf58dd8d48988d125941735","name":"Tech Startup","pluralName":"Tech Startups","shortName":"Tech Startup","icon":{"prefix":"https:\/\/ss1.4sqi.net\/img\/categories_v2\/shops\/technology_","suffix":".png"},"primary":"true"}],"verified":"false","restricted":"true","stats":{"checkinsCount":"159","usersCount":"7","tipCount":"1"},"specials":{"count":"0"},"hereNow":{"count":"0"},"referralId":"v-1392477991"}],"confident":"false"}}