{"meta":{"code":"200"},"response":{"venues":[{"id":"4ac518cef964a520fca520e3","name":"Madame Tussauds","contact":{"phone":"+448718943000","formattedPhone":"+44 871 894 3000","twitter":"tussaudslondon"},"location":{"address":"Marylebone Rd","lat":"51.52281301708984","lng":"-0.15535998877990853","distance":"241","postalCode":"NW1 5LR","cc":"GB","city":"Marylebone","state":"Greater London","country":"United Kingdom"},"categories":[{"id":"4bf58dd8d48988d181941735","name":"Museum","pluralName":"Museums","shortName":"Museum","icon":{"prefix":"https:\/\/ss1.4sqi.net\/img\/categories_v2\/arts_entertainment\/museum_","suffix":".png"},"primary":"true"}],"verified":"false","restricted":"true","stats":{"checkinsCount":"15630","usersCount":"14173","tipCount":"207"},"url":"http:\/\/www.madametussauds.com\/london\/","specials":{"count":"0"},"hereNow":{"count":"5","groups":[{"type":"others","name":"Other people here","count":"5"}]},"referralId":"v-1392477987"},{"id":"504b7889e4b03691166730e7","name":"York Bridge","location":{"address":"Regent's Park","lat":"51.524125703326106","lng":"-0.15291200541545014","distance":"19","postalCode":"NW1","cc":"GB","city":"London","state":"Greater London","country":"United Kingdom"},"categories":[{"id":"4bf58dd8d48988d1df941735","name":"Bridge","pluralName":"Bridges","shortName":"Bridge","icon":{"prefix":"https:\/\/ss1.4sqi.net\/img\/categories_v2\/parks_outdoors\/bridge_","suffix":".png"},"primary":"true"}],"verified":"false","restricted":"true","stats":{"checkinsCount":"31","usersCount":"28","tipCount":"0"},"specials":{"count":"0"},"hereNow":{"count":"0"},"referralId":"v-1392477987"},{"id":"4ad328e2f964a52041e320e3","name":"Regent's University London","contact":{"phone":"+442074877700","formattedPhone":"+44 20 7487 7700","twitter":"regentsuni","facebook":"13605357263"},"location":{"address":"1 Inner Circle","crossStreet":"Regent's Park","lat":"51.52574989415476","lng":"-0.1554781118405527","distance":"246","postalCode":"NW1 4NS","cc":"GB","city":"London","state":"Greater London","country":"United Kingdom"},"categories":[{"id":"4bf58dd8d48988d1ae941735","name":"University","pluralName":"Universities","shortName":"University","icon":{"prefix":"https:\/\/ss1.4sqi.net\/img\/categories_v2\/education\/default_","suffix":".png"},"primary":"true"}],"verified":"true","restricted":"true","stats":{"checkinsCount":"8665","usersCount":"1050","tipCount":"13"},"url":"http:\/\/www.regents.ac.uk","specials":{"count":"0"},"hereNow":{"count":"1","groups":[{"type":"others","name":"Other people here","count":"1"}]},"venuePage":{"id":"46269852"},"storeId":"","referralId":"v-1392477987"},{"id":"4aeea86af964a52022d421e3","name":"University of Westminster","location":{"address":"35 Marylebone Rd","lat":"51.522233418346545","lng":"-0.155184297670756","distance":"282","cc":"GB","city":"City of Westminster","state":"Greater London","country":"United Kingdom"},"categories":[{"id":"4bf58dd8d48988d1ae941735","name":"University","pluralName":"Universities","shortName":"University","icon":{"prefix":"https:\/\/ss1.4sqi.net\/img\/categories_v2\/education\/default_","suffix":".png"},"primary":"true"}],"verified":"false","restricted":"true","stats":{"checkinsCount":"5752","usersCount":"1005","tipCount":"8"},"specials":{"count":"0"},"hereNow":{"count":"0"},"referralId":"v-1392477987"},{"id":"4ad39199f964a520f9e420e3","name":"The Conran Shop","contact":{"phone":"+442077232223","formattedPhone":"+44 20 7723 2223"},"location":{"address":"55-57 Marylebone High St","lat":"51.52224843755564","lng":"-0.15147538863248658","distance":"245","postalCode":"W1U 5HS","cc":"GB","city":"Marylebone","state":"Greater London","country":"United Kingdom"},"categories":[{"id":"4bf58dd8d48988d1f8941735","name":"Furniture \/ Home Store","pluralName":"Furniture \/ Home Stores","shortName":"Furniture \/ Home","icon":{"prefix":"https:\/\/ss1.4sqi.net\/img\/categories_v2\/shops\/furniture_","suffix":".png"},"primary":"true"}],"verified":"false","restricted":"true","stats":{"checkinsCount":"702","usersCount":"482","tipCount":"11"},"url":"http:\/\/www.conranshop.co.uk","specials":{"count":"0"},"hereNow":{"count":"0"},"referralId":"v-1392477987"},{"id":"4bd43b7aa8b3a593196a6b5f","name":"Royal Academy of Music","contact":{"phone":"+442078737373","formattedPhone":"+44 20 7873 7373","twitter":"royalacadmusic"},"location":{"address":"Marylebone Rd.","lat":"51.523337302147745","lng":"-0.151636004447937","distance":"133","postalCode":"NW1 5HT","cc":"GB","city":"London","state":"Greater London","country":"United Kingdom"},"categories":[{"id":"4bf58dd8d48988d1ae941735","name":"University","pluralName":"Universities","shortName":"University","icon":{"prefix":"https:\/\/ss1.4sqi.net\/img\/categories_v2\/education\/default_","suffix":".png"},"primary":"true"}],"verified":"false","restricted":"true","stats":{"checkinsCount":"881","usersCount":"448","tipCount":"5"},"url":"http:\/\/www.ram.ac.uk","specials":{"count":"0"},"hereNow":{"count":"0"},"referralId":"v-1392477987"},{"id":"4e7a262514954a343fb92b4d","name":"Mary Trevelyan Hall, International Students House","location":{"address":"10 York Terrace E., Paddington","lat":"51.52393808750874","lng":"-0.15168428421020508","distance":"86","postalCode":"NW1 4PT","cc":"GB","city":"Greater London","state":"Greater London","country":"United Kingdom"},"categories":[{"id":"4bf58dd8d48988d130941735","name":"Building","pluralName":"Buildings","shortName":"Building","icon":{"prefix":"https:\/\/ss1.4sqi.net\/img\/categories_v2\/building\/default_","suffix":".png"},"primary":"true"}],"verified":"false","restricted":"true","stats":{"checkinsCount":"601","usersCount":"61","tipCount":"0"},"specials":{"count":"0"},"hereNow":{"count":"0"},"referralId":"v-1392477987"},{"id":"4bfd101a4cf820a180d8ebf4","name":"Regent's Park Tennis Courts","location":{"address":"Tennis Centre (Inner Circle)","lat":"51.52557409477153","lng":"-0.15347974755752875","distance":"150","cc":"GB","city":"London","state":"Greater London","country":"United Kingdom"},"categories":[{"id":"4e39a956bd410d7aed40cbc3","name":"Tennis Court","pluralName":"Tennis Courts","shortName":"Tennis Court","icon":{"prefix":"https:\/\/ss1.4sqi.net\/img\/categories_v2\/arts_entertainment\/stadium_tennis_","suffix":".png"},"primary":"true"}],"verified":"false","restricted":"true","stats":{"checkinsCount":"519","usersCount":"268","tipCount":"3"},"specials":{"count":"0"},"hereNow":{"count":"0"},"referralId":"v-1392477987"},{"id":"4c0e463fd64c0f4763de275d","name":"Westminster Business School","contact":{"phone":"+442079115000","formattedPhone":"+44 20 7911 5000"},"location":{"address":"University of Westminster","crossStreet":"35 Marylebone Rd","lat":"51.52235567139063","lng":"-0.15570824211707288","distance":"294","postalCode":"NW1 5LS","cc":"GB","city":"London","state":"Greater London","country":"United Kingdom"},"categories":[{"id":"4bf58dd8d48988d1ae941735","name":"University","pluralName":"Universities","shortName":"University","icon":{"prefix":"https:\/\/ss1.4sqi.net\/img\/categories_v2\/education\/default_","suffix":".png"},"primary":"true"}],"verified":"false","restricted":"true","stats":{"checkinsCount":"2990","usersCount":"341","tipCount":"1"},"url":"http:\/\/www.westminster.ac.uk","specials":{"count":"0"},"hereNow":{"count":"0"},"referralId":"v-1392477987"},{"id":"4cfe9c892432a0934282161a","name":"Rotary In London HQ","location":{"address":"6 York Gate","lat":"51.523859","lng":"-0.152636","distance":"49","postalCode":"NW1 4QG","cc":"GB","city":"London","state":"Greater London","country":"United Kingdom"},"categories":[{"id":"4bf58dd8d48988d124941735","name":"Office","pluralName":"Offices","shortName":"Office","icon":{"prefix":"https:\/\/ss1.4sqi.net\/img\/categories_v2\/building\/default_","suffix":".png"},"primary":"true"}],"verified":"false","restricted":"true","stats":{"checkinsCount":"43","usersCount":"16","tipCount":"1"},"specials":{"count":"0"},"hereNow":{"count":"0"},"referralId":"v-1392477987"},{"id":"50b0a6d2e4b0e7b98f21a856","name":"Nottingham Terrace","location":{"lat":"51.52324631489954","lng":"-0.15396796115014866","distance":"141","cc":"GB","country":"United Kingdom"},"categories":[{"id":"4d954b06a243a5684965b473","name":"Residential Building (Apartment \/ Condo)","pluralName":"Residential Buildings (Apartments \/ Condos)","shortName":"Residential","icon":{"prefix":"https:\/\/ss1.4sqi.net\/img\/categories_v2\/building\/apartment_","suffix":".png"},"primary":"true"}],"verified":"false","restricted":"true","stats":{"checkinsCount":"105","usersCount":"21","tipCount":"0"},"specials":{"count":"0"},"hereNow":{"count":"1","groups":[{"type":"others","name":"Other people here","count":"1"}]},"referralId":"v-1392477987"},{"id":"4d53fc975b3f6dcb1504dacc","name":"Tate Library","location":{"address":"Regent's College","crossStreet":"Inner Circle","lat":"51.525353239477596","lng":"-0.15488147735595703","distance":"186","postalCode":"NW1 4NS","cc":"GB","city":"London","state":"Greater London","country":"United Kingdom"},"categories":[{"id":"4bf58dd8d48988d1a7941735","name":"College Library","pluralName":"College Libraries","shortName":"Library","icon":{"prefix":"https:\/\/ss1.4sqi.net\/img\/categories_v2\/building\/library_","suffix":".png"},"primary":"true"}],"verified":"false","restricted":"true","stats":{"checkinsCount":"849","usersCount":"141","tipCount":"1"},"specials":{"count":"0"},"hereNow":{"count":"0"},"referralId":"v-1392477987"},{"id":"4beaaf7f6295c9b690ae8608","name":"The London Clinic","location":{"address":"Harley Street","lat":"51.52303017933132","lng":"-0.14985634230315897","distance":"247","cc":"GB","city":"London","state":"Greater London","country":"United Kingdom"},"categories":[{"id":"4bf58dd8d48988d196941735","name":"Hospital","pluralName":"Hospitals","shortName":"Hospital","icon":{"prefix":"https:\/\/ss1.4sqi.net\/img\/categories_v2\/building\/medical_hospital_","suffix":".png"},"primary":"true"}],"verified":"false","restricted":"true","stats":{"checkinsCount":"973","usersCount":"394","tipCount":"6"},"specials":{"count":"0"},"hereNow":{"count":"0"},"referralId":"v-1392477987"},{"id":"4b7023a6f964a52089082de3","name":"The Princess Grace Hospital","contact":{"phone":"+442074861234","formattedPhone":"+44 20 7486 1234"},"location":{"address":"42-52 Nottingham Pl.","lat":"51.52266717481912","lng":"-0.15321978198882316","distance":"182","postalCode":"W1U 5NY","cc":"GB","city":"Paddington","state":"Greater London","country":"United Kingdom"},"categories":[{"id":"4bf58dd8d48988d196941735","name":"Hospital","pluralName":"Hospitals","shortName":"Hospital","icon":{"prefix":"https:\/\/ss1.4sqi.net\/img\/categories_v2\/building\/medical_hospital_","suffix":".png"},"primary":"true"}],"verified":"false","restricted":"true","stats":{"checkinsCount":"362","usersCount":"225","tipCount":"5"},"specials":{"count":"0"},"hereNow":{"count":"0"},"referralId":"v-1392477987"},{"id":"4ac518d7f964a5206ea820e3","name":"Orrery","contact":{"phone":"+442076168000","formattedPhone":"+44 20 7616 8000","twitter":"danddlondon"},"location":{"address":"55 Marylebone High Street","lat":"51.5222280504748","lng":"-0.1513603091990698","distance":"250","postalCode":"W1U 5RB","cc":"GB","city":"London","state":"Greater London","country":"United Kingdom"},"categories":[{"id":"4bf58dd8d48988d10c941735","name":"French Restaurant","pluralName":"French Restaurants","shortName":"French","icon":{"prefix":"https:\/\/ss1.4sqi.net\/img\/categories_v2\/food\/french_","suffix":".png"},"primary":"true"}],"verified":"true","restricted":"true","stats":{"checkinsCount":"550","usersCount":"445","tipCount":"18"},"url":"http:\/\/www.orrery-restaurant.co.uk","reservations":{"url":"http:\/\/www.toptable.co.uk\/single.aspx?rid=80029&ref=9601"},"menu":{"type":"Menu","label":"Menu","anchor":"View Menu","url":"https:\/\/foursquare.com\/v\/orrery-london-uk\/4ac518d7f964a5206ea820e3\/menu","mobileUrl":"https:\/\/foursquare.com\/v\/4ac518d7f964a5206ea820e3\/device_menu"},"specials":{"count":"0"},"hereNow":{"count":"0"},"storeId":"","referralId":"v-1392477987"},{"id":"4f1ecdabe4b0d881fd9aea0b","name":"Library @ Westminster Business School","location":{"address":"35 Marylebone Road","lat":"51.52214710500865","lng":"-0.15463674949573047","distance":"270","cc":"GB","city":"London","state":"Greater London","country":"United Kingdom"},"categories":[{"id":"4bf58dd8d48988d1a7941735","name":"College Library","pluralName":"College Libraries","shortName":"Library","icon":{"prefix":"https:\/\/ss1.4sqi.net\/img\/categories_v2\/building\/library_","suffix":".png"},"primary":"true"}],"verified":"false","restricted":"true","stats":{"checkinsCount":"499","usersCount":"95","tipCount":"4"},"specials":{"count":"0"},"hereNow":{"count":"0"},"referralId":"v-1392477987"},{"id":"4ea539bd6da1455cad8143a1","name":"York Gate","location":{"address":"York Gate Collections, Marylebone Rd, Paddington, Greater London NW1 5","lat":"51.524669325890926","lng":"-0.15403949471776013","distance":"95","postalCode":"NW1 5","cc":"GB","city":"Paddington","state":"Greater London","country":"United Kingdom"},"categories":[{"id":"4bf58dd8d48988d163941735","name":"Park","pluralName":"Parks","shortName":"Park","icon":{"prefix":"https:\/\/ss1.4sqi.net\/img\/categories_v2\/parks_outdoors\/park_","suffix":".png"},"primary":"true"}],"verified":"false","restricted":"true","stats":{"checkinsCount":"11","usersCount":"11","tipCount":"0"},"specials":{"count":"0"},"hereNow":{"count":"0"},"referralId":"v-1392477987"},{"id":"4bfaacae4a67c928039728cf","name":"Caff\u00e8 Nero @ Madame Tussauds","location":{"lat":"51.522796","lng":"-0.15564","distance":"257","cc":"GB","country":"United Kingdom"},"categories":[{"id":"4bf58dd8d48988d16d941735","name":"Caf\u00e9","pluralName":"Caf\u00e9s","shortName":"Caf\u00e9","icon":{"prefix":"https:\/\/ss1.4sqi.net\/img\/categories_v2\/food\/cafe_","suffix":".png"},"primary":"true"}],"verified":"false","restricted":"true","stats":{"checkinsCount":"449","usersCount":"357","tipCount":"3"},"specials":{"count":"0"},"hereNow":{"count":"0"},"referralId":"v-1392477987"},{"id":"505b1354e4b0b47e0cb4b3f3","name":"Tuke Hall","location":{"lat":"51.52554451710324","lng":"-0.155467015799831","distance":"231","cc":"GB","country":"United Kingdom"},"categories":[{"id":"4bf58dd8d48988d198941735","name":"College Academic Building","pluralName":"College Academic Buildings","shortName":"Academic Building","icon":{"prefix":"https:\/\/ss1.4sqi.net\/img\/categories_v2\/education\/academicbuilding_","suffix":".png"},"primary":"true"}],"verified":"false","restricted":"true","stats":{"checkinsCount":"133","usersCount":"27","tipCount":"0"},"specials":{"count":"0"},"hereNow":{"count":"0"},"referralId":"v-1392477987"},{"id":"51bc69fc498e51f039f0e117","name":"Regent's College","location":{"lat":"51.52458554966336","lng":"-0.15306462886244596","distance":"37","cc":"GB","country":"United Kingdom"},"categories":[{"id":"4bf58dd8d48988d19e941735","name":"College Engineering Building","pluralName":"College Engineering Buildings","shortName":"Engineering","icon":{"prefix":"https:\/\/ss1.4sqi.net\/img\/categories_v2\/education\/collegeacademicbuildings_engineering_","suffix":".png"},"primary":"true"}],"verified":"false","restricted":"true","stats":{"checkinsCount":"3","usersCount":"3","tipCount":"0"},"specials":{"count":"0"},"hereNow":{"count":"0"},"referralId":"v-1392477987"},{"id":"512bb235e4b04df751e037c8","name":"Research Center (School Of Architecture And The Built Environment)","location":{"address":"6th Floor - 35 Marylebone Road","lat":"51.522542","lng":"-0.154922","distance":"243","postalCode":"NW1 5LS","cc":"GB","city":"London","state":"Greater London","country":"United Kingdom"},"categories":[{"id":"4bf58dd8d48988d1a0941735","name":"College Classroom","pluralName":"College Classrooms","shortName":"Classroom","icon":{"prefix":"https:\/\/ss1.4sqi.net\/img\/categories_v2\/education\/classroom_","suffix":".png"},"primary":"true"}],"verified":"false","restricted":"true","stats":{"checkinsCount":"33","usersCount":"2","tipCount":"0"},"specials":{"count":"0"},"hereNow":{"count":"0"},"referralId":"v-1392477987"},{"id":"509a6052e4b01cd804e2a6e7","name":"latvian embassy in london","location":{"address":"45 Nottingham place","lat":"51.522415370995844","lng":"-0.1534007341860123","distance":"212","cc":"GB","city":"London","state":"Greater London","country":"United Kingdom"},"categories":[{"id":"4bf58dd8d48988d126941735","name":"Government Building","pluralName":"Government Buildings","shortName":"Government","icon":{"prefix":"https:\/\/ss1.4sqi.net\/img\/categories_v2\/building\/government_","suffix":".png"},"primary":"true"}],"verified":"false","restricted":"true","stats":{"checkinsCount":"23","usersCount":"19","tipCount":"0"},"specials":{"count":"0"},"hereNow":{"count":"0"},"referralId":"v-1392477987"},{"id":"4df895052271607ac9184065","name":"Costa Coffee (UoW)","location":{"address":"35 Marylebone Rd","lat":"51.52259303415855","lng":"-0.15507586496731704","distance":"245","postalCode":"NW1 5LS","cc":"GB","country":"United Kingdom"},"categories":[{"id":"4bf58dd8d48988d1e0931735","name":"Coffee Shop","pluralName":"Coffee Shops","shortName":"Coffee Shop","icon":{"prefix":"https:\/\/ss1.4sqi.net\/img\/categories_v2\/food\/coffeeshop_","suffix":".png"},"primary":"true"}],"verified":"false","restricted":"true","stats":{"checkinsCount":"52","usersCount":"23","tipCount":"0"},"specials":{"count":"0"},"hereNow":{"count":"0"},"referralId":"v-1392477987"},{"id":"4e71ef8a1495e4ca14126b50","name":"Regents College Refectory","location":{"lat":"51.526129556868895","lng":"-0.15540132465221967","distance":"272","cc":"GB","city":"Paddington","state":"Greater London","country":"United Kingdom"},"categories":[{"id":"4bf58dd8d48988d1a1941735","name":"College Cafeteria","pluralName":"College Cafeterias","shortName":"Cafeteria","icon":{"prefix":"https:\/\/ss1.4sqi.net\/img\/categories_v2\/education\/cafeteria_","suffix":".png"},"primary":"true"}],"verified":"false","restricted":"true","stats":{"checkinsCount":"438","usersCount":"86","tipCount":"1"},"specials":{"count":"0"},"hereNow":{"count":"0"},"referralId":"v-1392477987"},{"id":"4d64e4254e1ea1cde3b349b9","name":"The London Clinic","contact":{"phone":"+442079354444","formattedPhone":"+44 20 7935 4444"},"location":{"address":"Devonshire Pl.","lat":"51.52270961877563","lng":"-0.14993402632265104","distance":"265","postalCode":"W1G 6HE","cc":"GB","city":"London","state":"Greater London","country":"United Kingdom"},"categories":[{"id":"4bf58dd8d48988d177941735","name":"Doctor's Office","pluralName":"Doctor's Offices","shortName":"Doctor's Office","icon":{"prefix":"https:\/\/ss1.4sqi.net\/img\/categories_v2\/building\/medical_doctorsoffice_","suffix":".png"},"primary":"true"}],"verified":"false","restricted":"true","stats":{"checkinsCount":"170","usersCount":"99","tipCount":"1"},"url":"http:\/\/www.thelondonclinic.co.uk","specials":{"count":"0"},"hereNow":{"count":"0"},"referralId":"v-1392477987"},{"id":"4f9fe7dae4b00e264a6f5604","name":"Farley Court","location":{"lat":"51.523038491955425","lng":"-0.15579720781922932","distance":"249","cc":"GB","country":"United Kingdom"},"categories":[{"id":"4d954b06a243a5684965b473","name":"Residential Building (Apartment \/ Condo)","pluralName":"Residential Buildings (Apartments \/ Condos)","shortName":"Residential","icon":{"prefix":"https:\/\/ss1.4sqi.net\/img\/categories_v2\/building\/apartment_","suffix":".png"},"primary":"true"}],"verified":"false","restricted":"true","stats":{"checkinsCount":"66","usersCount":"14","tipCount":"0"},"specials":{"count":"0"},"hereNow":{"count":"0"},"referralId":"v-1392477987"},{"id":"4d35889feefa8cfad85555b3","name":"SKOLA International Community School","location":{"lat":"51.52369449203036","lng":"-0.15212820952221193","distance":"81","cc":"GB","country":"United Kingdom"},"categories":[{"id":"4bf58dd8d48988d13b941735","name":"School","pluralName":"Schools","shortName":"School","icon":{"prefix":"https:\/\/ss1.4sqi.net\/img\/categories_v2\/building\/school_","suffix":".png"},"primary":"true"}],"verified":"false","restricted":"true","stats":{"checkinsCount":"143","usersCount":"33","tipCount":"0"},"specials":{"count":"0"},"hereNow":{"count":"0"},"referralId":"v-1392477987"},{"id":"51e66f8c498e72c2cd47347e","name":"Regent's Smoking Area","location":{"lat":"51.52577073396218","lng":"-0.15520188381270375","distance":"234","cc":"GB","country":"United Kingdom"},"categories":[{"id":"4bf58dd8d48988d160941735","name":"Hot Spring","pluralName":"Hot Springs","shortName":"Hot Spring","icon":{"prefix":"https:\/\/ss1.4sqi.net\/img\/categories_v2\/parks_outdoors\/hotspring_","suffix":".png"},"primary":"true"}],"verified":"false","restricted":"true","stats":{"checkinsCount":"41","usersCount":"7","tipCount":"0"},"specials":{"count":"0"},"hereNow":{"count":"0"},"referralId":"v-1392477987"},{"id":"4c0b8ff6340720a199458893","name":"Camden Green Fair","location":{"address":"Regent's Park","lat":"51.524074864020626","lng":"-0.14787555270775124","distance":"342","cc":"GB","city":"City of Westminster","state":"Greater London","country":"United Kingdom"},"categories":[{"id":"4bf58dd8d48988d162941735","name":"Other Great Outdoors","pluralName":"Other Great Outdoors","shortName":"Other Outdoors","icon":{"prefix":"https:\/\/ss1.4sqi.net\/img\/categories_v2\/parks_outdoors\/outdoors_","suffix":".png"},"primary":"true"}],"verified":"false","restricted":"true","stats":{"checkinsCount":"12","usersCount":"12","tipCount":"0"},"specials":{"count":"0"},"hereNow":{"count":"0"},"referralId":"v-1392477987"},{"id":"51c46b33498e570eaf840048","name":"St Marylebone School","location":{"lat":"51.52199170442026","lng":"-0.1516014606580033","distance":"268","cc":"GB","country":"United Kingdom"},"categories":[{"id":"4bf58dd8d48988d13b941735","name":"School","pluralName":"Schools","shortName":"School","icon":{"prefix":"https:\/\/ss1.4sqi.net\/img\/categories_v2\/building\/school_","suffix":".png"},"primary":"true"}],"verified":"false","restricted":"true","stats":{"checkinsCount":"78","usersCount":"9","tipCount":"0"},"specials":{"count":"0"},"hereNow":{"count":"0"},"referralId":"v-1392477987"}],"confident":"false"}}