{"meta":{"code":"200"},"response":{"venues":[{"id":"4cc1b001ed0337047519b023","name":"Westland","contact":{"phone":"+442077398094","formattedPhone":"+44 20 7739 8094"},"location":{"address":"72 Leonard St.","lat":"51.524529661553345","lng":"-0.08279684359401207","distance":"26","postalCode":"EC2A 4QX","cc":"GB","city":"Shoreditch","state":"Greater London","country":"United Kingdom"},"categories":[{"id":"4bf58dd8d48988d1e2931735","name":"Art Gallery","pluralName":"Art Galleries","shortName":"Art Gallery","icon":{"prefix":"https:\/\/ss1.4sqi.net\/img\/categories_v2\/arts_entertainment\/artgallery_","suffix":".png"},"primary":"true"}],"verified":"false","restricted":"true","stats":{"checkinsCount":"36","usersCount":"29","tipCount":"1"},"url":"http:\/\/www.westlandlondon.com","specials":{"count":"0"},"hereNow":{"count":"1","groups":[{"type":"others","name":"Other people here","count":"1"}]},"referralId":"v-1392477994"},{"id":"4acefee0f964a5203ad220e3","name":"The Book Club","contact":{"phone":"+442076848618","formattedPhone":"+44 20 7684 8618","twitter":"thebookclubec2"},"location":{"address":"100-106 Leonard St.","lat":"51.52484379645783","lng":"-0.08147769039349043","distance":"110","postalCode":"EC2A 4RH","cc":"GB","city":"Shoreditch","state":"Greater London","country":"United Kingdom"},"categories":[{"id":"4bf58dd8d48988d116941735","name":"Bar","pluralName":"Bars","shortName":"Bar","icon":{"prefix":"https:\/\/ss1.4sqi.net\/img\/categories_v2\/nightlife\/bar_","suffix":".png"},"primary":"true"}],"verified":"false","restricted":"true","stats":{"checkinsCount":"9520","usersCount":"5347","tipCount":"130"},"url":"http:\/\/www.wearetbc.com","menu":{"type":"Menu","label":"Menu","anchor":"View Menu","url":"https:\/\/foursquare.com\/v\/the-book-club\/4acefee0f964a5203ad220e3\/menu","mobileUrl":"https:\/\/foursquare.com\/v\/4acefee0f964a5203ad220e3\/device_menu"},"specials":{"count":"0"},"hereNow":{"count":"0"},"referralId":"v-1392477994"},{"id":"4c59420bb05c1b8d4141d5b1","name":"Taylor St Baristas","location":{"address":"110 Clifton St.","lat":"51.523924108859525","lng":"-0.08229571924816932","distance":"53","postalCode":"EC2A 4HT","cc":"GB","city":"Hackney","state":"Greater London","country":"United Kingdom"},"categories":[{"id":"4bf58dd8d48988d1e0931735","name":"Coffee Shop","pluralName":"Coffee Shops","shortName":"Coffee Shop","icon":{"prefix":"https:\/\/ss1.4sqi.net\/img\/categories_v2\/food\/coffeeshop_","suffix":".png"},"primary":"true"}],"verified":"false","restricted":"true","stats":{"checkinsCount":"3085","usersCount":"425","tipCount":"28"},"specials":{"count":"0"},"hereNow":{"count":"0"},"referralId":"v-1392477994"},{"id":"4bb472730cbcef3b3af8582a","name":"Mark Street Gardens","location":{"address":"Mark Street","lat":"51.52421118981365","lng":"-0.0831635834403615","distance":"26","cc":"GB","city":"Hackney","state":"Greater London","country":"United Kingdom"},"categories":[{"id":"4bf58dd8d48988d15a941735","name":"Garden","pluralName":"Gardens","shortName":"Garden","icon":{"prefix":"https:\/\/ss1.4sqi.net\/img\/categories_v2\/parks_outdoors\/garden_","suffix":".png"},"primary":"true"}],"verified":"false","restricted":"true","stats":{"checkinsCount":"822","usersCount":"136","tipCount":"3"},"specials":{"count":"0"},"hereNow":{"count":"0"},"referralId":"v-1392477994"},{"id":"4ace4c6ff964a520bbcf20e3","name":"Casita","contact":{"phone":"+442077297230","formattedPhone":"+44 20 7729 7230"},"location":{"address":"5A Ravey St.","lat":"51.524857","lng":"-0.082144","distance":"77","postalCode":"EC2A 4QW","cc":"GB","city":"Shoreditch","state":"Greater London","country":"United Kingdom"},"categories":[{"id":"4bf58dd8d48988d11e941735","name":"Cocktail Bar","pluralName":"Cocktail Bars","shortName":"Cocktail","icon":{"prefix":"https:\/\/ss1.4sqi.net\/img\/categories_v2\/nightlife\/cocktails_","suffix":".png"},"primary":"true"}],"verified":"true","restricted":"true","stats":{"checkinsCount":"2114","usersCount":"588","tipCount":"27"},"specials":{"count":"0"},"hereNow":{"count":"0"},"venuePage":{"id":"39479687"},"storeId":"","referralId":"v-1392477994"},{"id":"5094184de4b03f1e9083e779","name":"Edwin's French Restaurant & Wine Bar","location":{"address":"18 Phipp St.","lat":"51.524106","lng":"-0.081839","distance":"69","postalCode":"EC2A 4NU","cc":"GB","city":"London","state":"Greater London","country":"United Kingdom"},"categories":[{"id":"4bf58dd8d48988d10c941735","name":"French Restaurant","pluralName":"French Restaurants","shortName":"French","icon":{"prefix":"https:\/\/ss1.4sqi.net\/img\/categories_v2\/food\/french_","suffix":".png"},"primary":"true"}],"verified":"false","restricted":"true","stats":{"checkinsCount":"185","usersCount":"61","tipCount":"10"},"url":"http:\/\/www.edwinsfrenchwinebar.co.uk","menu":{"type":"Menu","label":"Menu","anchor":"View Menu","url":"https:\/\/foursquare.com\/v\/edwins-french-restaurant--wine-bar\/5094184de4b03f1e9083e779\/menu","mobileUrl":"https:\/\/foursquare.com\/v\/5094184de4b03f1e9083e779\/device_menu"},"specials":{"count":"0"},"hereNow":{"count":"0"},"referralId":"v-1392477994"},{"id":"4ac518c0f964a52069a320e3","name":"Eyre Brothers Restaurant","contact":{"phone":"+442076135346","formattedPhone":"+44 20 7613 5346"},"location":{"address":"70 Leonard St.","lat":"51.52464241493051","lng":"-0.08330821743584488","distance":"52","postalCode":"EC2A 4QX","cc":"GB","city":"London","state":"Greater London","country":"United Kingdom"},"categories":[{"id":"4bf58dd8d48988d1c0941735","name":"Mediterranean Restaurant","pluralName":"Mediterranean Restaurants","shortName":"Mediterranean","icon":{"prefix":"https:\/\/ss1.4sqi.net\/img\/categories_v2\/food\/mediterranean_","suffix":".png"},"primary":"true"}],"verified":"false","restricted":"true","stats":{"checkinsCount":"488","usersCount":"396","tipCount":"18"},"url":"http:\/\/www.eyrebrothers.co.uk","reservations":{"url":"http:\/\/www.toptable.co.uk\/single.aspx?rid=69988&ref=9601"},"menu":{"type":"Menu","label":"Menu","anchor":"View Menu","url":"https:\/\/foursquare.com\/v\/eyre-brothers-restaurant\/4ac518c0f964a52069a320e3\/menu","mobileUrl":"https:\/\/foursquare.com\/v\/4ac518c0f964a52069a320e3\/device_menu"},"specials":{"count":"0"},"hereNow":{"count":"0"},"referralId":"v-1392477994"},{"id":"4afc7b6af964a5202a2322e3","name":"The Griffin","contact":{"phone":"+442077396719","formattedPhone":"+44 20 7739 6719"},"location":{"address":"93 Leonard St.","lat":"51.524781745770035","lng":"-0.08205213476438124","distance":"75","postalCode":"EC2A 4RD","cc":"GB","city":"Shoreditch","state":"Greater London","country":"United Kingdom"},"categories":[{"id":"4bf58dd8d48988d11b941735","name":"Pub","pluralName":"Pubs","shortName":"Pub","icon":{"prefix":"https:\/\/ss1.4sqi.net\/img\/categories_v2\/nightlife\/pub_","suffix":".png"},"primary":"true"}],"verified":"false","restricted":"true","stats":{"checkinsCount":"2168","usersCount":"1116","tipCount":"11"},"specials":{"count":"0"},"hereNow":{"count":"0"},"referralId":"v-1392477994"},{"id":"51dc94f0498e5c68ec447e85","name":"Victoria Chambers","location":{"lat":"51.524279","lng":"-0.083825","distance":"70","cc":"GB","country":"United Kingdom"},"categories":[{"id":"4d954b06a243a5684965b473","name":"Residential Building (Apartment \/ Condo)","pluralName":"Residential Buildings (Apartments \/ Condos)","shortName":"Residential","icon":{"prefix":"https:\/\/ss1.4sqi.net\/img\/categories_v2\/building\/apartment_","suffix":".png"},"primary":"true"}],"verified":"false","restricted":"true","stats":{"checkinsCount":"165","usersCount":"6","tipCount":"0"},"specials":{"count":"0"},"hereNow":{"count":"1","groups":[{"type":"others","name":"Other people here","count":"1"}]},"referralId":"v-1392477994"},{"id":"4cc97bedd54fa1cd91ac3729","name":"SomeOne\/Else","contact":{"phone":"+442076131568","formattedPhone":"+44 20 7613 1568","twitter":"elseonesome"},"location":{"address":"67 Leonard Street","lat":"51.524719","lng":"-0.083267","distance":"57","postalCode":"EC2A4QS","cc":"GB","city":"Hackney","state":"Greater London","country":"United Kingdom"},"categories":[{"id":"4bf58dd8d48988d1f4941735","name":"Design Studio","pluralName":"Design Studios","shortName":"Design","icon":{"prefix":"https:\/\/ss1.4sqi.net\/img\/categories_v2\/shops\/design_","suffix":".png"},"primary":"true"}],"verified":"false","restricted":"true","stats":{"checkinsCount":"754","usersCount":"25","tipCount":"2"},"specials":{"count":"0"},"hereNow":{"count":"0"},"referralId":"v-1392477994"},{"id":"4ac518c6f964a52028a520e3","name":"3 Blind Mice","location":{"address":"5 Ravey Street","lat":"51.524784","lng":"-0.082058","distance":"75","postalCode":"EC2A 4QW","cc":"GB","city":"London","state":"Greater London","country":"United Kingdom"},"categories":[{"id":"4bf58dd8d48988d116941735","name":"Bar","pluralName":"Bars","shortName":"Bar","icon":{"prefix":"https:\/\/ss1.4sqi.net\/img\/categories_v2\/nightlife\/bar_","suffix":".png"},"primary":"true"}],"verified":"false","restricted":"true","stats":{"checkinsCount":"605","usersCount":"335","tipCount":"4"},"specials":{"count":"0"},"hereNow":{"count":"0"},"referralId":"v-1392477994"},{"id":"4dd25160ae60fb3f53bd3fb4","name":"Vice HQ","location":{"address":"New North Place","lat":"51.523858","lng":"-0.082491","distance":"52","postalCode":"EC2A 4JA","cc":"GB","city":"London","state":"Greater London","country":"United Kingdom"},"categories":[{"id":"4bf58dd8d48988d174941735","name":"Coworking Space","pluralName":"Coworking Spaces","shortName":"Coworking Space","icon":{"prefix":"https:\/\/ss1.4sqi.net\/img\/categories_v2\/building\/office_coworkingspace_","suffix":".png"},"primary":"true"}],"verified":"false","restricted":"true","stats":{"checkinsCount":"203","usersCount":"92","tipCount":"0"},"specials":{"count":"0"},"hereNow":{"count":"0"},"referralId":"v-1392477994"},{"id":"4b069278f964a5204aed22e3","name":"Hoxton Grill","contact":{"phone":"+442077399111","formattedPhone":"+44 20 7739 9111","twitter":"thehoxtonhotel"},"location":{"address":"81 Great Eastern St","lat":"51.525353239477596","lng":"-0.08299827575683594","distance":"119","postalCode":"EC2A 3HU","cc":"GB","city":"London","state":"Greater London","country":"United Kingdom"},"categories":[{"id":"4bf58dd8d48988d157941735","name":"New American Restaurant","pluralName":"New American Restaurants","shortName":"New American","icon":{"prefix":"https:\/\/ss1.4sqi.net\/img\/categories_v2\/food\/default_","suffix":".png"},"primary":"true"}],"verified":"true","restricted":"true","stats":{"checkinsCount":"3369","usersCount":"1997","tipCount":"59"},"url":"http:\/\/www.hoxtongrill.com","menu":{"type":"Menu","label":"Menu","anchor":"View Menu","url":"https:\/\/foursquare.com\/v\/hoxton-grill-hoxton-greater-london\/4b069278f964a5204aed22e3\/menu","mobileUrl":"https:\/\/foursquare.com\/v\/4b069278f964a5204aed22e3\/device_menu"},"specials":{"count":"0"},"hereNow":{"count":"0"},"venuePage":{"id":"33715582"},"referralId":"v-1392477994"},{"id":"4e971ed0722eef174f65cd9c","name":"81 Leonard Street","location":{"address":"81","crossStreet":"Leonard street","lat":"51.524731","lng":"-0.082557","distance":"52","postalCode":"EC2A 4qs","cc":"GB","city":"Hackney","state":"Greater London","country":"United Kingdom"},"categories":[{"id":"4bf58dd8d48988d171941735","name":"Event Space","pluralName":"Event Spaces","shortName":"Event Space","icon":{"prefix":"https:\/\/ss1.4sqi.net\/img\/categories_v2\/building\/eventspace_","suffix":".png"},"primary":"true"}],"verified":"true","restricted":"true","stats":{"checkinsCount":"1268","usersCount":"148","tipCount":"4"},"specials":{"count":"0"},"hereNow":{"count":"0"},"venuePage":{"id":"34746492"},"referralId":"v-1392477994"},{"id":"50c9c367e4b0b4afce619964","name":"Depop Ltd","contact":{"twitter":"depopmarket"},"location":{"address":"71 Leonard St","lat":"51.52464219564168","lng":"-0.0834349924866307","distance":"58","postalCode":"EC2A 4QS","cc":"GB","city":"London","state":"Greater London","country":"United Kingdom"},"categories":[{"id":"4bf58dd8d48988d125941735","name":"Tech Startup","pluralName":"Tech Startups","shortName":"Tech Startup","icon":{"prefix":"https:\/\/ss1.4sqi.net\/img\/categories_v2\/shops\/technology_","suffix":".png"},"primary":"true"}],"verified":"false","restricted":"true","stats":{"checkinsCount":"144","usersCount":"15","tipCount":"2"},"url":"http:\/\/www.depop.com","specials":{"count":"0"},"hereNow":{"count":"0"},"referralId":"v-1392477994"},{"id":"4bc315a9abf495213639c393","name":"SomeOne","contact":{"phone":"+442076131568","formattedPhone":"+44 20 7613 1568"},"location":{"address":"67 Leonard Street","lat":"51.524693437803975","lng":"-0.08306137494393803","distance":"48","postalCode":"EC2A 4QS","cc":"GB","city":"London","state":"Greater London","country":"United Kingdom"},"categories":[{"id":"4bf58dd8d48988d124941735","name":"Office","pluralName":"Offices","shortName":"Office","icon":{"prefix":"https:\/\/ss1.4sqi.net\/img\/categories_v2\/building\/default_","suffix":".png"},"primary":"true"}],"verified":"false","restricted":"true","stats":{"checkinsCount":"223","usersCount":"6","tipCount":"2"},"specials":{"count":"0"},"hereNow":{"count":"0"},"referralId":"v-1392477994"},{"id":"4d960f4d97d06ea8b3e0f90a","name":"Chico Bandito","contact":{"phone":"+442076131230","formattedPhone":"+44 20 7613 1230","twitter":"chico_bandito"},"location":{"address":"74 Luke St","lat":"51.52411953939155","lng":"-0.08152727420281924","distance":"90","postalCode":"EC2A 4PY","cc":"GB","city":"London","state":"Greater London","country":"United Kingdom"},"categories":[{"id":"4bf58dd8d48988d1c1941735","name":"Mexican Restaurant","pluralName":"Mexican Restaurants","shortName":"Mexican","icon":{"prefix":"https:\/\/ss1.4sqi.net\/img\/categories_v2\/food\/mexican_","suffix":".png"},"primary":"true"}],"verified":"false","restricted":"true","stats":{"checkinsCount":"1169","usersCount":"616","tipCount":"28"},"url":"http:\/\/www.chicobandito.co.uk","reservations":{"url":"http:\/\/www.toptable.co.uk\/single.aspx?rid=66598&ref=9601"},"menu":{"type":"Menu","label":"Menu","anchor":"View Menu","url":"https:\/\/foursquare.com\/v\/chico-bandito\/4d960f4d97d06ea8b3e0f90a\/menu","mobileUrl":"https:\/\/foursquare.com\/v\/4d960f4d97d06ea8b3e0f90a\/device_menu"},"specials":{"count":"0"},"hereNow":{"count":"0"},"referralId":"v-1392477994"},{"id":"4b7915edf964a52020eb2ee3","name":"Thomson Reuters","location":{"address":"Mark square","lat":"51.52439200896905","lng":"-0.08235454559326172","distance":"33","cc":"GB","country":"United Kingdom"},"categories":[{"id":"4bf58dd8d48988d124941735","name":"Office","pluralName":"Offices","shortName":"Office","icon":{"prefix":"https:\/\/ss1.4sqi.net\/img\/categories_v2\/building\/default_","suffix":".png"},"primary":"true"}],"verified":"false","restricted":"true","stats":{"checkinsCount":"343","usersCount":"86","tipCount":"0"},"specials":{"count":"0"},"hereNow":{"count":"0"},"referralId":"v-1392477994"},{"id":"4c2caeb1b34ad13aaca5ebce","name":"Ultimate Performance Fitness","location":{"address":"7 paul street","lat":"51.52449287736443","lng":"-0.08422383017637859","distance":"100","postalCode":"EC2A 4LB","cc":"GB","city":"Hackney","state":"Greater London","country":"United Kingdom"},"categories":[{"id":"4bf58dd8d48988d175941735","name":"Gym \/ Fitness Center","pluralName":"Gyms or Fitness Centers","shortName":"Gym \/ Fitness","icon":{"prefix":"https:\/\/ss1.4sqi.net\/img\/categories_v2\/building\/gym_","suffix":".png"},"primary":"true"}],"verified":"false","restricted":"true","stats":{"checkinsCount":"108","usersCount":"14","tipCount":"0"},"specials":{"count":"0"},"hereNow":{"count":"1","groups":[{"type":"others","name":"Other people here","count":"1"}]},"referralId":"v-1392477994"},{"id":"4b5479faf964a520babc27e3","name":"Silvios","contact":{"phone":"+442077397008","formattedPhone":"+44 20 7739 7008"},"location":{"address":"60 Paul St","lat":"51.52436945682137","lng":"-0.08430345289842604","distance":"104","cc":"GB","city":"London","state":"Greater London","country":"United Kingdom"},"categories":[{"id":"4bf58dd8d48988d1c5941735","name":"Sandwich Place","pluralName":"Sandwich Places","shortName":"Sandwiches","icon":{"prefix":"https:\/\/ss1.4sqi.net\/img\/categories_v2\/food\/sandwiches_","suffix":".png"},"primary":"true"}],"verified":"false","restricted":"true","stats":{"checkinsCount":"840","usersCount":"160","tipCount":"10"},"specials":{"count":"0"},"hereNow":{"count":"0"},"referralId":"v-1392477994"},{"id":"500d904de4b07957c405c8d3","name":"71a gallery","location":{"address":"71a Leonard St","lat":"51.524699","lng":"-0.083102","distance":"50","cc":"GB","country":"United Kingdom"},"categories":[{"id":"4bf58dd8d48988d1e2931735","name":"Art Gallery","pluralName":"Art Galleries","shortName":"Art Gallery","icon":{"prefix":"https:\/\/ss1.4sqi.net\/img\/categories_v2\/arts_entertainment\/artgallery_","suffix":".png"},"primary":"true"}],"verified":"false","restricted":"true","stats":{"checkinsCount":"54","usersCount":"46","tipCount":"0"},"specials":{"count":"0"},"hereNow":{"count":"0"},"referralId":"v-1392477994"},{"id":"4eba7cd69adfe14d044c9a81","name":"MongoDB London Office","contact":{"twitter":"mongodbinc"},"location":{"address":"Zetland House, 5-25 Scrutton St","lat":"51.52357962738028","lng":"-0.08320724836297858","distance":"83","postalCode":"EC2A 4HJ","cc":"GB","city":"London","state":"Greater London","country":"United Kingdom"},"categories":[{"id":"4bf58dd8d48988d130941735","name":"Building","pluralName":"Buildings","shortName":"Building","icon":{"prefix":"https:\/\/ss1.4sqi.net\/img\/categories_v2\/building\/default_","suffix":".png"},"primary":"true"}],"verified":"false","restricted":"true","stats":{"checkinsCount":"804","usersCount":"80","tipCount":"1"},"url":"http:\/\/www.mongodb.com","specials":{"count":"0"},"hereNow":{"count":"0"},"referralId":"v-1392477994"},{"id":"4acda172f964a52071cc20e3","name":"Zetland House","location":{"address":"109 - 123 Clifton St.","crossStreet":"Scrutton St.","lat":"51.52353858049747","lng":"-0.08318424555889235","distance":"87","postalCode":"EC2A 4LD","cc":"GB","city":"Shoreditch","state":"Greater London","country":"United Kingdom"},"categories":[{"id":"4bf58dd8d48988d124941735","name":"Office","pluralName":"Offices","shortName":"Office","icon":{"prefix":"https:\/\/ss1.4sqi.net\/img\/categories_v2\/building\/default_","suffix":".png"},"primary":"true"}],"verified":"false","restricted":"true","stats":{"checkinsCount":"1454","usersCount":"139","tipCount":"2"},"specials":{"count":"0"},"hereNow":{"count":"0"},"referralId":"v-1392477994"},{"id":"4bd5d85ccfa7b713138826da","name":"Squiz UK","contact":{"phone":"+442071018300","formattedPhone":"+44 20 7101 8300","twitter":"squizuk","facebook":"393930777334859"},"location":{"address":"109 - 123 Clifton St.","lat":"51.523447446723985","lng":"-0.08318066596984863","distance":"97","postalCode":"EC2A 4LD","cc":"GB","city":"London","state":"Greater London","country":"United Kingdom"},"categories":[{"id":"4bf58dd8d48988d125941735","name":"Tech Startup","pluralName":"Tech Startups","shortName":"Tech Startup","icon":{"prefix":"https:\/\/ss1.4sqi.net\/img\/categories_v2\/shops\/technology_","suffix":".png"},"primary":"true"}],"verified":"true","restricted":"true","stats":{"checkinsCount":"1526","usersCount":"49","tipCount":"11"},"url":"http:\/\/facebook.com\/squizuk","specials":{"count":"0"},"hereNow":{"count":"0"},"venuePage":{"id":"40879137"},"storeId":"","referralId":"v-1392477994"},{"id":"4c373a92dfb0e21e5256aca8","name":"Rapid Eye Processing","location":{"address":"Leonard street","lat":"51.524709","lng":"-0.08272","distance":"47","cc":"GB","city":"Islington","state":"Greater London","country":"United Kingdom"},"categories":[{"id":"4bf58dd8d48988d127951735","name":"Arts & Crafts Store","pluralName":"Arts & Crafts Stores","shortName":"Arts & Crafts","icon":{"prefix":"https:\/\/ss1.4sqi.net\/img\/categories_v2\/shops\/artstore_","suffix":".png"},"primary":"true"}],"verified":"false","restricted":"true","stats":{"checkinsCount":"15","usersCount":"10","tipCount":"0"},"specials":{"count":"0"},"hereNow":{"count":"0"},"referralId":"v-1392477994"},{"id":"4fa8d80ce4b0f293ac00b41d","name":"Silvio's Coffee House","location":{"address":"6 Ravey St","lat":"51.525002178789876","lng":"-0.08220040624236577","distance":"89","postalCode":"EC2A","cc":"GB","city":"London","state":"Greater London","country":"United Kingdom"},"categories":[{"id":"4bf58dd8d48988d110941735","name":"Italian Restaurant","pluralName":"Italian Restaurants","shortName":"Italian","icon":{"prefix":"https:\/\/ss1.4sqi.net\/img\/categories_v2\/food\/italian_","suffix":".png"},"primary":"true"}],"verified":"false","restricted":"true","stats":{"checkinsCount":"576","usersCount":"121","tipCount":"2"},"specials":{"count":"0"},"hereNow":{"count":"0"},"referralId":"v-1392477994"},{"id":"4e0ca6c6813077e777ac1ad4","name":"Dailymotion UK","contact":{"twitter":"dailymotionuk"},"location":{"address":"100 - 106 Leonard Street","lat":"51.524547209018564","lng":"-0.0814211368560791","distance":"99","postalCode":"EC2A 4RH","cc":"GB","city":"London","state":"Greater London","country":"United Kingdom"},"categories":[{"id":"4bf58dd8d48988d124941735","name":"Office","pluralName":"Offices","shortName":"Office","icon":{"prefix":"https:\/\/ss1.4sqi.net\/img\/categories_v2\/building\/default_","suffix":".png"},"primary":"true"}],"verified":"false","restricted":"true","stats":{"checkinsCount":"156","usersCount":"13","tipCount":"0"},"url":"http:\/\/www.dailymotion.com\/gb","specials":{"count":"0"},"hereNow":{"count":"0"},"referralId":"v-1392477994"},{"id":"52f22d3f498ec4efd07d3432","name":"Gylphics","location":{"address":"75 Leonard Street","lat":"51.52473831176758","lng":"-0.08280599862337112","distance":"50","postalCode":"EC2A 4QS","cc":"GB","city":"London","state":"Greater London","country":"United Kingdom"},"categories":[{"id":"4bf58dd8d48988d1f4941735","name":"Design Studio","pluralName":"Design Studios","shortName":"Design","icon":{"prefix":"https:\/\/ss1.4sqi.net\/img\/categories_v2\/shops\/design_","suffix":".png"},"primary":"true"}],"verified":"false","restricted":"true","stats":{"checkinsCount":"1","usersCount":"1","tipCount":"0"},"specials":{"count":"0"},"hereNow":{"count":"0"},"referralId":"v-1392477994"},{"id":"4bd57c476f649521c1136fec","name":"Silvios Sandwich Bar","location":{"address":"8 Ravey St.","lat":"51.524524954222045","lng":"-0.08224635118657282","distance":"46","cc":"GB","city":"London","state":"Greater London","country":"United Kingdom"},"categories":[{"id":"4bf58dd8d48988d1c5941735","name":"Sandwich Place","pluralName":"Sandwich Places","shortName":"Sandwiches","icon":{"prefix":"https:\/\/ss1.4sqi.net\/img\/categories_v2\/food\/sandwiches_","suffix":".png"},"primary":"true"}],"verified":"false","restricted":"true","stats":{"checkinsCount":"242","usersCount":"68","tipCount":"3"},"specials":{"count":"0"},"hereNow":{"count":"0"},"referralId":"v-1392477994"},{"id":"52664bc4498e6a868c5b8a8f","name":"Matter of Form","contact":{"phone":"+442031412000","formattedPhone":"+44 20 3141 2000","twitter":"matterofform"},"location":{"address":"71 Leonard Street","lat":"51.524775760744625","lng":"-0.08316482265157166","distance":"59","postalCode":"EC2A 4QS","cc":"GB","city":"London","state":"Greater London","country":"United Kingdom"},"categories":[{"id":"4bf58dd8d48988d174941735","name":"Coworking Space","pluralName":"Coworking Spaces","shortName":"Coworking Space","icon":{"prefix":"https:\/\/ss1.4sqi.net\/img\/categories_v2\/building\/office_coworkingspace_","suffix":".png"},"primary":"true"}],"verified":"false","restricted":"true","stats":{"checkinsCount":"12","usersCount":"3","tipCount":"0"},"url":"http:\/\/matterofform.com","specials":{"count":"0"},"hereNow":{"count":"0"},"referralId":"v-1392477994"}],"confident":"true"}}