{"meta":{"code":"200"},"response":{"venues":[{"id":"4ac518d2f964a52042a720e3","name":"Design Museum","contact":{"phone":"+442074036933","formattedPhone":"+44 20 7403 6933","twitter":"designmuseum"},"location":{"address":"28 Shad Thames","lat":"51.502652102264484","lng":"-0.07184028625488281","distance":"333","postalCode":"SE1 2YD","cc":"GB","city":"London","state":"Greater London","country":"United Kingdom"},"categories":[{"id":"4bf58dd8d48988d18f941735","name":"Art Museum","pluralName":"Art Museums","shortName":"Art Museum","icon":{"prefix":"https:\/\/ss1.4sqi.net\/img\/categories_v2\/arts_entertainment\/museum_art_","suffix":".png"},"primary":"true"}],"verified":"true","restricted":"true","stats":{"checkinsCount":"5074","usersCount":"4029","tipCount":"69"},"url":"https:\/\/www.facebook.com\/designmuseum","specials":{"count":"0"},"hereNow":{"count":"5","groups":[{"type":"others","name":"Other people here","count":"5"}]},"venuePage":{"id":"52299850"},"storeId":"","referralId":"v-1392478048"},{"id":"4b549e90f964a52013c327e3","name":"Hermitage Riverside Memorial Garden","location":{"address":"22 High St.","lat":"51.50456210431835","lng":"-0.06754875183105469","distance":"35","postalCode":"E1W 1NJ","cc":"GB","city":"Wapping","state":"Greater London","country":"United Kingdom"},"categories":[{"id":"4bf58dd8d48988d163941735","name":"Park","pluralName":"Parks","shortName":"Park","icon":{"prefix":"https:\/\/ss1.4sqi.net\/img\/categories_v2\/parks_outdoors\/park_","suffix":".png"},"primary":"true"}],"verified":"false","restricted":"true","stats":{"checkinsCount":"178","usersCount":"95","tipCount":"2"},"specials":{"count":"0"},"hereNow":{"count":"0"},"referralId":"v-1392478048"},{"id":"4dd8bdc7b0fb8af380a77684","name":"Capital Wharf","location":{"lat":"51.50377269705426","lng":"-0.06424827977814253","distance":"252","cc":"GB","city":"London","state":"Greater London","country":"United Kingdom"},"categories":[{"id":"4d954b06a243a5684965b473","name":"Residential Building (Apartment \/ Condo)","pluralName":"Residential Buildings (Apartments \/ Condos)","shortName":"Residential","icon":{"prefix":"https:\/\/ss1.4sqi.net\/img\/categories_v2\/building\/apartment_","suffix":".png"},"primary":"true"}],"verified":"false","restricted":"true","stats":{"checkinsCount":"1097","usersCount":"53","tipCount":"1"},"specials":{"count":"0"},"hereNow":{"count":"1","groups":[{"type":"others","name":"Other people here","count":"1"}]},"referralId":"v-1392478048"},{"id":"4b3cc117f964a520d98625e3","name":"Waitrose","contact":{"phone":"+442077021640","formattedPhone":"+44 20 7702 1640","twitter":"waitroseuk"},"location":{"address":"Thomas More St.","lat":"51.50702295047727","lng":"-0.06750047206878662","distance":"305","postalCode":"E1W 1YY","cc":"GB","city":"Wapping","state":"Greater London","country":"United Kingdom"},"categories":[{"id":"4bf58dd8d48988d118951735","name":"Grocery Store","pluralName":"Grocery Stores","shortName":"Grocery Store","icon":{"prefix":"https:\/\/ss1.4sqi.net\/img\/categories_v2\/shops\/food_grocery_","suffix":".png"},"primary":"true"}],"verified":"false","restricted":"true","stats":{"checkinsCount":"3306","usersCount":"568","tipCount":"12"},"url":"http:\/\/www.waitrose.com","specials":{"count":"0"},"hereNow":{"count":"0"},"referralId":"v-1392478048"},{"id":"4c9cfa247c096dcb39aec6d1","name":"Shad Thames","location":{"lat":"51.50278567144511","lng":"-0.07128238677978516","distance":"293","postalCode":"SE1","cc":"GB","city":"Bermondsey","state":"Greater London","country":"United Kingdom"},"categories":[{"id":"4bf58dd8d48988d164941735","name":"Plaza","pluralName":"Plazas","shortName":"Plaza","icon":{"prefix":"https:\/\/ss1.4sqi.net\/img\/categories_v2\/parks_outdoors\/plaza_","suffix":".png"},"primary":"true"}],"verified":"false","restricted":"true","stats":{"checkinsCount":"1636","usersCount":"420","tipCount":"6"},"specials":{"count":"0"},"hereNow":{"count":"0"},"referralId":"v-1392478048"},{"id":"4e04d8b97d8b58ba0dcd50fc","name":"Smith's","location":{"address":"22 Wapping High St","lat":"51.504330737423615","lng":"-0.06644557841368202","distance":"94","postalCode":"E1W 1NJ","cc":"GB","city":"Poplar","state":"Greater London","country":"United Kingdom"},"categories":[{"id":"4bf58dd8d48988d1ce941735","name":"Seafood Restaurant","pluralName":"Seafood Restaurants","shortName":"Seafood","icon":{"prefix":"https:\/\/ss1.4sqi.net\/img\/categories_v2\/food\/seafood_","suffix":".png"},"primary":"true"}],"verified":"false","restricted":"true","stats":{"checkinsCount":"115","usersCount":"82","tipCount":"5"},"specials":{"count":"0"},"hereNow":{"count":"0"},"referralId":"v-1392478048"},{"id":"4bf67f50bfeac92812639436","name":"All Bar One","contact":{"phone":"+442079409771","formattedPhone":"+44 20 7940 9771"},"location":{"address":"Butlers Wharf","lat":"51.5032898915735","lng":"-0.07255375385284424","distance":"347","postalCode":"SE1 2YG","cc":"GB","city":"Camberwell","state":"Greater London","country":"United Kingdom"},"categories":[{"id":"4bf58dd8d48988d116941735","name":"Bar","pluralName":"Bars","shortName":"Bar","icon":{"prefix":"https:\/\/ss1.4sqi.net\/img\/categories_v2\/nightlife\/bar_","suffix":".png"},"primary":"true"}],"verified":"false","restricted":"true","stats":{"checkinsCount":"1614","usersCount":"1174","tipCount":"19"},"url":"http:\/\/www.allbarone.co.uk","specials":{"count":"0"},"hereNow":{"count":"1","groups":[{"type":"others","name":"Other people here","count":"1"}]},"referralId":"v-1392478048"},{"id":"4ac518c3f964a5202fa420e3","name":"The Dickens Inn","contact":{"phone":"+442074882208","formattedPhone":"+44 20 7488 2208","twitter":"dickensinn1"},"location":{"address":"Marble Quay, St Katherine's Way","crossStreet":"St Katharine's Dock","lat":"51.50677113470345","lng":"-0.07049379705852057","distance":"333","postalCode":"E1W 1UH","cc":"GB","city":"London","state":"Greater London","country":"United Kingdom"},"categories":[{"id":"4bf58dd8d48988d11b941735","name":"Pub","pluralName":"Pubs","shortName":"Pub","icon":{"prefix":"https:\/\/ss1.4sqi.net\/img\/categories_v2\/nightlife\/pub_","suffix":".png"},"primary":"true"}],"verified":"false","restricted":"true","stats":{"checkinsCount":"3887","usersCount":"2706","tipCount":"51"},"url":"http:\/\/www.dickensinn.co.uk","reservations":{"url":"http:\/\/www.toptable.co.uk\/single.aspx?rid=40372&ref=9601"},"menu":{"type":"Menu","label":"Menu","anchor":"View Menu","url":"https:\/\/foursquare.com\/v\/the-dickens-inn\/4ac518c3f964a5202fa420e3\/menu","mobileUrl":"https:\/\/foursquare.com\/v\/4ac518c3f964a5202fa420e3\/device_menu"},"specials":{"count":"0"},"hereNow":{"count":"0"},"referralId":"v-1392478048"},{"id":"523f014211d2740f41358760","name":"Meridian Court","location":{"address":"3-7 East Lane","crossStreet":"Bermondsey","lat":"51.500863","lng":"-0.068072","distance":"381","postalCode":"SE16 4UF","cc":"GB","city":"London","state":"Greater London","country":"United Kingdom"},"categories":[{"id":"4d954b06a243a5684965b473","name":"Residential Building (Apartment \/ Condo)","pluralName":"Residential Buildings (Apartments \/ Condos)","shortName":"Residential","icon":{"prefix":"https:\/\/ss1.4sqi.net\/img\/categories_v2\/building\/apartment_","suffix":".png"},"primary":"true"}],"verified":"false","restricted":"true","stats":{"checkinsCount":"356","usersCount":"8","tipCount":"0"},"specials":{"count":"0"},"hereNow":{"count":"0"},"referralId":"v-1392478048"},{"id":"4bd937cd11dcc9282e43f933","name":"Fitness First","contact":{"phone":"+448445712947","formattedPhone":"+44 844 571 2947","twitter":"fitnessfirstuk"},"location":{"address":"15 Thomas More Square","lat":"51.50784765480179","lng":"-0.06731271743774414","distance":"397","postalCode":"E1W 1YW","cc":"GB","city":"London","state":"Greater London","country":"United Kingdom"},"categories":[{"id":"4bf58dd8d48988d175941735","name":"Gym \/ Fitness Center","pluralName":"Gyms or Fitness Centers","shortName":"Gym \/ Fitness","icon":{"prefix":"https:\/\/ss1.4sqi.net\/img\/categories_v2\/building\/gym_","suffix":".png"},"primary":"true"}],"verified":"false","restricted":"true","stats":{"checkinsCount":"1146","usersCount":"127","tipCount":"5"},"url":"http:\/\/www.fitnessfirst.co.uk","specials":{"count":"0"},"hereNow":{"count":"0"},"referralId":"v-1392478048"},{"id":"4d8f3b1acb9b224b52c19541","name":"Hermitage Moorings","contact":{"twitter":"hcmoorings"},"location":{"address":"16 Wapping High St.","lat":"51.504427876965515","lng":"-0.06717968761534694","distance":"45","postalCode":"E1W 1NG","cc":"GB","city":"London","state":"Greater London","country":"United Kingdom"},"categories":[{"id":"4bf58dd8d48988d1e0941735","name":"Harbor \/ Marina","pluralName":"Harbors \/ Marinas","shortName":"Harbor \/ Marina","icon":{"prefix":"https:\/\/ss1.4sqi.net\/img\/categories_v2\/parks_outdoors\/harbor_","suffix":".png"},"primary":"true"}],"verified":"false","restricted":"true","stats":{"checkinsCount":"58","usersCount":"39","tipCount":"0"},"specials":{"count":"0"},"hereNow":{"count":"0"},"referralId":"v-1392478048"},{"id":"4b3b7379f964a520077425e3","name":"ASK Italian","contact":{"phone":"+441702433974","formattedPhone":"+44 1702 433974","twitter":"askitalian"},"location":{"address":"Shad Thames","lat":"51.503249585796","lng":"-0.07204406081486582","distance":"315","postalCode":"SS1 1TJ","cc":"GB","city":"London","state":"Greater London","country":"United Kingdom"},"categories":[{"id":"4bf58dd8d48988d1ca941735","name":"Pizza Place","pluralName":"Pizza Places","shortName":"Pizza","icon":{"prefix":"https:\/\/ss1.4sqi.net\/img\/categories_v2\/food\/pizza_","suffix":".png"},"primary":"true"}],"verified":"true","restricted":"true","stats":{"checkinsCount":"488","usersCount":"373","tipCount":"13"},"url":"http:\/\/www.askitalian.co.uk","specials":{"count":"0"},"hereNow":{"count":"1","groups":[{"type":"others","name":"Other people here","count":"1"}]},"storeId":"","referralId":"v-1392478048"},{"id":"4c85e1b074d7b60c3f719fd8","name":"News UK","location":{"address":"Thomas Moore Square","lat":"51.50703296721856","lng":"-0.0675058364868164","distance":"306","postalCode":"E1w1yy","cc":"GB","city":"Poplar","state":"Greater London","country":"United Kingdom"},"categories":[{"id":"4bf58dd8d48988d124941735","name":"Office","pluralName":"Offices","shortName":"Office","icon":{"prefix":"https:\/\/ss1.4sqi.net\/img\/categories_v2\/building\/default_","suffix":".png"},"primary":"true"}],"verified":"false","restricted":"true","stats":{"checkinsCount":"1253","usersCount":"272","tipCount":"2"},"specials":{"count":"0"},"hereNow":{"count":"0"},"referralId":"v-1392478048"},{"id":"504f2d69e4b02fe73104615b","name":"White Mulberries","contact":{"phone":"+447507572600","formattedPhone":"+44 7507 572600","twitter":"whitemulberries"},"location":{"address":"D3 Ivory House","crossStreet":"St. Katharine Docks","lat":"51.50688380962582","lng":"-0.07125767442782371","distance":"375","postalCode":"E1W 1AT","cc":"GB","city":"Tower Hamlets","state":"Greater London","country":"United Kingdom"},"categories":[{"id":"4bf58dd8d48988d1e0931735","name":"Coffee Shop","pluralName":"Coffee Shops","shortName":"Coffee Shop","icon":{"prefix":"https:\/\/ss1.4sqi.net\/img\/categories_v2\/food\/coffeeshop_","suffix":".png"},"primary":"true"}],"verified":"true","restricted":"true","stats":{"checkinsCount":"453","usersCount":"171","tipCount":"14"},"url":"http:\/\/www.whitemulberries.com","specials":{"count":"0"},"hereNow":{"count":"1","groups":[{"type":"others","name":"Other people here","count":"1"}]},"venuePage":{"id":"54952572"},"storeId":"","referralId":"v-1392478048"},{"id":"5112e0cee4b0d32f18e6401e","name":"Wapping High Street","location":{"address":"75 Wapping High St.","lat":"51.504345315563114","lng":"-0.06687666882937542","distance":"64","postalCode":"E1W 2YN","cc":"GB","city":"London","state":"Greater London","country":"United Kingdom"},"categories":[{"id":"4f2a25ac4b909258e854f55f","name":"Neighborhood","pluralName":"Neighborhoods","shortName":"Neighborhood","icon":{"prefix":"https:\/\/ss1.4sqi.net\/img\/categories_v2\/parks_outdoors\/neighborhood_","suffix":".png"},"primary":"true"}],"verified":"false","restricted":"true","stats":{"checkinsCount":"14","usersCount":"9","tipCount":"0"},"url":"http:\/\/www.pashawapping.com","reservations":{"url":"http:\/\/www.toptable.co.uk\/single.aspx?rid=92883&ref=9601"},"menu":{"type":"Menu","label":"Menu","anchor":"View Menu","url":"https:\/\/foursquare.com\/v\/wapping-high-street\/5112e0cee4b0d32f18e6401e\/menu","mobileUrl":"https:\/\/foursquare.com\/v\/5112e0cee4b0d32f18e6401e\/device_menu"},"specials":{"count":"0"},"hereNow":{"count":"0"},"referralId":"v-1392478048"},{"id":"50312fe2e4b0beacbf0f1e92","name":"Luna House","location":{"address":"37 Bermondsey Wall West","lat":"51.501060738616445","lng":"-0.06682204087584855","distance":"365","postalCode":"SE16 4RN","cc":"GB","city":"Bermondsey","state":"Greater London","country":"United Kingdom"},"categories":[{"id":"4d954b06a243a5684965b473","name":"Residential Building (Apartment \/ Condo)","pluralName":"Residential Buildings (Apartments \/ Condos)","shortName":"Residential","icon":{"prefix":"https:\/\/ss1.4sqi.net\/img\/categories_v2\/building\/apartment_","suffix":".png"},"primary":"true"}],"verified":"false","restricted":"true","stats":{"checkinsCount":"516","usersCount":"7","tipCount":"0"},"specials":{"count":"0"},"hereNow":{"count":"0"},"referralId":"v-1392478048"},{"id":"4e74b11815209522b14c3708","name":"M\/S Hans","contact":{"twitter":"agentgav"},"location":{"address":"16 Wapping High St","lat":"51.504014489537944","lng":"-0.06802082061767578","distance":"34","postalCode":"E1W 1NG","cc":"GB","city":"London","state":"Greater London","country":"United Kingdom"},"categories":[{"id":"4bf58dd8d48988d1e0941735","name":"Harbor \/ Marina","pluralName":"Harbors \/ Marinas","shortName":"Harbor \/ Marina","icon":{"prefix":"https:\/\/ss1.4sqi.net\/img\/categories_v2\/parks_outdoors\/harbor_","suffix":".png"},"primary":"true"}],"verified":"false","restricted":"true","stats":{"checkinsCount":"2","usersCount":"2","tipCount":"0"},"specials":{"count":"0"},"hereNow":{"count":"0"},"referralId":"v-1392478048"},{"id":"4add6917f964a520f76421e3","name":"NTT Europe","contact":{"phone":"+442079771000","formattedPhone":"+44 20 7977 1000","twitter":"ntt_europe"},"location":{"address":"58-60 St Katharine's Way","lat":"51.50591107850855","lng":"-0.07106781005859375","distance":"289","postalCode":"E1W 1LB","cc":"GB","city":"London","state":"Greater London","country":"United Kingdom"},"categories":[{"id":"4bf58dd8d48988d124941735","name":"Office","pluralName":"Offices","shortName":"Office","icon":{"prefix":"https:\/\/ss1.4sqi.net\/img\/categories_v2\/building\/default_","suffix":".png"},"primary":"true"}],"verified":"false","restricted":"true","stats":{"checkinsCount":"520","usersCount":"39","tipCount":"1"},"url":"http:\/\/www.ntt.eu","specials":{"count":"0"},"hereNow":{"count":"0"},"referralId":"v-1392478048"},{"id":"4ac518bff964a5205ba320e3","name":"Browns Restaurant & Bar","location":{"address":"Butlers Wharf","lat":"51.502784","lng":"-0.071245","distance":"291","postalCode":"SE1 2YG","cc":"GB","city":"London","state":"Greater London","country":"United Kingdom"},"categories":[{"id":"4bf58dd8d48988d1c4941735","name":"Restaurant","pluralName":"Restaurants","shortName":"Restaurant","icon":{"prefix":"https:\/\/ss1.4sqi.net\/img\/categories_v2\/food\/default_","suffix":".png"},"primary":"true"}],"verified":"false","restricted":"true","stats":{"checkinsCount":"916","usersCount":"661","tipCount":"19"},"specials":{"count":"0"},"hereNow":{"count":"0"},"referralId":"v-1392478048"},{"id":"4ac518e3f964a520b2aa20e3","name":"Mala Restaurant","contact":{"phone":"+442074806356","formattedPhone":"+44 20 7480 6356"},"location":{"address":"2 Marble Quay","crossStreet":"Burr Close, St Katherine's Dock","lat":"51.50670514683616","lng":"-0.07067193542168657","distance":"334","postalCode":"E1W 1UH","cc":"GB","city":"London","state":"Greater London","country":"United Kingdom"},"categories":[{"id":"4bf58dd8d48988d10f941735","name":"Indian Restaurant","pluralName":"Indian Restaurants","shortName":"Indian","icon":{"prefix":"https:\/\/ss1.4sqi.net\/img\/categories_v2\/food\/indian_","suffix":".png"},"primary":"true"}],"verified":"false","restricted":"true","stats":{"checkinsCount":"305","usersCount":"233","tipCount":"8"},"url":"http:\/\/malarestaurant.com","reservations":{"url":"http:\/\/www.toptable.co.uk\/single.aspx?rid=30634&ref=9601"},"menu":{"type":"Menu","label":"Menu","anchor":"View Menu","url":"https:\/\/foursquare.com\/v\/mala-restaurant\/4ac518e3f964a520b2aa20e3\/menu","mobileUrl":"https:\/\/foursquare.com\/v\/4ac518e3f964a520b2aa20e3\/device_menu"},"specials":{"count":"0"},"hereNow":{"count":"0"},"referralId":"v-1392478048"},{"id":"528bc29e11d2fbb7d6db016d","name":"Wheat Wharf","location":{"lat":"51.50292592970831","lng":"-0.07258310818936552","distance":"364","cc":"GB","country":"United Kingdom"},"categories":[{"id":"4f2a210c4b9023bd5841ed28","name":"Housing Development","pluralName":"Housing Developments","shortName":"Housing Development","icon":{"prefix":"https:\/\/ss1.4sqi.net\/img\/categories_v2\/building\/housingdevelopment_","suffix":".png"},"primary":"true"}],"verified":"false","restricted":"true","stats":{"checkinsCount":"56","usersCount":"2","tipCount":"0"},"specials":{"count":"0"},"hereNow":{"count":"0"},"referralId":"v-1392478048"},{"id":"4de23cab2271bfb8449627ca","name":"Kilikya's Cafe Bar Restaurant","contact":{"phone":"+442074880813","formattedPhone":"+44 20 7488 0813"},"location":{"address":"Unit C3&C4 Ivory House,St.Katharine Docks","crossStreet":"Eastsmithfield","lat":"51.50692982566235","lng":"-0.07156618917343922","distance":"392","postalCode":"E1W 1AT","cc":"GB","city":"London","state":"Greater London","country":"United Kingdom"},"categories":[{"id":"4f04af1f2fb6e1c99f3db0bb","name":"Turkish Restaurant","pluralName":"Turkish Restaurants","shortName":"Turkish","icon":{"prefix":"https:\/\/ss1.4sqi.net\/img\/categories_v2\/food\/turkish_","suffix":".png"},"primary":"true"}],"verified":"false","restricted":"true","stats":{"checkinsCount":"544","usersCount":"276","tipCount":"36"},"reservations":{"url":"http:\/\/www.toptable.co.uk\/single.aspx?rid=99375&ref=9601"},"specials":{"count":"0"},"hereNow":{"count":"0"},"referralId":"v-1392478048"},{"id":"52d4729311d2baed5e28a56e","name":"Cinnabar Wharf Central","location":{"address":"24 Wapping High Street","lat":"51.503997825404696","lng":"-0.06524613140595042","distance":"180","postalCode":"E1W 1NQ","cc":"GB","city":"London","state":"Greater London","country":"United Kingdom"},"categories":[{"id":"4d954b06a243a5684965b473","name":"Residential Building (Apartment \/ Condo)","pluralName":"Residential Buildings (Apartments \/ Condos)","shortName":"Residential","icon":{"prefix":"https:\/\/ss1.4sqi.net\/img\/categories_v2\/building\/apartment_","suffix":".png"},"primary":"true"}],"verified":"false","restricted":"true","stats":{"checkinsCount":"7","usersCount":"1","tipCount":"0"},"specials":{"count":"0"},"hereNow":{"count":"0"},"referralId":"v-1392478048"},{"id":"4ac518e3f964a520c3aa20e3","name":"Blueprint Caf\u00e9","contact":{"phone":"+442073787031","formattedPhone":"+44 20 7378 7031","twitter":"danddlondon"},"location":{"address":"28 Shad Thames","lat":"51.50305280863189","lng":"-0.07184028625488281","distance":"311","postalCode":"SE1 2YD","cc":"GB","city":"Bermondsey","state":"Greater London","country":"United Kingdom"},"categories":[{"id":"4bf58dd8d48988d1c4941735","name":"Restaurant","pluralName":"Restaurants","shortName":"Restaurant","icon":{"prefix":"https:\/\/ss1.4sqi.net\/img\/categories_v2\/food\/default_","suffix":".png"},"primary":"true"}],"verified":"true","restricted":"true","stats":{"checkinsCount":"491","usersCount":"418","tipCount":"15"},"url":"http:\/\/www.blueprintcafe.co.uk","reservations":{"url":"http:\/\/www.toptable.co.uk\/single.aspx?rid=80611&ref=9601"},"menu":{"type":"Menu","label":"Menu","anchor":"View Menu","url":"https:\/\/foursquare.com\/v\/blueprint-caf%C3%A9\/4ac518e3f964a520c3aa20e3\/menu","mobileUrl":"https:\/\/foursquare.com\/v\/4ac518e3f964a520c3aa20e3\/device_menu"},"specials":{"count":"0"},"hereNow":{"count":"0"},"storeId":"","referralId":"v-1392478048"},{"id":"50ec63468302ccb5ec80a996","name":"The Massage Room","contact":{"phone":"+442032907995","formattedPhone":"+44 20 3290 7995","twitter":"massageroomtms"},"location":{"address":"Fitness First, 15 Thomas More Square","lat":"51.50826167077801","lng":"-0.0673985481262207","distance":"443","postalCode":"E1W 1WY","cc":"GB","city":"London","state":"Greater London","country":"United Kingdom"},"categories":[{"id":"4bf58dd8d48988d1ed941735","name":"Spa","pluralName":"Spas","shortName":"Spa","icon":{"prefix":"https:\/\/ss1.4sqi.net\/img\/categories_v2\/shops\/spa_","suffix":".png"},"primary":"true"}],"verified":"true","restricted":"true","stats":{"checkinsCount":"9","usersCount":"8","tipCount":"1"},"url":"http:\/\/themassageroom.net","specials":{"count":"1","items":[{"id":"51da7bcaccdad678bc126b91","type":"count","message":"Get a free 15 minute taster massage session","description":"Unlocked on your 1st check-in","finePrint":"Only one session per person call 020 3290 7995 to claim your massage","icon":"newbie","title":"Newbie Special","provider":"foursquare","redemption":"standard","page":{"id":"45392560","firstName":"The Massage Room","gender":"none","photo":{"prefix":"https:\/\/irs1.4sqi.net\/img\/user\/","suffix":"\/TV21HHBEANWISSV1.jpg"},"type":"venuePage","venue":{"id":"50ec63468302ccb5ec80a996"},"tips":{"count":"0"},"homeCity":"London","bio":"","contact":{"facebook":"165794733501948"}}}]},"hereNow":{"count":"1","groups":[{"type":"others","name":"Other people here","count":"1"}]},"venuePage":{"id":"45392560"},"storeId":"","referralId":"v-1392478048"},{"id":"4fad7123e4b0346fb5dd6d36","name":"Smith's Wapping","location":{"address":"22 Wapping High St.","lat":"51.50453040346738","lng":"-0.06707622819152935","distance":"57","postalCode":"E1W1NJ","cc":"GB","city":"London","state":"Greater London","country":"United Kingdom"},"categories":[{"id":"4bf58dd8d48988d1ce941735","name":"Seafood Restaurant","pluralName":"Seafood Restaurants","shortName":"Seafood","icon":{"prefix":"https:\/\/ss1.4sqi.net\/img\/categories_v2\/food\/seafood_","suffix":".png"},"primary":"true"}],"verified":"false","restricted":"true","stats":{"checkinsCount":"6","usersCount":"5","tipCount":"0"},"url":"http:\/\/www.smithsrestaurants.com\/dining-at-wapping.html","reservations":{"url":"http:\/\/www.toptable.co.uk\/single.aspx?rid=55036&ref=9601"},"menu":{"type":"Menu","label":"Menu","anchor":"View Menu","url":"https:\/\/foursquare.com\/v\/smiths-wapping\/4fad7123e4b0346fb5dd6d36\/menu","mobileUrl":"https:\/\/foursquare.com\/v\/4fad7123e4b0346fb5dd6d36\/device_menu"},"specials":{"count":"0"},"hereNow":{"count":"0"},"referralId":"v-1392478048"},{"id":"4bc9f923511f9521d8abaec7","name":"Cape","contact":{"phone":"+442077029222","formattedPhone":"+44 20 7702 9222"},"location":{"address":"Thomas More St.","lat":"51.507133","lng":"-0.067572","distance":"316","postalCode":"E1W 1YY","cc":"GB","city":"Poplar","state":"Greater London","country":"United Kingdom"},"categories":[{"id":"4bf58dd8d48988d116941735","name":"Bar","pluralName":"Bars","shortName":"Bar","icon":{"prefix":"https:\/\/ss1.4sqi.net\/img\/categories_v2\/nightlife\/bar_","suffix":".png"},"primary":"true"}],"verified":"false","restricted":"true","stats":{"checkinsCount":"486","usersCount":"252","tipCount":"4"},"specials":{"count":"0"},"hereNow":{"count":"0"},"referralId":"v-1392478048"},{"id":"4cd3d9ee72a1a1cd1e3f6751","name":"RGS Ltd, Bermondsey","location":{"lat":"51.504725","lng":"-0.067025","distance":"72","cc":"GB","country":"United Kingdom"},"categories":[{"id":"4bf58dd8d48988d130941735","name":"Building","pluralName":"Buildings","shortName":"Building","icon":{"prefix":"https:\/\/ss1.4sqi.net\/img\/categories_v2\/building\/default_","suffix":".png"},"primary":"true"}],"verified":"false","restricted":"true","stats":{"checkinsCount":"3","usersCount":"3","tipCount":"0"},"specials":{"count":"0"},"hereNow":{"count":"0"},"referralId":"v-1392478048"},{"id":"4cb982094495721e28b84a7a","name":"Pumblechook's","location":{"address":"Tower Hamlets, London E1W 1YY","lat":"51.50714244403687","lng":"-0.06778327699999917","distance":"317","postalCode":"E1W 1YY","cc":"GB","city":"London","state":"Greater London","country":"United Kingdom"},"categories":[{"id":"4bf58dd8d48988d16d941735","name":"Caf\u00e9","pluralName":"Caf\u00e9s","shortName":"Caf\u00e9","icon":{"prefix":"https:\/\/ss1.4sqi.net\/img\/categories_v2\/food\/cafe_","suffix":".png"},"primary":"true"}],"verified":"false","restricted":"true","stats":{"checkinsCount":"116","usersCount":"63","tipCount":"4"},"menu":{"type":"Menu","label":"Menu","anchor":"View Menu","url":"https:\/\/foursquare.com\/v\/pumblechooks\/4cb982094495721e28b84a7a\/menu","mobileUrl":"https:\/\/foursquare.com\/v\/4cb982094495721e28b84a7a\/device_menu"},"specials":{"count":"0"},"hereNow":{"count":"0"},"referralId":"v-1392478048"},{"id":"4bdb0ce3c79cc9288cdd80e9","name":"Riviera Court","location":{"lat":"51.504954","lng":"-0.067667","distance":"74","cc":"GB","country":"United Kingdom"},"verified":"false","restricted":"true","stats":{"checkinsCount":"7","usersCount":"2","tipCount":"0"},"specials":{"count":"0"},"hereNow":{"count":"0"},"referralId":"v-1392478048"}],"confident":"false"}}