{"meta":{"code":"200"},"response":{"venues":[{"id":"4e30193414953296330ac6d3","name":"Argus house","contact":{"twitter":"argusmedia"},"location":{"address":"175 St John St","lat":"51.52406667579888","lng":"-0.10293325604718413","distance":"26","postalCode":"EC1V 4LW","cc":"GB","city":"Islington","state":"Greater London","country":"United Kingdom"},"categories":[{"id":"4bf58dd8d48988d124941735","name":"Office","pluralName":"Offices","shortName":"Office","icon":{"prefix":"https:\/\/ss1.4sqi.net\/img\/categories_v2\/building\/default_","suffix":".png"},"primary":"true"}],"verified":"false","restricted":"true","stats":{"checkinsCount":"684","usersCount":"12","tipCount":"0"},"url":"http:\/\/www.argusmedia.com","specials":{"count":"0"},"hereNow":{"count":"0"},"referralId":"v-1392477992"},{"id":"4ac518c0f964a52094a320e3","name":"The Well","contact":{"phone":"+442072519363","formattedPhone":"+44 20 7251 9363","twitter":"thewellpub"},"location":{"address":"180 St John St.","lat":"51.524302","lng":"-0.103159","distance":"24","postalCode":"EC1V 4JY","cc":"GB","city":"Clerkenwell","state":"Greater London","country":"United Kingdom"},"categories":[{"id":"4bf58dd8d48988d155941735","name":"Gastropub","pluralName":"Gastropubs","shortName":"Gastropub","icon":{"prefix":"https:\/\/ss1.4sqi.net\/img\/categories_v2\/food\/gastropub_","suffix":".png"},"primary":"true"}],"verified":"true","restricted":"true","stats":{"checkinsCount":"1187","usersCount":"559","tipCount":"18"},"url":"http:\/\/www.downthewell.co.uk","reservations":{"url":"http:\/\/www.toptable.co.uk\/single.aspx?rid=32545&ref=9601"},"menu":{"type":"Menu","label":"Menu","anchor":"View Menu","url":"https:\/\/foursquare.com\/v\/the-well\/4ac518c0f964a52094a320e3\/menu","mobileUrl":"https:\/\/foursquare.com\/v\/4ac518c0f964a52094a320e3\/device_menu"},"specials":{"count":"2","items":[{"id":"51adf7f2abd8cc2a2a1f0d4b","type":"frequency","message":"As a loyal customers you can enjoy a drink on us every third time you check in! Choose from a draught beer, 175ml of house wine or selected soft drinks.","description":"Unlocked every 3 check-ins","finePrint":"Not valid in conjunction with any other offer.","icon":"frequency","title":"Loyalty Special","provider":"foursquare","redemption":"standard","page":{"id":"39619872","firstName":"The Well","gender":"none","photo":{"prefix":"https:\/\/irs3.4sqi.net\/img\/user\/","suffix":"\/LMJQ4HAALSCQV22S.jpg"},"type":"venuePage","venue":{"id":"4ac518c0f964a52094a320e3"},"tips":{"count":"0"},"homeCity":"Clerkenwell, Greater London","bio":"","contact":{"twitter":"thewellpub","facebook":"156372494426528"}}},{"id":"51adf7cbabd8cc2a2a1ef08a","type":"count","message":"Enjoy a complimentary bar snack up to the value of \u00a34.50 when you check in for the first time and purchase two drinks.","description":"Unlocked on your 1st check-in","finePrint":"Offer valid for one bar snack per person only. Not valid in conjunction with any other offer.","icon":"newbie","title":"Newbie Special","provider":"foursquare","redemption":"standard","page":{"id":"39619872","firstName":"The Well","gender":"none","photo":{"prefix":"https:\/\/irs3.4sqi.net\/img\/user\/","suffix":"\/LMJQ4HAALSCQV22S.jpg"},"type":"venuePage","venue":{"id":"4ac518c0f964a52094a320e3"},"tips":{"count":"0"},"homeCity":"Clerkenwell, Greater London","bio":"","contact":{"twitter":"thewellpub","facebook":"156372494426528"}}}]},"hereNow":{"count":"0"},"venuePage":{"id":"39619872"},"storeId":"","referralId":"v-1392477992"},{"id":"4b643e67f964a52015a62ae3","name":"Waitrose","contact":{"phone":"+442072531971","formattedPhone":"+44 20 7253 1971","twitter":"waitroseuk"},"location":{"address":"174 St. John St.","lat":"51.52396","lng":"-0.10265","distance":"38","postalCode":"EC1V 4DE","cc":"GB","city":"Clerkenwell","state":"Greater London","country":"United Kingdom"},"categories":[{"id":"4bf58dd8d48988d118951735","name":"Grocery Store","pluralName":"Grocery Stores","shortName":"Grocery Store","icon":{"prefix":"https:\/\/ss1.4sqi.net\/img\/categories_v2\/shops\/food_grocery_","suffix":".png"},"primary":"true"}],"verified":"false","restricted":"true","stats":{"checkinsCount":"3172","usersCount":"600","tipCount":"20"},"url":"http:\/\/www.waitrose.com","specials":{"count":"0"},"hereNow":{"count":"0"},"referralId":"v-1392477992"},{"id":"4f2d250ae4b083c426e0272d","name":"William Hill","contact":{"phone":"+448705181715","formattedPhone":"+44 870 518 1715","twitter":"williamhillplc"},"location":{"address":"181-183 St John St","lat":"51.524139109628045","lng":"-0.10278982776473118","distance":"16","postalCode":"EC1V 4LS","cc":"GB","city":"Finsbury","state":"Greater London","country":"United Kingdom"},"categories":[{"id":"52f2ab2ebcbc57f1066b8b40","name":"Betting Shop","pluralName":"Betting Shops","shortName":"Betting Shop","icon":{"prefix":"https:\/\/ss1.4sqi.net\/img\/categories_v2\/shops\/financial_","suffix":".png"},"primary":"true"}],"verified":"false","restricted":"true","stats":{"checkinsCount":"59","usersCount":"14","tipCount":"0"},"url":"http:\/\/www.williamhill.com","specials":{"count":"0"},"hereNow":{"count":"0"},"referralId":"v-1392477992"},{"id":"4befdfd7a09076b0f19d29d4","name":"Tesco Express","contact":{"phone":"+448450269898","formattedPhone":"+44 845 026 9898","twitter":"uktescooffers"},"location":{"address":"Brewhouse Yard","crossStreet":"St John St","lat":"51.52392473680907","lng":"-0.10248184204101562","distance":"46","postalCode":"EC1V 4DU","cc":"GB","city":"London","state":"Greater London","country":"United Kingdom"},"categories":[{"id":"4bf58dd8d48988d118951735","name":"Grocery Store","pluralName":"Grocery Stores","shortName":"Grocery Store","icon":{"prefix":"https:\/\/ss1.4sqi.net\/img\/categories_v2\/shops\/food_grocery_","suffix":".png"},"primary":"true"}],"verified":"true","restricted":"true","stats":{"checkinsCount":"907","usersCount":"209","tipCount":"4"},"url":"http:\/\/www.tesco.com","specials":{"count":"0"},"hereNow":{"count":"0"},"storeId":"5222","referralId":"v-1392477992"},{"id":"4bbf0605006dc9b6dbe8fb3f","name":"No 74 Hair and Beauty","location":{"lat":"51.524495","lng":"-0.10286","distance":"23","cc":"GB","city":"Islington","state":"Greater London","country":"United Kingdom"},"categories":[{"id":"4bf58dd8d48988d110951735","name":"Salon \/ Barbershop","pluralName":"Salons \/ Barbershops","shortName":"Salon \/ Barbershop","icon":{"prefix":"https:\/\/ss1.4sqi.net\/img\/categories_v2\/shops\/salon_barber_","suffix":".png"},"primary":"true"}],"verified":"false","restricted":"true","stats":{"checkinsCount":"65","usersCount":"17","tipCount":"0"},"specials":{"count":"0"},"hereNow":{"count":"0"},"referralId":"v-1392477992"},{"id":"4be98284947820a18816b6db","name":"Marmalade","contact":{"twitter":"marmaladeapps"},"location":{"address":"200 St John Street","lat":"51.524979430024345","lng":"-0.10355472564697266","distance":"92","postalCode":"EC1V 4RN","cc":"GB","city":"London","state":"Greater London","country":"United Kingdom"},"categories":[{"id":"4bf58dd8d48988d124941735","name":"Office","pluralName":"Offices","shortName":"Office","icon":{"prefix":"https:\/\/ss1.4sqi.net\/img\/categories_v2\/building\/default_","suffix":".png"},"primary":"true"}],"verified":"true","restricted":"true","stats":{"checkinsCount":"366","usersCount":"29","tipCount":"1"},"url":"http:\/\/www.madewithmarmalade.com","specials":{"count":"0"},"hereNow":{"count":"0"},"venuePage":{"id":"35367247"},"storeId":"","referralId":"v-1392477992"},{"id":"4ec55e3182313b673052b8fc","name":"The Artisan","contact":{"phone":"+442085244355","formattedPhone":"+44 20 8524 4355","twitter":"theartisanec1v"},"location":{"address":"53-54 St Johns Sq","lat":"51.522854885482815","lng":"-0.10381862158859002","distance":"174","postalCode":"EC1V 4JL","cc":"GB","city":"Clerkenwell","state":"Greater London","country":"United Kingdom"},"categories":[{"id":"4bf58dd8d48988d11b941735","name":"Pub","pluralName":"Pubs","shortName":"Pub","icon":{"prefix":"https:\/\/ss1.4sqi.net\/img\/categories_v2\/nightlife\/pub_","suffix":".png"},"primary":"true"}],"verified":"false","restricted":"true","stats":{"checkinsCount":"1816","usersCount":"616","tipCount":"18"},"url":"http:\/\/www.theartisanofclerkenwell.com","reservations":{"url":"http:\/\/www.toptable.co.uk\/single.aspx?rid=81136&ref=9601"},"menu":{"type":"Menu","label":"Menu","anchor":"View Menu","url":"https:\/\/foursquare.com\/v\/the-artisan\/4ec55e3182313b673052b8fc\/menu","mobileUrl":"https:\/\/foursquare.com\/v\/4ec55e3182313b673052b8fc\/device_menu"},"specials":{"count":"0"},"hereNow":{"count":"0"},"referralId":"v-1392477992"},{"id":"5075f6e483025e379ad10f69","name":"The Zetter Townhouse","contact":{"phone":"+442073244545","formattedPhone":"+44 20 7324 4545","twitter":"zthbar"},"location":{"address":"49-50 St John's Square","lat":"51.52291007217972","lng":"-0.1036834716796875","distance":"165","postalCode":"EC1V 4JJ","cc":"GB","city":"London","state":"Greater London","country":"United Kingdom"},"categories":[{"id":"4bf58dd8d48988d1fa931735","name":"Hotel","pluralName":"Hotels","shortName":"Hotel","icon":{"prefix":"https:\/\/ss1.4sqi.net\/img\/categories_v2\/travel\/hotel_","suffix":".png"},"primary":"true"}],"verified":"false","restricted":"true","stats":{"checkinsCount":"981","usersCount":"711","tipCount":"16"},"url":"http:\/\/www.thezettertownhouse.com","menu":{"type":"Menu","label":"Menu","anchor":"View Menu","url":"https:\/\/foursquare.com\/v\/the-zetter-townhouse\/5075f6e483025e379ad10f69\/menu","mobileUrl":"https:\/\/foursquare.com\/v\/5075f6e483025e379ad10f69\/device_menu"},"specials":{"count":"0"},"hereNow":{"count":"0"},"referralId":"v-1392477992"},{"id":"523994b3498e87f6c910a21b","name":"New Saigon Cafe","location":{"lat":"51.524705","lng":"-0.102867","distance":"46","cc":"GB","country":"United Kingdom"},"categories":[{"id":"4bf58dd8d48988d14a941735","name":"Vietnamese Restaurant","pluralName":"Vietnamese Restaurants","shortName":"Vietnamese","icon":{"prefix":"https:\/\/ss1.4sqi.net\/img\/categories_v2\/food\/default_","suffix":".png"},"primary":"true"}],"verified":"false","restricted":"true","stats":{"checkinsCount":"4","usersCount":"3","tipCount":"0"},"specials":{"count":"0"},"hereNow":{"count":"0"},"referralId":"v-1392477992"},{"id":"5179710ae4b060cade293370","name":"Mother At The Trampery","location":{"lat":"51.524748","lng":"-0.103621","distance":"76","cc":"GB","country":"United Kingdom"},"categories":[{"id":"4bf58dd8d48988d171941735","name":"Event Space","pluralName":"Event Spaces","shortName":"Event Space","icon":{"prefix":"https:\/\/ss1.4sqi.net\/img\/categories_v2\/building\/eventspace_","suffix":".png"},"primary":"true"}],"verified":"false","restricted":"true","stats":{"checkinsCount":"76","usersCount":"53","tipCount":"1"},"specials":{"count":"0"},"hereNow":{"count":"0"},"referralId":"v-1392477992"},{"id":"4ace3d36f964a5204ccf20e3","name":"Dovetail","contact":{"phone":"+442074907321","formattedPhone":"+44 20 7490 7321","twitter":"dovepubs"},"location":{"address":"9-10 Jerusalem Passage","crossStreet":"at Aylesbury St","lat":"51.523131","lng":"-0.103957","distance":"151","postalCode":"EC1V 4JP","cc":"GB","city":"Clerkenwell","state":"Greater London","country":"United Kingdom"},"categories":[{"id":"4bf58dd8d48988d11b941735","name":"Pub","pluralName":"Pubs","shortName":"Pub","icon":{"prefix":"https:\/\/ss1.4sqi.net\/img\/categories_v2\/nightlife\/pub_","suffix":".png"},"primary":"true"}],"verified":"false","restricted":"true","stats":{"checkinsCount":"1613","usersCount":"986","tipCount":"33"},"url":"http:\/\/dovepubs.com","specials":{"count":"0"},"hereNow":{"count":"0"},"referralId":"v-1392477992"},{"id":"51488ffbe4b058b47caab4d4","name":"Frontera London","contact":{"phone":"+442077807460","formattedPhone":"+44 20 7780 7460","twitter":"frontera_london"},"location":{"address":"St. John\u2019s House 54 St. John\u2019s Square","lat":"51.522876694669655","lng":"-0.10409116744995117","distance":"180","postalCode":"EC1V 4JL","cc":"GB","city":"London","state":"Greater London","country":"United Kingdom"},"categories":[{"id":"4bf58dd8d48988d1f4941735","name":"Design Studio","pluralName":"Design Studios","shortName":"Design","icon":{"prefix":"https:\/\/ss1.4sqi.net\/img\/categories_v2\/shops\/design_","suffix":".png"},"primary":"true"}],"verified":"true","restricted":"true","stats":{"checkinsCount":"102","usersCount":"5","tipCount":"2"},"url":"http:\/\/fronteralondon.com","specials":{"count":"0"},"hereNow":{"count":"0"},"venuePage":{"id":"76198614"},"storeId":"","referralId":"v-1392477992"},{"id":"4bffde1137850f476a49973f","name":"IPG Mediabrands \/ Initiative \/ UM \/ MAP","location":{"address":"42 St. John Square","crossStreet":"Clerkenwell Road","lat":"51.52321946525968","lng":"-0.10322679198239501","distance":"122","cc":"GB","city":"London","state":"Greater London","country":"United Kingdom"},"categories":[{"id":"4bf58dd8d48988d124941735","name":"Office","pluralName":"Offices","shortName":"Office","icon":{"prefix":"https:\/\/ss1.4sqi.net\/img\/categories_v2\/building\/default_","suffix":".png"},"primary":"true"}],"verified":"true","restricted":"true","stats":{"checkinsCount":"1114","usersCount":"126","tipCount":"4"},"specials":{"count":"0"},"hereNow":{"count":"0"},"referralId":"v-1392477992"},{"id":"50560983e4b0719d68a25ce1","name":"Cafe Tiffin","contact":{"phone":"+442074902883","formattedPhone":"+44 20 7490 2883"},"location":{"address":"69 Compton Street","lat":"51.524704216388685","lng":"-0.10283183545781602","distance":"46","postalCode":"Ec1v 0bn","cc":"GB","city":"London","state":"Greater London","country":"United Kingdom"},"categories":[{"id":"4bf58dd8d48988d10f941735","name":"Indian Restaurant","pluralName":"Indian Restaurants","shortName":"Indian","icon":{"prefix":"https:\/\/ss1.4sqi.net\/img\/categories_v2\/food\/indian_","suffix":".png"},"primary":"true"}],"verified":"false","restricted":"true","stats":{"checkinsCount":"13","usersCount":"12","tipCount":"0"},"url":"http:\/\/www.cafetiffin.com","reservations":{"url":"http:\/\/www.toptable.co.uk\/single.aspx?rid=92553&ref=9601"},"menu":{"type":"Menu","label":"Menu","anchor":"View Menu","url":"https:\/\/foursquare.com\/v\/cafe-tiffin\/50560983e4b0719d68a25ce1\/menu","mobileUrl":"https:\/\/foursquare.com\/v\/50560983e4b0719d68a25ce1\/device_menu"},"specials":{"count":"0"},"hereNow":{"count":"0"},"referralId":"v-1392477992"},{"id":"4ad3b7b9f964a520e1e520e3","name":"Sekforde Arms","contact":{"phone":"+442072533251","formattedPhone":"+44 20 7253 3251"},"location":{"address":"34 Sekforde St","lat":"51.524387","lng":"-0.104534","distance":"120","postalCode":"EC1R 0HA","cc":"GB","city":"London","state":"Greater London","country":"United Kingdom"},"categories":[{"id":"4bf58dd8d48988d11b941735","name":"Pub","pluralName":"Pubs","shortName":"Pub","icon":{"prefix":"https:\/\/ss1.4sqi.net\/img\/categories_v2\/nightlife\/pub_","suffix":".png"},"primary":"true"}],"verified":"false","restricted":"true","stats":{"checkinsCount":"541","usersCount":"238","tipCount":"5"},"specials":{"count":"0"},"hereNow":{"count":"0"},"referralId":"v-1392477992"},{"id":"4fb136b47716d2bd6a44ea86","name":"Pret A Manger","contact":{"phone":"+442079325467","formattedPhone":"+44 20 7932 5467","twitter":"pret","facebook":"162638680417951"},"location":{"address":"182 St John Street","lat":"51.522883370173616","lng":"-0.1020956039428711","distance":"163","postalCode":"EC1V 4JZ","cc":"GB","city":"London","state":"Greater London","country":"United Kingdom"},"categories":[{"id":"4bf58dd8d48988d1c5941735","name":"Sandwich Place","pluralName":"Sandwich Places","shortName":"Sandwiches","icon":{"prefix":"https:\/\/ss1.4sqi.net\/img\/categories_v2\/food\/sandwiches_","suffix":".png"},"primary":"true"}],"verified":"true","restricted":"true","stats":{"checkinsCount":"464","usersCount":"154","tipCount":"5"},"url":"http:\/\/www.pret.com","specials":{"count":"0"},"hereNow":{"count":"0"},"storeId":"317","referralId":"v-1392477992"},{"id":"50579ba4e4b04d76154232e7","name":"Oakwood Farringdon","contact":{"phone":"+442077494460","formattedPhone":"+44 20 7749 4460"},"location":{"address":"2 Brewhouse Yard","lat":"51.52411884438355","lng":"-0.10246697598468772","distance":"30","postalCode":"EC1V 4DG","cc":"GB","city":"London","state":"Greater London","country":"United Kingdom"},"categories":[{"id":"4d954b06a243a5684965b473","name":"Residential Building (Apartment \/ Condo)","pluralName":"Residential Buildings (Apartments \/ Condos)","shortName":"Residential","icon":{"prefix":"https:\/\/ss1.4sqi.net\/img\/categories_v2\/building\/apartment_","suffix":".png"},"primary":"true"}],"verified":"false","restricted":"true","stats":{"checkinsCount":"165","usersCount":"22","tipCount":"0"},"specials":{"count":"0"},"hereNow":{"count":"0"},"referralId":"v-1392477992"},{"id":"521a7f6011d2f9bf508fd16b","name":"Clerkenwell","location":{"lat":"51.52323686629324","lng":"-0.10199067315088069","distance":"129","cc":"GB","country":"United Kingdom"},"categories":[{"id":"4f2a25ac4b909258e854f55f","name":"Neighborhood","pluralName":"Neighborhoods","shortName":"Neighborhood","icon":{"prefix":"https:\/\/ss1.4sqi.net\/img\/categories_v2\/parks_outdoors\/neighborhood_","suffix":".png"},"primary":"true"}],"verified":"false","restricted":"true","stats":{"checkinsCount":"44","usersCount":"28","tipCount":"0"},"specials":{"count":"0"},"hereNow":{"count":"0"},"referralId":"v-1392477992"},{"id":"4ebcfa6277c8c21dea522e1e","name":"Verizon Business","location":{"lat":"51.523299","lng":"-0.103953","distance":"135","cc":"GB","city":"London","state":"Greater London","country":"United Kingdom"},"categories":[{"id":"4bf58dd8d48988d124941735","name":"Office","pluralName":"Offices","shortName":"Office","icon":{"prefix":"https:\/\/ss1.4sqi.net\/img\/categories_v2\/building\/default_","suffix":".png"},"primary":"true"}],"verified":"false","restricted":"true","stats":{"checkinsCount":"38","usersCount":"6","tipCount":"0"},"specials":{"count":"0"},"hereNow":{"count":"0"},"referralId":"v-1392477992"},{"id":"4be2c0b6d27a20a1dd39905b","name":"Into You","location":{"address":"144 St John Street","lat":"51.523335","lng":"-0.102362","distance":"110","cc":"GB","city":"Islington","state":"Greater London","country":"United Kingdom"},"categories":[{"id":"4bf58dd8d48988d1de931735","name":"Tattoo Parlor","pluralName":"Tattoo Parlors","shortName":"Tattoo","icon":{"prefix":"https:\/\/ss1.4sqi.net\/img\/categories_v2\/shops\/tattoos_","suffix":".png"},"primary":"true"}],"verified":"false","restricted":"true","stats":{"checkinsCount":"112","usersCount":"65","tipCount":"0"},"specials":{"count":"0"},"hereNow":{"count":"0"},"referralId":"v-1392477992"},{"id":"52304a0611d294de45b9c54e","name":"CorporateEdge","location":{"address":"69 Wilson Street","lat":"51.523468","lng":"-0.103178","distance":"95","cc":"GB","country":"United Kingdom"},"categories":[{"id":"4bf58dd8d48988d174941735","name":"Coworking Space","pluralName":"Coworking Spaces","shortName":"Coworking Space","icon":{"prefix":"https:\/\/ss1.4sqi.net\/img\/categories_v2\/building\/office_coworkingspace_","suffix":".png"},"primary":"true"}],"verified":"false","restricted":"true","stats":{"checkinsCount":"11","usersCount":"1","tipCount":"0"},"url":"http:\/\/www.corporateedge.com","specials":{"count":"0"},"hereNow":{"count":"0"},"referralId":"v-1392477992"},{"id":"4af1ab6ef964a5200de221e3","name":"Embassy Electrical Supplies","location":{"address":"76 Compton St","lat":"51.52451376808864","lng":"-0.10307255443387851","distance":"31","postalCode":"EC1V 0BN","cc":"GB","city":"London","state":"Greater London","country":"United Kingdom"},"categories":[{"id":"4bf58dd8d48988d122951735","name":"Electronics Store","pluralName":"Electronics Stores","shortName":"Electronics","icon":{"prefix":"https:\/\/ss1.4sqi.net\/img\/categories_v2\/shops\/technology_","suffix":".png"},"primary":"true"}],"verified":"false","restricted":"true","stats":{"checkinsCount":"18","usersCount":"15","tipCount":"3"},"specials":{"count":"0"},"hereNow":{"count":"0"},"referralId":"v-1392477992"},{"id":"4afd26c9f964a5200d2722e3","name":"hypernaked","contact":{"twitter":"_hypernaked"},"location":{"address":"159 - 173 St John St.","lat":"51.52324384593472","lng":"-0.10261058807373047","distance":"117","postalCode":"EC1V 4QJ","cc":"GB","city":"Islington","state":"Greater London","country":"United Kingdom"},"categories":[{"id":"4bf58dd8d48988d124941735","name":"Office","pluralName":"Offices","shortName":"Office","icon":{"prefix":"https:\/\/ss1.4sqi.net\/img\/categories_v2\/building\/default_","suffix":".png"},"primary":"true"}],"verified":"false","restricted":"true","stats":{"checkinsCount":"683","usersCount":"103","tipCount":"5"},"specials":{"count":"0"},"hereNow":{"count":"0"},"referralId":"v-1392477992"},{"id":"4ad622e8f964a520480521e3","name":"Cafe Saffron","location":{"address":"17B Aylesbury Street","lat":"51.523356","lng":"-0.104149","distance":"139","postalCode":"EC1R 0DR","cc":"GB","city":"London","state":"Greater London","country":"United Kingdom"},"categories":[{"id":"4bf58dd8d48988d10f941735","name":"Indian Restaurant","pluralName":"Indian Restaurants","shortName":"Indian","icon":{"prefix":"https:\/\/ss1.4sqi.net\/img\/categories_v2\/food\/indian_","suffix":".png"},"primary":"true"}],"verified":"false","restricted":"true","stats":{"checkinsCount":"164","usersCount":"111","tipCount":"1"},"specials":{"count":"0"},"hereNow":{"count":"0"},"referralId":"v-1392477992"},{"id":"4b76c991f964a5201b5f2ee3","name":"Conversational UK Ltd","contact":{"twitter":"richard_baker"},"location":{"address":"Crusader House, 145-157 St John Street","lat":"51.52417839943376","lng":"-0.10303974151611328","distance":"20","postalCode":"EC1V 4PY","cc":"GB","city":"Islington","state":"Greater London","country":"United Kingdom"},"verified":"false","restricted":"true","stats":{"checkinsCount":"1","usersCount":"1","tipCount":"0"},"specials":{"count":"0"},"hereNow":{"count":"0"},"referralId":"v-1392477992"},{"id":"4b4f2c08f964a52029fc26e3","name":"BDP","contact":{"phone":"+442078128000","formattedPhone":"+44 20 7812 8000","twitter":"bdp_com"},"location":{"address":"16 Brewhouse Yd.","lat":"51.523962","lng":"-0.101358","distance":"106","postalCode":"EC1V 4LJ","cc":"GB","city":"Clerkenwell","state":"Greater London","country":"United Kingdom"},"categories":[{"id":"4bf58dd8d48988d124941735","name":"Office","pluralName":"Offices","shortName":"Office","icon":{"prefix":"https:\/\/ss1.4sqi.net\/img\/categories_v2\/building\/default_","suffix":".png"},"primary":"true"}],"verified":"false","restricted":"true","stats":{"checkinsCount":"73","usersCount":"34","tipCount":"0"},"url":"http:\/\/www.bdp.com","specials":{"count":"0"},"hereNow":{"count":"0"},"referralId":"v-1392477992"},{"id":"4bea76e462c0c928bad7e0d4","name":"Liberty Living","location":{"lat":"51.525342","lng":"-0.103555","distance":"128","cc":"GB","country":"United Kingdom"},"categories":[{"id":"4bf58dd8d48988d1f8941735","name":"Furniture \/ Home Store","pluralName":"Furniture \/ Home Stores","shortName":"Furniture \/ Home","icon":{"prefix":"https:\/\/ss1.4sqi.net\/img\/categories_v2\/shops\/furniture_","suffix":".png"},"primary":"true"}],"verified":"false","restricted":"true","stats":{"checkinsCount":"373","usersCount":"53","tipCount":"0"},"specials":{"count":"0"},"hereNow":{"count":"0"},"referralId":"v-1392477992"},{"id":"4b9ea4f8f964a5204df636e3","name":"Brewery Square","location":{"lat":"51.52408245546377","lng":"-0.10302535041030697","distance":"27","cc":"GB","country":"United Kingdom"},"categories":[{"id":"4bf58dd8d48988d164941735","name":"Plaza","pluralName":"Plazas","shortName":"Plaza","icon":{"prefix":"https:\/\/ss1.4sqi.net\/img\/categories_v2\/parks_outdoors\/plaza_","suffix":".png"},"primary":"true"}],"verified":"false","restricted":"true","stats":{"checkinsCount":"33","usersCount":"8","tipCount":"1"},"specials":{"count":"0"},"hereNow":{"count":"0"},"referralId":"v-1392477992"},{"id":"52e61cb111d2924c50e7b044","name":"PBA","location":{"address":"16 brewhouse Yard","lat":"51.52386","lng":"-0.10172","distance":"88","cc":"GB","country":"United Kingdom"},"categories":[{"id":"4bf58dd8d48988d124941735","name":"Office","pluralName":"Offices","shortName":"Office","icon":{"prefix":"https:\/\/ss1.4sqi.net\/img\/categories_v2\/building\/default_","suffix":".png"},"primary":"true"}],"verified":"false","restricted":"true","stats":{"checkinsCount":"1","usersCount":"1","tipCount":"0"},"specials":{"count":"0"},"hereNow":{"count":"0"},"referralId":"v-1392477992"}],"confident":"false"}}