{"meta":{"code":"200"},"response":{"venues":[{"id":"4ac518d2f964a52026a720e3","name":"Hyde Park","location":{"address":"Serpentine Rd","lat":"51.50849","lng":"-0.167862","distance":"361","postalCode":"W2 2TP","cc":"GB","city":"London","state":"Greater London","country":"United Kingdom"},"categories":[{"id":"4bf58dd8d48988d163941735","name":"Park","pluralName":"Parks","shortName":"Park","icon":{"prefix":"https:\/\/ss1.4sqi.net\/img\/categories_v2\/parks_outdoors\/park_","suffix":".png"},"primary":"true"}],"verified":"false","restricted":"true","stats":{"checkinsCount":"51896","usersCount":"31326","tipCount":"281"},"specials":{"count":"0"},"hereNow":{"count":"9","groups":[{"type":"others","name":"Other people here","count":"9"}]},"storeId":"","referralId":"v-1392478025"},{"id":"4bd195aa9854d13a9abff94d","name":"Marble Arch","location":{"address":"Oxford St","crossStreet":"at Park Ln","lat":"51.513163","lng":"-0.158907","distance":"508","postalCode":"W1H","cc":"GB","city":"City of Westminster","state":"Greater London","country":"United Kingdom"},"categories":[{"id":"4bf58dd8d48988d12d941735","name":"Monument \/ Landmark","pluralName":"Monuments \/ Landmarks","shortName":"Landmark","icon":{"prefix":"https:\/\/ss1.4sqi.net\/img\/categories_v2\/building\/government_monument_","suffix":".png"},"primary":"true"}],"verified":"false","restricted":"true","stats":{"checkinsCount":"16234","usersCount":"10453","tipCount":"33"},"specials":{"count":"0"},"hereNow":{"count":"1","groups":[{"type":"others","name":"Other people here","count":"1"}]},"referralId":"v-1392478025"},{"id":"4b7c567cf964a5203a8d2fe3","name":"X90 Oxford-London bus","contact":{"phone":"+441865785400","formattedPhone":"+44 1865 785400","twitter":"oxfordbusco"},"location":{"address":"Moving Target!","lat":"51.511911003157316","lng":"-0.15861883887199388","distance":"411","cc":"GB","country":"United Kingdom"},"categories":[{"id":"4bf58dd8d48988d12b951735","name":"Bus Line","pluralName":"Bus Lines","shortName":"Bus","icon":{"prefix":"https:\/\/ss1.4sqi.net\/img\/categories_v2\/travel\/busstation_","suffix":".png"},"primary":"true"}],"verified":"false","restricted":"true","stats":{"checkinsCount":"1262","usersCount":"771","tipCount":"8"},"url":"http:\/\/www.x90london.co.uk","specials":{"count":"0"},"hereNow":{"count":"0"},"referralId":"v-1392478025"},{"id":"4ac518cef964a52001a620e3","name":"Speakers' Corner","location":{"address":"NE Corner of Hyde Park","lat":"51.511727237603196","lng":"-0.15970945358276367","distance":"345","postalCode":"W2 2UH","cc":"GB","city":"London","state":"Greater London","country":"United Kingdom"},"categories":[{"id":"4bf58dd8d48988d164941735","name":"Plaza","pluralName":"Plazas","shortName":"Plaza","icon":{"prefix":"https:\/\/ss1.4sqi.net\/img\/categories_v2\/parks_outdoors\/plaza_","suffix":".png"},"primary":"true"}],"verified":"false","restricted":"true","stats":{"checkinsCount":"3354","usersCount":"2784","tipCount":"18"},"specials":{"count":"0"},"hereNow":{"count":"0"},"referralId":"v-1392478025"},{"id":"4c5ad55a67ac0f47049d074c","name":"The Boat House","location":{"address":"Hyde Park","lat":"51.50566292720708","lng":"-0.16288560529259394","distance":"403","cc":"GB","city":"London","state":"Greater London","country":"United Kingdom"},"categories":[{"id":"4bf58dd8d48988d12d951735","name":"Boat or Ferry","pluralName":"Boats or Ferries","shortName":"Boat \/ Ferry","icon":{"prefix":"https:\/\/ss1.4sqi.net\/img\/categories_v2\/travel\/boat_","suffix":".png"},"primary":"true"}],"verified":"false","restricted":"true","stats":{"checkinsCount":"689","usersCount":"591","tipCount":"3"},"specials":{"count":"0"},"hereNow":{"count":"0"},"referralId":"v-1392478025"},{"id":"4ac518e7f964a5206eab20e3","name":"Odeon","contact":{"phone":"+442077238072","formattedPhone":"+44 20 7723 8072","twitter":"odeontheatres"},"location":{"address":"10 Edgware Rd","lat":"51.51357624212098","lng":"-0.15997115341077184","distance":"516","postalCode":"W2 2EN","cc":"GB","city":"Marble Arch","state":"Greater London","country":"United Kingdom"},"categories":[{"id":"4bf58dd8d48988d17f941735","name":"Movie Theater","pluralName":"Movie Theaters","shortName":"Movie Theater","icon":{"prefix":"https:\/\/ss1.4sqi.net\/img\/categories_v2\/arts_entertainment\/movietheater_","suffix":".png"},"primary":"true"}],"verified":"false","restricted":"true","stats":{"checkinsCount":"3443","usersCount":"2350","tipCount":"31"},"specials":{"count":"0"},"events":{"count":"7","summary":"7 movies"},"hereNow":{"count":"0"},"referralId":"v-1392478025"},{"id":"4f4c33dae4b023d675092620","name":"4-5 Hyde Park Place","location":{"lat":"51.511473817464825","lng":"-0.15929597275048366","distance":"343","cc":"GB","country":"United Kingdom"},"categories":[{"id":"4bf58dd8d48988d130941735","name":"Building","pluralName":"Buildings","shortName":"Building","icon":{"prefix":"https:\/\/ss1.4sqi.net\/img\/categories_v2\/building\/default_","suffix":".png"},"primary":"true"}],"verified":"false","restricted":"true","stats":{"checkinsCount":"465","usersCount":"363","tipCount":"3"},"specials":{"count":"0"},"hereNow":{"count":"2","groups":[{"type":"others","name":"Other people here","count":"2"}]},"referralId":"v-1392478025"},{"id":"4b4dbf69f964a520b9d626e3","name":"Serpentine Bar & Kitchen","contact":{"phone":"+442077068114","formattedPhone":"+44 20 7706 8114","twitter":"serpentinebk"},"location":{"address":"Serpentine Rd","crossStreet":"Hyde Park","lat":"51.50497615014911","lng":"-0.15990257263183594","distance":"520","postalCode":"W2 2UH","cc":"GB","city":"London","state":"Greater London","country":"United Kingdom"},"categories":[{"id":"4bf58dd8d48988d1c4941735","name":"Restaurant","pluralName":"Restaurants","shortName":"Restaurant","icon":{"prefix":"https:\/\/ss1.4sqi.net\/img\/categories_v2\/food\/default_","suffix":".png"},"primary":"true"}],"verified":"false","restricted":"true","stats":{"checkinsCount":"3616","usersCount":"2790","tipCount":"57"},"url":"http:\/\/www.serpentinebarandkitchen.com","reservations":{"url":"http:\/\/www.toptable.co.uk\/single.aspx?rid=53695&ref=9601"},"menu":{"type":"Menu","label":"Menu","anchor":"View Menu","url":"https:\/\/foursquare.com\/v\/serpentine-bar--kitchen\/4b4dbf69f964a520b9d626e3\/menu","mobileUrl":"https:\/\/foursquare.com\/v\/4b4dbf69f964a520b9d626e3\/device_menu"},"specials":{"count":"0"},"hereNow":{"count":"0"},"referralId":"v-1392478025"},{"id":"4bc9eb79511f9521e585aec7","name":"Pret A Manger","contact":{"phone":"+442079325240","formattedPhone":"+44 20 7932 5240","twitter":"pret","facebook":"162638680417951"},"location":{"address":"556 Oxford St","lat":"51.51336310722725","lng":"-0.15874385833740234","distance":"533","postalCode":"W1C 1LZ","cc":"GB","city":"London","state":"Greater London","country":"United Kingdom"},"categories":[{"id":"4bf58dd8d48988d1c5941735","name":"Sandwich Place","pluralName":"Sandwich Places","shortName":"Sandwiches","icon":{"prefix":"https:\/\/ss1.4sqi.net\/img\/categories_v2\/food\/sandwiches_","suffix":".png"},"primary":"true"}],"verified":"true","restricted":"true","stats":{"checkinsCount":"3423","usersCount":"2384","tipCount":"35"},"url":"http:\/\/www.pret.com","specials":{"count":"0"},"hereNow":{"count":"1","groups":[{"type":"others","name":"Other people here","count":"1"}]},"storeId":"40","referralId":"v-1392478025"},{"id":"4bfd0211b68d0f47c315e857","name":"Animals In War Memorial","contact":{"phone":"+442076416000","formattedPhone":"+44 20 7641 6000"},"location":{"address":"Brook Gate, Park Ln.","lat":"51.51090594213255","lng":"-0.15728473663330078","distance":"422","postalCode":"W1K 7TG","cc":"GB","city":"Mayfair","state":"Greater London","country":"United Kingdom"},"categories":[{"id":"4bf58dd8d48988d12d941735","name":"Monument \/ Landmark","pluralName":"Monuments \/ Landmarks","shortName":"Landmark","icon":{"prefix":"https:\/\/ss1.4sqi.net\/img\/categories_v2\/building\/government_monument_","suffix":".png"},"primary":"true"}],"verified":"false","restricted":"true","stats":{"checkinsCount":"501","usersCount":"354","tipCount":"2"},"url":"http:\/\/www.animalsinwar.org.uk\/index.cfm?asset_id=1373","specials":{"count":"0"},"hereNow":{"count":"0"},"referralId":"v-1392478025"},{"id":"4bf2eab5d2fbef3b9f8ea4c5","name":"JW Steakhouse","contact":{"phone":"+442073998460","formattedPhone":"+44 20 7399 8460","twitter":"jw_steakhouse"},"location":{"address":"86-90 Park Ln","lat":"51.50967299938202","lng":"-0.15576153","distance":"489","postalCode":"W1K 7TN","cc":"GB","city":"Mayfair","state":"Greater London","country":"United Kingdom"},"categories":[{"id":"4bf58dd8d48988d1cc941735","name":"Steakhouse","pluralName":"Steakhouses","shortName":"Steakhouse","icon":{"prefix":"https:\/\/ss1.4sqi.net\/img\/categories_v2\/food\/steakhouse_","suffix":".png"},"primary":"true"}],"verified":"false","restricted":"true","stats":{"checkinsCount":"869","usersCount":"621","tipCount":"36"},"url":"http:\/\/www.jwsteakhouse.co.uk","menu":{"type":"Menu","label":"Menu","anchor":"View Menu","url":"https:\/\/foursquare.com\/v\/jw-steakhouse\/4bf2eab5d2fbef3b9f8ea4c5\/menu","mobileUrl":"https:\/\/foursquare.com\/v\/4bf2eab5d2fbef3b9f8ea4c5\/device_menu"},"specials":{"count":"0"},"hereNow":{"count":"0"},"referralId":"v-1392478025"},{"id":"4c46b6120f5aa593f3937b76","name":"Horse At Water","location":{"address":"2 A40","lat":"51.512884434467416","lng":"-0.1590865770952702","distance":"475","postalCode":"W1H 7","cc":"GB","city":"Paddington","state":"Greater London","country":"United Kingdom"},"categories":[{"id":"4bf58dd8d48988d166941735","name":"Sculpture Garden","pluralName":"Sculpture Gardens","shortName":"Sculpture","icon":{"prefix":"https:\/\/ss1.4sqi.net\/img\/categories_v2\/parks_outdoors\/sculpture_","suffix":".png"},"primary":"true"}],"verified":"false","restricted":"true","stats":{"checkinsCount":"446","usersCount":"271","tipCount":"3"},"specials":{"count":"0"},"hereNow":{"count":"0"},"referralId":"v-1392478025"},{"id":"4c07955b0e0a2d7f087eed0c","name":"McDonald's","contact":{"phone":"+442074026297","formattedPhone":"+44 20 7402 6297"},"location":{"address":"2-3 Marble Arch","lat":"51.51340316860357","lng":"-0.15917301177978516","distance":"522","postalCode":"W1H 7AP","cc":"GB","city":"London","state":"Greater London","country":"United Kingdom"},"categories":[{"id":"4bf58dd8d48988d16e941735","name":"Fast Food Restaurant","pluralName":"Fast Food Restaurants","shortName":"Fast Food","icon":{"prefix":"https:\/\/ss1.4sqi.net\/img\/categories_v2\/food\/fastfood_","suffix":".png"},"primary":"true"}],"verified":"false","restricted":"true","stats":{"checkinsCount":"1577","usersCount":"1238","tipCount":"16"},"url":"http:\/\/www.mcdonalds.co.uk\/ukhome.html","specials":{"count":"0"},"hereNow":{"count":"0"},"referralId":"v-1392478025"},{"id":"4d171d83bb488cfa0771aad4","name":"Marble Arch Bus Station","location":{"address":"Westminster","lat":"51.51235332883857","lng":"-0.1581317141196283","distance":"470","postalCode":"W1H 7EL","cc":"GB","city":"London","state":"Greater London","country":"United Kingdom"},"categories":[{"id":"4bf58dd8d48988d12b951735","name":"Bus Line","pluralName":"Bus Lines","shortName":"Bus","icon":{"prefix":"https:\/\/ss1.4sqi.net\/img\/categories_v2\/travel\/busstation_","suffix":".png"},"primary":"true"}],"verified":"false","restricted":"true","stats":{"checkinsCount":"905","usersCount":"505","tipCount":"2"},"specials":{"count":"0"},"hereNow":{"count":"0"},"referralId":"v-1392478025"},{"id":"52c56758498e23248b73bbe0","name":"Arctic Circle","location":{"lat":"51.50712585449219","lng":"-0.15923340618610382","distance":"345","cc":"GB","country":"United Kingdom"},"categories":[{"id":"4bf58dd8d48988d1f1931735","name":"General Entertainment","pluralName":"General Entertainment","shortName":"Entertainment","icon":{"prefix":"https:\/\/ss1.4sqi.net\/img\/categories_v2\/arts_entertainment\/default_","suffix":".png"},"primary":"true"}],"verified":"false","restricted":"true","stats":{"checkinsCount":"1","usersCount":"1","tipCount":"0"},"specials":{"count":"0"},"hereNow":{"count":"1","groups":[{"type":"others","name":"Other people here","count":"1"}]},"referralId":"v-1392478025"},{"id":"5267b16d498e3cbb9a72386e","name":"\u0413\u0430\u0439\u0434 \u041f\u0430\u0440\u043a","location":{"lat":"51.51030361138374","lng":"-0.16272412276723536","distance":"113","cc":"GB","country":"United Kingdom"},"categories":[{"id":"4d954b16a243a5684b65b473","name":"Rest Area","pluralName":"Rest Areas","shortName":"Rest Areas","icon":{"prefix":"https:\/\/ss1.4sqi.net\/img\/categories_v2\/travel\/restarea_","suffix":".png"},"primary":"true"}],"verified":"false","restricted":"true","stats":{"checkinsCount":"5","usersCount":"5","tipCount":"0"},"specials":{"count":"0"},"hereNow":{"count":"0"},"referralId":"v-1392478025"},{"id":"4ac518bff964a52058a320e3","name":"Salt Whisky Bar","contact":{"phone":"+442074021155","formattedPhone":"+44 20 7402 1155","twitter":"saltwhiskybar"},"location":{"address":"82 Seymour St","lat":"51.51430886347134","lng":"-0.16165559413911007","distance":"564","postalCode":"W2 2JB","cc":"GB","city":"Marble Arch","state":"Greater London","country":"United Kingdom"},"categories":[{"id":"4bf58dd8d48988d122941735","name":"Whisky Bar","pluralName":"Whisky Bars","shortName":"Whisky Bar","icon":{"prefix":"https:\/\/ss1.4sqi.net\/img\/categories_v2\/nightlife\/whiskey_","suffix":".png"},"primary":"true"}],"verified":"false","restricted":"true","stats":{"checkinsCount":"4117","usersCount":"1408","tipCount":"32"},"url":"http:\/\/www.saltbar.com","reservations":{"url":"http:\/\/www.toptable.co.uk\/single.aspx?rid=24942&ref=9601"},"menu":{"type":"Menu","label":"Menu","anchor":"View Menu","url":"https:\/\/foursquare.com\/v\/salt-whisky-bar\/4ac518bff964a52058a320e3\/menu","mobileUrl":"https:\/\/foursquare.com\/v\/4ac518bff964a52058a320e3\/device_menu"},"specials":{"count":"0"},"hereNow":{"count":"0"},"referralId":"v-1392478025"},{"id":"50b1218be4b0f706d004a300","name":"\u0422\u0418\u041f\u0410 \u0412 \u0422\u0410\u041a\u0421\u0418","location":{"lat":"51.510877","lng":"-0.157587","distance":"402","cc":"GB","country":"United Kingdom"},"categories":[{"id":"4f2a23984b9023bd5841ed2c","name":"Moving Target","pluralName":"Moving Targets","shortName":"Moving Target","icon":{"prefix":"https:\/\/ss1.4sqi.net\/img\/categories_v2\/travel\/movingtarget_","suffix":".png"},"primary":"true"}],"verified":"false","restricted":"true","stats":{"checkinsCount":"3","usersCount":"3","tipCount":"0"},"specials":{"count":"0"},"hereNow":{"count":"1","groups":[{"type":"others","name":"Other people here","count":"1"}]},"referralId":"v-1392478025"},{"id":"521e1b2811d243e1d10a5238","name":"Afternoon Tea - Park Room","location":{"address":"Grovner Hotel","crossStreet":"Park Lane","lat":"51.508624","lng":"-0.16006","distance":"203","cc":"GB","city":"London","state":"Greater London","country":"United Kingdom"},"categories":[{"id":"4bf58dd8d48988d16d941735","name":"Caf\u00e9","pluralName":"Caf\u00e9s","shortName":"Caf\u00e9","icon":{"prefix":"https:\/\/ss1.4sqi.net\/img\/categories_v2\/food\/cafe_","suffix":".png"},"primary":"true"}],"verified":"false","restricted":"true","stats":{"checkinsCount":"5","usersCount":"5","tipCount":"0"},"specials":{"count":"0"},"hereNow":{"count":"0"},"referralId":"v-1392478025"},{"id":"4ce49612302d548115d1c95f","name":"Aston Martin W-One","contact":{"phone":"+442074955202","formattedPhone":"+44 20 7495 5202"},"location":{"address":"113 Park Ln","crossStreet":"Brook House","lat":"51.51102435349419","lng":"-0.1568203674629364","distance":"457","postalCode":"W1K 7AJ","cc":"GB","city":"London","state":"Greater London","country":"United Kingdom"},"categories":[{"id":"4eb1c1623b7b52c0e1adc2ec","name":"Car Dealership","pluralName":"Car Dealerships","shortName":"Car Dealer","icon":{"prefix":"https:\/\/ss1.4sqi.net\/img\/categories_v2\/shops\/automotive_","suffix":".png"},"primary":"true"}],"verified":"false","restricted":"true","stats":{"checkinsCount":"734","usersCount":"513","tipCount":"0"},"url":"http:\/\/www.astonmartin.com\/en\/the-company\/locations\/w-one","specials":{"count":"0"},"hereNow":{"count":"0"},"referralId":"v-1392478025"},{"id":"4be1d7b8ae55a593bfbb5b62","name":"Marriott Park Lane","location":{"address":"140 Park Ln","lat":"51.51291254437144","lng":"-0.1579181846400397","distance":"526","postalCode":"W1K 7AA","cc":"GB","city":"London","state":"Greater London","country":"United Kingdom"},"categories":[{"id":"4bf58dd8d48988d1fa931735","name":"Hotel","pluralName":"Hotels","shortName":"Hotel","icon":{"prefix":"https:\/\/ss1.4sqi.net\/img\/categories_v2\/travel\/hotel_","suffix":".png"},"primary":"true"}],"verified":"false","restricted":"true","stats":{"checkinsCount":"1342","usersCount":"630","tipCount":"9"},"specials":{"count":"0"},"hereNow":{"count":"0"},"referralId":"v-1392478025"},{"id":"52965f5b498e26ef2ae8f3cb","name":"Giant Wheel","location":{"address":"Hyde Park","lat":"51.507772","lng":"-0.159508","distance":"283","cc":"GB","country":"United Kingdom"},"categories":[{"id":"5109983191d435c0d71c2bb1","name":"Theme Park Ride \/ Attraction","pluralName":"Theme Park Rides\/Attractions","shortName":"Theme Park","icon":{"prefix":"https:\/\/ss1.4sqi.net\/img\/categories_v2\/arts_entertainment\/themepark_","suffix":".png"},"primary":"true"}],"verified":"false","restricted":"true","stats":{"checkinsCount":"24","usersCount":"23","tipCount":"0"},"specials":{"count":"0"},"hereNow":{"count":"0"},"referralId":"v-1392478025"},{"id":"4d4effae94398cfaeb61a2c8","name":"Al Balad Lebanese Cuisine","location":{"lat":"51.514307","lng":"-0.1617","distance":"563","cc":"GB","country":"United Kingdom"},"categories":[{"id":"4bf58dd8d48988d115941735","name":"Middle Eastern Restaurant","pluralName":"Middle Eastern Restaurants","shortName":"Middle Eastern","icon":{"prefix":"https:\/\/ss1.4sqi.net\/img\/categories_v2\/food\/default_","suffix":".png"},"primary":"true"}],"verified":"false","restricted":"true","stats":{"checkinsCount":"534","usersCount":"407","tipCount":"8"},"specials":{"count":"0"},"hereNow":{"count":"1","groups":[{"type":"others","name":"Other people here","count":"1"}]},"referralId":"v-1392478025"},{"id":"4c53110706901b8d97287f49","name":"Sainsbury's Local","contact":{"phone":"+442072249516","formattedPhone":"+44 20 7224 9516"},"location":{"address":"Marble Arch Tower","crossStreet":"55 Bryanston St","lat":"51.51337979947166","lng":"-0.15990927815437317","distance":"497","postalCode":"W1H 7AA","cc":"GB","city":"London","state":"Greater London","country":"United Kingdom"},"categories":[{"id":"4bf58dd8d48988d118951735","name":"Grocery Store","pluralName":"Grocery Stores","shortName":"Grocery Store","icon":{"prefix":"https:\/\/ss1.4sqi.net\/img\/categories_v2\/shops\/food_grocery_","suffix":".png"},"primary":"true"}],"verified":"false","restricted":"true","stats":{"checkinsCount":"900","usersCount":"438","tipCount":"2"},"specials":{"count":"0"},"hereNow":{"count":"0"},"referralId":"v-1392478025"},{"id":"525d8d21498e33c564530a9b","name":"Knights Bridge","location":{"lat":"51.51038033095578","lng":"-0.15994754851346685","distance":"232","cc":"GB","country":"United Kingdom"},"categories":[{"id":"4bf58dd8d48988d1df941735","name":"Bridge","pluralName":"Bridges","shortName":"Bridge","icon":{"prefix":"https:\/\/ss1.4sqi.net\/img\/categories_v2\/parks_outdoors\/bridge_","suffix":".png"},"primary":"true"}],"verified":"false","restricted":"true","stats":{"checkinsCount":"28","usersCount":"26","tipCount":"0"},"specials":{"count":"0"},"hereNow":{"count":"0"},"referralId":"v-1392478025"},{"id":"4cfae5d1c6cca35d67448932","name":"Albion Gate","location":{"address":"Hyde Pk.","lat":"51.51250368550415","lng":"-0.16688557324176556","distance":"456","cc":"GB","city":"London","state":"Greater London","country":"United Kingdom"},"categories":[{"id":"4bf58dd8d48988d130941735","name":"Building","pluralName":"Buildings","shortName":"Building","icon":{"prefix":"https:\/\/ss1.4sqi.net\/img\/categories_v2\/building\/default_","suffix":".png"},"primary":"true"}],"verified":"false","restricted":"true","stats":{"checkinsCount":"271","usersCount":"75","tipCount":"0"},"specials":{"count":"0"},"hereNow":{"count":"0"},"referralId":"v-1392478025"},{"id":"4ecb65c9722efb00f83c0cb7","name":"Stanhope Place Gate","location":{"address":"Hyde Park","lat":"51.51287521264874","lng":"-0.16279206197945056","distance":"399","cc":"GB","city":"London","state":"Greater London","country":"United Kingdom"},"categories":[{"id":"4bf58dd8d48988d130941735","name":"Building","pluralName":"Buildings","shortName":"Building","icon":{"prefix":"https:\/\/ss1.4sqi.net\/img\/categories_v2\/building\/default_","suffix":".png"},"primary":"true"}],"verified":"false","restricted":"true","stats":{"checkinsCount":"49","usersCount":"22","tipCount":"1"},"specials":{"count":"0"},"hereNow":{"count":"0"},"referralId":"v-1392478025"},{"id":"51d96b96498e32f15531b2d6","name":"A Day At The Park @ Hyde Park","location":{"lat":"51.51043689304227","lng":"-0.15909930204066317","distance":"286","cc":"GB","country":"United Kingdom"},"categories":[{"id":"4bf58dd8d48988d1f1931735","name":"General Entertainment","pluralName":"General Entertainment","shortName":"Entertainment","icon":{"prefix":"https:\/\/ss1.4sqi.net\/img\/categories_v2\/arts_entertainment\/default_","suffix":".png"},"primary":"true"}],"verified":"false","restricted":"true","stats":{"checkinsCount":"34","usersCount":"31","tipCount":"2"},"specials":{"count":"0"},"hereNow":{"count":"0"},"referralId":"v-1392478025"},{"id":"529b64df11d299f4642db3f1","name":"Carousel Bar","location":{"address":"Winter wonderland","lat":"51.507524","lng":"-0.157284","distance":"429","cc":"GB","country":"United Kingdom"},"categories":[{"id":"4bf58dd8d48988d116941735","name":"Bar","pluralName":"Bars","shortName":"Bar","icon":{"prefix":"https:\/\/ss1.4sqi.net\/img\/categories_v2\/nightlife\/bar_","suffix":".png"},"primary":"true"}],"verified":"false","restricted":"true","stats":{"checkinsCount":"36","usersCount":"36","tipCount":"0"},"specials":{"count":"0"},"hereNow":{"count":"0"},"referralId":"v-1392478025"},{"id":"52e128d0498e1c6871e3ec57","name":"Lanes of London","contact":{"phone":"+442076475664","formattedPhone":"+44 20 7647 5664","twitter":"lanes_of_london"},"location":{"address":"140 Park Lane","lat":"51.51283030745561","lng":"-0.15803269593117344","distance":"514","postalCode":"W1K 7AA","cc":"GB","city":"London","state":"Greater London","country":"United Kingdom"},"categories":[{"id":"4bf58dd8d48988d1c4941735","name":"Restaurant","pluralName":"Restaurants","shortName":"Restaurant","icon":{"prefix":"https:\/\/ss1.4sqi.net\/img\/categories_v2\/food\/default_","suffix":".png"},"primary":"true"}],"verified":"false","restricted":"true","stats":{"checkinsCount":"18","usersCount":"17","tipCount":"0"},"reservations":{"url":"http:\/\/www.toptable.co.uk\/single.aspx?rid=99714&ref=9601"},"specials":{"count":"0"},"hereNow":{"count":"0"},"referralId":"v-1392478025"}],"confident":"true"}}