{"meta":{"code":"200"},"response":{"venues":[{"id":"4ac518d3f964a52054a720e3","name":"The Sherlock Holmes Museum","contact":{"phone":"+442072243688","formattedPhone":"+44 20 7224 3688"},"location":{"address":"221B Baker St","lat":"51.52366656248244","lng":"-0.15813865791571094","distance":"73","postalCode":"NW1 6XE","cc":"GB","city":"London","state":"Greater London","country":"United Kingdom"},"categories":[{"id":"4bf58dd8d48988d181941735","name":"Museum","pluralName":"Museums","shortName":"Museum","icon":{"prefix":"https:\/\/ss1.4sqi.net\/img\/categories_v2\/arts_entertainment\/museum_","suffix":".png"},"primary":"true"}],"verified":"false","restricted":"true","stats":{"checkinsCount":"5455","usersCount":"4903","tipCount":"48"},"url":"http:\/\/www.sherlock-holmes.co.uk","specials":{"count":"0"},"hereNow":{"count":"2","groups":[{"type":"others","name":"Other people here","count":"2"}]},"referralId":"v-1392477987"},{"id":"4bd2e22b9854d13a046efc4d","name":"Regent's Park (Baker Street entrance)","location":{"address":"Ivor Place","crossStreet":"Baker Street","lat":"51.52487438132752","lng":"-0.15756681800820246","distance":"67","cc":"GB","city":"London","state":"Greater London","country":"United Kingdom"},"categories":[{"id":"4bf58dd8d48988d163941735","name":"Park","pluralName":"Parks","shortName":"Park","icon":{"prefix":"https:\/\/ss1.4sqi.net\/img\/categories_v2\/parks_outdoors\/park_","suffix":".png"},"primary":"true"}],"verified":"false","restricted":"true","stats":{"checkinsCount":"2412","usersCount":"1762","tipCount":"16"},"specials":{"count":"0"},"hereNow":{"count":"0"},"referralId":"v-1392477987"},{"id":"4b530264f964a5207c8c27e3","name":"The Volunteer","contact":{"phone":"+442074864091","formattedPhone":"+44 20 7486 4091","twitter":"thevolunteernw1","facebook":"118713478183303"},"location":{"address":"245-247 Baker St","lat":"51.523976","lng":"-0.15834144569899028","distance":"51","postalCode":"NW1 6XE","cc":"GB","city":"London","state":"Greater London","country":"United Kingdom"},"categories":[{"id":"4bf58dd8d48988d155941735","name":"Gastropub","pluralName":"Gastropubs","shortName":"Gastropub","icon":{"prefix":"https:\/\/ss1.4sqi.net\/img\/categories_v2\/food\/gastropub_","suffix":".png"},"primary":"true"}],"verified":"true","restricted":"true","stats":{"checkinsCount":"2353","usersCount":"1349","tipCount":"36"},"url":"http:\/\/www.thevolunteernw1.co.uk","menu":{"type":"Menu","label":"Menu","anchor":"View Menu","url":"https:\/\/foursquare.com\/v\/the-volunteer\/4b530264f964a5207c8c27e3\/menu","mobileUrl":"https:\/\/foursquare.com\/v\/4b530264f964a5207c8c27e3\/device_menu"},"specials":{"count":"0"},"hereNow":{"count":"0"},"venuePage":{"id":"51537472"},"storeId":"","referralId":"v-1392477987"},{"id":"4f74e98fe4b0ae979f808488","name":"221B Baker Street","location":{"address":"221B Baker St","lat":"51.5235745702531","lng":"-0.1581718371072543","distance":"83","cc":"GB","city":"City of Westminster","state":"Greater London","country":"United Kingdom"},"categories":[{"id":"4bf58dd8d48988d130941735","name":"Building","pluralName":"Buildings","shortName":"Building","icon":{"prefix":"https:\/\/ss1.4sqi.net\/img\/categories_v2\/building\/default_","suffix":".png"},"primary":"true"}],"verified":"false","restricted":"true","stats":{"checkinsCount":"1374","usersCount":"1239","tipCount":"5"},"specials":{"count":"0"},"hereNow":{"count":"0"},"referralId":"v-1392477987"},{"id":"4b96a1a9f964a52019da34e3","name":"The London Beatles Store","contact":{"phone":"+442079354464","formattedPhone":"+44 20 7935 4464"},"location":{"address":"231 Baker St.","crossStreet":"Melcombe St.","lat":"51.52352346315762","lng":"-0.15816319229877848","distance":"88","postalCode":"NW1 6XE","cc":"GB","city":"London","state":"Greater London","country":"United Kingdom"},"categories":[{"id":"4bf58dd8d48988d128951735","name":"Gift Shop","pluralName":"Gift Shops","shortName":"Gift Shop","icon":{"prefix":"https:\/\/ss1.4sqi.net\/img\/categories_v2\/shops\/giftshop_","suffix":".png"},"primary":"true"}],"verified":"false","restricted":"true","stats":{"checkinsCount":"1277","usersCount":"1083","tipCount":"10"},"specials":{"count":"0"},"hereNow":{"count":"0"},"referralId":"v-1392477987"},{"id":"4f159852a17c8a14455c9580","name":"Pret A Manger","contact":{"phone":"+442079325443","formattedPhone":"+44 20 7932 5443","twitter":"pret","facebook":"162638680417951"},"location":{"address":"211 - 213 Baker Street","lat":"51.5228854144","lng":"-0.158101896403","distance":"157","postalCode":"NW1 6UY","cc":"GB","city":"London","state":"Greater London","country":"United Kingdom"},"categories":[{"id":"4bf58dd8d48988d1c5941735","name":"Sandwich Place","pluralName":"Sandwich Places","shortName":"Sandwiches","icon":{"prefix":"https:\/\/ss1.4sqi.net\/img\/categories_v2\/food\/sandwiches_","suffix":".png"},"primary":"true"}],"verified":"true","restricted":"true","stats":{"checkinsCount":"1122","usersCount":"649","tipCount":"3"},"url":"http:\/\/www.pret.com","specials":{"count":"0"},"hereNow":{"count":"1","groups":[{"type":"others","name":"Other people here","count":"1"}]},"storeId":"275","referralId":"v-1392477987"},{"id":"4e6a3e6418a83989ec603e25","name":"Vy's Nails","location":{"address":"Baker Street","lat":"51.52376947258936","lng":"-0.15830768244923857","distance":"67","cc":"GB","city":"London","state":"Greater London","country":"United Kingdom"},"categories":[{"id":"4f04aa0c2fb6e1c99f3db0b8","name":"Nail Salon","pluralName":"Nail Salons","shortName":"Nail Salon","icon":{"prefix":"https:\/\/ss1.4sqi.net\/img\/categories_v2\/shops\/nailsalon_","suffix":".png"},"primary":"true"}],"verified":"false","restricted":"true","stats":{"checkinsCount":"147","usersCount":"52","tipCount":"1"},"specials":{"count":"0"},"hereNow":{"count":"0"},"referralId":"v-1392477987"},{"id":"4bd4a6937b1876b00e828986","name":"Clarence Gate Gardens","location":{"address":"Glentworth St","lat":"51.52339948446127","lng":"-0.15875394078431643","distance":"118","postalCode":"NW1 6","cc":"GB","city":"City of Westminster","state":"Greater London","country":"United Kingdom"},"categories":[{"id":"4d954b06a243a5684965b473","name":"Residential Building (Apartment \/ Condo)","pluralName":"Residential Buildings (Apartments \/ Condos)","shortName":"Residential","icon":{"prefix":"https:\/\/ss1.4sqi.net\/img\/categories_v2\/building\/apartment_","suffix":".png"},"primary":"true"}],"verified":"false","restricted":"true","stats":{"checkinsCount":"650","usersCount":"36","tipCount":"2"},"specials":{"count":"0"},"hereNow":{"count":"0"},"referralId":"v-1392477987"},{"id":"51530e84e4b0cc67a7150e98","name":"Thai London Therapy","contact":{"phone":"+447872525489","formattedPhone":"+44 7872 525489"},"location":{"address":"60-61 Rossmore Road","lat":"51.52495829275106","lng":"-0.16046491794746826","distance":"198","postalCode":"NW1 6RB","cc":"GB","city":"London","state":"Greater London","country":"United Kingdom"},"categories":[{"id":"4bf58dd8d48988d1ed941735","name":"Spa","pluralName":"Spas","shortName":"Spa","icon":{"prefix":"https:\/\/ss1.4sqi.net\/img\/categories_v2\/shops\/spa_","suffix":".png"},"primary":"true"}],"verified":"false","restricted":"true","stats":{"checkinsCount":"18","usersCount":"17","tipCount":"0"},"specials":{"count":"0"},"hereNow":{"count":"2","groups":[{"type":"others","name":"Other people here","count":"2"}]},"referralId":"v-1392477987"},{"id":"4c3f3b06d7fad13acb2e04da","name":"It's Only Rock 'N' Roll","contact":{"phone":"+442072240277","formattedPhone":"+44 20 7224 0277"},"location":{"address":"230 Baker Street","lat":"51.5235561132431","lng":"-0.158318","distance":"89","postalCode":"NW1 5RT","cc":"GB","city":"London","state":"Greater London","country":"United Kingdom"},"categories":[{"id":"4bf58dd8d48988d1fb941735","name":"Hobby Shop","pluralName":"Hobby Shops","shortName":"Hobbies","icon":{"prefix":"https:\/\/ss1.4sqi.net\/img\/categories_v2\/shops\/hobbyshop_","suffix":".png"},"primary":"true"}],"verified":"false","restricted":"true","stats":{"checkinsCount":"252","usersCount":"176","tipCount":"0"},"specials":{"count":"0"},"hereNow":{"count":"0"},"referralId":"v-1392477987"},{"id":"4bd2b9ca41b9ef3b2ca2fee5","name":"TfL Bus 82","contact":{"phone":"+443432221234","formattedPhone":"+44 343 222 1234","twitter":"tflbusalerts"},"location":{"address":"Moving Target!","lat":"51.52293677417015","lng":"-0.1581430435180664","distance":"152","cc":"GB","city":"London","state":"Greater London","country":"United Kingdom"},"categories":[{"id":"4bf58dd8d48988d12b951735","name":"Bus Line","pluralName":"Bus Lines","shortName":"Bus","icon":{"prefix":"https:\/\/ss1.4sqi.net\/img\/categories_v2\/travel\/busstation_","suffix":".png"},"primary":"true"}],"verified":"false","restricted":"true","stats":{"checkinsCount":"790","usersCount":"165","tipCount":"3"},"url":"http:\/\/tfl.gov.uk","specials":{"count":"0"},"hereNow":{"count":"0"},"referralId":"v-1392477987"},{"id":"4fa40a7ae4b0ed0280f3663e","name":"Francesca","location":{"address":"219 Baker Street","lat":"51.52308363483765","lng":"-0.15819668769836426","distance":"136","cc":"GB","city":"London","state":"Greater London","country":"United Kingdom"},"categories":[{"id":"4bf58dd8d48988d110941735","name":"Italian Restaurant","pluralName":"Italian Restaurants","shortName":"Italian","icon":{"prefix":"https:\/\/ss1.4sqi.net\/img\/categories_v2\/food\/italian_","suffix":".png"},"primary":"true"}],"verified":"false","restricted":"true","stats":{"checkinsCount":"368","usersCount":"284","tipCount":"11"},"specials":{"count":"0"},"hereNow":{"count":"0"},"referralId":"v-1392477987"},{"id":"52839fc311d20a3bf18a9a69","name":"Baker Street Station Bus Stop B","location":{"lat":"51.52297915047571","lng":"-0.15807292825360147","distance":"147","cc":"GB","country":"United Kingdom"},"categories":[{"id":"4bf58dd8d48988d1fe931735","name":"Bus Station","pluralName":"Bus Stations","shortName":"Bus Station","icon":{"prefix":"https:\/\/ss1.4sqi.net\/img\/categories_v2\/travel\/busstation_","suffix":".png"},"primary":"true"}],"verified":"false","restricted":"true","stats":{"checkinsCount":"47","usersCount":"16","tipCount":"0"},"specials":{"count":"0"},"hereNow":{"count":"0"},"referralId":"v-1392477987"},{"id":"4ea48f9bbe7ba4918f269c02","name":"Baker Street Station Bus Stop A","location":{"lat":"51.523199875000635","lng":"-0.15785842535252276","distance":"121","cc":"GB","country":"United Kingdom"},"categories":[{"id":"4bf58dd8d48988d1fe931735","name":"Bus Station","pluralName":"Bus Stations","shortName":"Bus Station","icon":{"prefix":"https:\/\/ss1.4sqi.net\/img\/categories_v2\/travel\/busstation_","suffix":".png"},"primary":"true"}],"verified":"false","restricted":"true","stats":{"checkinsCount":"296","usersCount":"203","tipCount":"0"},"specials":{"count":"0"},"hereNow":{"count":"0"},"referralId":"v-1392477987"},{"id":"4eea4d6f29c220d20ed3ebfb","name":"Platform 3","location":{"address":"Baker London Underground Street Station","lat":"51.522872656699406","lng":"-0.1571538947184465","distance":"163","cc":"GB","country":"United Kingdom"},"categories":[{"id":"4f4531504b9074f6e4fb0102","name":"Platform","pluralName":"Platforms","shortName":"Platform","icon":{"prefix":"https:\/\/ss1.4sqi.net\/img\/categories_v2\/travel\/trainstation_","suffix":".png"},"primary":"true"}],"verified":"false","restricted":"true","stats":{"checkinsCount":"374","usersCount":"226","tipCount":"1"},"specials":{"count":"0"},"hereNow":{"count":"0"},"referralId":"v-1392477987"},{"id":"4b921077f964a5209ee533e3","name":"Tesco Express","contact":{"phone":"+448450269893","formattedPhone":"+44 845 026 9893","twitter":"uktescooffers"},"location":{"address":"11-15 Melcombe St.","lat":"51.522936762562075","lng":"-0.1589065691868595","distance":"168","postalCode":"NW1 6AE","cc":"GB","city":"London","state":"Greater London","country":"United Kingdom"},"categories":[{"id":"4bf58dd8d48988d118951735","name":"Grocery Store","pluralName":"Grocery Stores","shortName":"Grocery Store","icon":{"prefix":"https:\/\/ss1.4sqi.net\/img\/categories_v2\/shops\/food_grocery_","suffix":".png"},"primary":"true"}],"verified":"true","restricted":"true","stats":{"checkinsCount":"587","usersCount":"215","tipCount":"4"},"url":"http:\/\/www.tesco.com","specials":{"count":"0"},"hereNow":{"count":"0"},"storeId":"5190","referralId":"v-1392477987"},{"id":"4b9e8601f964a52092eb36e3","name":"St. Cyprian's Church","location":{"address":"Glentworth Street","lat":"51.52423989714839","lng":"-0.15970111498267944","distance":"131","postalCode":"NW1","cc":"GB","city":"London","state":"Greater London","country":"United Kingdom"},"categories":[{"id":"4bf58dd8d48988d132941735","name":"Church","pluralName":"Churches","shortName":"Church","icon":{"prefix":"https:\/\/ss1.4sqi.net\/img\/categories_v2\/building\/religious_church_","suffix":".png"},"primary":"true"}],"verified":"false","restricted":"true","stats":{"checkinsCount":"137","usersCount":"31","tipCount":"0"},"specials":{"count":"0"},"hereNow":{"count":"0"},"referralId":"v-1392477987"},{"id":"4e0efe2614956c6284ff968e","name":"Dorset Caf\u00e9","location":{"address":"27 Melcombe Street","lat":"51.52281281100496","lng":"-0.15959522973761445","distance":"205","postalCode":"NW1 6AH","cc":"GB","city":"London","state":"Greater London","country":"United Kingdom"},"categories":[{"id":"4bf58dd8d48988d16d941735","name":"Caf\u00e9","pluralName":"Caf\u00e9s","shortName":"Caf\u00e9","icon":{"prefix":"https:\/\/ss1.4sqi.net\/img\/categories_v2\/food\/cafe_","suffix":".png"},"primary":"true"}],"verified":"false","restricted":"true","stats":{"checkinsCount":"121","usersCount":"71","tipCount":"0"},"specials":{"count":"0"},"hereNow":{"count":"0"},"referralId":"v-1392477987"},{"id":"4c99f68280958cfaba793ed4","name":"Croque Monsieur","location":{"address":"Baker Street","lat":"51.52343903432818","lng":"-0.15827","distance":"99","cc":"GB","city":"Paddington","state":"Greater London","country":"United Kingdom"},"categories":[{"id":"4bf58dd8d48988d16d941735","name":"Caf\u00e9","pluralName":"Caf\u00e9s","shortName":"Caf\u00e9","icon":{"prefix":"https:\/\/ss1.4sqi.net\/img\/categories_v2\/food\/cafe_","suffix":".png"},"primary":"true"}],"verified":"false","restricted":"true","stats":{"checkinsCount":"40","usersCount":"34","tipCount":"2"},"specials":{"count":"0"},"hereNow":{"count":"0"},"referralId":"v-1392477987"},{"id":"4c7f97ed2042b1f7433ac3ad","name":"Park View Residence","location":{"address":"219 Baker St","lat":"51.523173051479986","lng":"-0.1581961970253688","distance":"127","postalCode":"NW1","cc":"GB","city":"City of Westminster","state":"Greater London","country":"United Kingdom"},"categories":[{"id":"4d954b06a243a5684965b473","name":"Residential Building (Apartment \/ Condo)","pluralName":"Residential Buildings (Apartments \/ Condos)","shortName":"Residential","icon":{"prefix":"https:\/\/ss1.4sqi.net\/img\/categories_v2\/building\/apartment_","suffix":".png"},"primary":"true"}],"verified":"false","restricted":"true","stats":{"checkinsCount":"122","usersCount":"26","tipCount":"0"},"specials":{"count":"0"},"hereNow":{"count":"0"},"referralId":"v-1392477987"},{"id":"4b8ab817f964a5201e7c32e3","name":"l'ulivo","location":{"address":"194 Baker St, Marylebone","lat":"51.52263042852637","lng":"-0.15781842067857682","distance":"184","postalCode":"NW1 5RT","cc":"GB","city":"London","state":"Greater London","country":"United Kingdom"},"categories":[{"id":"4bf58dd8d48988d110941735","name":"Italian Restaurant","pluralName":"Italian Restaurants","shortName":"Italian","icon":{"prefix":"https:\/\/ss1.4sqi.net\/img\/categories_v2\/food\/italian_","suffix":".png"},"primary":"true"}],"verified":"false","restricted":"true","stats":{"checkinsCount":"277","usersCount":"190","tipCount":"6"},"url":"http:\/\/lulivo.co.uk","menu":{"type":"Menu","label":"Menu","anchor":"View Menu","url":"https:\/\/foursquare.com\/v\/lulivo\/4b8ab817f964a5201e7c32e3\/menu","mobileUrl":"https:\/\/foursquare.com\/v\/4b8ab817f964a5201e7c32e3\/device_menu"},"specials":{"count":"0"},"hereNow":{"count":"0"},"referralId":"v-1392477987"},{"id":"4b10e885f964a520a37623e3","name":"Subway","contact":{"phone":"+442074875550","formattedPhone":"+44 20 7487 5550","twitter":"subwayukireland"},"location":{"address":"205-207 Baker Street","crossStreet":"Facing Baker Underground","lat":"51.522840536980645","lng":"-0.15778349791643403","distance":"161","postalCode":"NW1 6UY","cc":"GB","city":"London","state":"Greater London","country":"United Kingdom"},"categories":[{"id":"4bf58dd8d48988d1c5941735","name":"Sandwich Place","pluralName":"Sandwich Places","shortName":"Sandwiches","icon":{"prefix":"https:\/\/ss1.4sqi.net\/img\/categories_v2\/food\/sandwiches_","suffix":".png"},"primary":"true"}],"verified":"true","restricted":"true","stats":{"checkinsCount":"249","usersCount":"124","tipCount":"5"},"url":"http:\/\/www.subway.co.uk","specials":{"count":"0"},"hereNow":{"count":"0"},"storeId":"30430","referralId":"v-1392477987"},{"id":"4b5265bbf964a5204a7b27e3","name":"Nambu-Tei","contact":{"phone":"+442074865026","formattedPhone":"+44 20 7486 5026"},"location":{"address":"209A Baker St","lat":"51.522804777780905","lng":"-0.15845139342770842","distance":"171","postalCode":"NW16AB","cc":"GB","city":"London","state":"Greater London","country":"United Kingdom"},"categories":[{"id":"4bf58dd8d48988d1d2941735","name":"Sushi Restaurant","pluralName":"Sushi Restaurants","shortName":"Sushi","icon":{"prefix":"https:\/\/ss1.4sqi.net\/img\/categories_v2\/food\/sushi_","suffix":".png"},"primary":"true"}],"verified":"false","restricted":"true","stats":{"checkinsCount":"362","usersCount":"193","tipCount":"8"},"url":"http:\/\/www.nambu-tei.blogspot.co.uk","specials":{"count":"0"},"hereNow":{"count":"0"},"referralId":"v-1392477987"},{"id":"4bb242ab2397b713f1c536b3","name":"ASK Italian","contact":{"phone":"+442074866027","formattedPhone":"+44 20 7486 6027","twitter":"askitalian"},"location":{"address":"197 Baker St","lat":"51.522606","lng":"-0.157809","distance":"187","postalCode":"NW1 6UY","cc":"GB","city":"London","state":"Greater London","country":"United Kingdom"},"categories":[{"id":"4bf58dd8d48988d110941735","name":"Italian Restaurant","pluralName":"Italian Restaurants","shortName":"Italian","icon":{"prefix":"https:\/\/ss1.4sqi.net\/img\/categories_v2\/food\/italian_","suffix":".png"},"primary":"true"}],"verified":"true","restricted":"true","stats":{"checkinsCount":"370","usersCount":"280","tipCount":"3"},"url":"http:\/\/www.askitalian.co.uk","specials":{"count":"0"},"hereNow":{"count":"0"},"storeId":"","referralId":"v-1392477987"},{"id":"4cbe9f5b1c6c6dcb005a695e","name":"The Americana Hotel","location":{"address":"172 Gloucester Place","lat":"51.524554","lng":"-0.160807","distance":"210","cc":"GB","city":"Paddington","state":"Greater London","country":"United Kingdom"},"categories":[{"id":"4bf58dd8d48988d1fa931735","name":"Hotel","pluralName":"Hotels","shortName":"Hotel","icon":{"prefix":"https:\/\/ss1.4sqi.net\/img\/categories_v2\/travel\/hotel_","suffix":".png"},"primary":"true"}],"verified":"false","restricted":"true","stats":{"checkinsCount":"285","usersCount":"111","tipCount":"7"},"specials":{"count":"0"},"hereNow":{"count":"0"},"referralId":"v-1392477987"},{"id":"51bda9f3498e013b28bcb74e","name":"Sohojapan","contact":{"phone":"+442074867000","formattedPhone":"+44 20 7486 7000"},"location":{"address":"195 Baker Street","lat":"51.522569","lng":"-0.157759","distance":"191","postalCode":"NW1 6UY","cc":"GB","city":"London","state":"Greater London","country":"United Kingdom"},"categories":[{"id":"4bf58dd8d48988d111941735","name":"Japanese Restaurant","pluralName":"Japanese Restaurants","shortName":"Japanese","icon":{"prefix":"https:\/\/ss1.4sqi.net\/img\/categories_v2\/food\/japanese_","suffix":".png"},"primary":"true"}],"verified":"false","restricted":"true","stats":{"checkinsCount":"44","usersCount":"23","tipCount":"0"},"specials":{"count":"0"},"hereNow":{"count":"0"},"referralId":"v-1392477987"},{"id":"4df9b2fe62e1e9a24367d577","name":"Treats In Baker Street","location":{"lat":"51.52298054397784","lng":"-0.15700358301604803","distance":"155","cc":"GB","city":"Paddington","state":"Greater London","country":"United Kingdom"},"categories":[{"id":"4d954b0ea243a5684a65b473","name":"Convenience Store","pluralName":"Convenience Stores","shortName":"Convenience Stores","icon":{"prefix":"https:\/\/ss1.4sqi.net\/img\/categories_v2\/shops\/conveniencestore_","suffix":".png"},"primary":"true"}],"verified":"false","restricted":"true","stats":{"checkinsCount":"177","usersCount":"47","tipCount":"3"},"specials":{"count":"0"},"hereNow":{"count":"0"},"referralId":"v-1392477987"},{"id":"4dcee69e183899ddfadf1df7","name":"146 Suites","contact":{"phone":"+442074863679","formattedPhone":"+44 20 7486 3679"},"location":{"address":"146 Gloucester Place","lat":"51.5238440304528","lng":"-0.16046884393649094","distance":"191","postalCode":"NW1 6DT","cc":"GB","city":"London","state":"Greater London","country":"United Kingdom"},"categories":[{"id":"4bf58dd8d48988d1fa931735","name":"Hotel","pluralName":"Hotels","shortName":"Hotel","icon":{"prefix":"https:\/\/ss1.4sqi.net\/img\/categories_v2\/travel\/hotel_","suffix":".png"},"primary":"true"}],"verified":"false","restricted":"true","stats":{"checkinsCount":"102","usersCount":"49","tipCount":"2"},"specials":{"count":"0"},"hereNow":{"count":"0"},"referralId":"v-1392477987"},{"id":"4fc615a6e4b09e9ade9749e7","name":"La Cucina Di Francesca","location":{"lat":"51.5231948338326","lng":"-0.15809034671083524","distance":"123","cc":"GB","country":"United Kingdom"},"categories":[{"id":"4bf58dd8d48988d16d941735","name":"Caf\u00e9","pluralName":"Caf\u00e9s","shortName":"Caf\u00e9","icon":{"prefix":"https:\/\/ss1.4sqi.net\/img\/categories_v2\/food\/cafe_","suffix":".png"},"primary":"true"}],"verified":"false","restricted":"true","stats":{"checkinsCount":"18","usersCount":"14","tipCount":"1"},"specials":{"count":"0"},"hereNow":{"count":"0"},"referralId":"v-1392477987"},{"id":"52615fdf11d255db3c8feaf5","name":"Lloyds Bank Baker Street","location":{"address":"185 Baker Street","lat":"51.5229484632859","lng":"-0.15795788143983144","distance":"149","cc":"GB","city":"London","state":"Greater London","country":"United Kingdom"},"categories":[{"id":"4bf58dd8d48988d10a951735","name":"Bank","pluralName":"Banks","shortName":"Bank","icon":{"prefix":"https:\/\/ss1.4sqi.net\/img\/categories_v2\/shops\/financial_","suffix":".png"},"primary":"true"}],"verified":"false","restricted":"true","stats":{"checkinsCount":"13","usersCount":"7","tipCount":"0"},"specials":{"count":"0"},"hereNow":{"count":"0"},"referralId":"v-1392477987"}],"confident":"false"}}