{"meta":{"code":"200"},"response":{"venues":[{"id":"4ac518cdf964a520f0a520e3","name":"Horse Guards Parade","location":{"address":"Whitehall","crossStreet":"Horse Guards Rd","lat":"51.504668","lng":"-0.12828","distance":"53","postalCode":"SW1A 2AX","cc":"GB","city":"London","state":"Greater London","country":"United Kingdom"},"categories":[{"id":"4eb1baf03b7b2c5b1d4306ca","name":"Stables","pluralName":"Stables","shortName":"Stables","icon":{"prefix":"https:\/\/ss1.4sqi.net\/img\/categories_v2\/parks_outdoors\/stable_","suffix":".png"},"primary":"true"}],"verified":"false","restricted":"true","stats":{"checkinsCount":"3461","usersCount":"2977","tipCount":"20"},"specials":{"count":"0"},"hereNow":{"count":"0"},"referralId":"v-1392478042"},{"id":"4beaa62ab3352d7f656155d2","name":"10 Downing St.","contact":{"phone":"+442072703000","formattedPhone":"+44 20 7270 3000"},"location":{"address":"10 Downing St.","lat":"51.50323980373086","lng":"-0.1275336742401123","distance":"118","postalCode":"SW1A 2AA","cc":"GB","city":"City of Westminster","state":"Greater London","country":"United Kingdom"},"categories":[{"id":"4bf58dd8d48988d126941735","name":"Government Building","pluralName":"Government Buildings","shortName":"Government","icon":{"prefix":"https:\/\/ss1.4sqi.net\/img\/categories_v2\/building\/government_","suffix":".png"},"primary":"true"}],"verified":"true","restricted":"true","stats":{"checkinsCount":"6046","usersCount":"4479","tipCount":"64"},"url":"http:\/\/www.number10.gov.uk","specials":{"count":"0"},"hereNow":{"count":"0"},"venuePage":{"id":"39079385"},"storeId":"","referralId":"v-1392478042"},{"id":"4ac518d3f964a52077a720e3","name":"Churchill War Rooms (Churchill Museum & Cabinet War Rooms)","contact":{"phone":"+442079306961","formattedPhone":"+44 20 7930 6961"},"location":{"address":"King Charles St.","lat":"51.501838214359076","lng":"-0.12882649898529053","distance":"281","postalCode":"SW1A 2AQ","cc":"GB","city":"London","state":"Greater London","country":"United Kingdom"},"categories":[{"id":"4deefb944765f83613cdba6e","name":"Historic Site","pluralName":"Historic Sites","shortName":"Historic Site","icon":{"prefix":"https:\/\/ss1.4sqi.net\/img\/categories_v2\/arts_entertainment\/historicsite_","suffix":".png"},"primary":"true"}],"verified":"false","restricted":"true","stats":{"checkinsCount":"2352","usersCount":"2224","tipCount":"27"},"specials":{"count":"0"},"hereNow":{"count":"2","groups":[{"type":"others","name":"Other people here","count":"2"}]},"referralId":"v-1392478042"},{"id":"4cdc8f92d4ecb1f778458048","name":"Royal Horse Guards","location":{"address":"Whitehall","lat":"51.504809433017726","lng":"-0.12665678997755922","distance":"98","postalCode":"SW1A 2AF","cc":"GB","city":"City of Westminster","state":"Greater London","country":"United Kingdom"},"categories":[{"id":"4deefb944765f83613cdba6e","name":"Historic Site","pluralName":"Historic Sites","shortName":"Historic Site","icon":{"prefix":"https:\/\/ss1.4sqi.net\/img\/categories_v2\/arts_entertainment\/historicsite_","suffix":".png"},"primary":"true"}],"verified":"false","restricted":"true","stats":{"checkinsCount":"1732","usersCount":"1575","tipCount":"4"},"specials":{"count":"0"},"hereNow":{"count":"0"},"referralId":"v-1392478042"},{"id":"4aeab28ff964a52013bc21e3","name":"Cabinet Office","contact":{"twitter":"cabinetofficeuk"},"location":{"address":"70 Whitehall","lat":"51.50362046995422","lng":"-0.12721985578536987","distance":"84","postalCode":"SW1A  2AS","cc":"GB","city":"London","state":"Greater London","country":"United Kingdom"},"categories":[{"id":"4bf58dd8d48988d126941735","name":"Government Building","pluralName":"Government Buildings","shortName":"Government","icon":{"prefix":"https:\/\/ss1.4sqi.net\/img\/categories_v2\/building\/government_","suffix":".png"},"primary":"true"}],"verified":"false","restricted":"true","stats":{"checkinsCount":"783","usersCount":"356","tipCount":"3"},"url":"http:\/\/www.gov.uk","specials":{"count":"0"},"hereNow":{"count":"0"},"referralId":"v-1392478042"},{"id":"4bf2565299d02d7fab15ca48","name":"Ministry Of Defence","contact":{"twitter":"defencehhq"},"location":{"address":"Main Building","crossStreet":"Whitehall","lat":"51.504014489537944","lng":"-0.124969482421875","distance":"198","postalCode":"SW1A 2HB","cc":"GB","city":"London","state":"Greater London","country":"United Kingdom"},"categories":[{"id":"4bf58dd8d48988d126941735","name":"Government Building","pluralName":"Government Buildings","shortName":"Government","icon":{"prefix":"https:\/\/ss1.4sqi.net\/img\/categories_v2\/building\/government_","suffix":".png"},"primary":"true"}],"verified":"false","restricted":"true","stats":{"checkinsCount":"1150","usersCount":"437","tipCount":"4"},"specials":{"count":"0"},"hereNow":{"count":"0"},"referralId":"v-1392478042"},{"id":"4ac518dff964a5200aaa20e3","name":"Inn the Park","location":{"address":"St. James's Place","lat":"51.50428161952125","lng":"-0.1311492919921875","distance":"231","postalCode":"SW1A 2JB","cc":"GB","city":"London","state":"Greater London","country":"United Kingdom"},"categories":[{"id":"4bf58dd8d48988d16d941735","name":"Caf\u00e9","pluralName":"Caf\u00e9s","shortName":"Caf\u00e9","icon":{"prefix":"https:\/\/ss1.4sqi.net\/img\/categories_v2\/food\/cafe_","suffix":".png"},"primary":"true"}],"verified":"false","restricted":"true","stats":{"checkinsCount":"1099","usersCount":"951","tipCount":"30"},"menu":{"type":"Menu","label":"Menu","anchor":"View Menu","url":"https:\/\/foursquare.com\/v\/inn-the-park\/4ac518dff964a5200aaa20e3\/menu","mobileUrl":"https:\/\/foursquare.com\/v\/4ac518dff964a5200aaa20e3\/device_menu"},"specials":{"count":"0"},"hereNow":{"count":"0"},"referralId":"v-1392478042"},{"id":"4b21114bf964a5208f3624e3","name":"The Clarence","contact":{"phone":"+442079304808","formattedPhone":"+44 20 7930 4808","twitter":"mylocalsagpub"},"location":{"address":"53 Whitehall","lat":"51.506085","lng":"-0.127033","distance":"206","postalCode":"SW1A 2HP","cc":"GB","city":"Whitehall","state":"Greater London","country":"United Kingdom"},"categories":[{"id":"4bf58dd8d48988d11b941735","name":"Pub","pluralName":"Pubs","shortName":"Pub","icon":{"prefix":"https:\/\/ss1.4sqi.net\/img\/categories_v2\/nightlife\/pub_","suffix":".png"},"primary":"true"}],"verified":"true","restricted":"true","stats":{"checkinsCount":"1708","usersCount":"1419","tipCount":"29"},"url":"http:\/\/www.geronimo-inns.co.uk\/theclarence\/","specials":{"count":"0"},"hereNow":{"count":"1","groups":[{"type":"others","name":"Other people here","count":"1"}]},"referralId":"v-1392478042"},{"id":"5058c4c9e4b0bc64c9103f52","name":"St James's Park Lake","location":{"address":"Horse Guards Rd","lat":"51.50391314605818","lng":"-0.13094880094756522","distance":"221","postalCode":"SW1A 2BJ","cc":"GB","city":"London","country":"United Kingdom"},"categories":[{"id":"4bf58dd8d48988d161941735","name":"Lake","pluralName":"Lakes","shortName":"Lake","icon":{"prefix":"https:\/\/ss1.4sqi.net\/img\/categories_v2\/parks_outdoors\/lake_","suffix":".png"},"primary":"true"}],"verified":"false","restricted":"true","stats":{"checkinsCount":"1704","usersCount":"1463","tipCount":"9"},"specials":{"count":"0"},"hereNow":{"count":"0"},"referralId":"v-1392478042"},{"id":"4af1c953f964a5202ae321e3","name":"Foreign and Commonwealth Office","contact":{"phone":"+442070081500","formattedPhone":"+44 20 7008 1500","twitter":"foreignoffice"},"location":{"address":"King Charles St.","lat":"51.502200804765614","lng":"-0.12778784566645088","distance":"232","postalCode":"SW1A 2AH","cc":"GB","city":"London","state":"Greater London","country":"United Kingdom"},"categories":[{"id":"4bf58dd8d48988d124941735","name":"Office","pluralName":"Offices","shortName":"Office","icon":{"prefix":"https:\/\/ss1.4sqi.net\/img\/categories_v2\/building\/default_","suffix":".png"},"primary":"true"}],"verified":"true","restricted":"true","stats":{"checkinsCount":"857","usersCount":"463","tipCount":"9"},"url":"http:\/\/www.fco.gov.uk\/en\/","specials":{"count":"0"},"hereNow":{"count":"0"},"referralId":"v-1392478042"},{"id":"4ae9aca2f964a5209fb521e3","name":"The Lord Moon Of The Mall (Wetherspoon)","contact":{"phone":"+442078397701","formattedPhone":"+44 20 7839 7701"},"location":{"address":"16-18 Whitehall","lat":"51.50639189133809","lng":"-0.1272439956665039","distance":"237","postalCode":"SW1A 2DY","cc":"GB","city":"London","state":"Greater London","country":"United Kingdom"},"categories":[{"id":"4bf58dd8d48988d11b941735","name":"Pub","pluralName":"Pubs","shortName":"Pub","icon":{"prefix":"https:\/\/ss1.4sqi.net\/img\/categories_v2\/nightlife\/pub_","suffix":".png"},"primary":"true"}],"verified":"true","restricted":"true","stats":{"checkinsCount":"2191","usersCount":"1674","tipCount":"28"},"url":"http:\/\/www.jdwetherspoon.co.uk","specials":{"count":"0"},"hereNow":{"count":"0"},"referralId":"v-1392478042"},{"id":"4ac518d4f964a520b7a720e3","name":"The Household Cavalry Museum","location":{"address":"Whitehall","lat":"51.50480899212462","lng":"-0.12705887653114206","distance":"77","postalCode":"SW1A 2AX","cc":"GB","city":"London","state":"Greater London","country":"United Kingdom"},"categories":[{"id":"4bf58dd8d48988d190941735","name":"History Museum","pluralName":"History Museums","shortName":"History Museum","icon":{"prefix":"https:\/\/ss1.4sqi.net\/img\/categories_v2\/arts_entertainment\/museum_history_","suffix":".png"},"primary":"true"}],"verified":"false","restricted":"true","stats":{"checkinsCount":"328","usersCount":"311","tipCount":"1"},"specials":{"count":"0"},"hereNow":{"count":"0"},"referralId":"v-1392478042"},{"id":"4ac518d0f964a5209da620e3","name":"Banqueting House","location":{"address":"Whitehall","lat":"51.50463076171289","lng":"-0.12621233341305443","distance":"116","postalCode":"SW1A 2ER","cc":"GB","city":"London","state":"Greater London","country":"United Kingdom"},"categories":[{"id":"4bf58dd8d48988d12d941735","name":"Monument \/ Landmark","pluralName":"Monuments \/ Landmarks","shortName":"Landmark","icon":{"prefix":"https:\/\/ss1.4sqi.net\/img\/categories_v2\/building\/government_monument_","suffix":".png"},"primary":"true"}],"verified":"false","restricted":"true","stats":{"checkinsCount":"469","usersCount":"425","tipCount":"6"},"specials":{"count":"0"},"hereNow":{"count":"0"},"referralId":"v-1392478042"},{"id":"4ac518d4f964a5208ca720e3","name":"The Cenotaph","location":{"address":"Whitehall","lat":"51.50266879843346","lng":"-0.12614428997039795","distance":"213","postalCode":"SW1A 2BX","cc":"GB","city":"London","state":"Greater London","country":"United Kingdom"},"categories":[{"id":"4bf58dd8d48988d12d941735","name":"Monument \/ Landmark","pluralName":"Monuments \/ Landmarks","shortName":"Landmark","icon":{"prefix":"https:\/\/ss1.4sqi.net\/img\/categories_v2\/building\/government_monument_","suffix":".png"},"primary":"true"}],"verified":"false","restricted":"true","stats":{"checkinsCount":"736","usersCount":"496","tipCount":"5"},"specials":{"count":"0"},"hereNow":{"count":"0"},"referralId":"v-1392478042"},{"id":"4c8f6458d68c6dcb89ad03a2","name":"Guards Memorial","location":{"lat":"51.504564438946545","lng":"-0.12940361","distance":"115","cc":"GB","country":"United Kingdom"},"categories":[{"id":"4bf58dd8d48988d166941735","name":"Sculpture Garden","pluralName":"Sculpture Gardens","shortName":"Sculpture","icon":{"prefix":"https:\/\/ss1.4sqi.net\/img\/categories_v2\/parks_outdoors\/sculpture_","suffix":".png"},"primary":"true"}],"verified":"false","restricted":"true","stats":{"checkinsCount":"156","usersCount":"99","tipCount":"2"},"specials":{"count":"0"},"hereNow":{"count":"0"},"referralId":"v-1392478042"},{"id":"4b083cdbf964a520000723e3","name":"The Silver Cross","contact":{"phone":"+442035821996","formattedPhone":"+44 20 3582 1996"},"location":{"address":"33 Whitehall","lat":"51.506615845852515","lng":"-0.1270090939533666","distance":"264","postalCode":"SW1A 2BX","cc":"GB","city":"London","state":"Greater London","country":"United Kingdom"},"categories":[{"id":"4bf58dd8d48988d11b941735","name":"Pub","pluralName":"Pubs","shortName":"Pub","icon":{"prefix":"https:\/\/ss1.4sqi.net\/img\/categories_v2\/nightlife\/pub_","suffix":".png"},"primary":"true"}],"verified":"false","restricted":"true","stats":{"checkinsCount":"1241","usersCount":"1078","tipCount":"13"},"url":"http:\/\/www.taylor-walker.co.uk","menu":{"type":"Menu","label":"Menu","anchor":"View Menu","url":"https:\/\/foursquare.com\/v\/the-silver-cross\/4b083cdbf964a520000723e3\/menu","mobileUrl":"https:\/\/foursquare.com\/v\/4b083cdbf964a520000723e3\/device_menu"},"specials":{"count":"0"},"hereNow":{"count":"0"},"referralId":"v-1392478042"},{"id":"4ac518cef964a52012a620e3","name":"Admiralty Arch","location":{"address":"The Mall","lat":"51.506769192297355","lng":"-0.128689706325531","distance":"282","postalCode":"WC2N 5DX","cc":"GB","city":"London","state":"Greater London","country":"United Kingdom"},"categories":[{"id":"4bf58dd8d48988d12d941735","name":"Monument \/ Landmark","pluralName":"Monuments \/ Landmarks","shortName":"Landmark","icon":{"prefix":"https:\/\/ss1.4sqi.net\/img\/categories_v2\/building\/government_monument_","suffix":".png"},"primary":"true"}],"verified":"false","restricted":"true","stats":{"checkinsCount":"1423","usersCount":"1072","tipCount":"6"},"specials":{"count":"0"},"hereNow":{"count":"0"},"referralId":"v-1392478042"},{"id":"4b784f68f964a52040c42ee3","name":"The Old Shades","contact":{"phone":"+442078398577","formattedPhone":"+44 20 7839 8577"},"location":{"address":"37 Whitehall","lat":"51.506478704224925","lng":"-0.12708842754364014","distance":"248","postalCode":"SW1A 2BX","cc":"GB","city":"City of Westminster","state":"Greater London","country":"United Kingdom"},"categories":[{"id":"4bf58dd8d48988d11b941735","name":"Pub","pluralName":"Pubs","shortName":"Pub","icon":{"prefix":"https:\/\/ss1.4sqi.net\/img\/categories_v2\/nightlife\/pub_","suffix":".png"},"primary":"true"}],"verified":"false","restricted":"true","stats":{"checkinsCount":"654","usersCount":"487","tipCount":"13"},"url":"http:\/\/www.faucetinn.com\/old-shades","menu":{"type":"Menu","label":"Menu","anchor":"View Menu","url":"https:\/\/foursquare.com\/v\/the-old-shades-westminster-greater-london\/4b784f68f964a52040c42ee3\/menu","mobileUrl":"https:\/\/foursquare.com\/v\/4b784f68f964a52040c42ee3\/device_menu"},"specials":{"count":"0"},"hereNow":{"count":"0"},"referralId":"v-1392478042"},{"id":"4ad61fd1f964a520330521e3","name":"Red Lion","contact":{"phone":"+442079305826","formattedPhone":"+44 20 7930 5826"},"location":{"address":"48 Parliament St","crossStreet":"Whitehall","lat":"51.502087768155086","lng":"-0.1258331537246704","distance":"280","postalCode":"SW1A 2NH","cc":"GB","city":"City of Westminster","state":"Greater London","country":"United Kingdom"},"categories":[{"id":"4bf58dd8d48988d11b941735","name":"Pub","pluralName":"Pubs","shortName":"Pub","icon":{"prefix":"https:\/\/ss1.4sqi.net\/img\/categories_v2\/nightlife\/pub_","suffix":".png"},"primary":"true"}],"verified":"false","restricted":"true","stats":{"checkinsCount":"1847","usersCount":"1588","tipCount":"16"},"url":"http:\/\/www.fullers.co.uk\/rte.asp?id=4&itemid=380&task=View","specials":{"count":"0"},"hereNow":{"count":"0"},"referralId":"v-1392478042"},{"id":"4ac518e7f964a52061ab20e3","name":"Trafalgar Studios","contact":{"phone":"+448448717627","formattedPhone":"+44 844 871 7627","twitter":"a_t_g"},"location":{"address":"14 Whitehall","lat":"51.506692396780124","lng":"-0.12748003005981445","distance":"268","postalCode":"SW1A 2DY","cc":"GB","city":"London","state":"Greater London","country":"United Kingdom"},"categories":[{"id":"4bf58dd8d48988d137941735","name":"Theater","pluralName":"Theaters","shortName":"Theater","icon":{"prefix":"https:\/\/ss1.4sqi.net\/img\/categories_v2\/arts_entertainment\/performingarts_theater_","suffix":".png"},"primary":"true"}],"verified":"true","restricted":"true","stats":{"checkinsCount":"1593","usersCount":"1190","tipCount":"10"},"specials":{"count":"0"},"hereNow":{"count":"0"},"referralId":"v-1392478042"},{"id":"4d0f4f396331a093350b5094","name":"Bus Stop P (57357)","location":{"address":"Whitehall","lat":"51.505266673318324","lng":"-0.12652129703406548","distance":"140","cc":"GB","city":"City of Westminster","state":"Greater London","country":"United Kingdom"},"categories":[{"id":"4bf58dd8d48988d1fe931735","name":"Bus Station","pluralName":"Bus Stations","shortName":"Bus Station","icon":{"prefix":"https:\/\/ss1.4sqi.net\/img\/categories_v2\/travel\/busstation_","suffix":".png"},"primary":"true"}],"verified":"false","restricted":"true","stats":{"checkinsCount":"92","usersCount":"29","tipCount":"1"},"specials":{"count":"0"},"hereNow":{"count":"0"},"referralId":"v-1392478042"},{"id":"4bc85f0eaf07a5938bb0802d","name":"Little Frankie's","location":{"address":"5-7 Marshalsea Road","lat":"51.507041540217024","lng":"-0.12756245563155852","distance":"306","cc":"GB","city":"London","state":"Greater London","country":"United Kingdom"},"categories":[{"id":"4bf58dd8d48988d110941735","name":"Italian Restaurant","pluralName":"Italian Restaurants","shortName":"Italian","icon":{"prefix":"https:\/\/ss1.4sqi.net\/img\/categories_v2\/food\/italian_","suffix":".png"},"primary":"true"}],"verified":"false","restricted":"true","stats":{"checkinsCount":"704","usersCount":"646","tipCount":"20"},"specials":{"count":"0"},"hereNow":{"count":"0"},"referralId":"v-1392478042"},{"id":"4be16036d816c92817d9efd9","name":"McDonald's","location":{"address":"Whitehall","lat":"51.50621557435642","lng":"-0.12719700161624226","distance":"218","postalCode":"SW1","cc":"GB","city":"London","state":"Greater London","country":"United Kingdom"},"categories":[{"id":"4bf58dd8d48988d16e941735","name":"Fast Food Restaurant","pluralName":"Fast Food Restaurants","shortName":"Fast Food","icon":{"prefix":"https:\/\/ss1.4sqi.net\/img\/categories_v2\/food\/fastfood_","suffix":".png"},"primary":"true"}],"verified":"false","restricted":"true","stats":{"checkinsCount":"793","usersCount":"595","tipCount":"12"},"url":"http:\/\/www.mcdonalds.co.uk","menu":{"type":"Menu","label":"Menu","anchor":"View Menu","url":"https:\/\/foursquare.com\/v\/mcdonalds\/4be16036d816c92817d9efd9\/menu","mobileUrl":"https:\/\/foursquare.com\/v\/4be16036d816c92817d9efd9\/device_menu"},"specials":{"count":"0"},"hereNow":{"count":"0"},"referralId":"v-1392478042"},{"id":"5151ba03e4b0572be04f90b8","name":"Taylor Walker Pub","location":{"lat":"51.5066523131876","lng":"-0.12717089188889924","distance":"266","cc":"GB","country":"United Kingdom"},"categories":[{"id":"4bf58dd8d48988d116941735","name":"Bar","pluralName":"Bars","shortName":"Bar","icon":{"prefix":"https:\/\/ss1.4sqi.net\/img\/categories_v2\/nightlife\/bar_","suffix":".png"},"primary":"true"}],"verified":"false","restricted":"true","stats":{"checkinsCount":"199","usersCount":"192","tipCount":"3"},"specials":{"count":"0"},"hereNow":{"count":"0"},"referralId":"v-1392478042"},{"id":"4c63f74069a1c9b6b55b3ca4","name":"Women Of World War II","location":{"address":"Whitehall","lat":"51.503186376638006","lng":"-0.12617111206054688","distance":"166","cc":"GB","city":"London","state":"Greater London","country":"United Kingdom"},"categories":[{"id":"4bf58dd8d48988d166941735","name":"Sculpture Garden","pluralName":"Sculpture Gardens","shortName":"Sculpture","icon":{"prefix":"https:\/\/ss1.4sqi.net\/img\/categories_v2\/parks_outdoors\/sculpture_","suffix":".png"},"primary":"true"}],"verified":"false","restricted":"true","stats":{"checkinsCount":"277","usersCount":"254","tipCount":"0"},"specials":{"count":"0"},"hereNow":{"count":"0"},"referralId":"v-1392478042"},{"id":"4f8c0e95e4b0cec3ad9ad5d1","name":"Horseguards","location":{"lat":"51.504713742937064","lng":"-0.12937349872346363","distance":"118","cc":"GB","country":"United Kingdom"},"categories":[{"id":"4bf58dd8d48988d164941735","name":"Plaza","pluralName":"Plazas","shortName":"Plaza","icon":{"prefix":"https:\/\/ss1.4sqi.net\/img\/categories_v2\/parks_outdoors\/plaza_","suffix":".png"},"primary":"true"}],"verified":"false","restricted":"true","stats":{"checkinsCount":"88","usersCount":"84","tipCount":"0"},"specials":{"count":"0"},"hereNow":{"count":"0"},"referralId":"v-1392478042"},{"id":"4ec6788029c22cc60b1ecf25","name":"Scotland Office","location":{"lat":"51.50423533835999","lng":"-0.12635521581272777","distance":"100","cc":"GB","country":"United Kingdom"},"categories":[{"id":"4bf58dd8d48988d126941735","name":"Government Building","pluralName":"Government Buildings","shortName":"Government","icon":{"prefix":"https:\/\/ss1.4sqi.net\/img\/categories_v2\/building\/government_","suffix":".png"},"primary":"true"}],"verified":"false","restricted":"true","stats":{"checkinsCount":"44","usersCount":"38","tipCount":"1"},"specials":{"count":"0"},"hereNow":{"count":"0"},"referralId":"v-1392478042"},{"id":"51ab9427498ed5e6918b145a","name":"World War Z premier event","location":{"lat":"51.504417998256926","lng":"-0.12818583857903465","distance":"30","cc":"GB","country":"United Kingdom"},"categories":[{"id":"4bf58dd8d48988d1f1931735","name":"General Entertainment","pluralName":"General Entertainment","shortName":"Entertainment","icon":{"prefix":"https:\/\/ss1.4sqi.net\/img\/categories_v2\/arts_entertainment\/default_","suffix":".png"},"primary":"true"}],"verified":"false","restricted":"true","stats":{"checkinsCount":"9","usersCount":"9","tipCount":"0"},"specials":{"count":"0"},"hereNow":{"count":"0"},"referralId":"v-1392478042"},{"id":"4c8ea2b41992a1cded5fdffb","name":"Department Of Health","location":{"address":"Richmond House, 79 Whitehall","lat":"51.50258350332123","lng":"-0.1260555971020319","distance":"225","postalCode":"SW1A 2NS","cc":"GB","city":"London","state":"Greater London","country":"United Kingdom"},"categories":[{"id":"4bf58dd8d48988d124941735","name":"Office","pluralName":"Offices","shortName":"Office","icon":{"prefix":"https:\/\/ss1.4sqi.net\/img\/categories_v2\/building\/default_","suffix":".png"},"primary":"true"}],"verified":"false","restricted":"true","stats":{"checkinsCount":"345","usersCount":"95","tipCount":"1"},"specials":{"count":"0"},"hereNow":{"count":"0"},"referralId":"v-1392478042"},{"id":"52aff69d498e1d9329ff7a9e","name":"Bus Stop N - Whitehall","location":{"address":"Whitehall","crossStreet":"Westminster","lat":"51.505840806418696","lng":"-0.12725832622623126","distance":"176","cc":"GB","city":"London","state":"Greater London","country":"United Kingdom"},"categories":[{"id":"4bf58dd8d48988d12b951735","name":"Bus Line","pluralName":"Bus Lines","shortName":"Bus","icon":{"prefix":"https:\/\/ss1.4sqi.net\/img\/categories_v2\/travel\/busstation_","suffix":".png"},"primary":"true"}],"verified":"false","restricted":"true","stats":{"checkinsCount":"6","usersCount":"1","tipCount":"0"},"specials":{"count":"0"},"hereNow":{"count":"0"},"referralId":"v-1392478042"}],"confident":"true"}}