{"meta":{"code":"200"},"response":{"venues":[{"id":"4f7ddc0fe4b062316b24a77b","name":"Salvation Jane","contact":{"phone":"+442072535273","formattedPhone":"+44 20 7253 5273","twitter":"salvationjaneuk"},"location":{"address":"55 City Rd","lat":"51.52428520432667","lng":"-0.08737564086914062","distance":"29","postalCode":"EC1Y 1HQ","cc":"GB","city":"Shoreditch","state":"Greater London","country":"United Kingdom"},"categories":[{"id":"4bf58dd8d48988d1e0931735","name":"Coffee Shop","pluralName":"Coffee Shops","shortName":"Coffee Shop","icon":{"prefix":"https:\/\/ss1.4sqi.net\/img\/categories_v2\/food\/coffeeshop_","suffix":".png"},"primary":"true"}],"verified":"false","restricted":"true","stats":{"checkinsCount":"2943","usersCount":"1070","tipCount":"53"},"url":"http:\/\/www.salvationjanecafe.co.uk","menu":{"type":"Menu","label":"Menu","anchor":"View Menu","url":"https:\/\/foursquare.com\/v\/salvation-jane-shoreditch-greater-london\/4f7ddc0fe4b062316b24a77b\/menu","mobileUrl":"https:\/\/foursquare.com\/v\/4f7ddc0fe4b062316b24a77b\/device_menu"},"specials":{"count":"0"},"hereNow":{"count":"1","groups":[{"type":"others","name":"Other people here","count":"1"}]},"referralId":"v-1392477994"},{"id":"4f54937ce4b0e14ed9512da2","name":"Ozone Coffee Roasters","contact":{"phone":"+442074901039","formattedPhone":"+44 20 7490 1039","twitter":"ozonecoffee"},"location":{"address":"11 Leonard St","lat":"51.52460888319828","lng":"-0.0868378657602338","distance":"75","postalCode":"EC2A 4AQ","cc":"GB","city":"Islington","state":"Greater London","country":"United Kingdom"},"categories":[{"id":"4bf58dd8d48988d1e0931735","name":"Coffee Shop","pluralName":"Coffee Shops","shortName":"Coffee Shop","icon":{"prefix":"https:\/\/ss1.4sqi.net\/img\/categories_v2\/food\/coffeeshop_","suffix":".png"},"primary":"true"}],"verified":"true","restricted":"true","stats":{"checkinsCount":"6288","usersCount":"2057","tipCount":"105"},"url":"http:\/\/www.ozonecoffee.co.uk","menu":{"type":"Menu","label":"Menu","anchor":"View Menu","url":"https:\/\/foursquare.com\/v\/ozone-coffee-roasters\/4f54937ce4b0e14ed9512da2\/menu","mobileUrl":"https:\/\/foursquare.com\/v\/4f54937ce4b0e14ed9512da2\/device_menu"},"specials":{"count":"0"},"hereNow":{"count":"3","groups":[{"type":"others","name":"Other people here","count":"3"}]},"storeId":"","referralId":"v-1392477994"},{"id":"4f775327e4b0b009ee30f148","name":"The home gym","location":{"lat":"51.524181363175124","lng":"-0.08784765776221201","distance":"12","cc":"GB","country":"United Kingdom"},"categories":[{"id":"4bf58dd8d48988d176941735","name":"Gym","pluralName":"Gyms","shortName":"Gym","icon":{"prefix":"https:\/\/ss1.4sqi.net\/img\/categories_v2\/building\/gym_","suffix":".png"},"primary":"true"}],"verified":"false","restricted":"true","stats":{"checkinsCount":"64","usersCount":"3","tipCount":"0"},"specials":{"count":"0"},"hereNow":{"count":"0"},"referralId":"v-1392477994"},{"id":"4b28e379f964a520ef9524e3","name":"Pret A Manger","contact":{"phone":"+442079325343","formattedPhone":"+44 20 7932 5343","twitter":"pret","facebook":"162638680417951"},"location":{"address":"Unit 1, Oliver's Yard, City Rd","lat":"51.5244862466","lng":"-0.0873620329688","distance":"37","postalCode":"EC1Y 1HQ","cc":"GB","city":"City Road, London","country":"United Kingdom"},"categories":[{"id":"4bf58dd8d48988d1c5941735","name":"Sandwich Place","pluralName":"Sandwich Places","shortName":"Sandwiches","icon":{"prefix":"https:\/\/ss1.4sqi.net\/img\/categories_v2\/food\/sandwiches_","suffix":".png"},"primary":"true"}],"verified":"true","restricted":"true","stats":{"checkinsCount":"1591","usersCount":"580","tipCount":"9"},"url":"http:\/\/www.pret.com","specials":{"count":"0"},"hereNow":{"count":"0"},"storeId":"143","referralId":"v-1392477994"},{"id":"4dcd25afae603b786d0e6a43","name":"GRAB Thai Street Kitchen","contact":{"phone":"+442072539481","formattedPhone":"+44 20 7253 9481"},"location":{"address":"5 Leonard St","crossStreet":"City Rd","lat":"51.524615","lng":"-0.086993","distance":"66","postalCode":"EC2A 4AQ","cc":"GB","city":"Islington","state":"Greater London","country":"United Kingdom"},"categories":[{"id":"4bf58dd8d48988d149941735","name":"Thai Restaurant","pluralName":"Thai Restaurants","shortName":"Thai","icon":{"prefix":"https:\/\/ss1.4sqi.net\/img\/categories_v2\/food\/thai_","suffix":".png"},"primary":"true"}],"verified":"false","restricted":"true","stats":{"checkinsCount":"1532","usersCount":"430","tipCount":"39"},"menu":{"type":"Menu","label":"Menu","anchor":"View Menu","url":"https:\/\/foursquare.com\/v\/grab-thai-street-kitchen\/4dcd25afae603b786d0e6a43\/menu","mobileUrl":"https:\/\/foursquare.com\/v\/4dcd25afae603b786d0e6a43\/device_menu"},"specials":{"count":"0"},"hereNow":{"count":"0"},"referralId":"v-1392477994"},{"id":"4acfbf88f964a520bad520e3","name":"The Angel","contact":{"phone":"+448721077077","formattedPhone":"+44 872 107 7077"},"location":{"address":"73 City Rd.","lat":"51.52461356211731","lng":"-0.08753255649971077","distance":"40","postalCode":"EC1Y 1BD","cc":"GB","city":"London","state":"Greater London","country":"United Kingdom"},"categories":[{"id":"4bf58dd8d48988d11b941735","name":"Pub","pluralName":"Pubs","shortName":"Pub","icon":{"prefix":"https:\/\/ss1.4sqi.net\/img\/categories_v2\/nightlife\/pub_","suffix":".png"},"primary":"true"}],"verified":"false","restricted":"true","stats":{"checkinsCount":"1079","usersCount":"558","tipCount":"4"},"specials":{"count":"0"},"hereNow":{"count":"0"},"referralId":"v-1392477994"},{"id":"4acdd443f964a52029cd20e3","name":"Abokado","contact":{"phone":"+442076082620","formattedPhone":"+44 20 7608 2620"},"location":{"address":"40-56 City Rd","lat":"51.523915565559","lng":"-0.08738074563952886","distance":"50","postalCode":"EC1Y 2AN","cc":"GB","city":"Shoreditch","state":"Greater London","country":"United Kingdom"},"categories":[{"id":"4bf58dd8d48988d1d2941735","name":"Sushi Restaurant","pluralName":"Sushi Restaurants","shortName":"Sushi","icon":{"prefix":"https:\/\/ss1.4sqi.net\/img\/categories_v2\/food\/sushi_","suffix":".png"},"primary":"true"}],"verified":"false","restricted":"true","stats":{"checkinsCount":"992","usersCount":"294","tipCount":"12"},"url":"http:\/\/www.abokado.com","specials":{"count":"0"},"hereNow":{"count":"0"},"referralId":"v-1392477994"},{"id":"4b993191f964a520b26835e3","name":"Subway","contact":{"phone":"+442074907631","formattedPhone":"+44 20 7490 7631","twitter":"subwayukireland"},"location":{"address":"40-56 City Rd","crossStreet":"Oliver's Yard","lat":"51.52397813958432","lng":"-0.08769750595092773","distance":"35","postalCode":"EC1Y 2AN","cc":"GB","city":"Islington","state":"Greater London","country":"United Kingdom"},"categories":[{"id":"4bf58dd8d48988d1c5941735","name":"Sandwich Place","pluralName":"Sandwich Places","shortName":"Sandwiches","icon":{"prefix":"https:\/\/ss1.4sqi.net\/img\/categories_v2\/food\/sandwiches_","suffix":".png"},"primary":"true"}],"verified":"true","restricted":"true","stats":{"checkinsCount":"943","usersCount":"225","tipCount":"4"},"url":"http:\/\/www.subway.co.uk","specials":{"count":"0"},"hereNow":{"count":"0"},"storeId":"37834","referralId":"v-1392477994"},{"id":"4cc843beee718cfabc0eb73d","name":"Sainsbury's Local","contact":{"phone":"+442075991300","formattedPhone":"+44 20 7599 1300","twitter":"sainsburys"},"location":{"address":"73 City Rd.","crossStreet":"Old St Roundabout","lat":"51.52474188622228","lng":"-0.08745854836843543","distance":"55","postalCode":"EC1Y 1BD","cc":"GB","city":"Islington","state":"Greater London","country":"United Kingdom"},"categories":[{"id":"4bf58dd8d48988d118951735","name":"Grocery Store","pluralName":"Grocery Stores","shortName":"Grocery Store","icon":{"prefix":"https:\/\/ss1.4sqi.net\/img\/categories_v2\/shops\/food_grocery_","suffix":".png"},"primary":"true"}],"verified":"false","restricted":"true","stats":{"checkinsCount":"1069","usersCount":"294","tipCount":"10"},"specials":{"count":"0"},"hereNow":{"count":"0"},"referralId":"v-1392477994"},{"id":"4b586e43f964a5205f5728e3","name":"Bunhill Fields","location":{"address":"City Road","crossStreet":"Bunhill Row","lat":"51.52348416152351","lng":"-0.08853435516357422","distance":"102","postalCode":"EC1","cc":"GB","city":"London","state":"Greater London","country":"United Kingdom"},"categories":[{"id":"4bf58dd8d48988d163941735","name":"Park","pluralName":"Parks","shortName":"Park","icon":{"prefix":"https:\/\/ss1.4sqi.net\/img\/categories_v2\/parks_outdoors\/park_","suffix":".png"},"primary":"true"}],"verified":"false","restricted":"true","stats":{"checkinsCount":"1912","usersCount":"377","tipCount":"17"},"specials":{"count":"0"},"hereNow":{"count":"0"},"referralId":"v-1392477994"},{"id":"5142265fe4b0f578ec2e36a2","name":"Yum Bun","contact":{"phone":"+447919408221","formattedPhone":"+44 7919 408221"},"location":{"address":"31 Featherstone St","lat":"51.52458777259114","lng":"-0.08769846729712746","distance":"34","postalCode":"EC1Y 2BJ","cc":"GB","city":"Clerkenwell","state":"Greater London","country":"United Kingdom"},"categories":[{"id":"4bf58dd8d48988d1c7941735","name":"Snack Place","pluralName":"Snack Places","shortName":"Snacks","icon":{"prefix":"https:\/\/ss1.4sqi.net\/img\/categories_v2\/food\/snacks_","suffix":".png"},"primary":"true"}],"verified":"true","restricted":"true","stats":{"checkinsCount":"549","usersCount":"339","tipCount":"16"},"menu":{"type":"Menu","label":"Menu","anchor":"View Menu","url":"https:\/\/foursquare.com\/v\/yum-bun\/5142265fe4b0f578ec2e36a2\/menu","mobileUrl":"https:\/\/foursquare.com\/v\/5142265fe4b0f578ec2e36a2\/device_menu"},"specials":{"count":"0"},"hereNow":{"count":"0"},"venuePage":{"id":"59097688"},"storeId":"","referralId":"v-1392477994"},{"id":"4af93169f964a520211122e3","name":"Caff\u00e8 Nero","contact":{"phone":"+442072516444","formattedPhone":"+44 20 7251 6444"},"location":{"address":"40-56 City Rd.","lat":"51.524115738057944","lng":"-0.08737481298087085","distance":"35","postalCode":"EC1Y 2AN","cc":"GB","city":"London","state":"Greater London","country":"United Kingdom"},"categories":[{"id":"4bf58dd8d48988d1e0931735","name":"Coffee Shop","pluralName":"Coffee Shops","shortName":"Coffee Shop","icon":{"prefix":"https:\/\/ss1.4sqi.net\/img\/categories_v2\/food\/coffeeshop_","suffix":".png"},"primary":"true"}],"verified":"false","restricted":"true","stats":{"checkinsCount":"1128","usersCount":"318","tipCount":"10"},"specials":{"count":"0"},"hereNow":{"count":"0"},"referralId":"v-1392477994"},{"id":"4eb5358c29c212fb6c494fec","name":"Bunhill Fields Burial Ground","location":{"lat":"51.52360702239547","lng":"-0.08805734788653245","distance":"77","cc":"GB","city":"Islington","state":"Greater London","country":"United Kingdom"},"categories":[{"id":"4bf58dd8d48988d15c941735","name":"Cemetery","pluralName":"Cemeteries","shortName":"Cemetery","icon":{"prefix":"https:\/\/ss1.4sqi.net\/img\/categories_v2\/parks_outdoors\/cemetery_","suffix":".png"},"primary":"true"}],"verified":"false","restricted":"true","stats":{"checkinsCount":"804","usersCount":"227","tipCount":"2"},"specials":{"count":"0"},"hereNow":{"count":"0"},"referralId":"v-1392477994"},{"id":"4c29ff4e360cef3b5f60bedc","name":"TechHub","contact":{"phone":"+442074900764","formattedPhone":"+44 20 7490 0764","twitter":"techhub"},"location":{"address":"207 Old Street","lat":"51.52503283156269","lng":"-0.0877082347869873","distance":"83","postalCode":"EC1Y 2BJ","cc":"GB","city":"London","state":"Greater London","country":"United Kingdom"},"categories":[{"id":"4bf58dd8d48988d124941735","name":"Office","pluralName":"Offices","shortName":"Office","icon":{"prefix":"https:\/\/ss1.4sqi.net\/img\/categories_v2\/building\/default_","suffix":".png"},"primary":"true"}],"verified":"true","restricted":"true","stats":{"checkinsCount":"3049","usersCount":"1144","tipCount":"17"},"specials":{"count":"0"},"hereNow":{"count":"0"},"referralId":"v-1392477994"},{"id":"4ea177136c25b62f3cf4d65a","name":"pod","contact":{"phone":"+442072534901","formattedPhone":"+44 20 7253 4901","twitter":"podlondon"},"location":{"address":"81 City Rd","crossStreet":"Old St","lat":"51.52528608325212","lng":"-0.08747745807196783","distance":"113","postalCode":"EC1Y 1BD","cc":"GB","city":"Islington","state":"Greater London","country":"United Kingdom"},"categories":[{"id":"4bf58dd8d48988d1bd941735","name":"Salad Place","pluralName":"Salad Shop","shortName":"Salad","icon":{"prefix":"https:\/\/ss1.4sqi.net\/img\/categories_v2\/food\/salad_","suffix":".png"},"primary":"true"}],"verified":"true","restricted":"true","stats":{"checkinsCount":"1207","usersCount":"491","tipCount":"19"},"url":"http:\/\/www.podfood.co.uk","specials":{"count":"0"},"hereNow":{"count":"0"},"referralId":"v-1392477994"},{"id":"4acddff5f964a5205fcd20e3","name":"Pinchito Tapas","contact":{"phone":"+442074900121","formattedPhone":"+44 20 7490 0121","twitter":"pinchitolondon"},"location":{"address":"32 Featherstone St.","lat":"51.524623534928686","lng":"-0.0879794991094195","distance":"39","postalCode":"EC1Y 8QX","cc":"GB","city":"Islington","state":"Greater London","country":"United Kingdom"},"categories":[{"id":"4bf58dd8d48988d1db931735","name":"Tapas Restaurant","pluralName":"Tapas Restaurants","shortName":"Tapas","icon":{"prefix":"https:\/\/ss1.4sqi.net\/img\/categories_v2\/food\/tapas_","suffix":".png"},"primary":"true"}],"verified":"false","restricted":"true","stats":{"checkinsCount":"924","usersCount":"567","tipCount":"17"},"url":"http:\/\/www.pinchito.co.uk\/restaurants\/","reservations":{"url":"http:\/\/www.toptable.co.uk\/single.aspx?rid=80119&ref=9601"},"menu":{"type":"Menu","label":"Menu","anchor":"View Menu","url":"https:\/\/foursquare.com\/v\/pinchito-tapas\/4acddff5f964a5205fcd20e3\/menu","mobileUrl":"https:\/\/foursquare.com\/v\/4acddff5f964a5205fcd20e3\/device_menu"},"specials":{"count":"0"},"hereNow":{"count":"0"},"referralId":"v-1392477994"},{"id":"512c8ae1e4b049302aea7331","name":"Makeshift","contact":{"twitter":"makeshift"},"location":{"address":"12 Mallow St","lat":"51.52483257547096","lng":"-0.0885772705078125","distance":"80","cc":"GB","city":"London","state":"Greater London","country":"United Kingdom"},"categories":[{"id":"4bf58dd8d48988d125941735","name":"Tech Startup","pluralName":"Tech Startups","shortName":"Tech Startup","icon":{"prefix":"https:\/\/ss1.4sqi.net\/img\/categories_v2\/shops\/technology_","suffix":".png"},"primary":"true"}],"verified":"false","restricted":"true","stats":{"checkinsCount":"427","usersCount":"84","tipCount":"1"},"url":"http:\/\/makeshift.io","specials":{"count":"0"},"hereNow":{"count":"0"},"referralId":"v-1392477994"},{"id":"4dd3872bfa76c0bf02478f83","name":"TfL Bus 243","location":{"address":"Moving Target!","lat":"51.52548363156761","lng":"-0.08806264512663053","distance":"134","cc":"GB","city":"Hackney","state":"Greater London","country":"United Kingdom"},"categories":[{"id":"4bf58dd8d48988d12b951735","name":"Bus Line","pluralName":"Bus Lines","shortName":"Bus","icon":{"prefix":"https:\/\/ss1.4sqi.net\/img\/categories_v2\/travel\/busstation_","suffix":".png"},"primary":"true"}],"verified":"false","restricted":"true","stats":{"checkinsCount":"947","usersCount":"281","tipCount":"3"},"specials":{"count":"0"},"hereNow":{"count":"0"},"referralId":"v-1392477994"},{"id":"52aeece311d2336ab05439d6","name":"Code Club (at TechHub)","location":{"address":"207 Old Street","lat":"51.525213950061435","lng":"-0.08788394061134618","distance":"103","cc":"GB","city":"London","state":"Greater London","country":"United Kingdom"},"categories":[{"id":"50328a8e91d4c4b30a586d6c","name":"Non-Profit","pluralName":"Non-Profits","shortName":"Non-Profit","icon":{"prefix":"https:\/\/ss1.4sqi.net\/img\/categories_v2\/building\/default_","suffix":".png"},"primary":"true"}],"verified":"false","restricted":"true","stats":{"checkinsCount":"47","usersCount":"5","tipCount":"0"},"specials":{"count":"0"},"hereNow":{"count":"0"},"referralId":"v-1392477994"},{"id":"515b0f30e4b06344fed70a7f","name":"The Bakery","location":{"address":"25 City Road","lat":"51.52321242900173","lng":"-0.08704497327436136","distance":"130","cc":"GB","city":"London","state":"Greater London","country":"United Kingdom"},"categories":[{"id":"4bf58dd8d48988d174941735","name":"Coworking Space","pluralName":"Coworking Spaces","shortName":"Coworking Space","icon":{"prefix":"https:\/\/ss1.4sqi.net\/img\/categories_v2\/building\/office_coworkingspace_","suffix":".png"},"primary":"true"}],"verified":"false","restricted":"true","stats":{"checkinsCount":"420","usersCount":"243","tipCount":"1"},"specials":{"count":"0"},"hereNow":{"count":"0"},"referralId":"v-1392477994"},{"id":"4cc8425794e1a093555a968b","name":"EAT.","contact":{"phone":"+442076368406","formattedPhone":"+44 20 7636 8406","twitter":"eat_news"},"location":{"address":"93 City Road","crossStreet":"99 City Road","lat":"51.52541756629944","lng":"-0.08752","distance":"127","postalCode":"EC1Y 1BD","cc":"GB","city":"London","state":"Greater London","country":"United Kingdom"},"categories":[{"id":"4bf58dd8d48988d1c5941735","name":"Sandwich Place","pluralName":"Sandwich Places","shortName":"Sandwiches","icon":{"prefix":"https:\/\/ss1.4sqi.net\/img\/categories_v2\/food\/sandwiches_","suffix":".png"},"primary":"true"}],"verified":"true","restricted":"true","stats":{"checkinsCount":"1171","usersCount":"538","tipCount":"10"},"url":"http:\/\/www.eat.co.uk","specials":{"count":"0"},"hereNow":{"count":"0"},"storeId":"EAT - Old Street","referralId":"v-1392477994"},{"id":"51ef98c0498e2ffaf320e93d","name":"Skidmore, Owings & Merrill","location":{"address":"1 Oliver's Yard","lat":"51.524213138200174","lng":"-0.08732932861900011","distance":"33","postalCode":"EC1Y 1HH","cc":"GB","city":"London","state":"Greater London","country":"United Kingdom"},"categories":[{"id":"4bf58dd8d48988d124941735","name":"Office","pluralName":"Offices","shortName":"Office","icon":{"prefix":"https:\/\/ss1.4sqi.net\/img\/categories_v2\/building\/default_","suffix":".png"},"primary":"true"}],"verified":"false","restricted":"true","stats":{"checkinsCount":"22","usersCount":"3","tipCount":"0"},"specials":{"count":"0"},"hereNow":{"count":"0"},"referralId":"v-1392477994"},{"id":"4bcd61538920b713d3af9fdc","name":"Morningstar","location":{"address":"1 olivers yard","lat":"51.52417172411961","lng":"-0.08705377578735352","distance":"53","cc":"GB","city":"Islington","state":"Greater London","country":"United Kingdom"},"categories":[{"id":"4bf58dd8d48988d124941735","name":"Office","pluralName":"Offices","shortName":"Office","icon":{"prefix":"https:\/\/ss1.4sqi.net\/img\/categories_v2\/building\/default_","suffix":".png"},"primary":"true"}],"verified":"false","restricted":"true","stats":{"checkinsCount":"52","usersCount":"21","tipCount":"1"},"specials":{"count":"0"},"hereNow":{"count":"0"},"referralId":"v-1392477994"},{"id":"52b2f747498ece8cac03e3ae","name":"Oliver Bonas","location":{"lat":"51.524662","lng":"-0.087516","distance":"46","cc":"GB","country":"United Kingdom"},"categories":[{"id":"4bf58dd8d48988d128951735","name":"Gift Shop","pluralName":"Gift Shops","shortName":"Gift Shop","icon":{"prefix":"https:\/\/ss1.4sqi.net\/img\/categories_v2\/shops\/giftshop_","suffix":".png"},"primary":"true"}],"verified":"false","restricted":"true","stats":{"checkinsCount":"2","usersCount":"2","tipCount":"0"},"specials":{"count":"0"},"hereNow":{"count":"0"},"referralId":"v-1392477994"},{"id":"4ce3e39bbebd370414aea2a0","name":"Content and Code","contact":{"phone":"+442071010930","formattedPhone":"+44 20 7101 0930"},"location":{"address":"4th Floor, 130 Fenchurch Street","crossStreet":"Fountain House","lat":"51.51181404032437","lng":"-0.08177518844604492","distance":"1450","postalCode":"EC3M 5DJ","cc":"GB","city":"London","state":"Greater London","country":"United Kingdom"},"categories":[{"id":"4bf58dd8d48988d124941735","name":"Office","pluralName":"Offices","shortName":"Office","icon":{"prefix":"https:\/\/ss1.4sqi.net\/img\/categories_v2\/building\/default_","suffix":".png"},"primary":"true"}],"verified":"false","restricted":"true","stats":{"checkinsCount":"258","usersCount":"16","tipCount":"0"},"url":"http:\/\/contentandcode.com","specials":{"count":"0"},"hereNow":{"count":"0"},"referralId":"v-1392477994"},{"id":"4bbf525985fbb713c2f37167","name":"YouGov","contact":{"twitter":"yougov"},"location":{"address":"50 Featherstone Street","lat":"51.524762","lng":"-0.089499","distance":"128","cc":"GB","city":"London","state":"Greater London","country":"United Kingdom"},"categories":[{"id":"4bf58dd8d48988d124941735","name":"Office","pluralName":"Offices","shortName":"Office","icon":{"prefix":"https:\/\/ss1.4sqi.net\/img\/categories_v2\/building\/default_","suffix":".png"},"primary":"true"}],"verified":"false","restricted":"true","stats":{"checkinsCount":"264","usersCount":"29","tipCount":"1"},"url":"http:\/\/www.yougov.com","specials":{"count":"0"},"hereNow":{"count":"0"},"referralId":"v-1392477994"},{"id":"4f8803e2e4b05ae88776fb6b","name":"The Home Office","location":{"lat":"51.5242229222384","lng":"-0.08784644262089877","distance":"7","cc":"GB","country":"United Kingdom"},"categories":[{"id":"4bf58dd8d48988d124941735","name":"Office","pluralName":"Offices","shortName":"Office","icon":{"prefix":"https:\/\/ss1.4sqi.net\/img\/categories_v2\/building\/default_","suffix":".png"},"primary":"true"}],"verified":"false","restricted":"true","stats":{"checkinsCount":"7","usersCount":"2","tipCount":"0"},"specials":{"count":"0"},"hereNow":{"count":"0"},"referralId":"v-1392477994"},{"id":"4d8bad5abb88f04d21b59c3a","name":"SAGE Publications","contact":{"phone":"+442073248500","formattedPhone":"+44 20 7324 8500"},"location":{"address":"1 Oliver's Yard, 55 City Rd.","lat":"51.524068256625554","lng":"-0.08689284324645996","distance":"67","postalCode":"EC1Y 1SP","cc":"GB","city":"London","state":"Greater London","country":"United Kingdom"},"categories":[{"id":"4bf58dd8d48988d174941735","name":"Coworking Space","pluralName":"Coworking Spaces","shortName":"Coworking Space","icon":{"prefix":"https:\/\/ss1.4sqi.net\/img\/categories_v2\/building\/office_coworkingspace_","suffix":".png"},"primary":"true"}],"verified":"false","restricted":"true","stats":{"checkinsCount":"16","usersCount":"8","tipCount":"0"},"specials":{"count":"0"},"hereNow":{"count":"0"},"referralId":"v-1392477994"},{"id":"4e25c032e4cda4c1ef417fdc","name":"William Blake Grave","location":{"lat":"51.523858","lng":"-0.088203","distance":"55","cc":"GB","city":"London","state":"Greater London","country":"United Kingdom"},"categories":[{"id":"4deefb944765f83613cdba6e","name":"Historic Site","pluralName":"Historic Sites","shortName":"Historic Site","icon":{"prefix":"https:\/\/ss1.4sqi.net\/img\/categories_v2\/arts_entertainment\/historicsite_","suffix":".png"},"primary":"true"}],"verified":"false","restricted":"true","stats":{"checkinsCount":"5","usersCount":"5","tipCount":"1"},"specials":{"count":"0"},"hereNow":{"count":"0"},"referralId":"v-1392477994"},{"id":"4b1e676ff964a520981924e3","name":"Trans World House","location":{"address":"100 City Road","lat":"51.52535249610035","lng":"-0.08774027717417511","distance":"118","postalCode":"EC1Y 2BP","cc":"GB","city":"London","state":"Greater London","country":"United Kingdom"},"categories":[{"id":"4bf58dd8d48988d124941735","name":"Office","pluralName":"Offices","shortName":"Office","icon":{"prefix":"https:\/\/ss1.4sqi.net\/img\/categories_v2\/building\/default_","suffix":".png"},"primary":"true"}],"verified":"false","restricted":"true","stats":{"checkinsCount":"565","usersCount":"40","tipCount":"1"},"specials":{"count":"0"},"hereNow":{"count":"0"},"referralId":"v-1392477994"}],"confident":"true"}}