{"meta":{"code":"200"},"response":{"venues":[{"id":"52060c92498eaeea9209d6e6","name":"The Little One","location":{"address":"20 Oval Rd","lat":"51.53987978178299","lng":"-0.14783462260604524","distance":"65","postalCode":"Nw1 7DB","cc":"GB","city":"London","state":"Greater London","country":"United Kingdom"},"categories":[{"id":"4bf58dd8d48988d1e0931735","name":"Coffee Shop","pluralName":"Coffee Shops","shortName":"Coffee Shop","icon":{"prefix":"https:\/\/ss1.4sqi.net\/img\/categories_v2\/food\/coffeeshop_","suffix":".png"},"primary":"true"}],"verified":"false","restricted":"true","stats":{"checkinsCount":"61","usersCount":"27","tipCount":"4"},"specials":{"count":"0"},"hereNow":{"count":"0"},"referralId":"v-1392477948"},{"id":"4b72d5a6f964a520f48a2de3","name":"Conran Design Group","location":{"address":"35 Inverness Street","lat":"51.538834","lng":"-0.14519502373795168","distance":"187","postalCode":"NW1 7HB","cc":"GB","city":"Camden","state":"Greater London","country":"United Kingdom"},"categories":[{"id":"4bf58dd8d48988d124941735","name":"Office","pluralName":"Offices","shortName":"Office","icon":{"prefix":"https:\/\/ss1.4sqi.net\/img\/categories_v2\/building\/default_","suffix":".png"},"primary":"true"}],"verified":"false","restricted":"true","stats":{"checkinsCount":"1483","usersCount":"32","tipCount":"0"},"specials":{"count":"0"},"hereNow":{"count":"0"},"referralId":"v-1392477948"},{"id":"4e41ba1d1495179c0146f53d","name":"Lock House","location":{"address":"35 Oval Rd.","lat":"51.5400274460045","lng":"-0.14890434667533836","distance":"112","postalCode":"NW1 7BF","cc":"GB","city":"Camden Town","state":"Greater London","country":"United Kingdom"},"categories":[{"id":"4d954b06a243a5684965b473","name":"Residential Building (Apartment \/ Condo)","pluralName":"Residential Buildings (Apartments \/ Condos)","shortName":"Residential","icon":{"prefix":"https:\/\/ss1.4sqi.net\/img\/categories_v2\/building\/apartment_","suffix":".png"},"primary":"true"}],"verified":"false","restricted":"true","stats":{"checkinsCount":"189","usersCount":"34","tipCount":"2"},"specials":{"count":"0"},"hereNow":{"count":"0"},"referralId":"v-1392477948"},{"id":"50954a89e4b0b538e537c66b","name":"School Of Sound Recording","location":{"lat":"51.53966522327692","lng":"-0.14703982177656016","distance":"67","cc":"GB","country":"United Kingdom"},"categories":[{"id":"4bf58dd8d48988d198941735","name":"College Academic Building","pluralName":"College Academic Buildings","shortName":"Academic Building","icon":{"prefix":"https:\/\/ss1.4sqi.net\/img\/categories_v2\/education\/academicbuilding_","suffix":".png"},"primary":"true"}],"verified":"false","restricted":"true","stats":{"checkinsCount":"80","usersCount":"6","tipCount":"0"},"specials":{"count":"0"},"hereNow":{"count":"0"},"referralId":"v-1392477948"},{"id":"4b70de36f964a52058322de3","name":"Lockside Lounge","contact":{"phone":"+442072840007","formattedPhone":"+44 20 7284 0007","twitter":"lockside_lounge"},"location":{"address":"75 West Yard","lat":"51.54088364422851","lng":"-0.14649152755737305","distance":"199","postalCode":"NW18AF","cc":"GB","city":"Camden Town","state":"Greater London","country":"United Kingdom"},"categories":[{"id":"4bf58dd8d48988d116941735","name":"Bar","pluralName":"Bars","shortName":"Bar","icon":{"prefix":"https:\/\/ss1.4sqi.net\/img\/categories_v2\/nightlife\/bar_","suffix":".png"},"primary":"true"}],"verified":"true","restricted":"true","stats":{"checkinsCount":"1526","usersCount":"1219","tipCount":"24"},"specials":{"count":"0"},"hereNow":{"count":"0"},"venuePage":{"id":"40487519"},"storeId":"","referralId":"v-1392477948"},{"id":"4bd6b209637ba593cf87f870","name":"Hat Trick","location":{"address":"31 Oval Road","lat":"51.53985458994123","lng":"-0.1476271791033418","distance":"64","cc":"GB","city":"Camden Town","state":"Greater London","country":"United Kingdom"},"verified":"false","restricted":"true","stats":{"checkinsCount":"37","usersCount":"25","tipCount":"0"},"specials":{"count":"0"},"hereNow":{"count":"0"},"referralId":"v-1392477948"},{"id":"4be416ac2457a59386b7a915","name":"Elsevier","location":{"address":"32 Jamestown Road","lat":"51.540564724640866","lng":"-0.14632966727999938","distance":"174","cc":"GB","city":"Camden Town","state":"Greater London","country":"United Kingdom"},"categories":[{"id":"4bf58dd8d48988d124941735","name":"Office","pluralName":"Offices","shortName":"Office","icon":{"prefix":"https:\/\/ss1.4sqi.net\/img\/categories_v2\/building\/default_","suffix":".png"},"primary":"true"}],"verified":"false","restricted":"true","stats":{"checkinsCount":"886","usersCount":"40","tipCount":"2"},"specials":{"count":"0"},"hereNow":{"count":"0"},"referralId":"v-1392477948"},{"id":"4af69e38f964a520700322e3","name":"Holiday Inn London Camden Lock","contact":{"phone":"+442074854343","formattedPhone":"+44 20 7485 4343","twitter":"hinncamdenlock","facebook":"42866320545"},"location":{"address":"30 Jamestown Rd","lat":"51.540289755418094","lng":"-0.14586925506591797","distance":"174","postalCode":"NW1 7BY","cc":"GB","city":"London","state":"Greater London","country":"United Kingdom"},"categories":[{"id":"4bf58dd8d48988d1fa931735","name":"Hotel","pluralName":"Hotels","shortName":"Hotel","icon":{"prefix":"https:\/\/ss1.4sqi.net\/img\/categories_v2\/travel\/hotel_","suffix":".png"},"primary":"true"}],"verified":"true","restricted":"true","stats":{"checkinsCount":"972","usersCount":"431","tipCount":"64"},"url":"http:\/\/www.holidayinncamden.co.uk","specials":{"count":"1","items":[{"id":"521f8cdf8bbdc8c04567e196","type":"count","message":"Oh we love our newbies! We just hope you love us too :-). So here you go: Free 24HR WiFi (top bandwidth) AND for our Reward Club Members, the Starbucks coffee of your choice!","description":"Unlocked on your 1st check-in","finePrint":"What \"fine print\"?! It does what it says on your screen. We like our FourSquare friends and we try to look after them. What about \"love\"? You'll need to become Mayor for that ... ;-) Thank you! Eddy","icon":"newbie","title":"Newbie Special","provider":"foursquare","redemption":"standard","page":{"id":"33027300","firstName":"Holiday Inn London Camden Lock","gender":"none","photo":{"prefix":"https:\/\/irs3.4sqi.net\/img\/user\/","suffix":"\/ITK2T2X5JUYUWJC1.gif"},"type":"venuePage","venue":{"id":"4af69e38f964a520700322e3"},"tips":{"count":"2"},"homeCity":"London","bio":"","contact":{"twitter":"hinncamdenlock","facebook":"42866320545"}}}]},"hereNow":{"count":"0"},"venuePage":{"id":"33027300"},"storeId":"LONCL","referralId":"v-1392477948"},{"id":"4c4309d23735be9afed11aa4","name":"The Pirate Castle","contact":{"phone":"+442072676605","formattedPhone":"+44 20 7267 6605","twitter":"thepiratecastle"},"location":{"address":"Oval Road","lat":"51.54016964213219","lng":"-0.1483154296875","distance":"104","postalCode":"NW1 7EA","cc":"GB","city":"Camden Town","state":"Greater London","country":"United Kingdom"},"categories":[{"id":"4bf58dd8d48988d162941735","name":"Other Great Outdoors","pluralName":"Other Great Outdoors","shortName":"Other Outdoors","icon":{"prefix":"https:\/\/ss1.4sqi.net\/img\/categories_v2\/parks_outdoors\/outdoors_","suffix":".png"},"primary":"true"}],"verified":"false","restricted":"true","stats":{"checkinsCount":"149","usersCount":"111","tipCount":"1"},"url":"http:\/\/www.thepiratecastle.org","specials":{"count":"0"},"hereNow":{"count":"0"},"referralId":"v-1392477948"},{"id":"4ac518e6f964a52012ab20e3","name":"Cecil Sharp House","location":{"address":"2 Regents Park Rd","lat":"51.53807604676176","lng":"-0.14932009487788064","distance":"171","postalCode":"NW1 7AY","cc":"GB","city":"Camden","state":"Greater London","country":"United Kingdom"},"categories":[{"id":"4bf58dd8d48988d1e5931735","name":"Music Venue","pluralName":"Music Venues","shortName":"Music Venue","icon":{"prefix":"https:\/\/ss1.4sqi.net\/img\/categories_v2\/arts_entertainment\/musicvenue_","suffix":".png"},"primary":"true"}],"verified":"false","restricted":"true","stats":{"checkinsCount":"782","usersCount":"414","tipCount":"10"},"specials":{"count":"0"},"hereNow":{"count":"0"},"referralId":"v-1392477948"},{"id":"52d15d65498ef0f0670f287b","name":"Camden Town & Primrose Hill","location":{"lat":"51.539807831810684","lng":"-0.14800644971066737","distance":"59","cc":"GB","country":"United Kingdom"},"categories":[{"id":"50328a8e91d4c4b30a586d6c","name":"Non-Profit","pluralName":"Non-Profits","shortName":"Non-Profit","icon":{"prefix":"https:\/\/ss1.4sqi.net\/img\/categories_v2\/building\/default_","suffix":".png"},"primary":"true"}],"verified":"false","restricted":"true","stats":{"checkinsCount":"2","usersCount":"2","tipCount":"0"},"specials":{"count":"0"},"hereNow":{"count":"0"},"referralId":"v-1392477948"},{"id":"512f9992e4b0acab7589d24f","name":"Vitsoe","location":{"address":"Centric Close","lat":"51.539428","lng":"-0.148212","distance":"32","cc":"GB","city":"London","state":"Greater London","country":"United Kingdom"},"categories":[{"id":"4bf58dd8d48988d124941735","name":"Office","pluralName":"Offices","shortName":"Office","icon":{"prefix":"https:\/\/ss1.4sqi.net\/img\/categories_v2\/building\/default_","suffix":".png"},"primary":"true"}],"verified":"false","restricted":"true","stats":{"checkinsCount":"1","usersCount":"1","tipCount":"0"},"specials":{"count":"0"},"hereNow":{"count":"0"},"referralId":"v-1392477948"},{"id":"51c7a6bd5019cb27374035f6","name":"SSR London","contact":{"phone":"+442074827067","formattedPhone":"+44 20 7482 7067","twitter":"ssr_london"},"location":{"address":"42-43 Gloucester Crescent","lat":"51.53936220570418","lng":"-0.14731764793395996","distance":"34","postalCode":"NW1 7DL","cc":"GB","city":"Camden Town","state":"Greater London","country":"United Kingdom"},"categories":[{"id":"4f04b10d2fb6e1c99f3db0be","name":"Music School","pluralName":"Music Schools","shortName":"Music School","icon":{"prefix":"https:\/\/ss1.4sqi.net\/img\/categories_v2\/building\/school_music_","suffix":".png"},"primary":"true"}],"verified":"false","restricted":"true","stats":{"checkinsCount":"1","usersCount":"1","tipCount":"0"},"specials":{"count":"0"},"hereNow":{"count":"0"},"referralId":"v-1392477948"},{"id":"51879d27498e263d49e68f33","name":"RNIB Talking Books","location":{"lat":"51.53993613826826","lng":"-0.14806463344852724","distance":"74","cc":"GB","country":"United Kingdom"},"categories":[{"id":"4bf58dd8d48988d124941735","name":"Office","pluralName":"Offices","shortName":"Office","icon":{"prefix":"https:\/\/ss1.4sqi.net\/img\/categories_v2\/building\/default_","suffix":".png"},"primary":"true"}],"verified":"false","restricted":"true","stats":{"checkinsCount":"3","usersCount":"1","tipCount":"0"},"specials":{"count":"0"},"hereNow":{"count":"0"},"referralId":"v-1392477948"},{"id":"4f02cc1530f89923350ad336","name":"Academic House","location":{"address":"Oval Rd, London Borough of Camden, London NW1 7EA","lat":"51.54014146526277","lng":"-0.14812897700097163","distance":"97","postalCode":"NW1 7EA","cc":"GB","country":"United Kingdom"},"categories":[{"id":"4bf58dd8d48988d124941735","name":"Office","pluralName":"Offices","shortName":"Office","icon":{"prefix":"https:\/\/ss1.4sqi.net\/img\/categories_v2\/building\/default_","suffix":".png"},"primary":"true"}],"verified":"false","restricted":"true","stats":{"checkinsCount":"23","usersCount":"6","tipCount":"0"},"specials":{"count":"0"},"hereNow":{"count":"0"},"referralId":"v-1392477948"},{"id":"5225cb40498e38315fef965b","name":"s&l new hq","location":{"lat":"51.53937530517578","lng":"-0.14962230622768402","distance":"126","cc":"GB","country":"United Kingdom"},"categories":[{"id":"4bf58dd8d48988d124941735","name":"Office","pluralName":"Offices","shortName":"Office","icon":{"prefix":"https:\/\/ss1.4sqi.net\/img\/categories_v2\/building\/default_","suffix":".png"},"primary":"true"}],"verified":"false","restricted":"true","stats":{"checkinsCount":"23","usersCount":"3","tipCount":"0"},"specials":{"count":"0"},"hereNow":{"count":"0"},"referralId":"v-1392477948"},{"id":"4c4453f6da2176b023cc627a","name":"Autoglass\u00ae","contact":{"phone":"+442074855858","formattedPhone":"+44 20 7485 5858","twitter":"autoglass"},"location":{"address":"Unit 6, Centric Close, Oval Road, Camden Town","lat":"51.53943762414153","lng":"-0.14838400172161947","distance":"43","postalCode":"NW1 7EP","cc":"GB","city":"London","state":"Greater London","country":"United Kingdom"},"categories":[{"id":"4bf58dd8d48988d124951735","name":"Automotive Shop","pluralName":"Automotive Shops","shortName":"Automotive","icon":{"prefix":"https:\/\/ss1.4sqi.net\/img\/categories_v2\/shops\/automotive_","suffix":".png"},"primary":"true"}],"verified":"true","restricted":"true","stats":{"checkinsCount":"6","usersCount":"5","tipCount":"0"},"url":"http:\/\/www.autoglass.co.uk","specials":{"count":"0"},"hereNow":{"count":"0"},"referralId":"v-1392477948"},{"id":"5283a48411d218b696327098","name":"Bauer Camden","location":{"lat":"51.539983","lng":"-0.147617","distance":"78","cc":"GB","country":"United Kingdom"},"categories":[{"id":"4bf58dd8d48988d124941735","name":"Office","pluralName":"Offices","shortName":"Office","icon":{"prefix":"https:\/\/ss1.4sqi.net\/img\/categories_v2\/building\/default_","suffix":".png"},"primary":"true"}],"verified":"false","restricted":"true","stats":{"checkinsCount":"2","usersCount":"1","tipCount":"0"},"specials":{"count":"0"},"hereNow":{"count":"0"},"referralId":"v-1392477948"},{"id":"4c4579262d3ec9b6893f30ae","name":"Arlington House","location":{"address":"220 Arlington Road","lat":"51.53983793868145","lng":"-0.14486656729416167","distance":"212","postalCode":"NW1 7HE","cc":"GB","city":"London","state":"Greater London","country":"United Kingdom"},"categories":[{"id":"4bf58dd8d48988d171941735","name":"Event Space","pluralName":"Event Spaces","shortName":"Event Space","icon":{"prefix":"https:\/\/ss1.4sqi.net\/img\/categories_v2\/building\/eventspace_","suffix":".png"},"primary":"true"}],"verified":"false","restricted":"true","stats":{"checkinsCount":"40","usersCount":"31","tipCount":"0"},"specials":{"count":"0"},"hereNow":{"count":"0"},"referralId":"v-1392477948"},{"id":"4eddfb91b6344371fb09a3da","name":"Gloucester Avenue","location":{"lat":"51.53730800726836","lng":"-0.14723453093971986","distance":"224","cc":"GB","country":"United Kingdom"},"categories":[{"id":"4bf58dd8d48988d1fe931735","name":"Bus Station","pluralName":"Bus Stations","shortName":"Bus Station","icon":{"prefix":"https:\/\/ss1.4sqi.net\/img\/categories_v2\/travel\/busstation_","suffix":".png"},"primary":"true"}],"verified":"false","restricted":"true","stats":{"checkinsCount":"216","usersCount":"33","tipCount":"0"},"specials":{"count":"0"},"hereNow":{"count":"0"},"referralId":"v-1392477948"},{"id":"52e0f897498e1165b1a89f51","name":"ExterionMedia","location":{"lat":"51.54024","lng":"-0.145608","distance":"185","cc":"GB","country":"United Kingdom"},"categories":[{"id":"4bf58dd8d48988d124941735","name":"Office","pluralName":"Offices","shortName":"Office","icon":{"prefix":"https:\/\/ss1.4sqi.net\/img\/categories_v2\/building\/default_","suffix":".png"},"primary":"true"}],"verified":"false","restricted":"true","stats":{"checkinsCount":"2","usersCount":"2","tipCount":"0"},"specials":{"count":"0"},"hereNow":{"count":"0"},"referralId":"v-1392477948"},{"id":"4bbc6a0bed7776b062923f51","name":"Funny Or Die UK","location":{"address":"33 Oval Road","lat":"51.539813","lng":"-0.147594","distance":"60","postalCode":"NW1 7EA","cc":"GB","city":"Camden Town","state":"Greater London","country":"United Kingdom"},"categories":[{"id":"4bf58dd8d48988d124941735","name":"Office","pluralName":"Offices","shortName":"Office","icon":{"prefix":"https:\/\/ss1.4sqi.net\/img\/categories_v2\/building\/default_","suffix":".png"},"primary":"true"}],"verified":"false","restricted":"true","stats":{"checkinsCount":"3","usersCount":"3","tipCount":"0"},"specials":{"count":"0"},"hereNow":{"count":"0"},"referralId":"v-1392477948"},{"id":"5055c14ee4b0e932c94fbed8","name":"Michael Nadra","contact":{"phone":"+442077222800","formattedPhone":"+44 20 7722 2800","twitter":"michaelnadra"},"location":{"address":"42 Gloucester Avenue","lat":"51.540005193884156","lng":"-0.1500707785783379","distance":"176","postalCode":"NW1 8JD","cc":"GB","city":"London","state":"Greater London","country":"United Kingdom"},"categories":[{"id":"4bf58dd8d48988d1c4941735","name":"Restaurant","pluralName":"Restaurants","shortName":"Restaurant","icon":{"prefix":"https:\/\/ss1.4sqi.net\/img\/categories_v2\/food\/default_","suffix":".png"},"primary":"true"}],"verified":"false","restricted":"true","stats":{"checkinsCount":"37","usersCount":"29","tipCount":"1"},"specials":{"count":"0"},"hereNow":{"count":"0"},"referralId":"v-1392477948"},{"id":"4c0f4b8a336220a12d97cd77","name":"Max Fordham LLP - Camden office","location":{"address":"The Rotunda","crossStreet":"Gloucester Crescent","lat":"51.539214849472046","lng":"-0.1469","distance":"63","postalCode":"NW1 7PE","cc":"GB","city":"Camden Town","state":"Greater London","country":"United Kingdom"},"categories":[{"id":"4bf58dd8d48988d124941735","name":"Office","pluralName":"Offices","shortName":"Office","icon":{"prefix":"https:\/\/ss1.4sqi.net\/img\/categories_v2\/building\/default_","suffix":".png"},"primary":"true"}],"verified":"false","restricted":"true","stats":{"checkinsCount":"3","usersCount":"3","tipCount":"0"},"specials":{"count":"0"},"hereNow":{"count":"0"},"referralId":"v-1392477948"},{"id":"4dcd075b22718eed7a13a744","name":"57 Jamestown","location":{"lat":"51.539695","lng":"-0.147095","distance":"66","cc":"GB","city":"Camden Town","state":"Greater London","country":"United Kingdom"},"verified":"false","restricted":"true","stats":{"checkinsCount":"2","usersCount":"2","tipCount":"0"},"specials":{"count":"0"},"hereNow":{"count":"0"},"referralId":"v-1392477948"},{"id":"51ef956f498e47dcca742b0d","name":"my-wardrobe.com","location":{"address":"57 Jamestown Road","lat":"51.539624","lng":"-0.146957","distance":"69","cc":"GB","city":"London","state":"Greater London","country":"United Kingdom"},"categories":[{"id":"4bf58dd8d48988d125941735","name":"Tech Startup","pluralName":"Tech Startups","shortName":"Tech Startup","icon":{"prefix":"https:\/\/ss1.4sqi.net\/img\/categories_v2\/shops\/technology_","suffix":".png"},"primary":"true"}],"verified":"false","restricted":"true","stats":{"checkinsCount":"2","usersCount":"2","tipCount":"0"},"specials":{"count":"0"},"hereNow":{"count":"0"},"referralId":"v-1392477948"},{"id":"51802cd1be5219dc8fab2e88","name":"City Car Club Vehicle","contact":{"twitter":"citycarclub"},"location":{"address":"Gloucester Crescent Primrose Hill\/Camden Town","lat":"51.5392520996","lng":"-0.1466202736","distance":"81","postalCode":"NW1 7DL","cc":"GB","city":"London","state":"Greater London","country":"United Kingdom"},"categories":[{"id":"4bf58dd8d48988d1ef941735","name":"Rental Car Location","pluralName":"Rental Car Locations","shortName":"Rental Car","icon":{"prefix":"https:\/\/ss1.4sqi.net\/img\/categories_v2\/shops\/airport_rentalcar_","suffix":".png"},"primary":"true"}],"verified":"true","restricted":"true","stats":{"checkinsCount":"0","usersCount":"0","tipCount":"0"},"url":"http:\/\/www.citycarclub.co.uk\/mobile\/about.html","specials":{"count":"0"},"hereNow":{"count":"0"},"storeId":"","referralId":"v-1392477948"},{"id":"4bd9712be914a593fb7656fa","name":"A La Turko Kebab","location":{"address":"Camden Lock","lat":"51.540005","lng":"-0.147462","distance":"83","cc":"GB","city":"Camden Town","state":"Greater London","country":"United Kingdom"},"categories":[{"id":"4bf58dd8d48988d16e941735","name":"Fast Food Restaurant","pluralName":"Fast Food Restaurants","shortName":"Fast Food","icon":{"prefix":"https:\/\/ss1.4sqi.net\/img\/categories_v2\/food\/fastfood_","suffix":".png"},"primary":"true"}],"verified":"false","restricted":"true","stats":{"checkinsCount":"2","usersCount":"2","tipCount":"1"},"specials":{"count":"0"},"hereNow":{"count":"0"},"referralId":"v-1392477948"},{"id":"4cee34d17b9437047e212c53","name":"goviral HQ","location":{"address":"12 Oval Rd","lat":"51.5397284","lng":"-0.1474651","distance":"54","postalCode":"NW1 7DH","cc":"GB","city":"Camden Town","state":"Greater London","country":"United Kingdom"},"categories":[{"id":"4bf58dd8d48988d124941735","name":"Office","pluralName":"Offices","shortName":"Office","icon":{"prefix":"https:\/\/ss1.4sqi.net\/img\/categories_v2\/building\/default_","suffix":".png"},"primary":"true"}],"verified":"true","restricted":"true","stats":{"checkinsCount":"226","usersCount":"15","tipCount":"0"},"specials":{"count":"0"},"hereNow":{"count":"0"},"referralId":"v-1392477948"},{"id":"5246cd6f11d2029997b84339","name":"Arepa","location":{"lat":"51.5392557531595","lng":"-0.146535532549024","distance":"87","postalCode":"N1 5SB","cc":"GB","country":"United Kingdom"},"verified":"false","restricted":"true","stats":{"checkinsCount":"0","usersCount":"0","tipCount":"0"},"specials":{"count":"0"},"hereNow":{"count":"0"},"referralId":"v-1392477948"}],"confident":"true"}}