{"meta":{"code":"200"},"response":{"venues":[{"id":"4ac518bff964a52058a320e3","name":"Salt Whisky Bar","contact":{"phone":"+442074021155","formattedPhone":"+44 20 7402 1155","twitter":"saltwhiskybar"},"location":{"address":"82 Seymour St","lat":"51.51430886347134","lng":"-0.16165559413911007","distance":"79","postalCode":"W2 2JB","cc":"GB","city":"Marble Arch","state":"Greater London","country":"United Kingdom"},"categories":[{"id":"4bf58dd8d48988d122941735","name":"Whisky Bar","pluralName":"Whisky Bars","shortName":"Whisky Bar","icon":{"prefix":"https:\/\/ss1.4sqi.net\/img\/categories_v2\/nightlife\/whiskey_","suffix":".png"},"primary":"true"}],"verified":"false","restricted":"true","stats":{"checkinsCount":"4117","usersCount":"1408","tipCount":"32"},"url":"http:\/\/www.saltbar.com","reservations":{"url":"http:\/\/www.toptable.co.uk\/single.aspx?rid=24942&ref=9601"},"menu":{"type":"Menu","label":"Menu","anchor":"View Menu","url":"https:\/\/foursquare.com\/v\/salt-whisky-bar\/4ac518bff964a52058a320e3\/menu","mobileUrl":"https:\/\/foursquare.com\/v\/4ac518bff964a52058a320e3\/device_menu"},"specials":{"count":"0"},"hereNow":{"count":"0"},"referralId":"v-1392478012"},{"id":"4bc4f7b25e0ab713eec445eb","name":"Maroush Express","contact":{"phone":"+442072249339","formattedPhone":"+44 20 7224 9339"},"location":{"address":"68 Edgware Road","lat":"51.51506667235879","lng":"-0.1627750642061328","distance":"86","postalCode":"W2 2EG","cc":"GB","city":"Paddington","state":"Greater London","country":"United Kingdom"},"categories":[{"id":"4bf58dd8d48988d115941735","name":"Middle Eastern Restaurant","pluralName":"Middle Eastern Restaurants","shortName":"Middle Eastern","icon":{"prefix":"https:\/\/ss1.4sqi.net\/img\/categories_v2\/food\/default_","suffix":".png"},"primary":"true"}],"verified":"true","restricted":"true","stats":{"checkinsCount":"1051","usersCount":"815","tipCount":"29"},"url":"http:\/\/maroush.com\u200e","specials":{"count":"0"},"hereNow":{"count":"1","groups":[{"type":"others","name":"Other people here","count":"1"}]},"referralId":"v-1392478012"},{"id":"4b92b557f964a520c71334e3","name":"Sidi Maarouf","location":{"address":"56 - 58 Edgeware Rd.","lat":"51.514682714989476","lng":"-0.16232953729060307","distance":"54","postalCode":"W2 2JE","cc":"GB","city":"Paddington","state":"Greater London","country":"United Kingdom"},"categories":[{"id":"4bf58dd8d48988d1c3941735","name":"Moroccan Restaurant","pluralName":"Moroccan Restaurants","shortName":"Moroccan","icon":{"prefix":"https:\/\/ss1.4sqi.net\/img\/categories_v2\/food\/moroccan_","suffix":".png"},"primary":"true"}],"verified":"true","restricted":"true","stats":{"checkinsCount":"458","usersCount":"349","tipCount":"5"},"url":"http:\/\/www.maroush.com\/sidi-maarouf-edgware","reservations":{"url":"http:\/\/www.toptable.co.uk\/single.aspx?rid=73672&ref=9601"},"menu":{"type":"Menu","label":"Menu","anchor":"View Menu","url":"https:\/\/foursquare.com\/v\/sidi-maarouf-paddington-greater-london\/4b92b557f964a520c71334e3\/menu","mobileUrl":"https:\/\/foursquare.com\/v\/4b92b557f964a520c71334e3\/device_menu"},"specials":{"count":"0"},"hereNow":{"count":"0"},"referralId":"v-1392478012"},{"id":"4d4effae94398cfaeb61a2c8","name":"Al Balad Lebanese Cuisine","location":{"lat":"51.514307","lng":"-0.1617","distance":"76","cc":"GB","country":"United Kingdom"},"categories":[{"id":"4bf58dd8d48988d115941735","name":"Middle Eastern Restaurant","pluralName":"Middle Eastern Restaurants","shortName":"Middle Eastern","icon":{"prefix":"https:\/\/ss1.4sqi.net\/img\/categories_v2\/food\/default_","suffix":".png"},"primary":"true"}],"verified":"false","restricted":"true","stats":{"checkinsCount":"534","usersCount":"407","tipCount":"8"},"specials":{"count":"0"},"hereNow":{"count":"1","groups":[{"type":"others","name":"Other people here","count":"1"}]},"referralId":"v-1392478012"},{"id":"4e71ceddd1647c08d3d7165c","name":"The Borough Barista","contact":{"phone":"+442075637222","formattedPhone":"+44 20 7563 7222","twitter":"boroughbarista"},"location":{"address":"60 Seymour St","lat":"51.51439915504459","lng":"-0.1609197049904356","distance":"131","postalCode":"W1H 7JN","cc":"GB","city":"Paddington","state":"Greater London","country":"United Kingdom"},"categories":[{"id":"4bf58dd8d48988d1e0931735","name":"Coffee Shop","pluralName":"Coffee Shops","shortName":"Coffee Shop","icon":{"prefix":"https:\/\/ss1.4sqi.net\/img\/categories_v2\/food\/coffeeshop_","suffix":".png"},"primary":"true"}],"verified":"false","restricted":"true","stats":{"checkinsCount":"743","usersCount":"353","tipCount":"28"},"url":"http:\/\/www.theboroughbarista.com","specials":{"count":"0"},"hereNow":{"count":"1","groups":[{"type":"others","name":"Other people here","count":"1"}]},"referralId":"v-1392478012"},{"id":"4f79bd54e4b0e91fa905cb33","name":"\u0634\u0627\u0631\u0639 \u0627\u0644\u0639\u0631\u0628","location":{"lat":"51.51504646584774","lng":"-0.1628040683434927","distance":"84","cc":"GB","country":"United Kingdom"},"categories":[{"id":"4bf58dd8d48988d130941735","name":"Building","pluralName":"Buildings","shortName":"Building","icon":{"prefix":"https:\/\/ss1.4sqi.net\/img\/categories_v2\/building\/default_","suffix":".png"},"primary":"true"}],"verified":"false","restricted":"true","stats":{"checkinsCount":"167","usersCount":"88","tipCount":"0"},"specials":{"count":"0"},"hereNow":{"count":"0"},"referralId":"v-1392478012"},{"id":"4bcfeb3b41b9ef3b3757f9e5","name":"Connaught Square","location":{"address":"Connaught Sq.","lat":"51.51450320015944","lng":"-0.16432144062663553","distance":"107","postalCode":"W2 2","cc":"GB","city":"Paddington","state":"Greater London","country":"United Kingdom"},"categories":[{"id":"4bf58dd8d48988d15a941735","name":"Garden","pluralName":"Gardens","shortName":"Garden","icon":{"prefix":"https:\/\/ss1.4sqi.net\/img\/categories_v2\/parks_outdoors\/garden_","suffix":".png"},"primary":"true"}],"verified":"false","restricted":"true","stats":{"checkinsCount":"586","usersCount":"144","tipCount":"4"},"specials":{"count":"0"},"hereNow":{"count":"0"},"referralId":"v-1392478012"},{"id":"4ac518e0f964a52014aa20e3","name":"Maroush I","location":{"address":"21 Edgware Road","lat":"51.51497986124557","lng":"-0.16258832202721757","distance":"78","postalCode":"W2 2JE","cc":"GB","city":"Paddington","state":"Greater London","country":"United Kingdom"},"categories":[{"id":"4bf58dd8d48988d115941735","name":"Middle Eastern Restaurant","pluralName":"Middle Eastern Restaurants","shortName":"Middle Eastern","icon":{"prefix":"https:\/\/ss1.4sqi.net\/img\/categories_v2\/food\/default_","suffix":".png"},"primary":"true"}],"verified":"true","restricted":"true","stats":{"checkinsCount":"670","usersCount":"566","tipCount":"6"},"reservations":{"url":"http:\/\/www.toptable.co.uk\/single.aspx?rid=73678&ref=9601"},"specials":{"count":"0"},"hereNow":{"count":"0"},"referralId":"v-1392478012"},{"id":"4e598b451495a891128136df","name":"\u0645\u0637\u0639\u0645 \u0632\u0639\u0641\u0631\u0627\u0646","location":{"address":"Edgware Road","lat":"51.51507221148984","lng":"-0.1625857747622764","distance":"88","cc":"GB","city":"Paddington","state":"Greater London","country":"United Kingdom"},"categories":[{"id":"4bf58dd8d48988d115941735","name":"Middle Eastern Restaurant","pluralName":"Middle Eastern Restaurants","shortName":"Middle Eastern","icon":{"prefix":"https:\/\/ss1.4sqi.net\/img\/categories_v2\/food\/default_","suffix":".png"},"primary":"true"}],"verified":"false","restricted":"true","stats":{"checkinsCount":"316","usersCount":"236","tipCount":"8"},"specials":{"count":"0"},"hereNow":{"count":"0"},"referralId":"v-1392478012"},{"id":"51e1c39c498ebc95d810841d","name":"Harolds","location":{"lat":"51.513599921801486","lng":"-0.16380119151743416","distance":"103","cc":"GB","country":"United Kingdom"},"verified":"false","restricted":"true","stats":{"checkinsCount":"29","usersCount":"29","tipCount":"1"},"specials":{"count":"0"},"hereNow":{"count":"0"},"referralId":"v-1392478012"},{"id":"4b9be660f964a520613336e3","name":"Al Shishawi","contact":{"phone":"+442072626212","formattedPhone":"+44 20 7262 6212"},"location":{"address":"51-53 Edgware Rd.","lat":"51.51541534970031","lng":"-0.16322422731202718","distance":"128","postalCode":"W2 2HZ","cc":"GB","city":"City of Westminster","state":"Greater London","country":"United Kingdom"},"categories":[{"id":"4bf58dd8d48988d115941735","name":"Middle Eastern Restaurant","pluralName":"Middle Eastern Restaurants","shortName":"Middle Eastern","icon":{"prefix":"https:\/\/ss1.4sqi.net\/img\/categories_v2\/food\/default_","suffix":".png"},"primary":"true"}],"verified":"false","restricted":"true","stats":{"checkinsCount":"1193","usersCount":"649","tipCount":"12"},"specials":{"count":"0"},"hereNow":{"count":"0"},"referralId":"v-1392478012"},{"id":"4c6be17d1fb2a143d6faf9e6","name":"118 Edgeware Road","location":{"address":"118 Edgeware Road","lat":"51.51545618417351","lng":"-0.16352355413060224","distance":"139","cc":"GB","city":"London","state":"Greater London","country":"United Kingdom"},"categories":[{"id":"4bf58dd8d48988d1c4941735","name":"Restaurant","pluralName":"Restaurants","shortName":"Restaurant","icon":{"prefix":"https:\/\/ss1.4sqi.net\/img\/categories_v2\/food\/default_","suffix":".png"},"primary":"true"}],"verified":"false","restricted":"true","stats":{"checkinsCount":"526","usersCount":"358","tipCount":"4"},"specials":{"count":"0"},"hereNow":{"count":"0"},"referralId":"v-1392478012"},{"id":"4ac518e0f964a52018aa20e3","name":"Maroush Gardens","contact":{"phone":"+442072620222","formattedPhone":"+44 20 7262 0222"},"location":{"address":"1 Connaught St.","crossStreet":"Edgware Rd.","lat":"51.514999","lng":"-0.1630342","distance":"80","postalCode":"W2 2BH","cc":"GB","city":"Paddington","state":"Greater London","country":"United Kingdom"},"categories":[{"id":"4bf58dd8d48988d115941735","name":"Middle Eastern Restaurant","pluralName":"Middle Eastern Restaurants","shortName":"Middle Eastern","icon":{"prefix":"https:\/\/ss1.4sqi.net\/img\/categories_v2\/food\/default_","suffix":".png"},"primary":"true"}],"verified":"true","restricted":"true","stats":{"checkinsCount":"410","usersCount":"335","tipCount":"5"},"specials":{"count":"0"},"hereNow":{"count":"0"},"referralId":"v-1392478012"},{"id":"4d123ae6ffa1224b89b897ad","name":"Vinoteca","contact":{"phone":"+442077247288","formattedPhone":"+44 20 7724 7288","twitter":"vinoteca"},"location":{"address":"15 Seymour Pl.","lat":"51.514826","lng":"-0.161203","distance":"125","postalCode":"W1H 5BE","cc":"GB","city":"London","state":"Greater London","country":"United Kingdom"},"categories":[{"id":"4bf58dd8d48988d123941735","name":"Wine Bar","pluralName":"Wine Bars","shortName":"Wine Bar","icon":{"prefix":"https:\/\/ss1.4sqi.net\/img\/categories_v2\/nightlife\/wine_","suffix":".png"},"primary":"true"}],"verified":"false","restricted":"true","stats":{"checkinsCount":"498","usersCount":"377","tipCount":"16"},"url":"http:\/\/www.vinoteca.co.uk","menu":{"type":"Menu","label":"Menu","anchor":"View Menu","url":"https:\/\/foursquare.com\/v\/vinoteca\/4d123ae6ffa1224b89b897ad\/menu","mobileUrl":"https:\/\/foursquare.com\/v\/4d123ae6ffa1224b89b897ad\/device_menu"},"specials":{"count":"0"},"hereNow":{"count":"0"},"referralId":"v-1392478012"},{"id":"51ceffc3498ec2e743bd159f","name":"Maroush | \u0645\u0631\u0651\u0648\u0634","location":{"address":"Edgware Road","lat":"51.51499481524904","lng":"-0.16303298702992808","distance":"80","cc":"GB","city":"London","state":"Greater London","country":"United Kingdom"},"categories":[{"id":"4bf58dd8d48988d115941735","name":"Middle Eastern Restaurant","pluralName":"Middle Eastern Restaurants","shortName":"Middle Eastern","icon":{"prefix":"https:\/\/ss1.4sqi.net\/img\/categories_v2\/food\/default_","suffix":".png"},"primary":"true"}],"verified":"false","restricted":"true","stats":{"checkinsCount":"48","usersCount":"43","tipCount":"1"},"specials":{"count":"0"},"hereNow":{"count":"0"},"referralId":"v-1392478012"},{"id":"5130de83e4b03fa96dd8f1f4","name":"\u0645\u0631\u0648\u0634 \u0627\u0644\u0623\u062d\u0645\u0631 \u0627\u0644\u0644\u064a \u0642\u0639\u062f\u062a\u0647 \u062d\u0644\u0648\u0647 ;p","location":{"address":"Edgware road","lat":"51.514923634269586","lng":"-0.16274597038523125","distance":"70","cc":"GB","country":"United Kingdom"},"categories":[{"id":"4bf58dd8d48988d1c4941735","name":"Restaurant","pluralName":"Restaurants","shortName":"Restaurant","icon":{"prefix":"https:\/\/ss1.4sqi.net\/img\/categories_v2\/food\/default_","suffix":".png"},"primary":"true"}],"verified":"false","restricted":"true","stats":{"checkinsCount":"13","usersCount":"6","tipCount":"0"},"specials":{"count":"0"},"hereNow":{"count":"0"},"referralId":"v-1392478012"},{"id":"4c36328e93db0f47ada91d92","name":"Ranoush Juice","location":{"address":"43 Edgware Rd.","crossStreet":"Upper berkeley street","lat":"51.51496553479922","lng":"-0.16269207000732422","distance":"75","postalCode":"W2 2JR","cc":"GB","city":"London","state":"Greater London","country":"United Kingdom"},"categories":[{"id":"4bf58dd8d48988d112941735","name":"Juice Bar","pluralName":"Juice Bars","shortName":"Juice Bar","icon":{"prefix":"https:\/\/ss1.4sqi.net\/img\/categories_v2\/food\/juicebar_","suffix":".png"},"primary":"true"}],"verified":"true","restricted":"true","stats":{"checkinsCount":"427","usersCount":"331","tipCount":"10"},"specials":{"count":"0"},"hereNow":{"count":"0"},"referralId":"v-1392478012"},{"id":"4fa33ff9e4b0dd0f110011e6","name":"Donostia","contact":{"twitter":"donostiaw1"},"location":{"address":"10 Seymour Place","crossStreet":"Portman Village","lat":"51.51472517425703","lng":"-0.16112565994262695","distance":"125","cc":"GB","city":"London","state":"Greater London","country":"United Kingdom"},"categories":[{"id":"4bf58dd8d48988d1db931735","name":"Tapas Restaurant","pluralName":"Tapas Restaurants","shortName":"Tapas","icon":{"prefix":"https:\/\/ss1.4sqi.net\/img\/categories_v2\/food\/tapas_","suffix":".png"},"primary":"true"}],"verified":"false","restricted":"true","stats":{"checkinsCount":"240","usersCount":"180","tipCount":"15"},"url":"http:\/\/www.donostia.co.uk","menu":{"type":"Menu","label":"Menu","anchor":"View Menu","url":"https:\/\/foursquare.com\/v\/donostia\/4fa33ff9e4b0dd0f110011e6\/menu","mobileUrl":"https:\/\/foursquare.com\/v\/4fa33ff9e4b0dd0f110011e6\/device_menu"},"specials":{"count":"0"},"hereNow":{"count":"0"},"referralId":"v-1392478012"},{"id":"4f536a26e4b0b5d9debe4178","name":"\u0645\u0637\u0639\u0645 \u0627\u0644\u0628\u0644\u062f","location":{"lat":"51.514365430953475","lng":"-0.16158121484473936","distance":"85","cc":"GB","country":"United Kingdom"},"categories":[{"id":"4bf58dd8d48988d153941735","name":"Burrito Place","pluralName":"Burrito Places","shortName":"Burritos","icon":{"prefix":"https:\/\/ss1.4sqi.net\/img\/categories_v2\/food\/burrito_","suffix":".png"},"primary":"true"}],"verified":"false","restricted":"true","stats":{"checkinsCount":"29","usersCount":"26","tipCount":"0"},"specials":{"count":"0"},"hereNow":{"count":"0"},"referralId":"v-1392478012"},{"id":"51c00e19498e7dee7a410a95","name":"Alan Herdman Pilates","contact":{"phone":"+442074027001","formattedPhone":"+44 20 7402 7001","twitter":"alanpilates"},"location":{"address":"63-79 Seymour street","lat":"51.51415870280339","lng":"-0.1625971840419311","distance":"20","postalCode":"W2 2HF","cc":"GB","city":"London","state":"Greater London","country":"United Kingdom"},"categories":[{"id":"4bf58dd8d48988d175941735","name":"Gym \/ Fitness Center","pluralName":"Gyms or Fitness Centers","shortName":"Gym \/ Fitness","icon":{"prefix":"https:\/\/ss1.4sqi.net\/img\/categories_v2\/building\/gym_","suffix":".png"},"primary":"true"}],"verified":"false","restricted":"true","stats":{"checkinsCount":"16","usersCount":"3","tipCount":"0"},"specials":{"count":"0"},"hereNow":{"count":"0"},"referralId":"v-1392478012"},{"id":"4f676924e4b0ea77d0226288","name":"\u0633\u062a \u0627\u0644\u0634\u0627\u0645","location":{"lat":"51.514504010859255","lng":"-0.16159351055091603","distance":"87","cc":"GB","country":"United Kingdom"},"categories":[{"id":"4bf58dd8d48988d115941735","name":"Middle Eastern Restaurant","pluralName":"Middle Eastern Restaurants","shortName":"Middle Eastern","icon":{"prefix":"https:\/\/ss1.4sqi.net\/img\/categories_v2\/food\/default_","suffix":".png"},"primary":"true"}],"verified":"false","restricted":"true","stats":{"checkinsCount":"7","usersCount":"6","tipCount":"0"},"specials":{"count":"0"},"hereNow":{"count":"0"},"referralId":"v-1392478012"},{"id":"4b239532f964a520f45624e3","name":"Green Valley","contact":{"phone":"+442074027385","formattedPhone":"+44 20 7402 7385"},"location":{"address":"36 Upper Berkeley Street","lat":"51.51520076473171","lng":"-0.16217917697085305","distance":"110","postalCode":"W1H 5QF","cc":"GB","city":"London","state":"Greater London","country":"United Kingdom"},"categories":[{"id":"4d954b0ea243a5684a65b473","name":"Convenience Store","pluralName":"Convenience Stores","shortName":"Convenience Stores","icon":{"prefix":"https:\/\/ss1.4sqi.net\/img\/categories_v2\/shops\/conveniencestore_","suffix":".png"},"primary":"true"}],"verified":"false","restricted":"true","stats":{"checkinsCount":"429","usersCount":"202","tipCount":"9"},"specials":{"count":"0"},"hereNow":{"count":"0"},"referralId":"v-1392478012"},{"id":"4b9c9f36f964a520367336e3","name":"Hertz","location":{"address":"35 Edgware Road","lat":"51.5146158724771","lng":"-0.1623189094963859","distance":"49","cc":"GB","city":"Paddington","state":"Greater London","country":"United Kingdom"},"categories":[{"id":"4bf58dd8d48988d1f6931735","name":"General Travel","pluralName":"General Travel","shortName":"Travel","icon":{"prefix":"https:\/\/ss1.4sqi.net\/img\/categories_v2\/travel\/default_","suffix":".png"},"primary":"true"}],"verified":"false","restricted":"true","stats":{"checkinsCount":"123","usersCount":"101","tipCount":"2"},"specials":{"count":"0"},"hereNow":{"count":"0"},"referralId":"v-1392478012"},{"id":"4d89fe27b3358eec5134b844","name":"The Portman","contact":{"phone":"+442077238996","formattedPhone":"+44 20 7723 8996"},"location":{"address":"51 Upper Berkeley St.","lat":"51.5152074811267","lng":"-0.1613172354117621","distance":"145","postalCode":"W1H 7PP","cc":"GB","city":"Marylebone","state":"Greater London","country":"United Kingdom"},"categories":[{"id":"4bf58dd8d48988d155941735","name":"Gastropub","pluralName":"Gastropubs","shortName":"Gastropub","icon":{"prefix":"https:\/\/ss1.4sqi.net\/img\/categories_v2\/food\/gastropub_","suffix":".png"},"primary":"true"}],"verified":"true","restricted":"true","stats":{"checkinsCount":"730","usersCount":"489","tipCount":"8"},"url":"http:\/\/www.theportmanmarylebone.com","reservations":{"url":"http:\/\/www.toptable.co.uk\/single.aspx?rid=51895&ref=9601"},"menu":{"type":"Menu","label":"Menu","anchor":"View Menu","url":"https:\/\/foursquare.com\/v\/the-portman\/4d89fe27b3358eec5134b844\/menu","mobileUrl":"https:\/\/foursquare.com\/v\/4d89fe27b3358eec5134b844\/device_menu"},"specials":{"count":"0"},"hereNow":{"count":"0"},"venuePage":{"id":"33779755"},"referralId":"v-1392478012"},{"id":"51c5ed06498ec876fef0d1fb","name":"The Lockhart","contact":{"phone":"+442030115400","formattedPhone":"+44 20 3011 5400"},"location":{"address":"22-24 Seymour Pl","crossStreet":"Upper Berkeley St","lat":"51.51514598486282","lng":"-0.16136160741220518","distance":"138","postalCode":"W1H 7NL","cc":"GB","city":"London","state":"Greater London","country":"United Kingdom"},"categories":[{"id":"4bf58dd8d48988d14e941735","name":"American Restaurant","pluralName":"American Restaurants","shortName":"American","icon":{"prefix":"https:\/\/ss1.4sqi.net\/img\/categories_v2\/food\/default_","suffix":".png"},"primary":"true"}],"verified":"false","restricted":"true","stats":{"checkinsCount":"85","usersCount":"72","tipCount":"6"},"url":"http:\/\/www.lockhartlondon.com","reservations":{"url":"http:\/\/www.toptable.co.uk\/single.aspx?rid=96606&ref=9601"},"menu":{"type":"Menu","label":"Menu","anchor":"View Menu","url":"https:\/\/foursquare.com\/v\/the-lockhart\/51c5ed06498ec876fef0d1fb\/menu","mobileUrl":"https:\/\/foursquare.com\/v\/51c5ed06498ec876fef0d1fb\/device_menu"},"specials":{"count":"0"},"hereNow":{"count":"0"},"referralId":"v-1392478012"},{"id":"4c3077a966e40f47748ec38b","name":"Carpenter's Arms","contact":{"phone":"+442077231050","formattedPhone":"+44 20 7723 1050"},"location":{"address":"12 Seymour Pl.","lat":"51.51474596442097","lng":"-0.1610665974537523","distance":"130","postalCode":"W1H 7NE","cc":"GB","city":"Marble Arch","state":"Greater London","country":"United Kingdom"},"categories":[{"id":"4bf58dd8d48988d11b941735","name":"Pub","pluralName":"Pubs","shortName":"Pub","icon":{"prefix":"https:\/\/ss1.4sqi.net\/img\/categories_v2\/nightlife\/pub_","suffix":".png"},"primary":"true"}],"verified":"false","restricted":"true","stats":{"checkinsCount":"475","usersCount":"315","tipCount":"8"},"specials":{"count":"0"},"hereNow":{"count":"0"},"referralId":"v-1392478012"},{"id":"52c87fbb498ed41cbd284416","name":"\u0635\u0627\u0644\u0648\u0646 \u0628\u0627\u0628\u0644","location":{"lat":"51.514911","lng":"-0.162722","distance":"69","cc":"GB","country":"United Kingdom"},"categories":[{"id":"4bf58dd8d48988d110951735","name":"Salon \/ Barbershop","pluralName":"Salons \/ Barbershops","shortName":"Salon \/ Barbershop","icon":{"prefix":"https:\/\/ss1.4sqi.net\/img\/categories_v2\/shops\/salon_barber_","suffix":".png"},"primary":"true"}],"verified":"false","restricted":"true","stats":{"checkinsCount":"3","usersCount":"3","tipCount":"0"},"specials":{"count":"0"},"hereNow":{"count":"0"},"referralId":"v-1392478012"},{"id":"4fcc9997e4b01cbffc4df380","name":"Albalad restaurant","location":{"lat":"51.514303461606836","lng":"-0.16170332188142036","distance":"76","cc":"GB","country":"United Kingdom"},"categories":[{"id":"4bf58dd8d48988d153941735","name":"Burrito Place","pluralName":"Burrito Places","shortName":"Burritos","icon":{"prefix":"https:\/\/ss1.4sqi.net\/img\/categories_v2\/food\/burrito_","suffix":".png"},"primary":"true"}],"verified":"false","restricted":"true","stats":{"checkinsCount":"41","usersCount":"38","tipCount":"0"},"specials":{"count":"0"},"hereNow":{"count":"0"},"referralId":"v-1392478012"},{"id":"4b9bf706f964a520533b36e3","name":"Al Dar","contact":{"phone":"+442074022541","formattedPhone":"+44 20 7402 2541"},"location":{"address":"63 Edgware Rd.","lat":"51.51551264198779","lng":"-0.16358213800555962","distance":"146","postalCode":"W2 2HZ","cc":"GB","city":"London","state":"Greater London","country":"United Kingdom"},"categories":[{"id":"4bf58dd8d48988d115941735","name":"Middle Eastern Restaurant","pluralName":"Middle Eastern Restaurants","shortName":"Middle Eastern","icon":{"prefix":"https:\/\/ss1.4sqi.net\/img\/categories_v2\/food\/default_","suffix":".png"},"primary":"true"}],"verified":"false","restricted":"true","stats":{"checkinsCount":"506","usersCount":"319","tipCount":"13"},"url":"http:\/\/www.aldar-marylebone.co.uk","menu":{"type":"Menu","label":"Menu","anchor":"View Menu","url":"https:\/\/foursquare.com\/v\/al-dar\/4b9bf706f964a520533b36e3\/menu","mobileUrl":"https:\/\/foursquare.com\/v\/4b9bf706f964a520533b36e3\/device_menu"},"specials":{"count":"0"},"hereNow":{"count":"0"},"referralId":"v-1392478012"},{"id":"51a25447e4b016c44420d530","name":"Palms Palace","location":{"address":"84 Edgware Road","lat":"51.515338191350175","lng":"-0.16343163122601653","distance":"124","postalCode":"W2 2EA","cc":"GB","city":"London","state":"Greater London","country":"United Kingdom"},"categories":[{"id":"4bf58dd8d48988d119941735","name":"Hookah Bar","pluralName":"Hookah Bars","shortName":"Hookah Bar","icon":{"prefix":"https:\/\/ss1.4sqi.net\/img\/categories_v2\/nightlife\/hookahbar_","suffix":".png"},"primary":"true"}],"verified":"false","restricted":"true","stats":{"checkinsCount":"76","usersCount":"45","tipCount":"1"},"specials":{"count":"0"},"hereNow":{"count":"0"},"referralId":"v-1392478012"}],"confident":"false"}}