{"meta":{"code":"200"},"response":{"venues":[{"id":"4ac518cdf964a520f2a520e3","name":"St James's Park","contact":{"phone":"+443000612350","formattedPhone":"+44 300 061 2350"},"location":{"address":"The Mall","lat":"51.502384962728726","lng":"-0.1352691650390625","distance":"275","postalCode":"SW1A 1","cc":"GB","city":"London","state":"Greater London","country":"United Kingdom"},"categories":[{"id":"4bf58dd8d48988d163941735","name":"Park","pluralName":"Parks","shortName":"Park","icon":{"prefix":"https:\/\/ss1.4sqi.net\/img\/categories_v2\/parks_outdoors\/park_","suffix":".png"},"primary":"true"}],"verified":"false","restricted":"true","stats":{"checkinsCount":"17442","usersCount":"11862","tipCount":"95"},"specials":{"count":"0"},"hereNow":{"count":"3","groups":[{"type":"others","name":"Other people here","count":"3"}]},"referralId":"v-1392478041"},{"id":"4ac518d2f964a52015a720e3","name":"Clarence House","contact":{"phone":"+442077667300","formattedPhone":"+44 20 7766 7300","twitter":"britishmonarchy"},"location":{"address":"St James's Palace","lat":"51.503941028518014","lng":"-0.13861656188964844","distance":"68","postalCode":"SW1 1BA","cc":"GB","city":"London","state":"Greater London","country":"United Kingdom"},"categories":[{"id":"4deefb944765f83613cdba6e","name":"Historic Site","pluralName":"Historic Sites","shortName":"Historic Site","icon":{"prefix":"https:\/\/ss1.4sqi.net\/img\/categories_v2\/arts_entertainment\/historicsite_","suffix":".png"},"primary":"true"}],"verified":"true","restricted":"true","stats":{"checkinsCount":"628","usersCount":"362","tipCount":"14"},"url":"https:\/\/www.royalcollection.org.uk","specials":{"count":"0"},"hereNow":{"count":"0"},"storeId":"","referralId":"v-1392478041"},{"id":"4bd00abbcaff95215830cef0","name":"St James's Palace","location":{"address":"Marlborough Rd.","lat":"51.50467528235117","lng":"-0.13765793039676","distance":"44","postalCode":"SW1 1BA","cc":"GB","city":"City of Westminster","state":"Greater London","country":"United Kingdom"},"categories":[{"id":"50aaa49e4b90af0d42d5de11","name":"Castle","pluralName":"Castles","shortName":"Castle","icon":{"prefix":"https:\/\/ss1.4sqi.net\/img\/categories_v2\/parks_outdoors\/default_","suffix":".png"},"primary":"true"}],"verified":"false","restricted":"true","stats":{"checkinsCount":"1275","usersCount":"850","tipCount":"11"},"specials":{"count":"0"},"hereNow":{"count":"0"},"referralId":"v-1392478041"},{"id":"4ac518d0f964a52098a620e3","name":"The Mall","location":{"address":"The Mall","lat":"51.50455615844638","lng":"-0.13481062324588314","distance":"209","postalCode":"SW1Y 5AH","cc":"GB","city":"City of Westminster","state":"Greater London","country":"United Kingdom"},"categories":[{"id":"4bf58dd8d48988d164941735","name":"Plaza","pluralName":"Plazas","shortName":"Plaza","icon":{"prefix":"https:\/\/ss1.4sqi.net\/img\/categories_v2\/parks_outdoors\/plaza_","suffix":".png"},"primary":"true"}],"verified":"false","restricted":"true","stats":{"checkinsCount":"2726","usersCount":"1886","tipCount":"11"},"specials":{"count":"0"},"hereNow":{"count":"0"},"referralId":"v-1392478041"},{"id":"4c6a984d8e7c0f47d388e20f","name":"Buckingham Palace Gate","location":{"address":"The Mall","lat":"51.501884069723566","lng":"-0.13987488365938375","distance":"303","cc":"GB","city":"London","state":"Greater London","country":"United Kingdom"},"categories":[{"id":"4bf58dd8d48988d12d941735","name":"Monument \/ Landmark","pluralName":"Monuments \/ Landmarks","shortName":"Landmark","icon":{"prefix":"https:\/\/ss1.4sqi.net\/img\/categories_v2\/building\/government_monument_","suffix":".png"},"primary":"true"}],"verified":"false","restricted":"true","stats":{"checkinsCount":"4522","usersCount":"3817","tipCount":"6"},"specials":{"count":"0"},"hereNow":{"count":"1","groups":[{"type":"others","name":"Other people here","count":"1"}]},"referralId":"v-1392478041"},{"id":"4b103bdaf964a520de6b23e3","name":"Berry Bros & Rudd","contact":{"phone":"+448002802440","formattedPhone":"+44 800 280 2440","twitter":"berrybrosrudd"},"location":{"address":"3 St James's St","lat":"51.505605","lng":"-0.138271","distance":"150","postalCode":"SW1A 1EG","cc":"GB","city":"London","state":"Greater London","country":"United Kingdom"},"categories":[{"id":"4bf58dd8d48988d119951735","name":"Wine Shop","pluralName":"Wine Shops","shortName":"Wine Shop","icon":{"prefix":"https:\/\/ss1.4sqi.net\/img\/categories_v2\/shops\/food_wineshop_","suffix":".png"},"primary":"true"}],"verified":"false","restricted":"true","stats":{"checkinsCount":"480","usersCount":"325","tipCount":"13"},"url":"http:\/\/www.bbr.com","specials":{"count":"0"},"hereNow":{"count":"0"},"referralId":"v-1392478041"},{"id":"4ac518f4f964a520dbae20e3","name":"Christie's","contact":{"twitter":"christiesinc"},"location":{"address":"8 King Street","lat":"51.50657789525638","lng":"-0.13761336376625166","distance":"255","postalCode":"SW1Y 6QT","cc":"GB","city":"London","state":"Greater London","country":"United Kingdom"},"categories":[{"id":"4bf58dd8d48988d1e2931735","name":"Art Gallery","pluralName":"Art Galleries","shortName":"Art Gallery","icon":{"prefix":"https:\/\/ss1.4sqi.net\/img\/categories_v2\/arts_entertainment\/artgallery_","suffix":".png"},"primary":"true"}],"verified":"true","restricted":"true","stats":{"checkinsCount":"1390","usersCount":"411","tipCount":"4"},"url":"http:\/\/www.christies.com","specials":{"count":"0"},"hereNow":{"count":"0"},"referralId":"v-1392478041"},{"id":"4ac518c6f964a5200da520e3","name":"Dukes Bar","contact":{"phone":"+442074914840","formattedPhone":"+44 20 7491 4840","twitter":"dukesbarlondon"},"location":{"address":"35 St. James's Pl","lat":"51.505657592519356","lng":"-0.1395160373936388","distance":"193","postalCode":"SW1A 1NY","cc":"GB","city":"London","state":"Greater London","country":"United Kingdom"},"categories":[{"id":"4bf58dd8d48988d1d5941735","name":"Hotel Bar","pluralName":"Hotel Bars","shortName":"Hotel Bar","icon":{"prefix":"https:\/\/ss1.4sqi.net\/img\/categories_v2\/travel\/hotel_bar_","suffix":".png"},"primary":"true"}],"verified":"false","restricted":"true","stats":{"checkinsCount":"583","usersCount":"418","tipCount":"21"},"url":"http:\/\/www.dukeshotel.com\/foodanddrink-dukesbar.php","specials":{"count":"0"},"hereNow":{"count":"0"},"referralId":"v-1392478041"},{"id":"503275d7e4b0543f9a9ed4ae","name":"Queen Victoria Memorial","location":{"address":"The Mall","lat":"51.501920262449325","lng":"-0.1408790809188684","distance":"339","cc":"GB","city":"London","state":"Greater London","country":"United Kingdom"},"categories":[{"id":"4bf58dd8d48988d12d941735","name":"Monument \/ Landmark","pluralName":"Monuments \/ Landmarks","shortName":"Landmark","icon":{"prefix":"https:\/\/ss1.4sqi.net\/img\/categories_v2\/building\/government_monument_","suffix":".png"},"primary":"true"}],"verified":"false","restricted":"true","stats":{"checkinsCount":"1219","usersCount":"1024","tipCount":"1"},"specials":{"count":"0"},"hereNow":{"count":"0"},"referralId":"v-1392478041"},{"id":"4f23fba7e4b0717a67ea9617","name":"Buckingham Palace Guardroom","location":{"lat":"51.50395242060059","lng":"-0.13980183831179313","distance":"143","cc":"GB","city":"London","state":"Greater London","country":"United Kingdom"},"categories":[{"id":"4e52adeebd41615f56317744","name":"Military Base","pluralName":"Military Bases","shortName":"Military Base","icon":{"prefix":"https:\/\/ss1.4sqi.net\/img\/categories_v2\/building\/militarybase_","suffix":".png"},"primary":"true"}],"verified":"false","restricted":"true","stats":{"checkinsCount":"330","usersCount":"298","tipCount":"0"},"specials":{"count":"0"},"hereNow":{"count":"0"},"referralId":"v-1392478041"},{"id":"4ae322d7f964a520d09021e3","name":"Red Lion","contact":{"phone":"+442079304141","formattedPhone":"+44 20 7930 4141"},"location":{"address":"23 Crown Passage","crossStreet":"at Pall Mall","lat":"51.505716248177386","lng":"-0.1375819964820406","distance":"159","postalCode":"SW1Y 6PP","cc":"GB","city":"London","state":"Greater London","country":"United Kingdom"},"categories":[{"id":"4bf58dd8d48988d11b941735","name":"Pub","pluralName":"Pubs","shortName":"Pub","icon":{"prefix":"https:\/\/ss1.4sqi.net\/img\/categories_v2\/nightlife\/pub_","suffix":".png"},"primary":"true"}],"verified":"false","restricted":"true","stats":{"checkinsCount":"563","usersCount":"394","tipCount":"7"},"specials":{"count":"0"},"hereNow":{"count":"0"},"referralId":"v-1392478041"},{"id":"4ad65d98f964a520cc0621e3","name":"The Oxford and Cambridge Club","contact":{"phone":"+442079305151","formattedPhone":"+44 20 7930 5151"},"location":{"address":"71 Pall Mall","lat":"51.50576866451536","lng":"-0.1365417399615411","distance":"186","postalCode":"SW1Y 5HD","cc":"GB","city":"London","state":"Greater London","country":"United Kingdom"},"categories":[{"id":"4bf58dd8d48988d121941735","name":"Lounge","pluralName":"Lounges","shortName":"Lounge","icon":{"prefix":"https:\/\/ss1.4sqi.net\/img\/categories_v2\/nightlife\/lounge_","suffix":".png"},"primary":"true"}],"verified":"false","restricted":"true","stats":{"checkinsCount":"689","usersCount":"333","tipCount":"2"},"specials":{"count":"0"},"hereNow":{"count":"0"},"referralId":"v-1392478041"},{"id":"4aeb61f2f964a52094c121e3","name":"Sake No Hana","contact":{"phone":"+442079258988","formattedPhone":"+44 20 7925 8988"},"location":{"address":"23 St James's Street","lat":"51.50667408013318","lng":"-0.1392680099886355","distance":"284","postalCode":"SW1A 1HA","cc":"GB","city":"London","state":"Greater London","country":"United Kingdom"},"categories":[{"id":"4bf58dd8d48988d111941735","name":"Japanese Restaurant","pluralName":"Japanese Restaurants","shortName":"Japanese","icon":{"prefix":"https:\/\/ss1.4sqi.net\/img\/categories_v2\/food\/japanese_","suffix":".png"},"primary":"true"}],"verified":"false","restricted":"true","stats":{"checkinsCount":"903","usersCount":"660","tipCount":"29"},"url":"http:\/\/www.sakenohana.com","reservations":{"url":"http:\/\/www.toptable.co.uk\/single.aspx?rid=68899&ref=9601"},"menu":{"type":"Menu","label":"Menu","anchor":"View Menu","url":"https:\/\/foursquare.com\/v\/sake-no-hana\/4aeb61f2f964a52094c121e3\/menu","mobileUrl":"https:\/\/foursquare.com\/v\/4aeb61f2f964a52094c121e3\/device_menu"},"specials":{"count":"0"},"hereNow":{"count":"0"},"referralId":"v-1392478041"},{"id":"4ac518b8f964a52076a120e3","name":"Dukes Hotel","location":{"address":"St. James's Pl","lat":"51.50562670898865","lng":"-0.13950300954627773","distance":"189","postalCode":"SW1A 1NY","cc":"GB","city":"London","state":"Greater London","country":"United Kingdom"},"categories":[{"id":"4bf58dd8d48988d1fa931735","name":"Hotel","pluralName":"Hotels","shortName":"Hotel","icon":{"prefix":"https:\/\/ss1.4sqi.net\/img\/categories_v2\/travel\/hotel_","suffix":".png"},"primary":"true"}],"verified":"false","restricted":"true","stats":{"checkinsCount":"512","usersCount":"322","tipCount":"13"},"specials":{"count":"0"},"hereNow":{"count":"0"},"referralId":"v-1392478041"},{"id":"4c87496456e037042419b1a3","name":"Lancaster House","location":{"lat":"51.50366721821857","lng":"-0.13921737670898438","distance":"119","postalCode":"W1J 8","cc":"GB","city":"London","state":"Greater London","country":"United Kingdom"},"categories":[{"id":"4bf58dd8d48988d126941735","name":"Government Building","pluralName":"Government Buildings","shortName":"Government","icon":{"prefix":"https:\/\/ss1.4sqi.net\/img\/categories_v2\/building\/government_","suffix":".png"},"primary":"true"}],"verified":"false","restricted":"true","stats":{"checkinsCount":"251","usersCount":"204","tipCount":"4"},"specials":{"count":"0"},"hereNow":{"count":"0"},"referralId":"v-1392478041"},{"id":"4bc5cfbe693695217a878488","name":"Lock & Co","location":{"address":"6 St James's Street","lat":"51.505597","lng":"-0.138747","distance":"159","cc":"GB","city":"London","state":"Greater London","country":"United Kingdom"},"categories":[{"id":"4bf58dd8d48988d102951735","name":"Accessories Store","pluralName":"Accessories Stores","shortName":"Accessories","icon":{"prefix":"https:\/\/ss1.4sqi.net\/img\/categories_v2\/shops\/apparel_accessories_","suffix":".png"},"primary":"true"}],"verified":"false","restricted":"true","stats":{"checkinsCount":"67","usersCount":"53","tipCount":"1"},"specials":{"count":"0"},"hereNow":{"count":"0"},"referralId":"v-1392478041"},{"id":"52fd19cd498e6d38eb1b658c","name":"Qu\u00e9bec Government Office","location":{"address":"59 Pall Mall","lat":"51.505419","lng":"-0.137383","distance":"129","postalCode":"SW1Y 5JH","cc":"GB","city":"London","state":"Greater London","country":"United Kingdom"},"categories":[{"id":"5267e4d9e4b0ec79466e48c8","name":"Other Event","pluralName":"Other Events","shortName":"Other Event","icon":{"prefix":"https:\/\/ss1.4sqi.net\/img\/categories_v2\/event\/default_","suffix":".png"},"primary":"true"}],"verified":"false","restricted":"true","stats":{"checkinsCount":"2","usersCount":"2","tipCount":"0"},"specials":{"count":"0"},"hereNow":{"count":"0"},"referralId":"v-1392478041"},{"id":"4fe0b1aae4b05026020e312d","name":"stable yard road","location":{"address":"stable yard road","lat":"51.50336506480365","lng":"-0.13804582179688257","distance":"104","cc":"GB","city":"London","state":"Greater London","country":"United Kingdom"},"categories":[{"id":"4f2a25ac4b909258e854f55f","name":"Neighborhood","pluralName":"Neighborhoods","shortName":"Neighborhood","icon":{"prefix":"https:\/\/ss1.4sqi.net\/img\/categories_v2\/parks_outdoors\/neighborhood_","suffix":".png"},"primary":"true"}],"verified":"false","restricted":"true","stats":{"checkinsCount":"43","usersCount":"41","tipCount":"0"},"specials":{"count":"0"},"hereNow":{"count":"0"},"referralId":"v-1392478041"},{"id":"4ac518cff964a52052a620e3","name":"Spencer House","location":{"address":"27 St James's Place","lat":"51.505348995159395","lng":"-0.14016923093287964","distance":"202","postalCode":"SW1A 1NR","cc":"GB","city":"London","state":"Greater London","country":"United Kingdom"},"categories":[{"id":"4bf58dd8d48988d12d941735","name":"Monument \/ Landmark","pluralName":"Monuments \/ Landmarks","shortName":"Landmark","icon":{"prefix":"https:\/\/ss1.4sqi.net\/img\/categories_v2\/building\/government_monument_","suffix":".png"},"primary":"true"}],"verified":"false","restricted":"true","stats":{"checkinsCount":"326","usersCount":"95","tipCount":"1"},"specials":{"count":"0"},"hereNow":{"count":"0"},"referralId":"v-1392478041"},{"id":"4b883b5cf964a52038e931e3","name":"St. James's Hotel and Club","contact":{"phone":"+442073161600","formattedPhone":"+44 20 7316 1600","twitter":"althoffhotels","facebook":"146774655335632"},"location":{"address":"7-8 Park Place","lat":"51.50620546648409","lng":"-0.1402826730770937","distance":"273","postalCode":"SW1A 1LS","cc":"GB","city":"London","state":"Greater London","country":"United Kingdom"},"categories":[{"id":"4bf58dd8d48988d1fa931735","name":"Hotel","pluralName":"Hotels","shortName":"Hotel","icon":{"prefix":"https:\/\/ss1.4sqi.net\/img\/categories_v2\/travel\/hotel_","suffix":".png"},"primary":"true"}],"verified":"true","restricted":"true","stats":{"checkinsCount":"468","usersCount":"274","tipCount":"11"},"url":"http:\/\/www.stjameshotelandclub.com","specials":{"count":"0"},"hereNow":{"count":"0"},"storeId":"","referralId":"v-1392478041"},{"id":"5259c0f8498ec17e99b75898","name":"The Mayfair Club","location":{"lat":"51.505588693009344","lng":"-0.13840171521757796","distance":"150","cc":"GB","country":"United Kingdom"},"categories":[{"id":"4bf58dd8d48988d11f941735","name":"Nightclub","pluralName":"Nightclubs","shortName":"Nightclub","icon":{"prefix":"https:\/\/ss1.4sqi.net\/img\/categories_v2\/nightlife\/nightclub_","suffix":".png"},"primary":"true"}],"verified":"false","restricted":"true","stats":{"checkinsCount":"7","usersCount":"5","tipCount":"1"},"specials":{"count":"0"},"hereNow":{"count":"0"},"referralId":"v-1392478041"},{"id":"4f3a914f0cd6397d01548806","name":"Friary Court","location":{"address":"Marlborough Street","lat":"51.504461931374706","lng":"-0.1375436782836914","distance":"26","cc":"GB","city":"London","state":"Greater London","country":"United Kingdom"},"categories":[{"id":"4deefb944765f83613cdba6e","name":"Historic Site","pluralName":"Historic Sites","shortName":"Historic Site","icon":{"prefix":"https:\/\/ss1.4sqi.net\/img\/categories_v2\/arts_entertainment\/historicsite_","suffix":".png"},"primary":"true"}],"verified":"false","restricted":"true","stats":{"checkinsCount":"4","usersCount":"3","tipCount":"0"},"specials":{"count":"0"},"hereNow":{"count":"0"},"referralId":"v-1392478041"},{"id":"4d6bf23bd47bb60c0f17a5aa","name":"The Stafford London Hotel","contact":{"phone":"+442074930111","formattedPhone":"+44 20 7493 0111"},"location":{"address":"16-18 St James's Place","lat":"51.506037044082746","lng":"-0.14001592031201668","distance":"247","postalCode":"SW1A 1NJ","cc":"GB","city":"London","state":"Greater London","country":"United Kingdom"},"categories":[{"id":"4bf58dd8d48988d1fa931735","name":"Hotel","pluralName":"Hotels","shortName":"Hotel","icon":{"prefix":"https:\/\/ss1.4sqi.net\/img\/categories_v2\/travel\/hotel_","suffix":".png"},"primary":"true"}],"verified":"false","restricted":"true","stats":{"checkinsCount":"517","usersCount":"304","tipCount":"13"},"specials":{"count":"0"},"hereNow":{"count":"0"},"referralId":"v-1392478041"},{"id":"4ac518eff964a52086ad20e3","name":"John Lobb","contact":{"phone":"+442079303664","formattedPhone":"+44 20 7930 3664"},"location":{"address":"9 St. James's St","lat":"51.50576416246527","lng":"-0.13840198516845703","distance":"169","postalCode":"SW1A 1EF","cc":"GB","city":"London","state":"Greater London","country":"United Kingdom"},"categories":[{"id":"4bf58dd8d48988d107951735","name":"Shoe Store","pluralName":"Shoe Stores","shortName":"Shoes","icon":{"prefix":"https:\/\/ss1.4sqi.net\/img\/categories_v2\/shops\/apparel_shoestore_","suffix":".png"},"primary":"true"}],"verified":"false","restricted":"true","stats":{"checkinsCount":"61","usersCount":"50","tipCount":"3"},"specials":{"count":"0"},"hereNow":{"count":"0"},"referralId":"v-1392478041"},{"id":"4ac518d6f964a52038a820e3","name":"Le Caprice","contact":{"phone":"+442076292239","formattedPhone":"+44 20 7629 2239"},"location":{"address":"25 Arlington St","lat":"51.50672931004809","lng":"-0.14062334108638427","distance":"334","postalCode":"SW1A 1RL","cc":"GB","city":"London","state":"Greater London","country":"United Kingdom"},"categories":[{"id":"4bf58dd8d48988d1c2941735","name":"Molecular Gastronomy Restaurant","pluralName":"Molecular Gastronomy Restaurants","shortName":"Molecular Gastronomy","icon":{"prefix":"https:\/\/ss1.4sqi.net\/img\/categories_v2\/food\/moleculargastronomy_","suffix":".png"},"primary":"true"}],"verified":"false","restricted":"true","stats":{"checkinsCount":"468","usersCount":"392","tipCount":"11"},"url":"http:\/\/www.le-caprice.co.uk","reservations":{"url":"http:\/\/www.toptable.co.uk\/single.aspx?rid=81724&ref=9601"},"menu":{"type":"Menu","label":"Menu","anchor":"View Menu","url":"https:\/\/foursquare.com\/v\/le-caprice-london-greater-london\/4ac518d6f964a52038a820e3\/menu","mobileUrl":"https:\/\/foursquare.com\/v\/4ac518d6f964a52038a820e3\/device_menu"},"specials":{"count":"0"},"hereNow":{"count":"1","groups":[{"type":"others","name":"Other people here","count":"1"}]},"referralId":"v-1392478041"},{"id":"4c2df3b3e116e21e4b648f60","name":"HSBC Private Bank","location":{"address":"St James's Street","lat":"51.505481280000005","lng":"-0.138652","distance":"145","cc":"GB","city":"London","state":"Greater London","country":"United Kingdom"},"categories":[{"id":"4bf58dd8d48988d124941735","name":"Office","pluralName":"Offices","shortName":"Office","icon":{"prefix":"https:\/\/ss1.4sqi.net\/img\/categories_v2\/building\/default_","suffix":".png"},"primary":"true"}],"verified":"false","restricted":"true","stats":{"checkinsCount":"155","usersCount":"69","tipCount":"1"},"specials":{"count":"0"},"hereNow":{"count":"0"},"referralId":"v-1392478041"},{"id":"4c1cd061b306c928ab6664b7","name":"The Golden Lion","contact":{"phone":"+442079250007","formattedPhone":"+44 20 7925 0007"},"location":{"address":"25 King St","crossStreet":"at Bury St","lat":"51.506450274246475","lng":"-0.1374789427975473","distance":"241","postalCode":"SW1Y 6QY","cc":"GB","city":"London","state":"Greater London","country":"United Kingdom"},"categories":[{"id":"4bf58dd8d48988d11b941735","name":"Pub","pluralName":"Pubs","shortName":"Pub","icon":{"prefix":"https:\/\/ss1.4sqi.net\/img\/categories_v2\/nightlife\/pub_","suffix":".png"},"primary":"true"}],"verified":"true","restricted":"true","stats":{"checkinsCount":"343","usersCount":"231","tipCount":"1"},"url":"http:\/\/www.goldenlionstjames.com","reservations":{"url":"http:\/\/www.toptable.co.uk\/single.aspx?rid=100194&ref=9601"},"menu":{"type":"Menu","label":"Menu","anchor":"View Menu","url":"https:\/\/foursquare.com\/v\/the-golden-lion\/4c1cd061b306c928ab6664b7\/menu","mobileUrl":"https:\/\/foursquare.com\/v\/4c1cd061b306c928ab6664b7\/device_menu"},"specials":{"count":"0"},"hereNow":{"count":"0"},"storeId":"","referralId":"v-1392478041"},{"id":"4ae2da1af964a5208e8f21e3","name":"Truefitt & Hill","location":{"address":"71 St. James's Street","lat":"51.50591539853623","lng":"-0.13886639734803508","distance":"195","postalCode":"SW1A 1PH","cc":"GB","city":"London","state":"Greater London","country":"United Kingdom"},"categories":[{"id":"4bf58dd8d48988d110951735","name":"Salon \/ Barbershop","pluralName":"Salons \/ Barbershops","shortName":"Salon \/ Barbershop","icon":{"prefix":"https:\/\/ss1.4sqi.net\/img\/categories_v2\/shops\/salon_barber_","suffix":".png"},"primary":"true"}],"verified":"false","restricted":"true","stats":{"checkinsCount":"77","usersCount":"67","tipCount":"4"},"specials":{"count":"0"},"hereNow":{"count":"0"},"referralId":"v-1392478041"},{"id":"4ac518c4f964a5207fa420e3","name":"The American Bar","contact":{"phone":"+442074930111","formattedPhone":"+44 20 7493 0111"},"location":{"address":"at the Stafford Hotel","crossStreet":"16-18 St James's Pl.","lat":"51.505983","lng":"-0.1398","distance":"233","postalCode":"SW1A 1NJ","cc":"GB","city":"London","state":"Greater London","country":"United Kingdom"},"categories":[{"id":"4bf58dd8d48988d1d5941735","name":"Hotel Bar","pluralName":"Hotel Bars","shortName":"Hotel Bar","icon":{"prefix":"https:\/\/ss1.4sqi.net\/img\/categories_v2\/travel\/hotel_bar_","suffix":".png"},"primary":"true"}],"verified":"false","restricted":"true","stats":{"checkinsCount":"222","usersCount":"172","tipCount":"7"},"menu":{"type":"Menu","label":"Menu","anchor":"View Menu","url":"https:\/\/foursquare.com\/v\/the-american-bar-st-jamess-greater-london\/4ac518c4f964a5207fa420e3\/menu","mobileUrl":"https:\/\/foursquare.com\/v\/4ac518c4f964a5207fa420e3\/device_menu"},"specials":{"count":"0"},"hereNow":{"count":"0"},"referralId":"v-1392478041"},{"id":"4ade5778f964a5202f7521e3","name":"The Carlton Club","location":{"address":"69 St James's St.","lat":"51.50598620260851","lng":"-0.13886285112300864","distance":"202","cc":"GB","city":"London","state":"Greater London","country":"United Kingdom"},"categories":[{"id":"4bf58dd8d48988d121941735","name":"Lounge","pluralName":"Lounges","shortName":"Lounge","icon":{"prefix":"https:\/\/ss1.4sqi.net\/img\/categories_v2\/nightlife\/lounge_","suffix":".png"},"primary":"true"}],"verified":"false","restricted":"true","stats":{"checkinsCount":"298","usersCount":"172","tipCount":"5"},"specials":{"count":"0"},"hereNow":{"count":"0"},"referralId":"v-1392478041"}],"confident":"true"}}