{"meta":{"code":"200"},"response":{"venues":[{"id":"4ace1db2f964a5207fce20e3","name":"London Blackfriars Railway Station (BFR)","contact":{"phone":"+448457484950","formattedPhone":"+44 845 748 4950","twitter":"nationalrailenq","facebook":"94740547473"},"location":{"address":"Queen Victoria St","lat":"51.5106922693391","lng":"-0.10355472564697266","distance":"164","postalCode":"EC4V 4DY","cc":"GB","city":"London","state":"Greater London","country":"United Kingdom"},"categories":[{"id":"4bf58dd8d48988d129951735","name":"Train Station","pluralName":"Train Stations","shortName":"Train Station","icon":{"prefix":"https:\/\/ss1.4sqi.net\/img\/categories_v2\/travel\/trainstation_","suffix":".png"},"primary":"true"}],"verified":"true","restricted":"true","stats":{"checkinsCount":"8959","usersCount":"3246","tipCount":"24"},"url":"http:\/\/www.nationalrail.co.uk\/stations\/bfr\/details.html","specials":{"count":"0"},"hereNow":{"count":"1","groups":[{"type":"others","name":"Other people here","count":"1"}]},"storeId":"BFR","referralId":"v-1392478031"},{"id":"4ac518d3f964a52076a720e3","name":"Tate Modern","contact":{"phone":"+442078878888","formattedPhone":"+44 20 7887 8888","twitter":"tate"},"location":{"address":"53 Bankside","lat":"51.507607256702116","lng":"-0.0994563102722168","distance":"298","postalCode":"SE1 9TG","cc":"GB","city":"Southwark","state":"Greater London","country":"United Kingdom"},"categories":[{"id":"4bf58dd8d48988d1e2931735","name":"Art Gallery","pluralName":"Art Galleries","shortName":"Art Gallery","icon":{"prefix":"https:\/\/ss1.4sqi.net\/img\/categories_v2\/arts_entertainment\/artgallery_","suffix":".png"},"primary":"true"}],"verified":"true","restricted":"true","stats":{"checkinsCount":"51515","usersCount":"39660","tipCount":"373"},"url":"http:\/\/www.tate.org.uk","menu":{"type":"Menu","label":"Menu","anchor":"View Menu","url":"https:\/\/foursquare.com\/v\/tate-modern\/4ac518d3f964a52076a720e3\/menu","mobileUrl":"https:\/\/foursquare.com\/v\/4ac518d3f964a52076a720e3\/device_menu"},"specials":{"count":"0"},"hereNow":{"count":"43","groups":[{"type":"others","name":"Other people here","count":"43"}]},"referralId":"v-1392478031"},{"id":"4ad605f1f964a5208f0421e3","name":"Blackfriars Bridge","location":{"address":"Blackfriars Bridge","lat":"51.509643922676055","lng":"-0.1043701171875","distance":"115","postalCode":"EC4Y","cc":"GB","city":"London","state":"Greater London","country":"United Kingdom"},"categories":[{"id":"4bf58dd8d48988d1df941735","name":"Bridge","pluralName":"Bridges","shortName":"Bridge","icon":{"prefix":"https:\/\/ss1.4sqi.net\/img\/categories_v2\/parks_outdoors\/bridge_","suffix":".png"},"primary":"true"}],"verified":"false","restricted":"true","stats":{"checkinsCount":"5537","usersCount":"2856","tipCount":"9"},"specials":{"count":"0"},"hereNow":{"count":"0"},"referralId":"v-1392478031"},{"id":"4ac518bef964a52010a320e3","name":"Founder's Arms","contact":{"phone":"+442079281899","formattedPhone":"+44 20 7928 1899","twitter":"foundersarms"},"location":{"address":"52 Hopton St","lat":"51.50863204282614","lng":"-0.10139560819610756","distance":"121","postalCode":"SE1 9JH","cc":"GB","city":"Bankside","state":"Greater London","country":"United Kingdom"},"categories":[{"id":"4bf58dd8d48988d11b941735","name":"Pub","pluralName":"Pubs","shortName":"Pub","icon":{"prefix":"https:\/\/ss1.4sqi.net\/img\/categories_v2\/nightlife\/pub_","suffix":".png"},"primary":"true"}],"verified":"false","restricted":"true","stats":{"checkinsCount":"5299","usersCount":"4009","tipCount":"61"},"url":"http:\/\/www.foundersarms.co.uk","menu":{"type":"Menu","label":"Menu","anchor":"View Menu","url":"https:\/\/foursquare.com\/v\/founders-arms\/4ac518bef964a52010a320e3\/menu","mobileUrl":"https:\/\/foursquare.com\/v\/4ac518bef964a52010a320e3\/device_menu"},"specials":{"count":"0"},"hereNow":{"count":"5","groups":[{"type":"others","name":"Other people here","count":"5"}]},"referralId":"v-1392478031"},{"id":"4ac518cef964a52022a620e3","name":"Millennium Bridge","contact":{"phone":"+442075254925","formattedPhone":"+44 20 7525 4925"},"location":{"address":"Millennium Bridge","crossStreet":"btwn St Paul's and Bankside","lat":"51.50951705106139","lng":"-0.09849071502685547","distance":"299","postalCode":"SE1 2PW","cc":"GB","city":"London","state":"Greater London","country":"United Kingdom"},"categories":[{"id":"4bf58dd8d48988d1df941735","name":"Bridge","pluralName":"Bridges","shortName":"Bridge","icon":{"prefix":"https:\/\/ss1.4sqi.net\/img\/categories_v2\/parks_outdoors\/bridge_","suffix":".png"},"primary":"true"}],"verified":"false","restricted":"true","stats":{"checkinsCount":"12034","usersCount":"9394","tipCount":"64"},"specials":{"count":"0"},"hereNow":{"count":"3","groups":[{"type":"others","name":"Other people here","count":"3"}]},"referralId":"v-1392478031"},{"id":"4e87141a5c5c136a48b22085","name":"Bankside Beach","location":{"address":"Bankside","lat":"51.50840857876848","lng":"-0.10007858276367188","distance":"212","postalCode":"SE1","cc":"GB","city":"London","state":"Greater London","country":"United Kingdom"},"categories":[{"id":"4bf58dd8d48988d1e2941735","name":"Beach","pluralName":"Beaches","shortName":"Beach","icon":{"prefix":"https:\/\/ss1.4sqi.net\/img\/categories_v2\/parks_outdoors\/beach_","suffix":".png"},"primary":"true"}],"verified":"false","restricted":"true","stats":{"checkinsCount":"565","usersCount":"307","tipCount":"2"},"specials":{"count":"0"},"hereNow":{"count":"1","groups":[{"type":"others","name":"Other people here","count":"1"}]},"referralId":"v-1392478031"},{"id":"4b0e5d0ff964a520175723e3","name":"Starbucks","contact":{"phone":"+442076339821","formattedPhone":"+44 20 7633 9821","twitter":"starbucksuk"},"location":{"address":"54 Hopton St, Falcon Point","lat":"51.508349807320485","lng":"-0.10174947651976789","distance":"127","postalCode":"SE1 9JH","cc":"GB","city":"London","state":"Greater London","country":"United Kingdom"},"categories":[{"id":"4bf58dd8d48988d1e0931735","name":"Coffee Shop","pluralName":"Coffee Shops","shortName":"Coffee Shop","icon":{"prefix":"https:\/\/ss1.4sqi.net\/img\/categories_v2\/food\/coffeeshop_","suffix":".png"},"primary":"true"}],"verified":"true","restricted":"true","stats":{"checkinsCount":"1265","usersCount":"645","tipCount":"8"},"url":"http:\/\/starbucks.co.uk","specials":{"count":"0"},"hereNow":{"count":"0"},"storeId":"12295","referralId":"v-1392478031"},{"id":"508792f3e4b01f175e877e6a","name":"Blackfriars Station South Side","location":{"lat":"51.50849852709508","lng":"-0.1028700560652662","distance":"88","cc":"GB","country":"United Kingdom"},"categories":[{"id":"4bf58dd8d48988d129951735","name":"Train Station","pluralName":"Train Stations","shortName":"Train Station","icon":{"prefix":"https:\/\/ss1.4sqi.net\/img\/categories_v2\/travel\/trainstation_","suffix":".png"},"primary":"true"}],"verified":"false","restricted":"true","stats":{"checkinsCount":"386","usersCount":"249","tipCount":"3"},"specials":{"count":"0"},"hereNow":{"count":"0"},"referralId":"v-1392478031"},{"id":"4c07de0d708c2d7f0da0ca63","name":"Doggett's Coat & Badge","contact":{"phone":"+442076339081","formattedPhone":"+44 20 7633 9081"},"location":{"address":"1 Blackfriars Br","lat":"51.50831509192025","lng":"-0.10509967803955078","distance":"192","postalCode":"SE1 9UD","cc":"GB","city":"London","state":"Greater London","country":"United Kingdom"},"categories":[{"id":"4bf58dd8d48988d11b941735","name":"Pub","pluralName":"Pubs","shortName":"Pub","icon":{"prefix":"https:\/\/ss1.4sqi.net\/img\/categories_v2\/nightlife\/pub_","suffix":".png"},"primary":"true"}],"verified":"false","restricted":"true","stats":{"checkinsCount":"2758","usersCount":"2002","tipCount":"34"},"url":"http:\/\/www.doggettscoatandbadge.co.uk","menu":{"type":"Menu","label":"Menu","anchor":"View Menu","url":"https:\/\/foursquare.com\/v\/doggetts-coat--badge\/4c07de0d708c2d7f0da0ca63\/menu","mobileUrl":"https:\/\/foursquare.com\/v\/4c07de0d708c2d7f0da0ca63\/device_menu"},"specials":{"count":"0"},"hereNow":{"count":"0"},"referralId":"v-1392478031"},{"id":"4e108a0552b1655efa3db959","name":"Tate Modern Grass Square","location":{"address":"Jubilee Walkway","lat":"51.508234960183394","lng":"-0.09982109069824219","distance":"237","postalCode":"SE1 9","cc":"GB","city":"London","state":"Greater London","country":"United Kingdom"},"categories":[{"id":"4bf58dd8d48988d163941735","name":"Park","pluralName":"Parks","shortName":"Park","icon":{"prefix":"https:\/\/ss1.4sqi.net\/img\/categories_v2\/parks_outdoors\/park_","suffix":".png"},"primary":"true"}],"verified":"false","restricted":"true","stats":{"checkinsCount":"549","usersCount":"426","tipCount":"2"},"specials":{"count":"0"},"hereNow":{"count":"0"},"referralId":"v-1392478031"},{"id":"4acdd490f964a5202bcd20e3","name":"Tate Modern Members' Room","location":{"address":"Tate Modern","crossStreet":"Bankside","lat":"51.50779214701171","lng":"-0.09964703220426202","distance":"274","cc":"GB","city":"London","state":"Greater London","country":"United Kingdom"},"categories":[{"id":"4bf58dd8d48988d1e2931735","name":"Art Gallery","pluralName":"Art Galleries","shortName":"Art Gallery","icon":{"prefix":"https:\/\/ss1.4sqi.net\/img\/categories_v2\/arts_entertainment\/artgallery_","suffix":".png"},"primary":"true"}],"verified":"false","restricted":"true","stats":{"checkinsCount":"2050","usersCount":"1231","tipCount":"20"},"specials":{"count":"0"},"hereNow":{"count":"1","groups":[{"type":"others","name":"Other people here","count":"1"}]},"referralId":"v-1392478031"},{"id":"4da6e9f243a102190d755d2c","name":"Young's Pub","location":{"lat":"51.508827355189474","lng":"-0.10161949643798687","distance":"96","cc":"GB","city":"London","state":"Greater London","country":"United Kingdom"},"categories":[{"id":"4bf58dd8d48988d11b941735","name":"Pub","pluralName":"Pubs","shortName":"Pub","icon":{"prefix":"https:\/\/ss1.4sqi.net\/img\/categories_v2\/nightlife\/pub_","suffix":".png"},"primary":"true"}],"verified":"false","restricted":"true","stats":{"checkinsCount":"82","usersCount":"80","tipCount":"1"},"specials":{"count":"0"},"hereNow":{"count":"0"},"referralId":"v-1392478031"},{"id":"4ac518baf964a520d5a120e3","name":"The Blackfriar","contact":{"phone":"+442072365474","formattedPhone":"+44 20 7236 5474"},"location":{"address":"174 Queen Victoria St","crossStreet":"at New Bridge St","lat":"51.51200099946979","lng":"-0.1036834716796875","distance":"307","postalCode":"EC4V 4EG","cc":"GB","city":"London","state":"Greater London","country":"United Kingdom"},"categories":[{"id":"4bf58dd8d48988d11b941735","name":"Pub","pluralName":"Pubs","shortName":"Pub","icon":{"prefix":"https:\/\/ss1.4sqi.net\/img\/categories_v2\/nightlife\/pub_","suffix":".png"},"primary":"true"}],"verified":"false","restricted":"true","stats":{"checkinsCount":"2694","usersCount":"1991","tipCount":"27"},"url":"http:\/\/www.nicholsonspubs.co.uk\/theblackfriarblackfriarslondon","specials":{"count":"0"},"hereNow":{"count":"1","groups":[{"type":"others","name":"Other people here","count":"1"}]},"referralId":"v-1392478031"},{"id":"525d408911d25aa5106de51f","name":"Paul Klee Making Visible","location":{"address":"Tate Modern","lat":"51.50788474892459","lng":"-0.09932023048685516","distance":"287","cc":"GB","city":"London","state":"Greater London","country":"United Kingdom"},"categories":[{"id":"4bf58dd8d48988d1e2931735","name":"Art Gallery","pluralName":"Art Galleries","shortName":"Art Gallery","icon":{"prefix":"https:\/\/ss1.4sqi.net\/img\/categories_v2\/arts_entertainment\/artgallery_","suffix":".png"},"primary":"true"}],"verified":"false","restricted":"true","stats":{"checkinsCount":"445","usersCount":"435","tipCount":"14"},"url":"http:\/\/www.tate.org.uk\/whats-on\/tate-modern\/exhibition\/ey-exhibition-paul-klee-making-visible","specials":{"count":"0"},"hereNow":{"count":"0"},"referralId":"v-1392478031"},{"id":"4b56de0ef964a5207c1d28e3","name":"Unilever House","location":{"address":"100 Victoria Embankment","lat":"51.51156057585878","lng":"-0.1046951332996814","distance":"284","postalCode":"EC4Y 0DY","cc":"GB","city":"London","state":"Greater London","country":"United Kingdom"},"categories":[{"id":"4bf58dd8d48988d124941735","name":"Office","pluralName":"Offices","shortName":"Office","icon":{"prefix":"https:\/\/ss1.4sqi.net\/img\/categories_v2\/building\/default_","suffix":".png"},"primary":"true"}],"verified":"false","restricted":"true","stats":{"checkinsCount":"2621","usersCount":"660","tipCount":"10"},"menu":{"type":"Menu","label":"Menu","anchor":"View Menu","url":"https:\/\/foursquare.com\/v\/unilever-house\/4b56de0ef964a5207c1d28e3\/menu","mobileUrl":"https:\/\/foursquare.com\/v\/4b56de0ef964a5207c1d28e3\/device_menu"},"specials":{"count":"0"},"hereNow":{"count":"0"},"referralId":"v-1392478031"},{"id":"4b9e6f8bf964a52091e336e3","name":"Blackfriars Millennium Pier","contact":{"phone":"+443432221234","formattedPhone":"+44 343 222 1234","twitter":"tflofficial","facebook":"212038972186253"},"location":{"address":"The Old Pumphouse, Paul's Walk","lat":"51.51072565577915","lng":"-0.10646224021911621","distance":"299","postalCode":"EC4V 3QR","cc":"GB","city":"London","state":"Greater London","country":"United Kingdom"},"categories":[{"id":"4e74f6cabd41c4836eac4c31","name":"Pier","pluralName":"Pier","shortName":"Pier","icon":{"prefix":"https:\/\/ss1.4sqi.net\/img\/categories_v2\/travel\/ferry_pier_","suffix":".png"},"primary":"true"}],"verified":"true","restricted":"true","stats":{"checkinsCount":"802","usersCount":"514","tipCount":"5"},"url":"http:\/\/www.tfl.gov.uk\/river","specials":{"count":"0"},"hereNow":{"count":"0"},"storeId":"","referralId":"v-1392478031"},{"id":"4ac518e3f964a520c4aa20e3","name":"Tate Modern Restaurant","contact":{"phone":"+442074015020","formattedPhone":"+44 20 7401 5020"},"location":{"address":"53 Bankside, Southwark","lat":"51.50788452550081","lng":"-0.09955749649444179","distance":"273","postalCode":"SE1 9TG","cc":"GB","city":"London","state":"Greater London","country":"United Kingdom"},"categories":[{"id":"4bf58dd8d48988d1c4941735","name":"Restaurant","pluralName":"Restaurants","shortName":"Restaurant","icon":{"prefix":"https:\/\/ss1.4sqi.net\/img\/categories_v2\/food\/default_","suffix":".png"},"primary":"true"}],"verified":"false","restricted":"true","stats":{"checkinsCount":"1339","usersCount":"1258","tipCount":"28"},"url":"http:\/\/www.tate.org.uk","menu":{"type":"Menu","label":"Menu","anchor":"View Menu","url":"https:\/\/foursquare.com\/v\/tate-modern-restaurant\/4ac518e3f964a520c4aa20e3\/menu","mobileUrl":"https:\/\/foursquare.com\/v\/4ac518e3f964a520c4aa20e3\/device_menu"},"specials":{"count":"0"},"hereNow":{"count":"0"},"referralId":"v-1392478031"},{"id":"520375e1498e3cff74f57f29","name":"NIcholson's Freehouse","location":{"address":"1 Blackfriars Bridge","lat":"51.508598552538174","lng":"-0.1049247621002862","distance":"165","cc":"GB","city":"London","state":"Greater London","country":"United Kingdom"},"categories":[{"id":"4bf58dd8d48988d11b941735","name":"Pub","pluralName":"Pubs","shortName":"Pub","icon":{"prefix":"https:\/\/ss1.4sqi.net\/img\/categories_v2\/nightlife\/pub_","suffix":".png"},"primary":"true"}],"verified":"false","restricted":"true","stats":{"checkinsCount":"66","usersCount":"64","tipCount":"2"},"specials":{"count":"0"},"hereNow":{"count":"0"},"referralId":"v-1392478031"},{"id":"51dc6f82498e11f5f13d1cfe","name":"Albion Caf\u00e9 Neo Bankside","location":{"address":"Bankside","lat":"51.50694936140422","lng":"-0.1011420724755394","distance":"284","postalCode":"SE1 9FU","cc":"GB","city":"London","state":"Greater London","country":"United Kingdom"},"categories":[{"id":"4bf58dd8d48988d1c4941735","name":"Restaurant","pluralName":"Restaurants","shortName":"Restaurant","icon":{"prefix":"https:\/\/ss1.4sqi.net\/img\/categories_v2\/food\/default_","suffix":".png"},"primary":"true"}],"verified":"false","restricted":"true","stats":{"checkinsCount":"200","usersCount":"120","tipCount":"6"},"url":"http:\/\/albioncafes.com","reservations":{"url":"http:\/\/www.toptable.co.uk\/single.aspx?rid=99525&ref=9601"},"menu":{"type":"Menu","label":"Menu","anchor":"View Menu","url":"https:\/\/foursquare.com\/v\/albion-caf%C3%A9-neo-bankside\/51dc6f82498e11f5f13d1cfe\/menu","mobileUrl":"https:\/\/foursquare.com\/v\/51dc6f82498e11f5f13d1cfe\/device_menu"},"specials":{"count":"0"},"hereNow":{"count":"1","groups":[{"type":"others","name":"Other people here","count":"1"}]},"referralId":"v-1392478031"},{"id":"4ad43a2af964a52078e720e3","name":"Benugo","contact":{"phone":"+442075794612","formattedPhone":"+44 20 7579 4612","twitter":"benugo"},"location":{"address":"245 Blackfriars Rd","crossStreet":"Blackfriars Bridge South Side","lat":"51.508204371537175","lng":"-0.10420746430076139","distance":"155","postalCode":"SE1 9UY","cc":"GB","city":"London","state":"Greater London","country":"United Kingdom"},"categories":[{"id":"4bf58dd8d48988d1e0931735","name":"Coffee Shop","pluralName":"Coffee Shops","shortName":"Coffee Shop","icon":{"prefix":"https:\/\/ss1.4sqi.net\/img\/categories_v2\/food\/coffeeshop_","suffix":".png"},"primary":"true"}],"verified":"false","restricted":"true","stats":{"checkinsCount":"878","usersCount":"83","tipCount":"3"},"url":"http:\/\/www.benugocafedeli.com","specials":{"count":"0"},"hereNow":{"count":"0"},"referralId":"v-1392478031"},{"id":"4ac518bef964a52007a320e3","name":"Tate Modern Cafe 2","location":{"address":"53 Bankside","lat":"51.507755323690176","lng":"-0.10072704158763236","distance":"223","postalCode":"SE1 9TG","cc":"GB","city":"Southwark","state":"Greater London","country":"United Kingdom"},"categories":[{"id":"4bf58dd8d48988d16d941735","name":"Caf\u00e9","pluralName":"Caf\u00e9s","shortName":"Caf\u00e9","icon":{"prefix":"https:\/\/ss1.4sqi.net\/img\/categories_v2\/food\/cafe_","suffix":".png"},"primary":"true"}],"verified":"false","restricted":"true","stats":{"checkinsCount":"802","usersCount":"758","tipCount":"20"},"specials":{"count":"0"},"hereNow":{"count":"0"},"referralId":"v-1392478031"},{"id":"500b600ee4b0464fbfc4006f","name":"XXL","contact":{"phone":"+442072610981","formattedPhone":"+44 20 7261 0981","twitter":"xxllondon"},"location":{"address":"1 Invicta Plaza","crossStreet":"Blackfriars Rd","lat":"51.50696722358697","lng":"-0.10424155815832074","distance":"277","postalCode":"SE1 9UF","cc":"GB","city":"London","state":"Greater London","country":"United Kingdom"},"categories":[{"id":"4bf58dd8d48988d1d8941735","name":"Gay Bar","pluralName":"Gay Bars","shortName":"Gay Bar","icon":{"prefix":"https:\/\/ss1.4sqi.net\/img\/categories_v2\/nightlife\/gaybar_","suffix":".png"},"primary":"true"}],"verified":"false","restricted":"true","stats":{"checkinsCount":"859","usersCount":"432","tipCount":"6"},"url":"http:\/\/www.xxl-london.com","specials":{"count":"0"},"hereNow":{"count":"0"},"referralId":"v-1392478031"},{"id":"4ac518f7f964a520b2af20e3","name":"Mermaid Conference & Events Centre","contact":{"phone":"+442072361919","formattedPhone":"+44 20 7236 1919"},"location":{"address":"Puddle Dock","lat":"51.51163970773685","lng":"-0.10210575170378589","distance":"266","postalCode":"EC4V 3DB","cc":"GB","city":"London","state":"Greater London","country":"United Kingdom"},"categories":[{"id":"4bf58dd8d48988d171941735","name":"Event Space","pluralName":"Event Spaces","shortName":"Event Space","icon":{"prefix":"https:\/\/ss1.4sqi.net\/img\/categories_v2\/building\/eventspace_","suffix":".png"},"primary":"true"}],"verified":"false","restricted":"true","stats":{"checkinsCount":"1417","usersCount":"1108","tipCount":"10"},"specials":{"count":"0"},"hereNow":{"count":"0"},"referralId":"v-1392478031"},{"id":"4ac518d4f964a5208ba720e3","name":"Bankside Gallery","location":{"address":"48 Hopton Street","lat":"51.508391866493916","lng":"-0.10122284478366778","distance":"148","postalCode":"SE1 9JH","cc":"GB","city":"London","state":"Greater London","country":"United Kingdom"},"categories":[{"id":"4bf58dd8d48988d1e2931735","name":"Art Gallery","pluralName":"Art Galleries","shortName":"Art Gallery","icon":{"prefix":"https:\/\/ss1.4sqi.net\/img\/categories_v2\/arts_entertainment\/artgallery_","suffix":".png"},"primary":"true"}],"verified":"false","restricted":"true","stats":{"checkinsCount":"215","usersCount":"195","tipCount":"2"},"specials":{"count":"0"},"hereNow":{"count":"0"},"referralId":"v-1392478031"},{"id":"4e2ac9a652b1b8f19859bbbf","name":"Falcon Point Piazza","location":{"address":"Falcon Point Piazza","lat":"51.50806704039956","lng":"-0.10226005180369209","distance":"141","postalCode":"SE1","cc":"GB","city":"Bankside","state":"Greater London","country":"United Kingdom"},"categories":[{"id":"4bf58dd8d48988d164941735","name":"Plaza","pluralName":"Plazas","shortName":"Plaza","icon":{"prefix":"https:\/\/ss1.4sqi.net\/img\/categories_v2\/parks_outdoors\/plaza_","suffix":".png"},"primary":"true"}],"verified":"false","restricted":"true","stats":{"checkinsCount":"89","usersCount":"26","tipCount":"0"},"specials":{"count":"0"},"hereNow":{"count":"0"},"referralId":"v-1392478031"},{"id":"4c8a38621eafb1f7251e7835","name":"Tate Modern Bookshop","contact":{"phone":"+442074015167","formattedPhone":"+44 20 7401 5167"},"location":{"address":"Tate Modern","crossStreet":"Bankside","lat":"51.50779736717376","lng":"-0.09973935173192731","distance":"269","postalCode":"SE1 9TG","cc":"GB","city":"London","state":"Greater London","country":"United Kingdom"},"categories":[{"id":"4bf58dd8d48988d114951735","name":"Bookstore","pluralName":"Bookstores","shortName":"Bookstore","icon":{"prefix":"https:\/\/ss1.4sqi.net\/img\/categories_v2\/shops\/bookstore_","suffix":".png"},"primary":"true"}],"verified":"false","restricted":"true","stats":{"checkinsCount":"683","usersCount":"619","tipCount":"1"},"specials":{"count":"0"},"hereNow":{"count":"0"},"referralId":"v-1392478031"},{"id":"4d4ea41820d3236a5e989d28","name":"Platform 1","contact":{"phone":"+448457484950","formattedPhone":"+44 845 748 4950","twitter":"nationalrailenq"},"location":{"address":"Blackfriars Railway Station (BFR)","lat":"51.51011422538799","lng":"-0.10308280216133045","distance":"93","postalCode":"EC4V 4DY","cc":"GB","city":"London","state":"Greater London","country":"United Kingdom"},"categories":[{"id":"4f4531504b9074f6e4fb0102","name":"Platform","pluralName":"Platforms","shortName":"Platform","icon":{"prefix":"https:\/\/ss1.4sqi.net\/img\/categories_v2\/travel\/trainstation_","suffix":".png"},"primary":"true"}],"verified":"false","restricted":"true","stats":{"checkinsCount":"51","usersCount":"42","tipCount":"0"},"specials":{"count":"0"},"hereNow":{"count":"0"},"referralId":"v-1392478031"},{"id":"4ac518b6f964a5201ea120e3","name":"The Mad Hatter","contact":{"phone":"+442074019222","formattedPhone":"+44 20 7401 9222"},"location":{"address":"3-7 Stamford St","lat":"51.507380212887725","lng":"-0.1055288314819336","distance":"284","postalCode":"SE1 9NY","cc":"GB","city":"London","state":"Greater London","country":"United Kingdom"},"categories":[{"id":"4bf58dd8d48988d1fa931735","name":"Hotel","pluralName":"Hotels","shortName":"Hotel","icon":{"prefix":"https:\/\/ss1.4sqi.net\/img\/categories_v2\/travel\/hotel_","suffix":".png"},"primary":"true"}],"verified":"false","restricted":"true","stats":{"checkinsCount":"941","usersCount":"533","tipCount":"15"},"specials":{"count":"0"},"hereNow":{"count":"0"},"referralId":"v-1392478031"},{"id":"4b4b1101f964a520bf9126e3","name":"GfK NOP","location":{"address":"245 Blackfriars Rd","lat":"51.5077778201386","lng":"-0.10432365957229334","distance":"198","postalCode":"SE1 9UL","cc":"GB","city":"London","state":"Greater London","country":"United Kingdom"},"categories":[{"id":"4bf58dd8d48988d124941735","name":"Office","pluralName":"Offices","shortName":"Office","icon":{"prefix":"https:\/\/ss1.4sqi.net\/img\/categories_v2\/building\/default_","suffix":".png"},"primary":"true"}],"verified":"false","restricted":"true","stats":{"checkinsCount":"378","usersCount":"48","tipCount":"2"},"specials":{"count":"0"},"hereNow":{"count":"0"},"referralId":"v-1392478031"},{"id":"4c921bc9ae96a0933adda846","name":"Turbine Hall","location":{"address":"Tate Modern","lat":"51.50749953167364","lng":"-0.09975614355146473","distance":"290","postalCode":"SE1","cc":"GB","city":"Bankside","state":"Greater London","country":"United Kingdom"},"categories":[{"id":"4bf58dd8d48988d18f941735","name":"Art Museum","pluralName":"Art Museums","shortName":"Art Museum","icon":{"prefix":"https:\/\/ss1.4sqi.net\/img\/categories_v2\/arts_entertainment\/museum_art_","suffix":".png"},"primary":"true"}],"verified":"false","restricted":"true","stats":{"checkinsCount":"939","usersCount":"768","tipCount":"2"},"specials":{"count":"0"},"hereNow":{"count":"0"},"referralId":"v-1392478031"}],"confident":"false"}}