{"meta":{"code":"200"},"response":{"venues":[{"id":"4af9a82df964a520fd1222e3","name":"The Shard","contact":{"phone":"+442073995190","formattedPhone":"+44 20 7399 5190","twitter":"londonshard"},"location":{"address":"96 Tooley St.","lat":"51.50470234606946","lng":"-0.08682847023010254","distance":"81","postalCode":"SE1 9SP","cc":"GB","city":"London","state":"Greater London","country":"United Kingdom"},"categories":[{"id":"4bf58dd8d48988d130941735","name":"Building","pluralName":"Buildings","shortName":"Building","icon":{"prefix":"https:\/\/ss1.4sqi.net\/img\/categories_v2\/building\/default_","suffix":".png"},"primary":"true"}],"verified":"false","restricted":"true","stats":{"checkinsCount":"10654","usersCount":"6132","tipCount":"59"},"url":"http:\/\/the-shard.com","specials":{"count":"0"},"hereNow":{"count":"6","groups":[{"type":"others","name":"Other people here","count":"6"}]},"referralId":"v-1392478046"},{"id":"4b4e1c8af964a5209ce126e3","name":"Guy's Hospital","contact":{"phone":"+442071887188","formattedPhone":"+44 20 7188 7188"},"location":{"address":"Great Maze Pond","crossStreet":"St. Thomas St.","lat":"51.50347354652552","lng":"-0.08668899536132812","distance":"119","postalCode":"SE1 9RT","cc":"GB","city":"London","state":"Greater London","country":"United Kingdom"},"categories":[{"id":"4bf58dd8d48988d196941735","name":"Hospital","pluralName":"Hospitals","shortName":"Hospital","icon":{"prefix":"https:\/\/ss1.4sqi.net\/img\/categories_v2\/building\/medical_hospital_","suffix":".png"},"primary":"true"}],"verified":"false","restricted":"true","stats":{"checkinsCount":"2788","usersCount":"1019","tipCount":"11"},"specials":{"count":"0"},"hereNow":{"count":"2","groups":[{"type":"others","name":"Other people here","count":"2"}]},"referralId":"v-1392478046"},{"id":"4b0fe3f8f964a520e56523e3","name":"Starbucks","contact":{"phone":"+442073787631","formattedPhone":"+44 20 7378 7631","twitter":"starbucksuk"},"location":{"address":"21-27 St Thomas St","lat":"51.50436175821087","lng":"-0.08737564086914062","distance":"30","postalCode":"SE1 9RY","cc":"GB","city":"London","state":"Greater London","country":"United Kingdom"},"categories":[{"id":"4bf58dd8d48988d1e0931735","name":"Coffee Shop","pluralName":"Coffee Shops","shortName":"Coffee Shop","icon":{"prefix":"https:\/\/ss1.4sqi.net\/img\/categories_v2\/food\/coffeeshop_","suffix":".png"},"primary":"true"}],"verified":"true","restricted":"true","stats":{"checkinsCount":"1888","usersCount":"1114","tipCount":"5"},"url":"http:\/\/starbucks.co.uk","specials":{"count":"0"},"hereNow":{"count":"0"},"storeId":"12168","referralId":"v-1392478046"},{"id":"4acee9a4f964a5200ed220e3","name":"London Bridge Railway Station (LBG)","contact":{"phone":"+448457484950","formattedPhone":"+44 845 748 4950","twitter":"nationalrailenq","facebook":"94740547473"},"location":{"address":"Station Approach","lat":"51.50489601254001","lng":"-0.08587360382080078","distance":"149","postalCode":"SE1 9SP","cc":"GB","city":"London","state":"Greater London","country":"United Kingdom"},"categories":[{"id":"4bf58dd8d48988d129951735","name":"Train Station","pluralName":"Train Stations","shortName":"Train Station","icon":{"prefix":"https:\/\/ss1.4sqi.net\/img\/categories_v2\/travel\/trainstation_","suffix":".png"},"primary":"true"}],"verified":"true","restricted":"true","stats":{"checkinsCount":"72000","usersCount":"15119","tipCount":"146"},"url":"http:\/\/www.nationalrail.co.uk\/stations\/lbg\/details.html","specials":{"count":"0"},"hereNow":{"count":"2","groups":[{"type":"others","name":"Other people here","count":"2"}]},"storeId":"LBG","referralId":"v-1392478046"},{"id":"51d1a169498ecb3464e98056","name":"Aqua Shard","contact":{"phone":"+442074780540","formattedPhone":"+44 20 7478 0540","twitter":"aquashard"},"location":{"address":"Level 31 The Shard","crossStreet":"31 St Thomas St","lat":"51.50453856059706","lng":"-0.08687756684435137","distance":"69","postalCode":"SE1 9RY","cc":"GB","city":"London","state":"Greater London","country":"United Kingdom"},"categories":[{"id":"4bf58dd8d48988d1c4941735","name":"Restaurant","pluralName":"Restaurants","shortName":"Restaurant","icon":{"prefix":"https:\/\/ss1.4sqi.net\/img\/categories_v2\/food\/default_","suffix":".png"},"primary":"true"}],"verified":"true","restricted":"true","stats":{"checkinsCount":"964","usersCount":"814","tipCount":"32"},"url":"http:\/\/www.aquashard.co.uk","specials":{"count":"0"},"hereNow":{"count":"0"},"venuePage":{"id":"67573036"},"storeId":"","referralId":"v-1392478046"},{"id":"50eaab7be4b09d1aedafe264","name":"The View from The Shard","contact":{"phone":"+448444997111","formattedPhone":"+44 844 499 7111","twitter":"shardview"},"location":{"address":"The View from The Shard","crossStreet":"Joiner Street","lat":"51.5044953223804","lng":"-0.08661389350891113","distance":"85","postalCode":"SE1 9EX","cc":"GB","city":"Borough, London","country":"United Kingdom"},"categories":[{"id":"4bf58dd8d48988d165941735","name":"Scenic Lookout","pluralName":"Scenic Lookouts","shortName":"Scenic Lookout","icon":{"prefix":"https:\/\/ss1.4sqi.net\/img\/categories_v2\/parks_outdoors\/sceniclookout_","suffix":".png"},"primary":"true"}],"verified":"true","restricted":"true","stats":{"checkinsCount":"2622","usersCount":"2495","tipCount":"67"},"url":"http:\/\/www.theviewfromtheshard.com","specials":{"count":"0"},"hereNow":{"count":"3","groups":[{"type":"others","name":"Other people here","count":"3"}]},"venuePage":{"id":"75707939"},"storeId":"","referralId":"v-1392478046"},{"id":"4b6c5879f964a5205d322ce3","name":"McDonald's","contact":{"phone":"+442073786758","formattedPhone":"+44 20 7378 6758"},"location":{"address":"Boland Hse.","crossStreet":"St Thomas St.","lat":"51.50445536202536","lng":"-0.08737752202312858","distance":"34","postalCode":"SE1 9RT","cc":"GB","city":"London","state":"Greater London","country":"United Kingdom"},"categories":[{"id":"4bf58dd8d48988d16e941735","name":"Fast Food Restaurant","pluralName":"Fast Food Restaurants","shortName":"Fast Food","icon":{"prefix":"https:\/\/ss1.4sqi.net\/img\/categories_v2\/food\/fastfood_","suffix":".png"},"primary":"true"}],"verified":"false","restricted":"true","stats":{"checkinsCount":"1021","usersCount":"673","tipCount":"5"},"specials":{"count":"0"},"hereNow":{"count":"0"},"referralId":"v-1392478046"},{"id":"5183ad6c498ec8f906fdebee","name":"Oblix at The Shard","contact":{"phone":"+442072686700","formattedPhone":"+44 20 7268 6700","twitter":"oblixrestaurant"},"location":{"address":"Level 32","crossStreet":"31 Thomas St","lat":"51.50465102315295","lng":"-0.08671261937164855","distance":"85","postalCode":"SE1 9RY","cc":"GB","city":"London","state":"Greater London","country":"United Kingdom"},"categories":[{"id":"4bf58dd8d48988d1c4941735","name":"Restaurant","pluralName":"Restaurants","shortName":"Restaurant","icon":{"prefix":"https:\/\/ss1.4sqi.net\/img\/categories_v2\/food\/default_","suffix":".png"},"primary":"true"}],"verified":"false","restricted":"true","stats":{"checkinsCount":"952","usersCount":"831","tipCount":"36"},"url":"http:\/\/www.oblixrestaurant.com","specials":{"count":"0"},"hereNow":{"count":"2","groups":[{"type":"others","name":"Other people here","count":"2"}]},"referralId":"v-1392478046"},{"id":"4c63eaa3fa7bc92852a91127","name":"Spiazzo","contact":{"phone":"+442074036996","formattedPhone":"+44 20 7403 6996"},"location":{"address":"21-27 St. Thomas St.","lat":"51.50448196598106","lng":"-0.0874185562133789","distance":"34","postalCode":"SE1 9RY","cc":"GB","city":"London","state":"Greater London","country":"United Kingdom"},"categories":[{"id":"4bf58dd8d48988d16d941735","name":"Caf\u00e9","pluralName":"Caf\u00e9s","shortName":"Caf\u00e9","icon":{"prefix":"https:\/\/ss1.4sqi.net\/img\/categories_v2\/food\/cafe_","suffix":".png"},"primary":"true"}],"verified":"false","restricted":"true","stats":{"checkinsCount":"179","usersCount":"105","tipCount":"3"},"specials":{"count":"0"},"hereNow":{"count":"1","groups":[{"type":"others","name":"Other people here","count":"1"}]},"referralId":"v-1392478046"},{"id":"4b94ee71f964a520438834e3","name":"Stillpoint Yoga London","contact":{"phone":"+447956585892","formattedPhone":"+44 7956 585892"},"location":{"address":"KCLSU, Boland House, St. Thomas Street","crossStreet":"Usually in Meeting Room 1, Mon-Fri 06:30-09:00","lat":"51.50428161952125","lng":"-0.08771896362304688","distance":"5","postalCode":"SE1 9RT","cc":"GB","city":"London","state":"Greater London","country":"United Kingdom"},"categories":[{"id":"4bf58dd8d48988d102941735","name":"Yoga Studio","pluralName":"Yoga Studios","shortName":"Yoga Studio","icon":{"prefix":"https:\/\/ss1.4sqi.net\/img\/categories_v2\/shops\/gym_yogastudio_","suffix":".png"},"primary":"true"}],"verified":"false","restricted":"true","stats":{"checkinsCount":"51","usersCount":"12","tipCount":"0"},"specials":{"count":"0"},"hereNow":{"count":"0"},"referralId":"v-1392478046"},{"id":"4d542d52dcb1a14319e0bbbf","name":"Boland House","location":{"lat":"51.50420378855074","lng":"-0.08767523681043934","distance":"12","cc":"GB","country":"United Kingdom"},"categories":[{"id":"4bf58dd8d48988d1ab941735","name":"Student Center","pluralName":"Student Centers","shortName":"Student Center","icon":{"prefix":"https:\/\/ss1.4sqi.net\/img\/categories_v2\/education\/studentcenter_","suffix":".png"},"primary":"true"}],"verified":"false","restricted":"true","stats":{"checkinsCount":"191","usersCount":"40","tipCount":"2"},"specials":{"count":"0"},"hereNow":{"count":"0"},"referralId":"v-1392478046"},{"id":"4bb743871344b71346809e04","name":"George Inn","contact":{"phone":"+442074072056","formattedPhone":"+44 20 7407 2056"},"location":{"address":"George Inn Yard","crossStreet":"77 Borough High St","lat":"51.5043484017724","lng":"-0.0898432731628418","distance":"141","postalCode":"SE1 1NH","cc":"GB","city":"London","state":"Greater London","country":"United Kingdom"},"categories":[{"id":"4bf58dd8d48988d11b941735","name":"Pub","pluralName":"Pubs","shortName":"Pub","icon":{"prefix":"https:\/\/ss1.4sqi.net\/img\/categories_v2\/nightlife\/pub_","suffix":".png"},"primary":"true"}],"verified":"true","restricted":"true","stats":{"checkinsCount":"4209","usersCount":"2851","tipCount":"56"},"url":"http:\/\/www.nationaltrust.org.uk\/george-inn","menu":{"type":"Menu","label":"Menu","anchor":"View Menu","url":"https:\/\/foursquare.com\/v\/george-inn\/4bb743871344b71346809e04\/menu","mobileUrl":"https:\/\/foursquare.com\/v\/4bb743871344b71346809e04\/device_menu"},"specials":{"count":"0"},"hereNow":{"count":"5","groups":[{"type":"others","name":"Other people here","count":"5"}]},"referralId":"v-1392478046"},{"id":"4be218cf2fc7d13a4755083a","name":"King's College London - Guy's Campus","location":{"address":"Newcomen Street","lat":"51.503346657728606","lng":"-0.08922100067138672","distance":"143","postalCode":"SE1 1UL","cc":"GB","city":"Southwark","state":"Greater London","country":"United Kingdom"},"categories":[{"id":"4bf58dd8d48988d1ae941735","name":"University","pluralName":"Universities","shortName":"University","icon":{"prefix":"https:\/\/ss1.4sqi.net\/img\/categories_v2\/education\/default_","suffix":".png"},"primary":"true"}],"verified":"false","restricted":"true","stats":{"checkinsCount":"1074","usersCount":"347","tipCount":"3"},"specials":{"count":"0"},"hereNow":{"count":"1","groups":[{"type":"others","name":"Other people here","count":"1"}]},"referralId":"v-1392478046"},{"id":"5176b10c19a97326d9fd0501","name":"Hutong","contact":{"phone":"+442074780540","formattedPhone":"+44 20 7478 0540","twitter":"hutongshard"},"location":{"address":"Level 33 The Shard, 31 St. Thomas Street","lat":"51.50437511464546","lng":"-0.08619546890258789","distance":"111","postalCode":"SE1 9RY","cc":"GB","city":"London","state":"Greater London","country":"United Kingdom"},"categories":[{"id":"4bf58dd8d48988d145941735","name":"Chinese Restaurant","pluralName":"Chinese Restaurants","shortName":"Chinese","icon":{"prefix":"https:\/\/ss1.4sqi.net\/img\/categories_v2\/food\/chinese_","suffix":".png"},"primary":"true"}],"verified":"true","restricted":"true","stats":{"checkinsCount":"442","usersCount":"372","tipCount":"10"},"url":"http:\/\/www.hutong.co.uk","reservations":{"url":"http:\/\/www.toptable.co.uk\/single.aspx?rid=100401&ref=9601"},"menu":{"type":"Menu","label":"Menu","anchor":"View Menu","url":"https:\/\/foursquare.com\/v\/hutong\/5176b10c19a97326d9fd0501\/menu","mobileUrl":"https:\/\/foursquare.com\/v\/5176b10c19a97326d9fd0501\/device_menu"},"specials":{"count":"0"},"hereNow":{"count":"1","groups":[{"type":"others","name":"Other people here","count":"1"}]},"venuePage":{"id":"56924338"},"storeId":"","referralId":"v-1392478046"},{"id":"4b901e48f964a520b87633e3","name":"All Bar One","contact":{"phone":"+442074039484","formattedPhone":"+44 20 7403 9484"},"location":{"address":"28-30 London Bridge St.","lat":"51.50497615014911","lng":"-0.08694648742675781","distance":"96","postalCode":"SE1 9SG","cc":"GB","city":"London","state":"Greater London","country":"United Kingdom"},"categories":[{"id":"4bf58dd8d48988d116941735","name":"Bar","pluralName":"Bars","shortName":"Bar","icon":{"prefix":"https:\/\/ss1.4sqi.net\/img\/categories_v2\/nightlife\/bar_","suffix":".png"},"primary":"true"}],"verified":"false","restricted":"true","stats":{"checkinsCount":"1079","usersCount":"828","tipCount":"10"},"specials":{"count":"0"},"hereNow":{"count":"0"},"referralId":"v-1392478046"},{"id":"4b2b8569f964a52021b724e3","name":"Old Operating Theatre Museum","contact":{"phone":"+442071882679","formattedPhone":"+44 20 7188 2679"},"location":{"address":"9a St. Thomas St.","lat":"51.50500911229296","lng":"-0.08857799824082109","distance":"96","postalCode":"SE1 1","cc":"GB","city":"Camberwell","state":"Greater London","country":"United Kingdom"},"categories":[{"id":"4bf58dd8d48988d190941735","name":"History Museum","pluralName":"History Museums","shortName":"History Museum","icon":{"prefix":"https:\/\/ss1.4sqi.net\/img\/categories_v2\/arts_entertainment\/museum_history_","suffix":".png"},"primary":"true"}],"verified":"false","restricted":"true","stats":{"checkinsCount":"361","usersCount":"299","tipCount":"17"},"specials":{"count":"0"},"hereNow":{"count":"1","groups":[{"type":"others","name":"Other people here","count":"1"}]},"referralId":"v-1392478046"},{"id":"51dc6c18498ebc854e150ac1","name":"Aquashard","location":{"lat":"51.50463055682393","lng":"-0.08667772669827403","distance":"86","cc":"GB","country":"United Kingdom"},"categories":[{"id":"4bf58dd8d48988d1c4941735","name":"Restaurant","pluralName":"Restaurants","shortName":"Restaurant","icon":{"prefix":"https:\/\/ss1.4sqi.net\/img\/categories_v2\/food\/default_","suffix":".png"},"primary":"true"}],"verified":"false","restricted":"true","stats":{"checkinsCount":"54","usersCount":"51","tipCount":"4"},"specials":{"count":"0"},"hereNow":{"count":"1","groups":[{"type":"others","name":"Other people here","count":"1"}]},"referralId":"v-1392478046"},{"id":"4af7fd2bf964a520ab0a22e3","name":"Bunch of Grapes","contact":{"phone":"+442074032070","formattedPhone":"+44 20 7403 2070"},"location":{"address":"2 St Thomas St.","lat":"51.505007","lng":"-0.089169","distance":"123","postalCode":"SE1 9RS","cc":"GB","city":"Borough","state":"Greater London","country":"United Kingdom"},"categories":[{"id":"4bf58dd8d48988d11b941735","name":"Pub","pluralName":"Pubs","shortName":"Pub","icon":{"prefix":"https:\/\/ss1.4sqi.net\/img\/categories_v2\/nightlife\/pub_","suffix":".png"},"primary":"true"}],"verified":"false","restricted":"true","stats":{"checkinsCount":"1652","usersCount":"1110","tipCount":"12"},"menu":{"type":"Menu","label":"Menu","anchor":"View Menu","url":"https:\/\/foursquare.com\/v\/bunch-of-grapes\/4af7fd2bf964a520ab0a22e3\/menu","mobileUrl":"https:\/\/foursquare.com\/v\/4af7fd2bf964a520ab0a22e3\/device_menu"},"specials":{"count":"0"},"hereNow":{"count":"0"},"referralId":"v-1392478046"},{"id":"52dd1619498e72b023b9154e","name":"Department of Craniofacial Development & Stem Cell Biology","location":{"lat":"51.503649","lng":"-0.087028","distance":"89","cc":"GB","country":"United Kingdom"},"categories":[{"id":"4bf58dd8d48988d1a5941735","name":"College Lab","pluralName":"College Labs","shortName":"Lab","icon":{"prefix":"https:\/\/ss1.4sqi.net\/img\/categories_v2\/education\/lab_","suffix":".png"},"primary":"true"}],"verified":"false","restricted":"true","stats":{"checkinsCount":"22","usersCount":"1","tipCount":"0"},"specials":{"count":"0"},"hereNow":{"count":"0"},"referralId":"v-1392478046"},{"id":"4ac518b6f964a520e0a020e3","name":"London Bridge Hotel","contact":{"phone":"+442078552200","formattedPhone":"+44 20 7855 2200"},"location":{"address":"8-18 London Bridge St.","lat":"51.50518984975107","lng":"-0.08791208267211914","distance":"100","postalCode":"SE1 9SG","cc":"GB","city":"London","state":"Greater London","country":"United Kingdom"},"categories":[{"id":"4bf58dd8d48988d1fa931735","name":"Hotel","pluralName":"Hotels","shortName":"Hotel","icon":{"prefix":"https:\/\/ss1.4sqi.net\/img\/categories_v2\/travel\/hotel_","suffix":".png"},"primary":"true"}],"verified":"true","restricted":"true","stats":{"checkinsCount":"765","usersCount":"395","tipCount":"15"},"specials":{"count":"0"},"hereNow":{"count":"0"},"venuePage":{"id":"42811564"},"storeId":"","referralId":"v-1392478046"},{"id":"4b94e47ef964a520b58634e3","name":"Four Communications","contact":{"phone":"+442036974200","formattedPhone":"+44 20 3697 4200","twitter":"fourcomms"},"location":{"address":"20 St Thomas Street","lat":"51.50472571965269","lng":"-0.08848607540130615","distance":"67","postalCode":"SE1 9BF","cc":"GB","city":"London","state":"Greater London","country":"United Kingdom"},"categories":[{"id":"4bf58dd8d48988d124941735","name":"Office","pluralName":"Offices","shortName":"Office","icon":{"prefix":"https:\/\/ss1.4sqi.net\/img\/categories_v2\/building\/default_","suffix":".png"},"primary":"true"}],"verified":"true","restricted":"true","stats":{"checkinsCount":"861","usersCount":"75","tipCount":"3"},"url":"http:\/\/www.fourcommunications.com","specials":{"count":"0"},"hereNow":{"count":"0"},"venuePage":{"id":"53881902"},"storeId":"","referralId":"v-1392478046"},{"id":"501c06d6e4b03c7b5e00de30","name":"We Feast London","location":{"lat":"51.50425482544386","lng":"-0.08774382453685056","distance":"5","cc":"GB","country":"United Kingdom"},"categories":[{"id":"4bf58dd8d48988d120951735","name":"Food Court","pluralName":"Food Courts","shortName":"Food Court","icon":{"prefix":"https:\/\/ss1.4sqi.net\/img\/categories_v2\/shops\/food_foodcourt_","suffix":".png"},"primary":"true"}],"verified":"false","restricted":"true","stats":{"checkinsCount":"131","usersCount":"119","tipCount":"2"},"specials":{"count":"0"},"hereNow":{"count":"0"},"referralId":"v-1392478046"},{"id":"4c6aaa82cff29521b10d285e","name":"Pret A Manger","contact":{"phone":"+442079325341","formattedPhone":"+44 20 7932 5341","twitter":"pret","facebook":"162638680417951"},"location":{"address":"8 London Bridge Street","lat":"51.5053140297","lng":"-0.08842774724","distance":"122","postalCode":"SE1 9SG","cc":"GB","city":"Borough","state":"Greater London","country":"United Kingdom"},"categories":[{"id":"4bf58dd8d48988d1c5941735","name":"Sandwich Place","pluralName":"Sandwich Places","shortName":"Sandwiches","icon":{"prefix":"https:\/\/ss1.4sqi.net\/img\/categories_v2\/food\/sandwiches_","suffix":".png"},"primary":"true"}],"verified":"true","restricted":"true","stats":{"checkinsCount":"210","usersCount":"112","tipCount":"3"},"url":"http:\/\/www.pret.com","specials":{"count":"0"},"hereNow":{"count":"0"},"storeId":"141","referralId":"v-1392478046"},{"id":"518a9b10498eb5655f083948","name":"Oblix Lounge","contact":{"phone":"+442074780540","formattedPhone":"+44 20 7478 0540","twitter":"aquashard"},"location":{"address":"The Shard, St Thomas St,","lat":"51.504335045329995","lng":"-0.08634567260742188","distance":"101","postalCode":"SE1 9RY","cc":"GB","city":"London","state":"Greater London","country":"United Kingdom"},"categories":[{"id":"4bf58dd8d48988d11e941735","name":"Cocktail Bar","pluralName":"Cocktail Bars","shortName":"Cocktail","icon":{"prefix":"https:\/\/ss1.4sqi.net\/img\/categories_v2\/nightlife\/cocktails_","suffix":".png"},"primary":"true"}],"verified":"false","restricted":"true","stats":{"checkinsCount":"97","usersCount":"94","tipCount":"4"},"specials":{"count":"0"},"hereNow":{"count":"0"},"referralId":"v-1392478046"},{"id":"4f730cf6e4b017b448ffd047","name":"New City Court","location":{"address":"20 St Thomas St.","lat":"51.50452156473172","lng":"-0.08825515722290886","distance":"40","postalCode":"SE1 9RR","cc":"GB","city":"London","state":"Greater London","country":"United Kingdom"},"categories":[{"id":"4bf58dd8d48988d124941735","name":"Office","pluralName":"Offices","shortName":"Office","icon":{"prefix":"https:\/\/ss1.4sqi.net\/img\/categories_v2\/building\/default_","suffix":".png"},"primary":"true"}],"verified":"false","restricted":"true","stats":{"checkinsCount":"19","usersCount":"8","tipCount":"0"},"specials":{"count":"0"},"hereNow":{"count":"0"},"referralId":"v-1392478046"},{"id":"51aef4d2498e4d34a653c497","name":"Shangri La","location":{"address":"The Shard","crossStreet":"St Thomas Street","lat":"51.504235174589496","lng":"-0.08772073617892677","distance":"8","cc":"GB","city":"London","state":"Greater London","country":"United Kingdom"},"categories":[{"id":"4bf58dd8d48988d1fa931735","name":"Hotel","pluralName":"Hotels","shortName":"Hotel","icon":{"prefix":"https:\/\/ss1.4sqi.net\/img\/categories_v2\/travel\/hotel_","suffix":".png"},"primary":"true"}],"verified":"false","restricted":"true","stats":{"checkinsCount":"9","usersCount":"9","tipCount":"0"},"specials":{"count":"0"},"hereNow":{"count":"0"},"referralId":"v-1392478046"},{"id":"50cb51c1e4b04e1f372a3a2e","name":"The Rooftop Cafe","location":{"address":"Fielden House, 28 London Bridge Street","lat":"51.50478403375009","lng":"-0.0872980875862896","distance":"65","postalCode":"SE1 9SG","cc":"GB","city":"London","state":"Greater London","country":"United Kingdom"},"categories":[{"id":"4bf58dd8d48988d16d941735","name":"Caf\u00e9","pluralName":"Caf\u00e9s","shortName":"Caf\u00e9","icon":{"prefix":"https:\/\/ss1.4sqi.net\/img\/categories_v2\/food\/cafe_","suffix":".png"},"primary":"true"}],"verified":"false","restricted":"true","stats":{"checkinsCount":"89","usersCount":"71","tipCount":"1"},"reservations":{"url":"http:\/\/www.toptable.co.uk\/single.aspx?rid=98142&ref=9601"},"menu":{"type":"Menu","label":"Menu","anchor":"View Menu","url":"https:\/\/foursquare.com\/v\/the-rooftop-cafe\/50cb51c1e4b04e1f372a3a2e\/menu","mobileUrl":"https:\/\/foursquare.com\/v\/50cb51c1e4b04e1f372a3a2e\/device_menu"},"specials":{"count":"0"},"hereNow":{"count":"0"},"referralId":"v-1392478046"},{"id":"52e65f52498e6b6642d8f601","name":"Maverick","contact":{"phone":"+442073786969","formattedPhone":"+44 20 7378 6969"},"location":{"address":"21 St Thomas Street","lat":"51.504506","lng":"-0.0873","distance":"42","postalCode":"SE1 9RY","cc":"GB","city":"London","state":"Greater London","country":"United Kingdom"},"categories":[{"id":"4bf58dd8d48988d124941735","name":"Office","pluralName":"Offices","shortName":"Office","icon":{"prefix":"https:\/\/ss1.4sqi.net\/img\/categories_v2\/building\/default_","suffix":".png"},"primary":"true"}],"verified":"false","restricted":"true","stats":{"checkinsCount":"4","usersCount":"2","tipCount":"0"},"specials":{"count":"0"},"hereNow":{"count":"0"},"referralId":"v-1392478046"},{"id":"4dfa8790e4cd56a649865bb6","name":"Quarter Bar & Lounge","contact":{"phone":"+442078552200","formattedPhone":"+44 20 7855 2200"},"location":{"address":"8-18 London Bridge Street","lat":"51.505300038216696","lng":"-0.08827149868011475","distance":"117","postalCode":"SE1 9SG","cc":"GB","city":"Southwark","state":"Greater London","country":"United Kingdom"},"categories":[{"id":"4bf58dd8d48988d121941735","name":"Lounge","pluralName":"Lounges","shortName":"Lounge","icon":{"prefix":"https:\/\/ss1.4sqi.net\/img\/categories_v2\/nightlife\/lounge_","suffix":".png"},"primary":"true"}],"verified":"true","restricted":"true","stats":{"checkinsCount":"179","usersCount":"112","tipCount":"4"},"url":"http:\/\/www.londonbridgehotel.com\/Quarter-Bar-and-Lounge.html","reservations":{"url":"http:\/\/www.toptable.co.uk\/single.aspx?rid=71563&ref=9601"},"menu":{"type":"Menu","label":"Menu","anchor":"View Menu","url":"https:\/\/foursquare.com\/v\/quarter-bar--lounge\/4dfa8790e4cd56a649865bb6\/menu","mobileUrl":"https:\/\/foursquare.com\/v\/4dfa8790e4cd56a649865bb6\/device_menu"},"specials":{"count":"1","items":[{"id":"51080d3572da785895ce1c54","type":"regular","message":"One free glass of house wine or lager after 15 \u201ccheck ins\u201d when buying another drink.","description":"Unlocked for checking in 15 times in 30 days","finePrint":"Can only be used once and will expire at closing. Phone with the voucher must be presented at the bar or to a member of staff when ordering a round of drinks.","icon":"frequency","title":"Loyalty Special","provider":"foursquare","redemption":"standard","page":{"id":"42812504","firstName":"Quarter Bar & Lounge","gender":"none","photo":{"prefix":"https:\/\/irs3.4sqi.net\/img\/user\/","suffix":"\/TJAZYC1LSNZXUP3A.jpg"},"type":"venuePage","venue":{"id":"4dfa8790e4cd56a649865bb6"},"tips":{"count":"0"},"homeCity":"Southwark, London","bio":""}}]},"hereNow":{"count":"0"},"venuePage":{"id":"42812504"},"storeId":"","referralId":"v-1392478046"},{"id":"5242b4e6498e3a9690f65937","name":"Orthopaedics Centre","location":{"lat":"51.504302978515625","lng":"-0.08776289969682693","distance":"3","cc":"GB","country":"United Kingdom"},"categories":[{"id":"4bf58dd8d48988d196941735","name":"Hospital","pluralName":"Hospitals","shortName":"Hospital","icon":{"prefix":"https:\/\/ss1.4sqi.net\/img\/categories_v2\/building\/medical_hospital_","suffix":".png"},"primary":"true"}],"verified":"false","restricted":"true","stats":{"checkinsCount":"0","usersCount":"0","tipCount":"0"},"specials":{"count":"0"},"hereNow":{"count":"0"},"referralId":"v-1392478046"}],"confident":"true"}}