{"meta":{"code":"200"},"response":{"venues":[{"id":"4c07b3c68a81c9b658972790","name":"Alfies Rooftop Cafe & Restaurant","location":{"address":"13-25 Church St.","lat":"51.52417302131653","lng":"-0.168585","distance":"55","postalCode":"NW8 8DT","cc":"GB","city":"Paddington","state":"Greater London","country":"United Kingdom"},"categories":[{"id":"4bf58dd8d48988d16d941735","name":"Caf\u00e9","pluralName":"Caf\u00e9s","shortName":"Caf\u00e9","icon":{"prefix":"https:\/\/ss1.4sqi.net\/img\/categories_v2\/food\/cafe_","suffix":".png"},"primary":"true"}],"verified":"false","restricted":"true","stats":{"checkinsCount":"153","usersCount":"94","tipCount":"6"},"menu":{"type":"Menu","label":"Menu","anchor":"View Menu","url":"https:\/\/foursquare.com\/v\/alfies-rooftop-cafe--restaurant\/4c07b3c68a81c9b658972790\/menu","mobileUrl":"https:\/\/foursquare.com\/v\/4c07b3c68a81c9b658972790\/device_menu"},"specials":{"count":"0"},"hereNow":{"count":"2","groups":[{"type":"others","name":"Other people here","count":"2"}]},"referralId":"v-1392477986"},{"id":"4b891607f964a520021c32e3","name":"Alfies Antiques Market","location":{"address":"13- 25 Church Street","crossStreet":"Lisson Grove","lat":"51.52418203333334","lng":"-0.168667","distance":"61","postalCode":"NW8 8DT","cc":"GB","city":"Paddington","state":"Greater London","country":"United Kingdom"},"categories":[{"id":"4bf58dd8d48988d101951735","name":"Thrift \/ Vintage Store","pluralName":"Thrift \/ Vintage Stores","shortName":"Thrift \/ Vintage","icon":{"prefix":"https:\/\/ss1.4sqi.net\/img\/categories_v2\/shops\/default_","suffix":".png"},"primary":"true"}],"verified":"false","restricted":"true","stats":{"checkinsCount":"318","usersCount":"210","tipCount":"8"},"specials":{"count":"0"},"hereNow":{"count":"0"},"referralId":"v-1392477986"},{"id":"51de8a40498e284a306d3784","name":"Roof Top Kitchen","location":{"lat":"51.524145","lng":"-0.16863","distance":"59","cc":"GB","country":"United Kingdom"},"categories":[{"id":"4bf58dd8d48988d16d941735","name":"Caf\u00e9","pluralName":"Caf\u00e9s","shortName":"Caf\u00e9","icon":{"prefix":"https:\/\/ss1.4sqi.net\/img\/categories_v2\/food\/cafe_","suffix":".png"},"primary":"true"}],"verified":"false","restricted":"true","stats":{"checkinsCount":"28","usersCount":"5","tipCount":"0"},"specials":{"count":"0"},"hereNow":{"count":"0"},"referralId":"v-1392477986"},{"id":"51ceb66f498ea161ebea565c","name":"LaurenNicole Boutique","location":{"lat":"51.524408489020615","lng":"-0.16767593575687575","distance":"15","cc":"GB","country":"United Kingdom"},"categories":[{"id":"4bf58dd8d48988d104951735","name":"Boutique","pluralName":"Boutiques","shortName":"Boutique","icon":{"prefix":"https:\/\/ss1.4sqi.net\/img\/categories_v2\/shops\/apparel_boutique_","suffix":".png"},"primary":"true"}],"verified":"false","restricted":"true","stats":{"checkinsCount":"6","usersCount":"1","tipCount":"0"},"specials":{"count":"0"},"hereNow":{"count":"0"},"referralId":"v-1392477986"},{"id":"507c1942e4b047ff2d46a275","name":"Andrew Nebbett Designs","contact":{"phone":"+442077232303","formattedPhone":"+44 20 7723 2303"},"location":{"address":"36 Church St.","crossStreet":"at Lisson Grove","lat":"51.52441195344537","lng":"-0.16892882836925457","distance":"79","postalCode":"NW8 8ES","cc":"GB","city":"London","state":"Greater London","country":"United Kingdom"},"categories":[{"id":"4bf58dd8d48988d116951735","name":"Antique Shop","pluralName":"Antique Shops","shortName":"Antiques","icon":{"prefix":"https:\/\/ss1.4sqi.net\/img\/categories_v2\/shops\/antique_","suffix":".png"},"primary":"true"}],"verified":"false","restricted":"true","stats":{"checkinsCount":"31","usersCount":"4","tipCount":"0"},"url":"http:\/\/www.andrewnebbett.com","specials":{"count":"0"},"hereNow":{"count":"0"},"referralId":"v-1392477986"},{"id":"4ba87dfcf964a52030dd39e3","name":"TfL Bus 139","location":{"address":"Moving Target","lat":"51.524700377617286","lng":"-0.16689328400940587","distance":"77","cc":"GB","city":"London","state":"Greater London","country":"United Kingdom"},"categories":[{"id":"4bf58dd8d48988d12b951735","name":"Bus Line","pluralName":"Bus Lines","shortName":"Bus","icon":{"prefix":"https:\/\/ss1.4sqi.net\/img\/categories_v2\/travel\/busstation_","suffix":".png"},"primary":"true"}],"verified":"false","restricted":"true","stats":{"checkinsCount":"561","usersCount":"161","tipCount":"5"},"specials":{"count":"0"},"hereNow":{"count":"0"},"referralId":"v-1392477986"},{"id":"4ac518eaf964a520f1ab20e3","name":"The Cockpit","contact":{"phone":"+442072582925","formattedPhone":"+44 20 7258 2925","twitter":"cockpittheatre"},"location":{"address":"Gateforth St.","lat":"51.52457224123506","lng":"-0.16953974962234497","distance":"124","postalCode":"NW8 8EH","cc":"GB","city":"London","state":"Greater London","country":"United Kingdom"},"categories":[{"id":"4bf58dd8d48988d137941735","name":"Theater","pluralName":"Theaters","shortName":"Theater","icon":{"prefix":"https:\/\/ss1.4sqi.net\/img\/categories_v2\/arts_entertainment\/performingarts_theater_","suffix":".png"},"primary":"true"}],"verified":"true","restricted":"true","stats":{"checkinsCount":"322","usersCount":"209","tipCount":"2"},"url":"http:\/\/thecockpit.org.uk","specials":{"count":"0"},"hereNow":{"count":"0"},"venuePage":{"id":"34448054"},"storeId":"","referralId":"v-1392477986"},{"id":"4fbe2c6fe4b00ca0de9ea5eb","name":"Patrick Heide Gallery","location":{"address":"11 Church Streer","lat":"51.524259","lng":"-0.169024","distance":"84","postalCode":"NW8","cc":"GB","city":"London","state":"Greater London","country":"United Kingdom"},"categories":[{"id":"4bf58dd8d48988d1e2931735","name":"Art Gallery","pluralName":"Art Galleries","shortName":"Art Gallery","icon":{"prefix":"https:\/\/ss1.4sqi.net\/img\/categories_v2\/arts_entertainment\/artgallery_","suffix":".png"},"primary":"true"}],"verified":"false","restricted":"true","stats":{"checkinsCount":"38","usersCount":"3","tipCount":"0"},"specials":{"count":"0"},"hereNow":{"count":"0"},"referralId":"v-1392477986"},{"id":"52f61c29498e5fa6b2660242","name":"Lauren-Nicole Boutique London","contact":{"twitter":"laurenicoleldn"},"location":{"address":"13 Church Street","lat":"51.52435043688582","lng":"-0.168727594473115","distance":"64","postalCode":"NW8 8DT","cc":"GB","city":"London","state":"Greater London","country":"United Kingdom"},"categories":[{"id":"4bf58dd8d48988d101951735","name":"Thrift \/ Vintage Store","pluralName":"Thrift \/ Vintage Stores","shortName":"Thrift \/ Vintage","icon":{"prefix":"https:\/\/ss1.4sqi.net\/img\/categories_v2\/shops\/default_","suffix":".png"},"primary":"true"}],"verified":"false","restricted":"true","stats":{"checkinsCount":"2","usersCount":"1","tipCount":"0"},"specials":{"count":"0"},"hereNow":{"count":"0"},"referralId":"v-1392477986"},{"id":"4c4d9c6192b6a5938f598e6e","name":"Broadley studio","location":{"address":"48 Broadley Terrace","lat":"51.52401960161806","lng":"-0.16649927008562354","distance":"95","postalCode":"NW1 6LG","cc":"GB","city":"Paddington","state":"Greater London","country":"United Kingdom"},"categories":[{"id":"4bf58dd8d48988d130941735","name":"Building","pluralName":"Buildings","shortName":"Building","icon":{"prefix":"https:\/\/ss1.4sqi.net\/img\/categories_v2\/building\/default_","suffix":".png"},"primary":"true"}],"verified":"false","restricted":"true","stats":{"checkinsCount":"47","usersCount":"19","tipCount":"0"},"specials":{"count":"0"},"hereNow":{"count":"0"},"referralId":"v-1392477986"},{"id":"4b67441bf964a520c2442be3","name":"Lahore Restaurant","contact":{"phone":"+442077230808","formattedPhone":"+44 20 7723 0808"},"location":{"address":"2-4 Gateforth St.","lat":"51.52445772944413","lng":"-0.169113529902156","distance":"92","postalCode":"NW8 8EH","cc":"GB","city":"London","state":"Greater London","country":"United Kingdom"},"categories":[{"id":"4bf58dd8d48988d10f941735","name":"Indian Restaurant","pluralName":"Indian Restaurants","shortName":"Indian","icon":{"prefix":"https:\/\/ss1.4sqi.net\/img\/categories_v2\/food\/indian_","suffix":".png"},"primary":"true"}],"verified":"false","restricted":"true","stats":{"checkinsCount":"298","usersCount":"156","tipCount":"5"},"reservations":{"url":"http:\/\/www.toptable.co.uk\/single.aspx?rid=97323&ref=9601"},"menu":{"type":"Menu","label":"Menu","anchor":"View Menu","url":"https:\/\/foursquare.com\/v\/lahore-restaurant\/4b67441bf964a520c2442be3\/menu","mobileUrl":"https:\/\/foursquare.com\/v\/4b67441bf964a520c2442be3\/device_menu"},"specials":{"count":"0"},"hereNow":{"count":"0"},"referralId":"v-1392477986"},{"id":"4c719b6dad69b60cf07581b9","name":"Number One Shisha & Net Cafe - London","contact":{"phone":"+442072583346","formattedPhone":"+44 20 7258 3346"},"location":{"address":"1 Church street","crossStreet":"Lisson Grove","lat":"51.52457224123506","lng":"-0.16835689544677734","distance":"49","postalCode":"NW8 8EE","cc":"GB","city":"City of Westminster","state":"Greater London","country":"United Kingdom"},"categories":[{"id":"4bf58dd8d48988d119941735","name":"Hookah Bar","pluralName":"Hookah Bars","shortName":"Hookah Bar","icon":{"prefix":"https:\/\/ss1.4sqi.net\/img\/categories_v2\/nightlife\/hookahbar_","suffix":".png"},"primary":"true"}],"verified":"true","restricted":"true","stats":{"checkinsCount":"110","usersCount":"58","tipCount":"3"},"url":"http:\/\/www.loveshisha.com","specials":{"count":"0"},"hereNow":{"count":"0"},"venuePage":{"id":"38742777"},"storeId":"","referralId":"v-1392477986"},{"id":"4ac518f4f964a520ffae20e3","name":"The Girl Can't Help It","contact":{"phone":"+442077248984","formattedPhone":"+44 20 7724 8984"},"location":{"address":"13-25 Church St","crossStreet":"at Alfie's Antique Market","lat":"51.52403154229695","lng":"-0.16889333724975583","distance":"80","postalCode":"NW8 8DT","cc":"GB","city":"London","state":"Greater London","country":"United Kingdom"},"categories":[{"id":"4bf58dd8d48988d103951735","name":"Clothing Store","pluralName":"Clothing Stores","shortName":"Apparel","icon":{"prefix":"https:\/\/ss1.4sqi.net\/img\/categories_v2\/shops\/apparel_","suffix":".png"},"primary":"true"}],"verified":"false","restricted":"true","stats":{"checkinsCount":"4","usersCount":"2","tipCount":"0"},"url":"http:\/\/www.thegirlcanthelpit.com","specials":{"count":"0"},"hereNow":{"count":"0"},"referralId":"v-1392477986"},{"id":"507c1865e4b047ff2d461920","name":"James Worrall","contact":{"phone":"+442075637181","formattedPhone":"+44 20 7563 7181"},"location":{"address":"2 Church St.","crossStreet":"at Lisson Grove","lat":"51.524509490238835","lng":"-0.16904584087276917","distance":"89","postalCode":"NW8 8ED","cc":"GB","city":"London","state":"Greater London","country":"United Kingdom"},"categories":[{"id":"4bf58dd8d48988d116951735","name":"Antique Shop","pluralName":"Antique Shops","shortName":"Antiques","icon":{"prefix":"https:\/\/ss1.4sqi.net\/img\/categories_v2\/shops\/antique_","suffix":".png"},"primary":"true"}],"verified":"false","restricted":"true","stats":{"checkinsCount":"13","usersCount":"3","tipCount":"0"},"url":"http:\/\/www.jamesworrall.com","specials":{"count":"0"},"hereNow":{"count":"0"},"referralId":"v-1392477986"},{"id":"4be6a1942468c928c98a0143","name":"The Perseverance","contact":{"phone":"+442077230224","formattedPhone":"+44 20 7723 0224"},"location":{"address":"11 Shroton Street","lat":"51.52244873966453","lng":"-0.16644565276762846","distance":"225","postalCode":"NW1 6UG","cc":"GB","country":"United Kingdom"},"categories":[{"id":"4bf58dd8d48988d11b941735","name":"Pub","pluralName":"Pubs","shortName":"Pub","icon":{"prefix":"https:\/\/ss1.4sqi.net\/img\/categories_v2\/nightlife\/pub_","suffix":".png"},"primary":"true"}],"verified":"false","restricted":"true","stats":{"checkinsCount":"159","usersCount":"109","tipCount":"6"},"url":"http:\/\/www.perseverancepub.co.uk","specials":{"count":"0"},"hereNow":{"count":"0"},"referralId":"v-1392477986"},{"id":"52304d8c11d2eb4747fc301c","name":"Plympton Street","location":{"lat":"51.524306","lng":"-0.168454","distance":"45","cc":"GB","country":"United Kingdom"},"categories":[{"id":"4bf58dd8d48988d174941735","name":"Coworking Space","pluralName":"Coworking Spaces","shortName":"Coworking Space","icon":{"prefix":"https:\/\/ss1.4sqi.net\/img\/categories_v2\/building\/office_coworkingspace_","suffix":".png"},"primary":"true"}],"verified":"false","restricted":"true","stats":{"checkinsCount":"9","usersCount":"1","tipCount":"0"},"specials":{"count":"0"},"hereNow":{"count":"0"},"referralId":"v-1392477986"},{"id":"502659afe88907e1c561ee14","name":"TfL Barclays Cycle Hire","location":{"address":"Mallory Street","crossStreet":"Tresham Crescent","lat":"51.52499945560858","lng":"-0.1664257049560547","distance":"123","cc":"GB","city":"London","state":"Greater London","country":"United Kingdom"},"categories":[{"id":"4e4c9077bd41f78e849722f9","name":"Bike Rental \/ Bike Share","pluralName":"Bike Rentals \/ Bike Shares","shortName":"Bike","icon":{"prefix":"https:\/\/ss1.4sqi.net\/img\/categories_v2\/shops\/bikeshop_","suffix":".png"},"primary":"true"}],"verified":"false","restricted":"true","stats":{"checkinsCount":"31","usersCount":"4","tipCount":"0"},"specials":{"count":"0"},"hereNow":{"count":"0"},"referralId":"v-1392477986"},{"id":"4d6510ec3384a09380e4a23c","name":"Cali Cafe","contact":{"phone":"+442072625944","formattedPhone":"+44 20 7262 5944"},"location":{"address":"39 Church St.","lat":"51.523814","lng":"-0.169883","distance":"153","cc":"GB","city":"Marylebone","state":"Greater London","country":"United Kingdom"},"categories":[{"id":"4bf58dd8d48988d16d941735","name":"Caf\u00e9","pluralName":"Caf\u00e9s","shortName":"Caf\u00e9","icon":{"prefix":"https:\/\/ss1.4sqi.net\/img\/categories_v2\/food\/cafe_","suffix":".png"},"primary":"true"}],"verified":"false","restricted":"true","stats":{"checkinsCount":"54","usersCount":"10","tipCount":"0"},"specials":{"count":"0"},"hereNow":{"count":"0"},"referralId":"v-1392477986"},{"id":"507c18c3498ec6be8f12522a","name":"Marchand","location":{"address":"40 Church Street","lat":"51.52454017013762","lng":"-0.16893588316420524","distance":"83","postalCode":"NW8 8EP","cc":"GB","country":"United Kingdom"},"categories":[{"id":"4bf58dd8d48988d116951735","name":"Antique Shop","pluralName":"Antique Shops","shortName":"Antiques","icon":{"prefix":"https:\/\/ss1.4sqi.net\/img\/categories_v2\/shops\/antique_","suffix":".png"},"primary":"true"}],"verified":"false","restricted":"true","stats":{"checkinsCount":"15","usersCount":"4","tipCount":"0"},"specials":{"count":"0"},"hereNow":{"count":"0"},"referralId":"v-1392477986"},{"id":"512b4a96e4b017346b69927a","name":"red bus studios","location":{"address":"34 Salisbury St","lat":"51.525165506181736","lng":"-0.17026014303375772","distance":"196","postalCode":"nw8","cc":"GB","city":"London","state":"Greater London","country":"United Kingdom"},"categories":[{"id":"4bf58dd8d48988d1e5931735","name":"Music Venue","pluralName":"Music Venues","shortName":"Music Venue","icon":{"prefix":"https:\/\/ss1.4sqi.net\/img\/categories_v2\/arts_entertainment\/musicvenue_","suffix":".png"},"primary":"true"}],"verified":"false","restricted":"true","stats":{"checkinsCount":"5","usersCount":"3","tipCount":"0"},"specials":{"count":"0"},"hereNow":{"count":"0"},"referralId":"v-1392477986"},{"id":"51d79e2c454affb1a0916f89","name":"Wig Specialities","contact":{"phone":"+442077240020","formattedPhone":"+44 20 7724 0020","twitter":"wigspecialities"},"location":{"address":"77 Ashmill Street","lat":"51.52241608253253","lng":"-0.1679706573486328","distance":"208","postalCode":"NW16RA","cc":"GB","city":"London","state":"Greater London","country":"United Kingdom"},"categories":[{"id":"4bf58dd8d48988d1ff941735","name":"Miscellaneous Shop","pluralName":"Miscellaneous Shops","shortName":"Shop","icon":{"prefix":"https:\/\/ss1.4sqi.net\/img\/categories_v2\/shops\/default_","suffix":".png"},"primary":"true"}],"verified":"false","restricted":"true","stats":{"checkinsCount":"31","usersCount":"2","tipCount":"1"},"specials":{"count":"0"},"hereNow":{"count":"0"},"referralId":"v-1392477986"},{"id":"5083a33ce4b07ddb61f1d1c3","name":"Rendez Vous di San Donnino","location":{"lat":"51.523807820045405","lng":"-0.16767232689322073","distance":"54","cc":"GB","country":"United Kingdom"},"categories":[{"id":"4bf58dd8d48988d1c4941735","name":"Restaurant","pluralName":"Restaurants","shortName":"Restaurant","icon":{"prefix":"https:\/\/ss1.4sqi.net\/img\/categories_v2\/food\/default_","suffix":".png"},"primary":"true"}],"verified":"false","restricted":"true","stats":{"checkinsCount":"2","usersCount":"2","tipCount":"0"},"specials":{"count":"0"},"hereNow":{"count":"0"},"referralId":"v-1392477986"},{"id":"4e74a41e8998ed82a414cb10","name":"Hopkins Architects","location":{"address":"27 Broadley Tr","crossStreet":"at Harewood Av","lat":"51.524296874431464","lng":"-0.16613444309315414","distance":"115","cc":"GB","city":"City of Westminster","state":"Greater London","country":"United Kingdom"},"categories":[{"id":"4bf58dd8d48988d124941735","name":"Office","pluralName":"Offices","shortName":"Office","icon":{"prefix":"https:\/\/ss1.4sqi.net\/img\/categories_v2\/building\/default_","suffix":".png"},"primary":"true"}],"verified":"false","restricted":"true","stats":{"checkinsCount":"10","usersCount":"3","tipCount":"0"},"specials":{"count":"0"},"hereNow":{"count":"0"},"referralId":"v-1392477986"},{"id":"4da2ad997ccc816e45ed6c7b","name":"Lisson Green Health Centre","location":{"address":"Gateforth street","crossStreet":"Church street","lat":"51.52508752405181","lng":"-0.16998592114252664","distance":"175","postalCode":"W2","cc":"GB","city":"London","state":"Greater London","country":"United Kingdom"},"categories":[{"id":"4bf58dd8d48988d177941735","name":"Doctor's Office","pluralName":"Doctor's Offices","shortName":"Doctor's Office","icon":{"prefix":"https:\/\/ss1.4sqi.net\/img\/categories_v2\/building\/medical_doctorsoffice_","suffix":".png"},"primary":"true"}],"verified":"false","restricted":"true","stats":{"checkinsCount":"64","usersCount":"15","tipCount":"0"},"specials":{"count":"0"},"hereNow":{"count":"0"},"referralId":"v-1392477986"},{"id":"4f119468e4b0958ec1510269","name":"Stringers","location":{"lat":"51.5236995734984","lng":"-0.1672014097225002","distance":"77","cc":"GB","city":"London","state":"Greater London","country":"United Kingdom"},"categories":[{"id":"4bf58dd8d48988d1fe941735","name":"Music Store","pluralName":"Music Stores","shortName":"Music Store","icon":{"prefix":"https:\/\/ss1.4sqi.net\/img\/categories_v2\/shops\/music_instruments_","suffix":".png"},"primary":"true"}],"verified":"false","restricted":"true","stats":{"checkinsCount":"13","usersCount":"9","tipCount":"0"},"specials":{"count":"0"},"hereNow":{"count":"0"},"referralId":"v-1392477986"},{"id":"4cd425ec2561a35dcd4835dd","name":"Nina's Hair Parlour","location":{"address":"Alfie's Antiques Market","lat":"51.5243247671844","lng":"-0.16885992698662333","distance":"73","cc":"GB","city":"Paddington","state":"Greater London","country":"United Kingdom"},"categories":[{"id":"4bf58dd8d48988d10c951735","name":"Cosmetics Shop","pluralName":"Cosmetics Shops","shortName":"Cosmetics","icon":{"prefix":"https:\/\/ss1.4sqi.net\/img\/categories_v2\/shops\/beauty_cosmetic_","suffix":".png"},"primary":"true"}],"verified":"false","restricted":"true","stats":{"checkinsCount":"21","usersCount":"8","tipCount":"0"},"specials":{"count":"0"},"hereNow":{"count":"0"},"referralId":"v-1392477986"},{"id":"4cd9740e7bb06dcbfa41a8b2","name":"Soundlounge","location":{"lat":"51.52391128357133","lng":"-0.16706382722407076","distance":"66","cc":"GB","country":"United Kingdom"},"categories":[{"id":"4bf58dd8d48988d124941735","name":"Office","pluralName":"Offices","shortName":"Office","icon":{"prefix":"https:\/\/ss1.4sqi.net\/img\/categories_v2\/building\/default_","suffix":".png"},"primary":"true"}],"verified":"false","restricted":"true","stats":{"checkinsCount":"10","usersCount":"3","tipCount":"0"},"specials":{"count":"0"},"hereNow":{"count":"0"},"referralId":"v-1392477986"},{"id":"4df00adf227193bb4669857a","name":"Baan Noi Koy Rak","location":{"lat":"51.524783","lng":"-0.167219","distance":"68","cc":"GB","country":"United Kingdom"},"verified":"false","restricted":"true","stats":{"checkinsCount":"1","usersCount":"1","tipCount":"0"},"specials":{"count":"0"},"hereNow":{"count":"0"},"referralId":"v-1392477986"},{"id":"4e578a817d8bf55c17290d28","name":"French Radio London","location":{"lat":"51.523715","lng":"-0.168217","distance":"70","cc":"GB","city":"London","state":"Greater London","country":"United Kingdom"},"categories":[{"id":"4bf58dd8d48988d124941735","name":"Office","pluralName":"Offices","shortName":"Office","icon":{"prefix":"https:\/\/ss1.4sqi.net\/img\/categories_v2\/building\/default_","suffix":".png"},"primary":"true"}],"verified":"false","restricted":"true","stats":{"checkinsCount":"1","usersCount":"1","tipCount":"0"},"specials":{"count":"0"},"hereNow":{"count":"0"},"referralId":"v-1392477986"},{"id":"5059f468e4b0f81bab9b10ec","name":"Gateway School Dojo","location":{"lat":"51.524381009437136","lng":"-0.1689406693335197","distance":"79","cc":"GB","country":"United Kingdom"},"categories":[{"id":"4bf58dd8d48988d13b941735","name":"School","pluralName":"Schools","shortName":"School","icon":{"prefix":"https:\/\/ss1.4sqi.net\/img\/categories_v2\/building\/school_","suffix":".png"},"primary":"true"}],"verified":"false","restricted":"true","stats":{"checkinsCount":"18","usersCount":"2","tipCount":"0"},"specials":{"count":"0"},"hereNow":{"count":"0"},"referralId":"v-1392477986"}],"confident":"true"}}