{"meta":{"code":"200"},"response":{"venues":[{"id":"4ac518e8f964a52077ab20e3","name":"Sadler's Wells","contact":{"phone":"+448444124300","formattedPhone":"+44 844 412 4300","twitter":"sadlers_wells"},"location":{"address":"Rosebery Ave.","lat":"51.52913144426899","lng":"-0.10631751449078494","distance":"104","postalCode":"EC1R 4TN","cc":"GB","city":"London","state":"Greater London","country":"United Kingdom"},"categories":[{"id":"4bf58dd8d48988d137941735","name":"Theater","pluralName":"Theaters","shortName":"Theater","icon":{"prefix":"https:\/\/ss1.4sqi.net\/img\/categories_v2\/arts_entertainment\/performingarts_theater_","suffix":".png"},"primary":"true"}],"verified":"true","restricted":"true","stats":{"checkinsCount":"5169","usersCount":"2540","tipCount":"36"},"url":"http:\/\/www.sadlerswells.com","menu":{"type":"Menu","label":"Menu","anchor":"View Menu","url":"https:\/\/foursquare.com\/v\/sadlers-wells\/4ac518e8f964a52077ab20e3\/menu","mobileUrl":"https:\/\/foursquare.com\/v\/4ac518e8f964a52077ab20e3\/device_menu"},"specials":{"count":"0"},"hereNow":{"count":"0"},"referralId":"v-1392477979"},{"id":"4afff888f964a520623a22e3","name":"Virgin Active","contact":{"phone":"+442071309222","formattedPhone":"+44 20 7130 9222"},"location":{"address":"333 Goswell Rd.","lat":"51.53126703068856","lng":"-0.1051640510559082","distance":"286","postalCode":"EC1V 7DG","cc":"GB","city":"Islington","state":"Greater London","country":"United Kingdom"},"categories":[{"id":"4bf58dd8d48988d176941735","name":"Gym","pluralName":"Gyms","shortName":"Gym","icon":{"prefix":"https:\/\/ss1.4sqi.net\/img\/categories_v2\/building\/gym_","suffix":".png"},"primary":"true"}],"verified":"false","restricted":"true","stats":{"checkinsCount":"6579","usersCount":"613","tipCount":"23"},"specials":{"count":"0"},"hereNow":{"count":"2","groups":[{"type":"others","name":"Other people here","count":"2"}]},"referralId":"v-1392477979"},{"id":"4ada41e3f964a5209a2021e3","name":"The Shakespeare's Head","contact":{"phone":"+442078372581","formattedPhone":"+44 20 7837 2581"},"location":{"address":"1 Arlington Way","crossStreet":"Finsbury","lat":"51.52952143093119","lng":"-0.1066504210376796","distance":"83","postalCode":"EC1R 1XA","cc":"GB","city":"London","state":"Greater London","country":"United Kingdom"},"categories":[{"id":"4bf58dd8d48988d11b941735","name":"Pub","pluralName":"Pubs","shortName":"Pub","icon":{"prefix":"https:\/\/ss1.4sqi.net\/img\/categories_v2\/nightlife\/pub_","suffix":".png"},"primary":"true"}],"verified":"false","restricted":"true","stats":{"checkinsCount":"296","usersCount":"108","tipCount":"3"},"specials":{"count":"0"},"hereNow":{"count":"0"},"referralId":"v-1392477979"},{"id":"4eae64109adf5c72deb1eb24","name":"Expedia","contact":{"phone":"+442070912328","formattedPhone":"+44 20 7091 2328"},"location":{"address":"407 St John's St.","crossStreet":"at The Angel Building","lat":"51.53144056149285","lng":"-0.10681629180908203","distance":"249","postalCode":"EC1V 4EX","cc":"GB","city":"London","state":"Greater London","country":"United Kingdom"},"categories":[{"id":"4bf58dd8d48988d124941735","name":"Office","pluralName":"Offices","shortName":"Office","icon":{"prefix":"https:\/\/ss1.4sqi.net\/img\/categories_v2\/building\/default_","suffix":".png"},"primary":"true"}],"verified":"false","restricted":"true","stats":{"checkinsCount":"3580","usersCount":"355","tipCount":"2"},"specials":{"count":"0"},"hereNow":{"count":"0"},"referralId":"v-1392477979"},{"id":"4cb5ee61f6616dcbfe42db08","name":"The Harlequin Pub","contact":{"phone":"+447975652669","formattedPhone":"+44 7975 652669","twitter":"harlequin1848"},"location":{"address":"27 Arlington Way","crossStreet":"near St John St.","lat":"51.52991710533004","lng":"-0.10632035079814943","distance":"124","postalCode":"EC1R 1UY","cc":"GB","city":"Islington","state":"Greater London","country":"United Kingdom"},"categories":[{"id":"4bf58dd8d48988d11b941735","name":"Pub","pluralName":"Pubs","shortName":"Pub","icon":{"prefix":"https:\/\/ss1.4sqi.net\/img\/categories_v2\/nightlife\/pub_","suffix":".png"},"primary":"true"}],"verified":"true","restricted":"true","stats":{"checkinsCount":"535","usersCount":"272","tipCount":"6"},"url":"http:\/\/harlequinpub.co.uk","specials":{"count":"0"},"hereNow":{"count":"0"},"referralId":"v-1392477979"},{"id":"4bd6e9305631c9b6fa8ca630","name":"Myddelton Square","location":{"lat":"51.53020869669675","lng":"-0.10795429485307699","distance":"102","cc":"GB","city":"Islington","state":"Greater London","country":"United Kingdom"},"categories":[{"id":"4bf58dd8d48988d162941735","name":"Other Great Outdoors","pluralName":"Other Great Outdoors","shortName":"Other Outdoors","icon":{"prefix":"https:\/\/ss1.4sqi.net\/img\/categories_v2\/parks_outdoors\/outdoors_","suffix":".png"},"primary":"true"}],"verified":"false","restricted":"true","stats":{"checkinsCount":"452","usersCount":"117","tipCount":"2"},"specials":{"count":"0"},"hereNow":{"count":"0"},"referralId":"v-1392477979"},{"id":"4be6edc6910020a1c1c5d414","name":"TfL Bus 205","location":{"address":"Moving Target!","lat":"51.53178762111703","lng":"-0.10698795318603516","distance":"283","cc":"GB","city":"London","state":"Greater London","country":"United Kingdom"},"categories":[{"id":"4bf58dd8d48988d12b951735","name":"Bus Line","pluralName":"Bus Lines","shortName":"Bus","icon":{"prefix":"https:\/\/ss1.4sqi.net\/img\/categories_v2\/travel\/busstation_","suffix":".png"},"primary":"true"}],"verified":"false","restricted":"true","stats":{"checkinsCount":"1139","usersCount":"341","tipCount":"5"},"specials":{"count":"0"},"hereNow":{"count":"0"},"referralId":"v-1392477979"},{"id":"4e4a8f781850545dfc02c96b","name":"New River Head","location":{"address":"173 Rosebery Ave.","lat":"51.52835695403294","lng":"-0.10713815689086914","distance":"113","postalCode":"EC1R 4TT","cc":"GB","city":"Clerkenwell","state":"Greater London","country":"United Kingdom"},"categories":[{"id":"4bf58dd8d48988d12d941735","name":"Monument \/ Landmark","pluralName":"Monuments \/ Landmarks","shortName":"Landmark","icon":{"prefix":"https:\/\/ss1.4sqi.net\/img\/categories_v2\/building\/government_monument_","suffix":".png"},"primary":"true"}],"verified":"false","restricted":"true","stats":{"checkinsCount":"30","usersCount":"10","tipCount":"0"},"specials":{"count":"0"},"hereNow":{"count":"0"},"referralId":"v-1392477979"},{"id":"4e53f46cb0fb6cfefec85d75","name":"Jamie's Italian","contact":{"phone":"+442034359915","formattedPhone":"+44 20 3435 9915","twitter":"jamieoliver"},"location":{"address":"409-411 St John St","lat":"51.53155","lng":"-0.106296","distance":"272","postalCode":"EC1V 4AB","cc":"GB","city":"Islington","state":"Greater London","country":"United Kingdom"},"categories":[{"id":"4bf58dd8d48988d110941735","name":"Italian Restaurant","pluralName":"Italian Restaurants","shortName":"Italian","icon":{"prefix":"https:\/\/ss1.4sqi.net\/img\/categories_v2\/food\/italian_","suffix":".png"},"primary":"true"}],"verified":"true","restricted":"true","stats":{"checkinsCount":"2284","usersCount":"1659","tipCount":"60"},"url":"http:\/\/www.jamieoliver.com","specials":{"count":"0"},"hereNow":{"count":"0"},"storeId":"","referralId":"v-1392477979"},{"id":"4f228c57e4b04f6e672b13a8","name":"The Hummingbird Bakery","contact":{"phone":"+442078511795","formattedPhone":"+44 20 7851 1795"},"location":{"address":"405 The Angel Building","crossStreet":"St John St","lat":"51.53132910919032","lng":"-0.10620462690314836","distance":"252","postalCode":"EC1V 4AB","cc":"GB","city":"Islington","state":"Greater London","country":"United Kingdom"},"categories":[{"id":"4bf58dd8d48988d1bc941735","name":"Cupcake Shop","pluralName":"Cupcake Shops","shortName":"Cupcakes","icon":{"prefix":"https:\/\/ss1.4sqi.net\/img\/categories_v2\/food\/cupcakes_","suffix":".png"},"primary":"true"}],"verified":"false","restricted":"true","stats":{"checkinsCount":"523","usersCount":"387","tipCount":"9"},"url":"http:\/\/hummingbirdbakery.com","specials":{"count":"0"},"hereNow":{"count":"0"},"referralId":"v-1392477979"},{"id":"4f869499e4b02b999b92c5b1","name":"Hotels.com","contact":{"phone":"+442070192502","formattedPhone":"+44 20 7019 2502"},"location":{"address":"407 St John St.","crossStreet":"Angel Building","lat":"51.531374783919446","lng":"-0.10683083344562809","distance":"241","postalCode":"EC1V 4EX","cc":"GB","city":"Angel","state":"Greater London","country":"United Kingdom"},"categories":[{"id":"4bf58dd8d48988d174941735","name":"Coworking Space","pluralName":"Coworking Spaces","shortName":"Coworking Space","icon":{"prefix":"https:\/\/ss1.4sqi.net\/img\/categories_v2\/building\/office_coworkingspace_","suffix":".png"},"primary":"true"}],"verified":"true","restricted":"true","stats":{"checkinsCount":"1690","usersCount":"81","tipCount":"1"},"specials":{"count":"0"},"hereNow":{"count":"0"},"venuePage":{"id":"73658052"},"referralId":"v-1392477979"},{"id":"4ad61f64f964a520300521e3","name":"Banana Tree Canteen","contact":{"phone":"+442072787565","formattedPhone":"+44 20 7278 7565"},"location":{"address":"412 St John St","lat":"51.531276","lng":"-0.1062206","distance":"246","postalCode":"EC1V 4NJ","cc":"GB","city":"London","state":"Greater London","country":"United Kingdom"},"categories":[{"id":"4bf58dd8d48988d142941735","name":"Asian Restaurant","pluralName":"Asian Restaurants","shortName":"Asian","icon":{"prefix":"https:\/\/ss1.4sqi.net\/img\/categories_v2\/food\/asian_","suffix":".png"},"primary":"true"}],"verified":"false","restricted":"true","stats":{"checkinsCount":"1150","usersCount":"757","tipCount":"28"},"menu":{"type":"Menu","label":"Menu","anchor":"View Menu","url":"https:\/\/foursquare.com\/v\/banana-tree-canteen\/4ad61f64f964a520300521e3\/menu","mobileUrl":"https:\/\/foursquare.com\/v\/4ad61f64f964a520300521e3\/device_menu"},"specials":{"count":"0"},"hereNow":{"count":"0"},"referralId":"v-1392477979"},{"id":"4bde0a480ee3a5936bb92fb0","name":"TfL Bus 73","contact":{"phone":"+443432221234","formattedPhone":"+44 343 222 1234","twitter":"tflbusalerts"},"location":{"address":"Moving Target!","lat":"51.531905561693016","lng":"-0.10882311357198049","distance":"299","cc":"GB","city":"London","state":"Greater London","country":"United Kingdom"},"categories":[{"id":"4bf58dd8d48988d12b951735","name":"Bus Line","pluralName":"Bus Lines","shortName":"Bus","icon":{"prefix":"https:\/\/ss1.4sqi.net\/img\/categories_v2\/travel\/busstation_","suffix":".png"},"primary":"true"}],"verified":"false","restricted":"true","stats":{"checkinsCount":"1877","usersCount":"534","tipCount":"5"},"url":"http:\/\/tfl.gov.uk","specials":{"count":"0"},"hereNow":{"count":"0"},"referralId":"v-1392477979"},{"id":"4fd49471e4b07b0662bb680a","name":"The Gate","contact":{"phone":"+442072785483","formattedPhone":"+44 20 7278 5483"},"location":{"address":"370 St John St.","lat":"51.530146","lng":"-0.10525","distance":"200","postalCode":"EC1V 4NN","cc":"GB","city":"Islington","state":"Greater London","country":"United Kingdom"},"categories":[{"id":"4bf58dd8d48988d1d3941735","name":"Vegetarian \/ Vegan Restaurant","pluralName":"Vegetarian \/ Vegan Restaurants","shortName":"Vegetarian \/ Vegan","icon":{"prefix":"https:\/\/ss1.4sqi.net\/img\/categories_v2\/food\/vegetarian_","suffix":".png"},"primary":"true"}],"verified":"false","restricted":"true","stats":{"checkinsCount":"474","usersCount":"389","tipCount":"21"},"url":"http:\/\/thegaterestaurants.com\/islington","specials":{"count":"0"},"hereNow":{"count":"0"},"storeId":"","referralId":"v-1392477979"},{"id":"4ac518e8f964a52098ab20e3","name":"Old Red Lion Pub and Theatre","contact":{"twitter":"orltheatre"},"location":{"address":"418 St John St.","crossStreet":"at Pentonville Rd.","lat":"51.53142668034398","lng":"-0.10622824602420604","distance":"261","postalCode":"EC1V 4NJ","cc":"GB","city":"Islington","state":"Greater London","country":"United Kingdom"},"categories":[{"id":"4bf58dd8d48988d137941735","name":"Theater","pluralName":"Theaters","shortName":"Theater","icon":{"prefix":"https:\/\/ss1.4sqi.net\/img\/categories_v2\/arts_entertainment\/performingarts_theater_","suffix":".png"},"primary":"true"}],"verified":"false","restricted":"true","stats":{"checkinsCount":"1030","usersCount":"661","tipCount":"10"},"url":"http:\/\/www.oldredliontheatre.co.uk\/old-red-lion-pub.htm","specials":{"count":"0"},"hereNow":{"count":"0"},"referralId":"v-1392477979"},{"id":"4fd1b9dfe4b0d4fb73fb47a3","name":"R\/GA London New","location":{"address":"151 Rosebery Avenue","crossStreet":"Tysoe Street","lat":"51.52717935164948","lng":"-0.10792779173082653","distance":"235","postalCode":"EC1R 4AB","cc":"GB","city":"London","state":"Greater London","country":"United Kingdom"},"categories":[{"id":"4bf58dd8d48988d174941735","name":"Coworking Space","pluralName":"Coworking Spaces","shortName":"Coworking Space","icon":{"prefix":"https:\/\/ss1.4sqi.net\/img\/categories_v2\/building\/office_coworkingspace_","suffix":".png"},"primary":"true"}],"verified":"false","restricted":"true","stats":{"checkinsCount":"976","usersCount":"110","tipCount":"2"},"specials":{"count":"0"},"hereNow":{"count":"0"},"referralId":"v-1392477979"},{"id":"4f046ac929c2b9a3edffef0d","name":"Ground Control","contact":{"phone":"+442075021201","formattedPhone":"+44 20 7502 1201"},"location":{"address":"61 Amwell St.","lat":"51.529867","lng":"-0.110399","distance":"190","postalCode":"EC1R 1UR","cc":"GB","city":"London","state":"Greater London","country":"United Kingdom"},"categories":[{"id":"4bf58dd8d48988d16d941735","name":"Caf\u00e9","pluralName":"Caf\u00e9s","shortName":"Caf\u00e9","icon":{"prefix":"https:\/\/ss1.4sqi.net\/img\/categories_v2\/food\/cafe_","suffix":".png"},"primary":"true"}],"verified":"false","restricted":"true","stats":{"checkinsCount":"399","usersCount":"108","tipCount":"9"},"url":"http:\/\/www.theethiopiancoffeecompany.co.uk","specials":{"count":"0"},"hereNow":{"count":"0"},"referralId":"v-1392477979"},{"id":"4cea31a6d99f721e5239ba73","name":"The Angel Building","location":{"address":"407 St John's St.","lat":"51.53146728849164","lng":"-0.10674532738376175","distance":"253","postalCode":"EC1V 4PL","cc":"GB","city":"London","state":"Greater London","country":"United Kingdom"},"categories":[{"id":"4bf58dd8d48988d124941735","name":"Office","pluralName":"Offices","shortName":"Office","icon":{"prefix":"https:\/\/ss1.4sqi.net\/img\/categories_v2\/building\/default_","suffix":".png"},"primary":"true"}],"verified":"false","restricted":"true","stats":{"checkinsCount":"1607","usersCount":"342","tipCount":"3"},"specials":{"count":"0"},"hereNow":{"count":"0"},"referralId":"v-1392477979"},{"id":"4f4cff3ee4b027c8729fd37c","name":"The Blacksmith & The Toffeemaker","contact":{"twitter":"blacksmithpub"},"location":{"address":"292 - 294 St John Steet","lat":"51.528039544612","lng":"-0.10464675969261303","distance":"259","postalCode":"4PA","cc":"GB","city":"London","country":"United Kingdom"},"categories":[{"id":"4bf58dd8d48988d11b941735","name":"Pub","pluralName":"Pubs","shortName":"Pub","icon":{"prefix":"https:\/\/ss1.4sqi.net\/img\/categories_v2\/nightlife\/pub_","suffix":".png"},"primary":"true"}],"verified":"false","restricted":"true","stats":{"checkinsCount":"705","usersCount":"461","tipCount":"8"},"url":"http:\/\/www.theblacksmithandthetoffeemaker.co.uk","menu":{"type":"Menu","label":"Menu","anchor":"View Menu","url":"https:\/\/foursquare.com\/v\/the-blacksmith--the-toffeemaker\/4f4cff3ee4b027c8729fd37c\/menu","mobileUrl":"https:\/\/foursquare.com\/v\/4f4cff3ee4b027c8729fd37c\/device_menu"},"specials":{"count":"0"},"hereNow":{"count":"0"},"referralId":"v-1392477979"},{"id":"4fae2df0e4b08885ff3103af","name":"Pret A Manger","location":{"address":"St John St","lat":"51.53083120959225","lng":"-0.1061082792232828","distance":"207","postalCode":"EC1V","cc":"GB","city":"Islington","state":"Greater London","country":"United Kingdom"},"categories":[{"id":"4bf58dd8d48988d1c5941735","name":"Sandwich Place","pluralName":"Sandwich Places","shortName":"Sandwiches","icon":{"prefix":"https:\/\/ss1.4sqi.net\/img\/categories_v2\/food\/sandwiches_","suffix":".png"},"primary":"true"}],"verified":"false","restricted":"true","stats":{"checkinsCount":"297","usersCount":"128","tipCount":"4"},"specials":{"count":"0"},"hereNow":{"count":"0"},"referralId":"v-1392477979"},{"id":"516c166ce4b0489a98379353","name":"Ticketmaster UK","contact":{"twitter":"ticketmasteruk"},"location":{"address":"4 Pentonville Road","lat":"51.531894408161406","lng":"-0.1072561740875244","distance":"292","postalCode":"N1 9HF","cc":"GB","city":"London","state":"Greater London","country":"United Kingdom"},"categories":[{"id":"4bf58dd8d48988d124941735","name":"Office","pluralName":"Offices","shortName":"Office","icon":{"prefix":"https:\/\/ss1.4sqi.net\/img\/categories_v2\/building\/default_","suffix":".png"},"primary":"true"}],"verified":"false","restricted":"true","stats":{"checkinsCount":"174","usersCount":"33","tipCount":"0"},"specials":{"count":"0"},"hereNow":{"count":"1","groups":[{"type":"others","name":"Other people here","count":"1"}]},"referralId":"v-1392477979"},{"id":"52427c9e11d266b60f082d60","name":"Stone Zone 19","location":{"address":"43-53, Myddleton Square","lat":"51.530474711355744","lng":"-0.10851629176187973","distance":"140","postalCode":"Ec1r 1yd","cc":"GB","city":"London","state":"Greater London","country":"United Kingdom"},"categories":[{"id":"4d954b06a243a5684965b473","name":"Residential Building (Apartment \/ Condo)","pluralName":"Residential Buildings (Apartments \/ Condos)","shortName":"Residential","icon":{"prefix":"https:\/\/ss1.4sqi.net\/img\/categories_v2\/building\/apartment_","suffix":".png"},"primary":"true"}],"verified":"false","restricted":"true","stats":{"checkinsCount":"59","usersCount":"4","tipCount":"0"},"specials":{"count":"0"},"hereNow":{"count":"0"},"referralId":"v-1392477979"},{"id":"4ac518ebf964a5201bac20e3","name":"Lilian Baylis Studio","location":{"address":"Rosebury Avenue","lat":"51.52967095028809","lng":"-0.1061263291450561","distance":"123","postalCode":"EC1R 4TN","cc":"GB","city":"London","state":"Greater London","country":"United Kingdom"},"categories":[{"id":"4bf58dd8d48988d137941735","name":"Theater","pluralName":"Theaters","shortName":"Theater","icon":{"prefix":"https:\/\/ss1.4sqi.net\/img\/categories_v2\/arts_entertainment\/performingarts_theater_","suffix":".png"},"primary":"true"}],"verified":"false","restricted":"true","stats":{"checkinsCount":"193","usersCount":"101","tipCount":"6"},"specials":{"count":"0"},"hereNow":{"count":"0"},"referralId":"v-1392477979"},{"id":"511b6682e4b01dae7a55c6d9","name":"Saint Mark's Church","location":{"lat":"51.5298067549664","lng":"-0.10864607708434657","distance":"82","cc":"GB","country":"United Kingdom"},"categories":[{"id":"4bf58dd8d48988d132941735","name":"Church","pluralName":"Churches","shortName":"Church","icon":{"prefix":"https:\/\/ss1.4sqi.net\/img\/categories_v2\/building\/religious_church_","suffix":".png"},"primary":"true"}],"verified":"false","restricted":"true","stats":{"checkinsCount":"11","usersCount":"9","tipCount":"0"},"specials":{"count":"0"},"hereNow":{"count":"0"},"referralId":"v-1392477979"},{"id":"4b6de492f964a52077992ce3","name":"The Castle","contact":{"phone":"+442077131858","formattedPhone":"+44 20 7713 1858","twitter":"mylocalsagpub"},"location":{"address":"54 Pentonville Rd.","lat":"51.53185436304912","lng":"-0.10921955108642578","distance":"301","postalCode":"N1 9HF","cc":"GB","city":"Islington","state":"Greater London","country":"United Kingdom"},"categories":[{"id":"4bf58dd8d48988d11b941735","name":"Pub","pluralName":"Pubs","shortName":"Pub","icon":{"prefix":"https:\/\/ss1.4sqi.net\/img\/categories_v2\/nightlife\/pub_","suffix":".png"},"primary":"true"}],"verified":"true","restricted":"true","stats":{"checkinsCount":"1373","usersCount":"851","tipCount":"14"},"url":"http:\/\/www.geronimo-inns.co.uk\/thecastle","specials":{"count":"0"},"hereNow":{"count":"0"},"referralId":"v-1392477979"},{"id":"4b698660f964a520e0a52be3","name":"Shine Communications","location":{"address":"1Hardwick street","lat":"51.527509","lng":"-0.10903","distance":"215","cc":"GB","city":"Islington","state":"Greater London","country":"United Kingdom"},"categories":[{"id":"4bf58dd8d48988d124941735","name":"Office","pluralName":"Offices","shortName":"Office","icon":{"prefix":"https:\/\/ss1.4sqi.net\/img\/categories_v2\/building\/default_","suffix":".png"},"primary":"true"}],"verified":"false","restricted":"true","stats":{"checkinsCount":"787","usersCount":"47","tipCount":"3"},"specials":{"count":"0"},"hereNow":{"count":"0"},"referralId":"v-1392477979"},{"id":"4c810bfb74d7b60cbba972d8","name":"LSE Rosebery Hall","location":{"address":"90 Rosebery avenue","lat":"51.52741080930272","lng":"-0.10671305636593242","distance":"222","cc":"GB","city":"London","state":"Greater London","country":"United Kingdom"},"categories":[{"id":"4bf58dd8d48988d1a3941735","name":"College Residence Hall","pluralName":"College Residence Halls","shortName":"Residence Hall","icon":{"prefix":"https:\/\/ss1.4sqi.net\/img\/categories_v2\/education\/residencehall_","suffix":".png"},"primary":"true"}],"verified":"false","restricted":"true","stats":{"checkinsCount":"528","usersCount":"164","tipCount":"3"},"specials":{"count":"0"},"hereNow":{"count":"0"},"referralId":"v-1392477979"},{"id":"4dbf1710f7b115b875c2cbb0","name":"The Nautilus Building","location":{"address":"3 Myddelton Passage","lat":"51.529066","lng":"-0.107792","distance":"24","postalCode":"EC1R 1XW","cc":"GB","city":"Islington","state":"Greater London","country":"United Kingdom"},"categories":[{"id":"4d954b06a243a5684965b473","name":"Residential Building (Apartment \/ Condo)","pluralName":"Residential Buildings (Apartments \/ Condos)","shortName":"Residential","icon":{"prefix":"https:\/\/ss1.4sqi.net\/img\/categories_v2\/building\/apartment_","suffix":".png"},"primary":"true"}],"verified":"false","restricted":"true","stats":{"checkinsCount":"21","usersCount":"4","tipCount":"1"},"specials":{"count":"0"},"hereNow":{"count":"0"},"referralId":"v-1392477979"},{"id":"4cf3a59c8333224bad9d168e","name":"Cancer Research Uk","location":{"address":"407 st john street","lat":"51.53122109782732","lng":"-0.10658991590968758","distance":"230","postalCode":"EC1V 4AD","cc":"GB","city":"Islington","state":"Greater London","country":"United Kingdom"},"categories":[{"id":"4bf58dd8d48988d124941735","name":"Office","pluralName":"Offices","shortName":"Office","icon":{"prefix":"https:\/\/ss1.4sqi.net\/img\/categories_v2\/building\/default_","suffix":".png"},"primary":"true"}],"verified":"false","restricted":"true","stats":{"checkinsCount":"757","usersCount":"81","tipCount":"3"},"specials":{"count":"0"},"hereNow":{"count":"0"},"referralId":"v-1392477979"},{"id":"5098e7bbe4b0377709b9b708","name":"MyBuilder","contact":{"twitter":"mybuilder"},"location":{"address":"22a Arlington Way","lat":"51.530071287608514","lng":"-0.10604227418393877","distance":"149","postalCode":"EC1R 1UY","cc":"GB","city":"London","state":"Greater London","country":"United Kingdom"},"categories":[{"id":"4bf58dd8d48988d125941735","name":"Tech Startup","pluralName":"Tech Startups","shortName":"Tech Startup","icon":{"prefix":"https:\/\/ss1.4sqi.net\/img\/categories_v2\/shops\/technology_","suffix":".png"},"primary":"true"}],"verified":"false","restricted":"true","stats":{"checkinsCount":"20","usersCount":"3","tipCount":"0"},"specials":{"count":"0"},"hereNow":{"count":"0"},"referralId":"v-1392477979"}],"confident":"true"}}