{"meta":{"code":"200"},"response":{"venues":[{"id":"4c86adfbe602b1f7973fc27a","name":"London Borough of Islington","location":{"address":"Everywhere!","lat":"51.53928602787982","lng":"-0.10922263507194847","distance":"98","postalCode":"N1","cc":"GB","city":"Islington","state":"Greater London","country":"United Kingdom"},"categories":[{"id":"50aa9e094b90af0d42d5de0d","name":"City","pluralName":"Cities","shortName":"City","icon":{"prefix":"https:\/\/ss1.4sqi.net\/img\/categories_v2\/parks_outdoors\/neighborhood_","suffix":".png"},"primary":"true"}],"verified":"false","restricted":"true","stats":{"checkinsCount":"3341","usersCount":"732","tipCount":"5"},"specials":{"count":"0"},"hereNow":{"count":"0"},"referralId":"v-1392477953"},{"id":"50cf29b05262a3ad5e3c0bb8","name":"MSH Wellbeing","contact":{"phone":"+442076971050","formattedPhone":"+44 20 7697 1050","twitter":"mshwellbeing"},"location":{"address":"Suite C Maples Business Centre, 144 Liverpool Road","crossStreet":"just opposite the Barnsbury Pub, near Richmond Ave","lat":"51.53940891729289","lng":"-0.10638713836669922","distance":"98","postalCode":"N1 1LA","cc":"GB","city":"London","state":"Greater London","country":"United Kingdom"},"categories":[{"id":"4bf58dd8d48988d1ed941735","name":"Spa","pluralName":"Spas","shortName":"Spa","icon":{"prefix":"https:\/\/ss1.4sqi.net\/img\/categories_v2\/shops\/spa_","suffix":".png"},"primary":"true"}],"verified":"true","restricted":"true","stats":{"checkinsCount":"501","usersCount":"12","tipCount":"1"},"url":"http:\/\/www.mshwellbeing.co.uk","specials":{"count":"1","items":[{"id":"52f967cf498e17e6a667dee6","type":"frequency","message":"Every client attending during February will receive a free beautifully scented Temple Spa candle, and those coming for treatments 14th- 28th February get a free glass of pink bubbly!","photo":{"id":"52f967cf11d26c86e748b15b","createdAt":"1392076751","prefix":"https:\/\/irs3.4sqi.net\/img\/general\/","suffix":"\/43560301_vc0xRWG3BZBhH8vKRdelXZR9q0v0DUnWa8yiKY4xEHM.jpg","width":"2480","height":"3508"},"description":"Unlocked every check-in","icon":"check-in","title":"Check-in Special","provider":"foursquare","redemption":"standard","page":{"id":"43560301","firstName":"MSH Wellbeing","gender":"none","photo":{"prefix":"https:\/\/irs0.4sqi.net\/img\/user\/","suffix":"\/CAVFXKORLBMX4GBG.png"},"type":"venuePage","venue":{"id":"50cf29b05262a3ad5e3c0bb8"},"tips":{"count":"0"},"homeCity":"London","bio":"","contact":{"twitter":"mshwellbeing","facebook":"276024422408800"}}}]},"hereNow":{"count":"0"},"venuePage":{"id":"43560301"},"storeId":"","referralId":"v-1392477953"},{"id":"4b439995f964a5200ce425e3","name":"The Regent","contact":{"phone":"+442077002725","formattedPhone":"+44 20 7700 2725"},"location":{"address":"201 Liverpool Rd","crossStreet":"Richmond Ave","lat":"51.53889724486772","lng":"-0.10682534137597324","distance":"80","postalCode":"N1 1LX","cc":"GB","city":"London","state":"Greater London","country":"United Kingdom"},"categories":[{"id":"4bf58dd8d48988d1ca941735","name":"Pizza Place","pluralName":"Pizza Places","shortName":"Pizza","icon":{"prefix":"https:\/\/ss1.4sqi.net\/img\/categories_v2\/food\/pizza_","suffix":".png"},"primary":"true"}],"verified":"false","restricted":"true","stats":{"checkinsCount":"860","usersCount":"500","tipCount":"20"},"specials":{"count":"0"},"hereNow":{"count":"0"},"referralId":"v-1392477953"},{"id":"4b8aa916f964a520277832e3","name":"The Barnsbury","contact":{"phone":"+442076075519","formattedPhone":"+44 20 7607 5519","twitter":"thebarnsburypub"},"location":{"address":"209 Liverpool Rd.","lat":"51.53921543822977","lng":"-0.10677083690162086","distance":"71","postalCode":"N1 1LX","cc":"GB","city":"London","state":"Greater London","country":"United Kingdom"},"categories":[{"id":"4bf58dd8d48988d11b941735","name":"Pub","pluralName":"Pubs","shortName":"Pub","icon":{"prefix":"https:\/\/ss1.4sqi.net\/img\/categories_v2\/nightlife\/pub_","suffix":".png"},"primary":"true"}],"verified":"false","restricted":"true","stats":{"checkinsCount":"519","usersCount":"249","tipCount":"11"},"url":"http:\/\/www.thebarnsbury.co.uk","specials":{"count":"0"},"hereNow":{"count":"0"},"referralId":"v-1392477953"},{"id":"4ac518c3f964a52056a420e3","name":"The Albion","contact":{"phone":"+442076077450","formattedPhone":"+44 20 7607 7450","twitter":"thealbionpub"},"location":{"address":"10 Thornhill Rd.","crossStreet":"at Ripplevale Grove","lat":"51.53936778260104","lng":"-0.1094411765575673","distance":"113","postalCode":"N1 1HW","cc":"GB","city":"Islington","state":"Greater London","country":"United Kingdom"},"categories":[{"id":"4bf58dd8d48988d155941735","name":"Gastropub","pluralName":"Gastropubs","shortName":"Gastropub","icon":{"prefix":"https:\/\/ss1.4sqi.net\/img\/categories_v2\/food\/gastropub_","suffix":".png"},"primary":"true"}],"verified":"false","restricted":"true","stats":{"checkinsCount":"1815","usersCount":"1290","tipCount":"41"},"url":"http:\/\/www.the-albion.co.uk","reservations":{"url":"http:\/\/www.toptable.co.uk\/single.aspx?rid=80932&ref=9601"},"menu":{"type":"Menu","label":"Menu","anchor":"View Menu","url":"https:\/\/foursquare.com\/v\/the-albion\/4ac518c3f964a52056a420e3\/menu","mobileUrl":"https:\/\/foursquare.com\/v\/4ac518c3f964a52056a420e3\/device_menu"},"specials":{"count":"0"},"hereNow":{"count":"0"},"referralId":"v-1392477953"},{"id":"4e6b36cb62e1cd1d5509bb73","name":"Pistachio & Pickle","location":{"address":"237 Liverpool Road","lat":"51.539692","lng":"-0.106698","distance":"88","postalCode":"N1 1LX","cc":"GB","city":"Islington","state":"Greater London","country":"United Kingdom"},"categories":[{"id":"4bf58dd8d48988d16d941735","name":"Caf\u00e9","pluralName":"Caf\u00e9s","shortName":"Caf\u00e9","icon":{"prefix":"https:\/\/ss1.4sqi.net\/img\/categories_v2\/food\/cafe_","suffix":".png"},"primary":"true"}],"verified":"false","restricted":"true","stats":{"checkinsCount":"157","usersCount":"46","tipCount":"3"},"specials":{"count":"0"},"hereNow":{"count":"0"},"referralId":"v-1392477953"},{"id":"4ae83bfef964a52047ae21e3","name":"The Drapers Arms","contact":{"phone":"+442076190348","formattedPhone":"+44 20 7619 0348","twitter":"drapersarms"},"location":{"address":"44 Barnsbury St","lat":"51.540454","lng":"-0.108439","distance":"136","postalCode":"N1 1ER","cc":"GB","city":"Islington","state":"Greater London","country":"United Kingdom"},"categories":[{"id":"4bf58dd8d48988d11b941735","name":"Pub","pluralName":"Pubs","shortName":"Pub","icon":{"prefix":"https:\/\/ss1.4sqi.net\/img\/categories_v2\/nightlife\/pub_","suffix":".png"},"primary":"true"}],"verified":"true","restricted":"true","stats":{"checkinsCount":"1170","usersCount":"678","tipCount":"17"},"url":"http:\/\/www.thedrapersarms.com","reservations":{"url":"http:\/\/www.toptable.co.uk\/single.aspx?rid=53308&ref=9601"},"menu":{"type":"Menu","label":"Menu","anchor":"View Menu","url":"https:\/\/foursquare.com\/v\/the-drapers-arms\/4ae83bfef964a52047ae21e3\/menu","mobileUrl":"https:\/\/foursquare.com\/v\/4ae83bfef964a52047ae21e3\/device_menu"},"specials":{"count":"0"},"hereNow":{"count":"0"},"venuePage":{"id":"41278250"},"storeId":"","referralId":"v-1392477953"},{"id":"4c39eca9edba95215a7ad625","name":"Pulse Group","location":{"address":"1a Lonsdale Square","lat":"51.539184329013","lng":"-0.10733875806527667","distance":"34","postalCode":"N11EN","cc":"GB","city":"London","state":"Greater London","country":"United Kingdom"},"categories":[{"id":"4bf58dd8d48988d124941735","name":"Office","pluralName":"Offices","shortName":"Office","icon":{"prefix":"https:\/\/ss1.4sqi.net\/img\/categories_v2\/building\/default_","suffix":".png"},"primary":"true"}],"verified":"false","restricted":"true","stats":{"checkinsCount":"70","usersCount":"16","tipCount":"1"},"specials":{"count":"0"},"hereNow":{"count":"0"},"referralId":"v-1392477953"},{"id":"4bb3d49e42959c74b583222c","name":"Almeida Theatre","location":{"address":"Almeida Street","crossStreet":"Off Upper Street","lat":"51.539644","lng":"-0.10301796","distance":"333","cc":"GB","city":"London","state":"Greater London","country":"United Kingdom"},"categories":[{"id":"4bf58dd8d48988d137941735","name":"Theater","pluralName":"Theaters","shortName":"Theater","icon":{"prefix":"https:\/\/ss1.4sqi.net\/img\/categories_v2\/arts_entertainment\/performingarts_theater_","suffix":".png"},"primary":"true"}],"verified":"false","restricted":"true","stats":{"checkinsCount":"849","usersCount":"589","tipCount":"10"},"reservations":{"url":"http:\/\/www.toptable.co.uk\/single.aspx?rid=80959&ref=9601"},"specials":{"count":"0"},"hereNow":{"count":"1","groups":[{"type":"others","name":"Other people here","count":"1"}]},"referralId":"v-1392477953"},{"id":"500db2c5e4b0ddfaa8059f41","name":"The Pig And Butcher","contact":{"phone":"+442072268304","formattedPhone":"+44 20 7226 8304","twitter":"pigandbutcher"},"location":{"address":"80 Liverpool Rd","lat":"51.537371","lng":"-0.106945","distance":"221","postalCode":"N1 0QD","cc":"GB","city":"Islington","state":"Greater London","country":"United Kingdom"},"categories":[{"id":"4bf58dd8d48988d155941735","name":"Gastropub","pluralName":"Gastropubs","shortName":"Gastropub","icon":{"prefix":"https:\/\/ss1.4sqi.net\/img\/categories_v2\/food\/gastropub_","suffix":".png"},"primary":"true"}],"verified":"false","restricted":"true","stats":{"checkinsCount":"834","usersCount":"530","tipCount":"26"},"url":"http:\/\/www.thepigandbutcher.co.uk","menu":{"type":"Menu","label":"Menu","anchor":"View Menu","url":"https:\/\/foursquare.com\/v\/the-pig-and-butcher\/500db2c5e4b0ddfaa8059f41\/menu","mobileUrl":"https:\/\/foursquare.com\/v\/500db2c5e4b0ddfaa8059f41\/device_menu"},"specials":{"count":"0"},"hereNow":{"count":"0"},"referralId":"v-1392477953"},{"id":"4ba4fee9f964a520eacd38e3","name":"TfL Bus 4","contact":{"twitter":"tflbusalerts"},"location":{"address":"Moving Target!","lat":"51.53178621614692","lng":"-0.10609751050303705","distance":"843","cc":"GB","city":"London","state":"Greater London","country":"United Kingdom"},"categories":[{"id":"4bf58dd8d48988d12b951735","name":"Bus Line","pluralName":"Bus Lines","shortName":"Bus","icon":{"prefix":"https:\/\/ss1.4sqi.net\/img\/categories_v2\/travel\/busstation_","suffix":".png"},"primary":"true"}],"verified":"false","restricted":"true","stats":{"checkinsCount":"705","usersCount":"141","tipCount":"3"},"url":"http:\/\/tfl.gov.uk","specials":{"count":"0"},"hereNow":{"count":"0"},"referralId":"v-1392477953"},{"id":"4b890dc2f964a5203c1a32e3","name":"Viet Garden","contact":{"phone":"+442077006040","formattedPhone":"+44 20 7700 6040"},"location":{"address":"207 Liverpool Road","crossStreet":"btw Barnsbury & Richmond Ave","lat":"51.53906196378216","lng":"-0.10679726407671074","distance":"74","postalCode":"N1 1LX","cc":"GB","city":"London","state":"Greater London","country":"United Kingdom"},"categories":[{"id":"4bf58dd8d48988d14a941735","name":"Vietnamese Restaurant","pluralName":"Vietnamese Restaurants","shortName":"Vietnamese","icon":{"prefix":"https:\/\/ss1.4sqi.net\/img\/categories_v2\/food\/default_","suffix":".png"},"primary":"true"}],"verified":"false","restricted":"true","stats":{"checkinsCount":"157","usersCount":"100","tipCount":"7"},"menu":{"type":"Menu","label":"Menu","anchor":"View Menu","url":"https:\/\/foursquare.com\/v\/viet-garden\/4b890dc2f964a5203c1a32e3\/menu","mobileUrl":"https:\/\/foursquare.com\/v\/4b890dc2f964a5203c1a32e3\/device_menu"},"specials":{"count":"0"},"hereNow":{"count":"0"},"referralId":"v-1392477953"},{"id":"4c430eb7ce54e21eb27d0d1a","name":"Barnard Park","location":{"lat":"51.537384933573875","lng":"-0.11108838571191024","distance":"310","cc":"GB","city":"Islington","state":"Greater London","country":"United Kingdom"},"categories":[{"id":"4bf58dd8d48988d163941735","name":"Park","pluralName":"Parks","shortName":"Park","icon":{"prefix":"https:\/\/ss1.4sqi.net\/img\/categories_v2\/parks_outdoors\/park_","suffix":".png"},"primary":"true"}],"verified":"false","restricted":"true","stats":{"checkinsCount":"484","usersCount":"101","tipCount":"0"},"specials":{"count":"0"},"hereNow":{"count":"0"},"referralId":"v-1392477953"},{"id":"4ee673134fc63b8b1f5792ee","name":"Yipin China","location":{"address":"70-72 Liverpool Rd.","lat":"51.53643262599533","lng":"-0.10679483413696289","distance":"325","postalCode":"N1 0QD","cc":"GB","city":"London","state":"Greater London","country":"United Kingdom"},"categories":[{"id":"4bf58dd8d48988d145941735","name":"Chinese Restaurant","pluralName":"Chinese Restaurants","shortName":"Chinese","icon":{"prefix":"https:\/\/ss1.4sqi.net\/img\/categories_v2\/food\/chinese_","suffix":".png"},"primary":"true"}],"verified":"false","restricted":"true","stats":{"checkinsCount":"235","usersCount":"154","tipCount":"14"},"menu":{"type":"Menu","label":"Menu","anchor":"View Menu","url":"https:\/\/foursquare.com\/v\/yipin-china\/4ee673134fc63b8b1f5792ee\/menu","mobileUrl":"https:\/\/foursquare.com\/v\/4ee673134fc63b8b1f5792ee\/device_menu"},"specials":{"count":"0"},"hereNow":{"count":"0"},"referralId":"v-1392477953"},{"id":"506f7755e4b0a462f99da2d2","name":"SGRD","location":{"address":"12A Stonefield Street","lat":"51.539409","lng":"-0.108247","distance":"33","cc":"GB","city":"London","state":"Greater London","country":"United Kingdom"},"categories":[{"id":"4bf58dd8d48988d122941735","name":"Whisky Bar","pluralName":"Whisky Bars","shortName":"Whisky Bar","icon":{"prefix":"https:\/\/ss1.4sqi.net\/img\/categories_v2\/nightlife\/whiskey_","suffix":".png"},"primary":"true"}],"verified":"false","restricted":"true","stats":{"checkinsCount":"2","usersCount":"2","tipCount":"0"},"specials":{"count":"0"},"hereNow":{"count":"0"},"referralId":"v-1392477953"},{"id":"4b0d920cf964a520424b23e3","name":"The Crown","contact":{"phone":"+442078377107","formattedPhone":"+44 20 7837 7107"},"location":{"address":"116 Cloudesley Rd.","lat":"51.53736464","lng":"-0.109685","distance":"250","postalCode":"N1 OEB","cc":"GB","city":"Islington","state":"Greater London","country":"United Kingdom"},"categories":[{"id":"4bf58dd8d48988d11b941735","name":"Pub","pluralName":"Pubs","shortName":"Pub","icon":{"prefix":"https:\/\/ss1.4sqi.net\/img\/categories_v2\/nightlife\/pub_","suffix":".png"},"primary":"true"}],"verified":"false","restricted":"true","stats":{"checkinsCount":"755","usersCount":"395","tipCount":"6"},"specials":{"count":"0"},"hereNow":{"count":"0"},"referralId":"v-1392477953"},{"id":"503bd785e4b0124e45156612","name":"JCF HQ","location":{"address":"25 Clare Lane","lat":"51.5386648261539","lng":"-0.10825553157337835","distance":"76","postalCode":"N1 0LS","cc":"GB","city":"London","state":"Greater London","country":"United Kingdom"},"categories":[{"id":"4bf58dd8d48988d124941735","name":"Office","pluralName":"Offices","shortName":"Office","icon":{"prefix":"https:\/\/ss1.4sqi.net\/img\/categories_v2\/building\/default_","suffix":".png"},"primary":"true"}],"verified":"false","restricted":"true","stats":{"checkinsCount":"211","usersCount":"7","tipCount":"2"},"specials":{"count":"0"},"hereNow":{"count":"0"},"referralId":"v-1392477953"},{"id":"4b23ae02f964a520fd5724e3","name":"The Bull","location":{"address":"100 Upper St","crossStreet":"Theberton St","lat":"51.537443","lng":"-0.103032","distance":"389","postalCode":"N1 0NP","cc":"GB","city":"Islington","state":"Greater London","country":"United Kingdom"},"categories":[{"id":"4bf58dd8d48988d11b941735","name":"Pub","pluralName":"Pubs","shortName":"Pub","icon":{"prefix":"https:\/\/ss1.4sqi.net\/img\/categories_v2\/nightlife\/pub_","suffix":".png"},"primary":"true"}],"verified":"false","restricted":"true","stats":{"checkinsCount":"1775","usersCount":"1221","tipCount":"24"},"menu":{"type":"Menu","label":"Menu","anchor":"View Menu","url":"https:\/\/foursquare.com\/v\/the-bull-islington-greater-london\/4b23ae02f964a520fd5724e3\/menu","mobileUrl":"https:\/\/foursquare.com\/v\/4b23ae02f964a520fd5724e3\/device_menu"},"specials":{"count":"0"},"hereNow":{"count":"0"},"referralId":"v-1392477953"},{"id":"4b556900f964a520a7e327e3","name":"Mem & Laz","contact":{"phone":"+442072262211","formattedPhone":"+44 20 7226 2211"},"location":{"address":"8 Theberton St","crossStreet":"Upper St","lat":"51.537519","lng":"-0.103238","distance":"372","postalCode":"N1 0QX","cc":"GB","city":"London","state":"Greater London","country":"United Kingdom"},"categories":[{"id":"4bf58dd8d48988d1c0941735","name":"Mediterranean Restaurant","pluralName":"Mediterranean Restaurants","shortName":"Mediterranean","icon":{"prefix":"https:\/\/ss1.4sqi.net\/img\/categories_v2\/food\/mediterranean_","suffix":".png"},"primary":"true"}],"verified":"false","restricted":"true","stats":{"checkinsCount":"826","usersCount":"539","tipCount":"25"},"menu":{"type":"Menu","label":"Menu","anchor":"View Menu","url":"https:\/\/foursquare.com\/v\/mem--laz\/4b556900f964a520a7e327e3\/menu","mobileUrl":"https:\/\/foursquare.com\/v\/4b556900f964a520a7e327e3\/device_menu"},"specials":{"count":"0"},"hereNow":{"count":"0"},"referralId":"v-1392477953"},{"id":"4e80f1286da1eb3f358b3dd8","name":"Kilis Kitchen","contact":{"phone":"+442072265489","formattedPhone":"+44 20 7226 5489"},"location":{"address":"4 Theberton St.","lat":"51.537498764134874","lng":"-0.10307472192712996","distance":"383","postalCode":"N1 0QX","cc":"GB","city":"Islington","state":"Greater London","country":"United Kingdom"},"categories":[{"id":"4bf58dd8d48988d1c0941735","name":"Mediterranean Restaurant","pluralName":"Mediterranean Restaurants","shortName":"Mediterranean","icon":{"prefix":"https:\/\/ss1.4sqi.net\/img\/categories_v2\/food\/mediterranean_","suffix":".png"},"primary":"true"}],"verified":"false","restricted":"true","stats":{"checkinsCount":"395","usersCount":"301","tipCount":"10"},"specials":{"count":"0"},"hereNow":{"count":"0"},"referralId":"v-1392477953"},{"id":"52569ef511d23130f79b599b","name":"Lonsdale Square","location":{"lat":"51.54042678522167","lng":"-0.1076931492548218","distance":"126","cc":"GB","country":"United Kingdom"},"categories":[{"id":"4bf58dd8d48988d163941735","name":"Park","pluralName":"Parks","shortName":"Park","icon":{"prefix":"https:\/\/ss1.4sqi.net\/img\/categories_v2\/parks_outdoors\/park_","suffix":".png"},"primary":"true"}],"verified":"false","restricted":"true","stats":{"checkinsCount":"4","usersCount":"4","tipCount":"0"},"specials":{"count":"0"},"hereNow":{"count":"0"},"referralId":"v-1392477953"},{"id":"4e01bbcd315175a7f3fa540f","name":"Tanguito","contact":{"twitter":"tanguitoacademy"},"location":{"address":"134 Liverpool Road, Islington","lat":"51.53920872443224","lng":"-0.10712742805480957","distance":"47","postalCode":"N1 1LX","cc":"GB","city":"London","state":"Greater London","country":"United Kingdom"},"categories":[{"id":"4bf58dd8d48988d175941735","name":"Gym \/ Fitness Center","pluralName":"Gyms or Fitness Centers","shortName":"Gym \/ Fitness","icon":{"prefix":"https:\/\/ss1.4sqi.net\/img\/categories_v2\/building\/gym_","suffix":".png"},"primary":"true"}],"verified":"false","restricted":"true","stats":{"checkinsCount":"1","usersCount":"1","tipCount":"1"},"specials":{"count":"0"},"hereNow":{"count":"0"},"referralId":"v-1392477953"},{"id":"4e7dc17d55035fa0354913d7","name":"Le Petit Village","contact":{"phone":"+442077005957","formattedPhone":"+44 20 7700 5957"},"location":{"lat":"51.53926697224398","lng":"-0.10687315145229155","distance":"64","cc":"GB","city":"Islington","state":"Greater London","country":"United Kingdom"},"categories":[{"id":"4bf58dd8d48988d16d941735","name":"Caf\u00e9","pluralName":"Caf\u00e9s","shortName":"Caf\u00e9","icon":{"prefix":"https:\/\/ss1.4sqi.net\/img\/categories_v2\/food\/cafe_","suffix":".png"},"primary":"true"}],"verified":"false","restricted":"true","stats":{"checkinsCount":"42","usersCount":"26","tipCount":"4"},"specials":{"count":"0"},"hereNow":{"count":"0"},"referralId":"v-1392477953"},{"id":"4b3babe5f964a520787825e3","name":"Le Sacre Coeur","contact":{"phone":"+442073542618","formattedPhone":"+44 20 7354 2618"},"location":{"address":"18 Theberton St.","lat":"51.537549","lng":"-0.103617","distance":"348","postalCode":"N1 0QX","cc":"GB","city":"Islington","state":"Greater London","country":"United Kingdom"},"categories":[{"id":"4bf58dd8d48988d10c941735","name":"French Restaurant","pluralName":"French Restaurants","shortName":"French","icon":{"prefix":"https:\/\/ss1.4sqi.net\/img\/categories_v2\/food\/french_","suffix":".png"},"primary":"true"}],"verified":"false","restricted":"true","stats":{"checkinsCount":"291","usersCount":"217","tipCount":"16"},"url":"http:\/\/www.lesacrecoeurbistro.co.uk","reservations":{"url":"http:\/\/www.toptable.co.uk\/single.aspx?rid=96225&ref=9601"},"menu":{"type":"Menu","label":"Menu","anchor":"View Menu","url":"https:\/\/foursquare.com\/v\/le-sacre-coeur\/4b3babe5f964a520787825e3\/menu","mobileUrl":"https:\/\/foursquare.com\/v\/4b3babe5f964a520787825e3\/device_menu"},"specials":{"count":"0"},"hereNow":{"count":"0"},"referralId":"v-1392477953"},{"id":"4be57a705254d13a408660e1","name":"Quantum Metta","contact":{"phone":"+442085275024","formattedPhone":"+44 20 8527 5024","twitter":"quantummetta"},"location":{"address":"134 Liverpool Rd","crossStreet":"btw Richmond Ave & Barnsbury St","lat":"51.53919537821024","lng":"-0.10697722434997559","distance":"58","postalCode":"N1 1LA","cc":"GB","city":"Islington","state":"Greater London","country":"United Kingdom"},"categories":[{"id":"4bf58dd8d48988d1a0941735","name":"College Classroom","pluralName":"College Classrooms","shortName":"Classroom","icon":{"prefix":"https:\/\/ss1.4sqi.net\/img\/categories_v2\/education\/classroom_","suffix":".png"},"primary":"true"}],"verified":"false","restricted":"true","stats":{"checkinsCount":"19","usersCount":"2","tipCount":"0"},"specials":{"count":"0"},"hereNow":{"count":"0"},"referralId":"v-1392477953"},{"id":"513cd467e4b0491058037717","name":"La Farola","contact":{"phone":"+442073597707","formattedPhone":"+44 20 7359 7707","facebook":"137521599750981"},"location":{"address":"101 upper street","lat":"51.53755541490411","lng":"-0.1028967010134703","distance":"390","postalCode":"n1 1qn","cc":"GB","city":"London","state":"Greater London","country":"United Kingdom"},"categories":[{"id":"4bf58dd8d48988d1c0941735","name":"Mediterranean Restaurant","pluralName":"Mediterranean Restaurants","shortName":"Mediterranean","icon":{"prefix":"https:\/\/ss1.4sqi.net\/img\/categories_v2\/food\/mediterranean_","suffix":".png"},"primary":"true"}],"verified":"true","restricted":"true","stats":{"checkinsCount":"260","usersCount":"208","tipCount":"7"},"specials":{"count":"0"},"hereNow":{"count":"0"},"venuePage":{"id":"50636542"},"storeId":"","referralId":"v-1392477953"},{"id":"4c822e3f51ada1cd63a91910","name":"Royal Mail Islington","location":{"address":"Almeida Street","lat":"51.53932107581799","lng":"-0.10374642848711027","distance":"280","postalCode":"N1","cc":"GB","city":"Islington","state":"Greater London","country":"United Kingdom"},"categories":[{"id":"4bf58dd8d48988d172941735","name":"Post Office","pluralName":"Post Offices","shortName":"Post Office","icon":{"prefix":"https:\/\/ss1.4sqi.net\/img\/categories_v2\/building\/postoffice_","suffix":".png"},"primary":"true"}],"verified":"false","restricted":"true","stats":{"checkinsCount":"112","usersCount":"62","tipCount":"3"},"specials":{"count":"0"},"hereNow":{"count":"0"},"referralId":"v-1392477953"},{"id":"52e2d789498e7624908932bc","name":"Tinto","contact":{"twitter":"tintolondon"},"location":{"address":"11-13 Theberton Street","lat":"51.537545","lng":"-0.103569","distance":"351","postalCode":"N1 0QY","cc":"GB","city":"London","state":"Greater London","country":"United Kingdom"},"categories":[{"id":"4bf58dd8d48988d1db931735","name":"Tapas Restaurant","pluralName":"Tapas Restaurants","shortName":"Tapas","icon":{"prefix":"https:\/\/ss1.4sqi.net\/img\/categories_v2\/food\/tapas_","suffix":".png"},"primary":"true"}],"verified":"false","restricted":"true","stats":{"checkinsCount":"6","usersCount":"6","tipCount":"1"},"specials":{"count":"0"},"hereNow":{"count":"0"},"referralId":"v-1392477953"},{"id":"52d282c311d29239362cb229","name":"Lululemon Islington","location":{"lat":"51.54083251953125","lng":"-0.10603543370962143","distance":"210","cc":"GB","country":"United Kingdom"},"categories":[{"id":"4bf58dd8d48988d104951735","name":"Boutique","pluralName":"Boutiques","shortName":"Boutique","icon":{"prefix":"https:\/\/ss1.4sqi.net\/img\/categories_v2\/shops\/apparel_boutique_","suffix":".png"},"primary":"true"}],"verified":"false","restricted":"true","stats":{"checkinsCount":"1","usersCount":"1","tipCount":"0"},"specials":{"count":"0"},"hereNow":{"count":"0"},"referralId":"v-1392477953"},{"id":"4c4add9242b4d13aa6a4d77d","name":"Richardson HQ","location":{"address":"227 liverpool road","lat":"51.539587","lng":"-0.106829","distance":"75","cc":"GB","city":"Islington","state":"Greater London","country":"United Kingdom"},"verified":"false","restricted":"true","stats":{"checkinsCount":"1","usersCount":"1","tipCount":"0"},"specials":{"count":"0"},"hereNow":{"count":"0"},"referralId":"v-1392477953"}],"confident":"true"}}