{"meta":{"code":"200"},"response":{"venues":[{"id":"4acd585bf964a520ebcb20e3","name":"Skimlinks HQ","contact":{"phone":"+442033971240","formattedPhone":"+44 20 3397 1240","facebook":"228587185995"},"location":{"address":"52 Bevenden Street","crossStreet":"East Road","lat":"51.529281390744714","lng":"-0.08682310581207275","distance":"67","postalCode":"N1 6BL","cc":"GB","city":"London","state":"Greater London","country":"United Kingdom"},"categories":[{"id":"4bf58dd8d48988d125941735","name":"Tech Startup","pluralName":"Tech Startups","shortName":"Tech Startup","icon":{"prefix":"https:\/\/ss1.4sqi.net\/img\/categories_v2\/shops\/technology_","suffix":".png"},"primary":"true"}],"verified":"true","restricted":"true","stats":{"checkinsCount":"4364","usersCount":"159","tipCount":"8"},"url":"http:\/\/skimlinks.com","specials":{"count":"1","items":[{"id":"4f3bb0b2e5e8de74f17d7eed","type":"count","message":"Free Nutella on toast on your first checkin","description":"Unlocked on your 1st check-in","icon":"newbie","title":"Newbie Special","provider":"foursquare","redemption":"standard"}]},"hereNow":{"count":"0"},"storeId":"","referralId":"v-1392477981"},{"id":"4cc14dc45684a35d90d9b70d","name":"Martha Schwartz Partners","location":{"lat":"51.52887473917141","lng":"-0.08774069266737813","distance":"46","cc":"GB","city":"Hackney","state":"Greater London","country":"United Kingdom"},"categories":[{"id":"4bf58dd8d48988d124941735","name":"Office","pluralName":"Offices","shortName":"Office","icon":{"prefix":"https:\/\/ss1.4sqi.net\/img\/categories_v2\/building\/default_","suffix":".png"},"primary":"true"}],"verified":"false","restricted":"true","stats":{"checkinsCount":"142","usersCount":"3","tipCount":"0"},"specials":{"count":"0"},"hereNow":{"count":"1","groups":[{"type":"others","name":"Other people here","count":"1"}]},"referralId":"v-1392477981"},{"id":"4c052bc839d476b06a7332a7","name":"rehabstudio","location":{"lat":"51.529145","lng":"-0.087378","distance":"33","cc":"GB","country":"United Kingdom"},"categories":[{"id":"4bf58dd8d48988d125941735","name":"Tech Startup","pluralName":"Tech Startups","shortName":"Tech Startup","icon":{"prefix":"https:\/\/ss1.4sqi.net\/img\/categories_v2\/shops\/technology_","suffix":".png"},"primary":"true"}],"verified":"false","restricted":"true","stats":{"checkinsCount":"306","usersCount":"54","tipCount":"2"},"specials":{"count":"0"},"hereNow":{"count":"0"},"referralId":"v-1392477981"},{"id":"4b542c40f964a520bbb327e3","name":"Tesco Express","contact":{"phone":"+448456746454","formattedPhone":"+44 845 674 6454","twitter":"uktescooffers"},"location":{"address":"100 East Road","lat":"51.529355","lng":"-0.087225","distance":"40","postalCode":"N1 6AA","cc":"GB","city":"Shoreditch","state":"Greater London","country":"United Kingdom"},"categories":[{"id":"4bf58dd8d48988d118951735","name":"Grocery Store","pluralName":"Grocery Stores","shortName":"Grocery Store","icon":{"prefix":"https:\/\/ss1.4sqi.net\/img\/categories_v2\/shops\/food_grocery_","suffix":".png"},"primary":"true"}],"verified":"true","restricted":"true","stats":{"checkinsCount":"739","usersCount":"192","tipCount":"6"},"url":"http:\/\/www.tesco.com","specials":{"count":"0"},"hereNow":{"count":"0"},"storeId":"6150","referralId":"v-1392477981"},{"id":"50ed7672e4b0addb770fe96a","name":"No 42 Coffee Junction","location":{"address":"42 Provost Street","crossStreet":"Vestry street","lat":"51.52878689279123","lng":"-0.08834932295561632","distance":"67","cc":"GB","city":"London","state":"Greater London","country":"United Kingdom"},"categories":[{"id":"4bf58dd8d48988d1e0931735","name":"Coffee Shop","pluralName":"Coffee Shops","shortName":"Coffee Shop","icon":{"prefix":"https:\/\/ss1.4sqi.net\/img\/categories_v2\/food\/coffeeshop_","suffix":".png"},"primary":"true"}],"verified":"true","restricted":"true","stats":{"checkinsCount":"367","usersCount":"137","tipCount":"9"},"specials":{"count":"0"},"hereNow":{"count":"0"},"venuePage":{"id":"54449802"},"referralId":"v-1392477981"},{"id":"5177c749e4b0b3a24a52f06f","name":"urbanest Caf\u00e9 @ Hoxton","contact":{"twitter":"urbanestuk"},"location":{"address":"100 East Road","crossStreet":"Bevenden Street","lat":"51.52958374323576","lng":"-0.08701973780369916","distance":"63","postalCode":"N1 6AA","cc":"GB","city":"London","state":"Greater London","country":"United Kingdom"},"categories":[{"id":"4bf58dd8d48988d1e0931735","name":"Coffee Shop","pluralName":"Coffee Shops","shortName":"Coffee Shop","icon":{"prefix":"https:\/\/ss1.4sqi.net\/img\/categories_v2\/food\/coffeeshop_","suffix":".png"},"primary":"true"}],"verified":"false","restricted":"true","stats":{"checkinsCount":"104","usersCount":"62","tipCount":"5"},"specials":{"count":"0"},"hereNow":{"count":"0"},"referralId":"v-1392477981"},{"id":"4c21f5d69085d13a207a85cc","name":"Stripes Cafe","location":{"address":"61 Nile Street","lat":"51.529254064597225","lng":"-0.08852285369022893","distance":"50","postalCode":"N1","cc":"GB","city":"Hackney","state":"Greater London","country":"United Kingdom"},"categories":[{"id":"4bf58dd8d48988d16d941735","name":"Caf\u00e9","pluralName":"Caf\u00e9s","shortName":"Caf\u00e9","icon":{"prefix":"https:\/\/ss1.4sqi.net\/img\/categories_v2\/food\/cafe_","suffix":".png"},"primary":"true"}],"verified":"false","restricted":"true","stats":{"checkinsCount":"249","usersCount":"29","tipCount":"4"},"specials":{"count":"0"},"hereNow":{"count":"0"},"referralId":"v-1392477981"},{"id":"5238559d11d21860b7d45460","name":"Fierce Grace","contact":{"phone":"+442073366330","formattedPhone":"+44 20 7336 6330","twitter":"fiercegraceyoga"},"location":{"address":"53-55 East Road","lat":"51.52833050836065","lng":"-0.08769324940793477","distance":"106","postalCode":"N1 6AH","cc":"GB","city":"London","state":"Greater London","country":"United Kingdom"},"categories":[{"id":"4bf58dd8d48988d102941735","name":"Yoga Studio","pluralName":"Yoga Studios","shortName":"Yoga Studio","icon":{"prefix":"https:\/\/ss1.4sqi.net\/img\/categories_v2\/shops\/gym_yogastudio_","suffix":".png"},"primary":"true"}],"verified":"false","restricted":"true","stats":{"checkinsCount":"68","usersCount":"23","tipCount":"0"},"url":"http:\/\/www.bikramyoga.co.uk","specials":{"count":"0"},"hereNow":{"count":"0"},"referralId":"v-1392477981"},{"id":"4e1d4fd41f6e47e5e7965ee3","name":"MEH Admin Office","location":{"address":"Provost Street","lat":"51.528714","lng":"-0.088454","distance":"78","cc":"GB","city":"Hackney","state":"Greater London","country":"United Kingdom"},"categories":[{"id":"4bf58dd8d48988d124941735","name":"Office","pluralName":"Offices","shortName":"Office","icon":{"prefix":"https:\/\/ss1.4sqi.net\/img\/categories_v2\/building\/default_","suffix":".png"},"primary":"true"}],"verified":"false","restricted":"true","stats":{"checkinsCount":"237","usersCount":"4","tipCount":"0"},"specials":{"count":"0"},"hereNow":{"count":"0"},"referralId":"v-1392477981"},{"id":"4ea1574530f8b9d5abdcca62","name":"Nile Dental Center","location":{"lat":"51.52939341387786","lng":"-0.08740383359356262","distance":"29","cc":"GB","city":"Hackney","state":"Greater London","country":"United Kingdom"},"categories":[{"id":"4bf58dd8d48988d178941735","name":"Dentist's Office","pluralName":"Dentist's Offices","shortName":"Dentist's Office","icon":{"prefix":"https:\/\/ss1.4sqi.net\/img\/categories_v2\/building\/medical_dentist_","suffix":".png"},"primary":"true"}],"verified":"false","restricted":"true","stats":{"checkinsCount":"10","usersCount":"5","tipCount":"0"},"specials":{"count":"0"},"hereNow":{"count":"0"},"referralId":"v-1392477981"},{"id":"4bae8e4af964a52039c03be3","name":"Bikram Yoga City","location":{"address":"6\/8 Vestry St.","lat":"51.52853076667399","lng":"-0.08789512973187444","distance":"84","postalCode":"N1 7RE","cc":"GB","city":"Islington","state":"Greater London","country":"United Kingdom"},"categories":[{"id":"4bf58dd8d48988d102941735","name":"Yoga Studio","pluralName":"Yoga Studios","shortName":"Yoga Studio","icon":{"prefix":"https:\/\/ss1.4sqi.net\/img\/categories_v2\/shops\/gym_yogastudio_","suffix":".png"},"primary":"true"}],"verified":"false","restricted":"true","stats":{"checkinsCount":"781","usersCount":"146","tipCount":"11"},"specials":{"count":"0"},"hereNow":{"count":"0"},"referralId":"v-1392477981"},{"id":"4d55b52a611aa35d28083839","name":"urbanest Hoxton","contact":{"phone":"+442070427890","formattedPhone":"+44 20 7042 7890","twitter":"urbanestuk"},"location":{"address":"100 East Road","crossStreet":"Bevenden Street","lat":"51.52977173499891","lng":"-0.08675656645121226","distance":"90","postalCode":"N1 6AA","cc":"GB","city":"Hackney","state":"Greater London","country":"United Kingdom"},"categories":[{"id":"4bf58dd8d48988d1a3941735","name":"College Residence Hall","pluralName":"College Residence Halls","shortName":"Residence Hall","icon":{"prefix":"https:\/\/ss1.4sqi.net\/img\/categories_v2\/education\/residencehall_","suffix":".png"},"primary":"true"}],"verified":"true","restricted":"true","stats":{"checkinsCount":"1022","usersCount":"145","tipCount":"0"},"url":"http:\/\/www.urbanest.co.uk","specials":{"count":"0"},"hereNow":{"count":"0"},"venuePage":{"id":"33128140"},"storeId":"HOX","referralId":"v-1392477981"},{"id":"521ddf0211d28a357eb7f5b0","name":"BL-NK","location":{"address":"37 East Street","lat":"51.52796036934994","lng":"-0.08832442555714784","distance":"152","cc":"GB","country":"United Kingdom"},"categories":[{"id":"4bf58dd8d48988d171941735","name":"Event Space","pluralName":"Event Spaces","shortName":"Event Space","icon":{"prefix":"https:\/\/ss1.4sqi.net\/img\/categories_v2\/building\/eventspace_","suffix":".png"},"primary":"true"}],"verified":"false","restricted":"true","stats":{"checkinsCount":"220","usersCount":"189","tipCount":"0"},"specials":{"count":"0"},"hereNow":{"count":"0"},"referralId":"v-1392477981"},{"id":"52b07646498ea90b63a7a58d","name":"Drakes Factory Shop","location":{"address":"3 Haberdasher Street","crossStreet":"East road","lat":"51.529088","lng":"-0.087169","distance":"49","postalCode":"N1","cc":"GB","city":"London","state":"Greater London","country":"United Kingdom"},"categories":[{"id":"4bf58dd8d48988d106951735","name":"Men's Store","pluralName":"Men's Stores","shortName":"Men's Store","icon":{"prefix":"https:\/\/ss1.4sqi.net\/img\/categories_v2\/shops\/apparel_men_","suffix":".png"},"primary":"true"}],"verified":"false","restricted":"true","stats":{"checkinsCount":"3","usersCount":"3","tipCount":"0"},"specials":{"count":"0"},"hereNow":{"count":"0"},"referralId":"v-1392477981"},{"id":"4eca51256da1d10931d99e98","name":"Change.org","contact":{"twitter":"change"},"location":{"address":"49-51 East Road","lat":"51.52830355639314","lng":"-0.08782625198364258","distance":"109","postalCode":"N1 6AH","cc":"GB","city":"London","state":"Greater London","country":"United Kingdom"},"categories":[{"id":"4bf58dd8d48988d125941735","name":"Tech Startup","pluralName":"Tech Startups","shortName":"Tech Startup","icon":{"prefix":"https:\/\/ss1.4sqi.net\/img\/categories_v2\/shops\/technology_","suffix":".png"},"primary":"true"}],"verified":"false","restricted":"true","stats":{"checkinsCount":"317","usersCount":"8","tipCount":"0"},"specials":{"count":"0"},"hereNow":{"count":"0"},"referralId":"v-1392477981"},{"id":"4e120864c65b4a49f3126b47","name":"London Fight Factory","location":{"lat":"51.52837014186934","lng":"-0.08931732935993762","distance":"146","cc":"GB","city":"Hackney","state":"Greater London","country":"United Kingdom"},"categories":[{"id":"4bf58dd8d48988d176941735","name":"Gym","pluralName":"Gyms","shortName":"Gym","icon":{"prefix":"https:\/\/ss1.4sqi.net\/img\/categories_v2\/building\/gym_","suffix":".png"},"primary":"true"}],"verified":"false","restricted":"true","stats":{"checkinsCount":"340","usersCount":"44","tipCount":"1"},"specials":{"count":"0"},"hereNow":{"count":"1","groups":[{"type":"others","name":"Other people here","count":"1"}]},"referralId":"v-1392477981"},{"id":"4be0a10b652b0f47dc127311","name":"Fortress","contact":{"phone":"+442072516200","formattedPhone":"+44 20 7251 6200"},"location":{"address":"34-38 Provost St","lat":"51.52851485702223","lng":"-0.08837140867380448","distance":"94","postalCode":"N1 7NG","cc":"GB","city":"London","state":"Greater London","country":"United Kingdom"},"categories":[{"id":"4bf58dd8d48988d1f2931735","name":"Performing Arts Venue","pluralName":"Performing Arts Venues","shortName":"Performing Arts","icon":{"prefix":"https:\/\/ss1.4sqi.net\/img\/categories_v2\/arts_entertainment\/default_","suffix":".png"},"primary":"true"}],"verified":"false","restricted":"true","stats":{"checkinsCount":"332","usersCount":"56","tipCount":"2"},"specials":{"count":"0"},"hereNow":{"count":"0"},"referralId":"v-1392477981"},{"id":"4b59e8faf964a52029a028e3","name":"Duke of Wellington","location":{"address":"71 Nile St.","lat":"51.529331","lng":"-0.087714","distance":"7","postalCode":"N1 7RD","cc":"GB","city":"London","state":"Greater London","country":"United Kingdom"},"categories":[{"id":"4bf58dd8d48988d11b941735","name":"Pub","pluralName":"Pubs","shortName":"Pub","icon":{"prefix":"https:\/\/ss1.4sqi.net\/img\/categories_v2\/nightlife\/pub_","suffix":".png"},"primary":"true"}],"verified":"false","restricted":"true","stats":{"checkinsCount":"130","usersCount":"26","tipCount":"1"},"specials":{"count":"0"},"hereNow":{"count":"0"},"referralId":"v-1392477981"},{"id":"5052224de4b0bdd5e8fd0767","name":"iQ Shoreditch","location":{"address":"2 Silicon Way","crossStreet":"East Road","lat":"51.52771469744138","lng":"-0.08758209698943517","distance":"175","cc":"GB","city":"London","state":"Greater London","country":"United Kingdom"},"categories":[{"id":"4bf58dd8d48988d1a3941735","name":"College Residence Hall","pluralName":"College Residence Halls","shortName":"Residence Hall","icon":{"prefix":"https:\/\/ss1.4sqi.net\/img\/categories_v2\/education\/residencehall_","suffix":".png"},"primary":"true"}],"verified":"false","restricted":"true","stats":{"checkinsCount":"753","usersCount":"115","tipCount":"0"},"specials":{"count":"0"},"hereNow":{"count":"0"},"referralId":"v-1392477981"},{"id":"4ea69f5b6d868470b363df6d","name":"iQ London Shoreditch Student Accommodation","contact":{"phone":"+447852223604","formattedPhone":"+44 7852 223604"},"location":{"address":"10 East Road","crossStreet":"Chart Street","lat":"51.52800986825475","lng":"-0.08763313293457031","distance":"142","cc":"GB","city":"London","state":"Greater London","country":"United Kingdom"},"categories":[{"id":"4bf58dd8d48988d1a3941735","name":"College Residence Hall","pluralName":"College Residence Halls","shortName":"Residence Hall","icon":{"prefix":"https:\/\/ss1.4sqi.net\/img\/categories_v2\/education\/residencehall_","suffix":".png"},"primary":"true"}],"verified":"true","restricted":"true","stats":{"checkinsCount":"354","usersCount":"64","tipCount":"0"},"url":"http:\/\/www.iq-student-accommodation.com\/student-accommodation\/shoreditch","specials":{"count":"0"},"hereNow":{"count":"0"},"storeId":"","referralId":"v-1392477981"},{"id":"52dfb5b7498e92adf4bd14df","name":"urbanis","location":{"lat":"51.529572941098266","lng":"-0.0877947507808595","distance":"31","cc":"GB","country":"United Kingdom"},"categories":[{"id":"4bf58dd8d48988d130941735","name":"Building","pluralName":"Buildings","shortName":"Building","icon":{"prefix":"https:\/\/ss1.4sqi.net\/img\/categories_v2\/building\/default_","suffix":".png"},"primary":"true"}],"verified":"false","restricted":"true","stats":{"checkinsCount":"1","usersCount":"1","tipCount":"0"},"specials":{"count":"0"},"hereNow":{"count":"0"},"referralId":"v-1392477981"},{"id":"4c61097ede6920a1ab699764","name":"Can Mezzanine Old Street","location":{"lat":"51.52829591","lng":"-0.08795499801635742","distance":"111","cc":"GB","country":"United Kingdom"},"categories":[{"id":"4bf58dd8d48988d174941735","name":"Coworking Space","pluralName":"Coworking Spaces","shortName":"Coworking Space","icon":{"prefix":"https:\/\/ss1.4sqi.net\/img\/categories_v2\/building\/office_coworkingspace_","suffix":".png"},"primary":"true"}],"verified":"false","restricted":"true","stats":{"checkinsCount":"325","usersCount":"86","tipCount":"5"},"specials":{"count":"0"},"hereNow":{"count":"0"},"referralId":"v-1392477981"},{"id":"503367ece4b0982035f7d20a","name":"Wenlock TMO","location":{"lat":"51.528299754069906","lng":"-0.08762426392095687","distance":"110","cc":"GB","country":"United Kingdom"},"categories":[{"id":"4bf58dd8d48988d126941735","name":"Government Building","pluralName":"Government Buildings","shortName":"Government","icon":{"prefix":"https:\/\/ss1.4sqi.net\/img\/categories_v2\/building\/government_","suffix":".png"},"primary":"true"}],"verified":"false","restricted":"true","stats":{"checkinsCount":"9","usersCount":"1","tipCount":"0"},"specials":{"count":"0"},"hereNow":{"count":"0"},"referralId":"v-1392477981"},{"id":"4b2253fff964a5209b4524e3","name":"Chariots","location":{"address":"Fairchild St.","lat":"51.52842912074675","lng":"-0.08627641707406257","distance":"142","postalCode":"EC2A 3NS","cc":"GB","city":"Shoreditch","state":"Greater London","country":"United Kingdom"},"categories":[{"id":"4bf58dd8d48988d1ed941735","name":"Spa","pluralName":"Spas","shortName":"Spa","icon":{"prefix":"https:\/\/ss1.4sqi.net\/img\/categories_v2\/shops\/spa_","suffix":".png"},"primary":"true"}],"verified":"false","restricted":"true","stats":{"checkinsCount":"369","usersCount":"102","tipCount":"8"},"specials":{"count":"0"},"hereNow":{"count":"0"},"referralId":"v-1392477981"},{"id":"4f96ac7d7beb0b352af8d4c6","name":"British Youth Council","contact":{"phone":"+448454581489","formattedPhone":"+44 845 458 1489","twitter":"byclive"},"location":{"address":"CAN Mezzanine","crossStreet":"49-51 East Road","lat":"51.528250158690696","lng":"-0.08785843849182129","distance":"115","postalCode":"N1 6AH","cc":"GB","city":"London","state":"Greater London","country":"United Kingdom"},"categories":[{"id":"50328a8e91d4c4b30a586d6c","name":"Non-Profit","pluralName":"Non-Profits","shortName":"Non-Profit","icon":{"prefix":"https:\/\/ss1.4sqi.net\/img\/categories_v2\/building\/default_","suffix":".png"},"primary":"true"}],"verified":"true","restricted":"true","stats":{"checkinsCount":"155","usersCount":"6","tipCount":"3"},"url":"http:\/\/www.byc.org.uk","specials":{"count":"0"},"hereNow":{"count":"0"},"venuePage":{"id":"49144741"},"referralId":"v-1392477981"},{"id":"4acf3101f964a520add220e3","name":"The Nile Cafe","location":{"address":"72 Nile Street","lat":"51.529357","lng":"-0.088051","distance":"18","postalCode":"N1 7RD","cc":"GB","city":"London","state":"Greater London","country":"United Kingdom"},"categories":[{"id":"4bf58dd8d48988d16d941735","name":"Caf\u00e9","pluralName":"Caf\u00e9s","shortName":"Caf\u00e9","icon":{"prefix":"https:\/\/ss1.4sqi.net\/img\/categories_v2\/food\/cafe_","suffix":".png"},"primary":"true"}],"verified":"false","restricted":"true","stats":{"checkinsCount":"67","usersCount":"38","tipCount":"3"},"specials":{"count":"0"},"hereNow":{"count":"0"},"referralId":"v-1392477981"},{"id":"523c792011d288f64b94eafb","name":"BL_NK","location":{"lat":"51.52808356974932","lng":"-0.0878529719716975","distance":"134","cc":"GB","country":"United Kingdom"},"categories":[{"id":"4bf58dd8d48988d1e2931735","name":"Art Gallery","pluralName":"Art Galleries","shortName":"Art Gallery","icon":{"prefix":"https:\/\/ss1.4sqi.net\/img\/categories_v2\/arts_entertainment\/artgallery_","suffix":".png"},"primary":"true"}],"verified":"false","restricted":"true","stats":{"checkinsCount":"16","usersCount":"15","tipCount":"0"},"specials":{"count":"0"},"hereNow":{"count":"0"},"referralId":"v-1392477981"},{"id":"4c404549cc410f472551a961","name":"Hollywood Cafe","location":{"lat":"51.529315","lng":"-0.087504","distance":"20","cc":"GB","country":"United Kingdom"},"categories":[{"id":"4bf58dd8d48988d16d941735","name":"Caf\u00e9","pluralName":"Caf\u00e9s","shortName":"Caf\u00e9","icon":{"prefix":"https:\/\/ss1.4sqi.net\/img\/categories_v2\/food\/cafe_","suffix":".png"},"primary":"true"}],"verified":"false","restricted":"true","stats":{"checkinsCount":"29","usersCount":"19","tipCount":"1"},"specials":{"count":"0"},"hereNow":{"count":"0"},"referralId":"v-1392477981"},{"id":"4cf11b7394feb1f7b63615ba","name":"Gym","location":{"address":"Fitness First","lat":"51.528555468398885","lng":"-0.08899682297417404","distance":"116","cc":"GB","city":"London","state":"Greater London","country":"United Kingdom"},"categories":[{"id":"4bf58dd8d48988d175941735","name":"Gym \/ Fitness Center","pluralName":"Gyms or Fitness Centers","shortName":"Gym \/ Fitness","icon":{"prefix":"https:\/\/ss1.4sqi.net\/img\/categories_v2\/building\/gym_","suffix":".png"},"primary":"true"}],"verified":"false","restricted":"true","stats":{"checkinsCount":"27","usersCount":"16","tipCount":"0"},"specials":{"count":"0"},"hereNow":{"count":"0"},"referralId":"v-1392477981"},{"id":"51dbf2a4498ef84c30a0a60e","name":"Steinberg Media Technologies GmbH","location":{"address":"Nile Street","lat":"51.52907331347975","lng":"-0.08956235243275414","distance":"124","postalCode":"N1 7TU","cc":"GB","city":"London","state":"Greater London","country":"United Kingdom"},"categories":[{"id":"4bf58dd8d48988d124941735","name":"Office","pluralName":"Offices","shortName":"Office","icon":{"prefix":"https:\/\/ss1.4sqi.net\/img\/categories_v2\/building\/default_","suffix":".png"},"primary":"true"}],"verified":"false","restricted":"true","stats":{"checkinsCount":"49","usersCount":"3","tipCount":"0"},"specials":{"count":"0"},"hereNow":{"count":"0"},"referralId":"v-1392477981"}],"confident":"false"}}