{"meta":{"code":"200"},"response":{"venues":[{"id":"4acbc300f964a52058c520e3","name":"London Euston Railway Station (EUS)","contact":{"phone":"+448457484950","formattedPhone":"+44 845 748 4950","twitter":"nationalrailenq","facebook":"94740547473"},"location":{"address":"Euston Rd","lat":"51.5284370503752","lng":"-0.13402462005615234","distance":"127","postalCode":"NW1 2RT","cc":"GB","city":"London","state":"Greater London","country":"United Kingdom"},"categories":[{"id":"4bf58dd8d48988d129951735","name":"Train Station","pluralName":"Train Stations","shortName":"Train Station","icon":{"prefix":"https:\/\/ss1.4sqi.net\/img\/categories_v2\/travel\/trainstation_","suffix":".png"},"primary":"true"}],"verified":"true","restricted":"true","stats":{"checkinsCount":"104323","usersCount":"27996","tipCount":"244"},"url":"http:\/\/www.nationalrail.co.uk\/stations\/eus\/details.html","specials":{"count":"0"},"hereNow":{"count":"8","groups":[{"type":"others","name":"Other people here","count":"8"}]},"storeId":"EUS","referralId":"v-1392477976"},{"id":"4b0bdd05f964a5203a3423e3","name":"Great Nepalese","contact":{"phone":"+442073886737","formattedPhone":"+44 20 7388 6737"},"location":{"address":"48 Eversholt Street","lat":"51.529131","lng":"-0.132753","distance":"17","postalCode":"NW1 1DA","cc":"GB","city":"Camden","state":"Greater London","country":"United Kingdom"},"categories":[{"id":"4bf58dd8d48988d1c4941735","name":"Restaurant","pluralName":"Restaurants","shortName":"Restaurant","icon":{"prefix":"https:\/\/ss1.4sqi.net\/img\/categories_v2\/food\/default_","suffix":".png"},"primary":"true"}],"verified":"false","restricted":"true","stats":{"checkinsCount":"102","usersCount":"89","tipCount":"3"},"menu":{"type":"Menu","label":"Menu","anchor":"View Menu","url":"https:\/\/foursquare.com\/v\/great-nepalese\/4b0bdd05f964a5203a3423e3\/menu","mobileUrl":"https:\/\/foursquare.com\/v\/4b0bdd05f964a5203a3423e3\/device_menu"},"specials":{"count":"0"},"hereNow":{"count":"0"},"referralId":"v-1392477976"},{"id":"4f96f74ee4b0722f51aef004","name":"Platform 1","location":{"address":"London Euston Railway Station","crossStreet":"Euston Rd.","lat":"51.52927395160018","lng":"-0.13333585485658922","distance":"36","cc":"GB","city":"Euston","state":"Greater London","country":"United Kingdom"},"categories":[{"id":"4f4531504b9074f6e4fb0102","name":"Platform","pluralName":"Platforms","shortName":"Platform","icon":{"prefix":"https:\/\/ss1.4sqi.net\/img\/categories_v2\/travel\/trainstation_","suffix":".png"},"primary":"true"}],"verified":"false","restricted":"true","stats":{"checkinsCount":"290","usersCount":"205","tipCount":"0"},"specials":{"count":"0"},"hereNow":{"count":"0"},"referralId":"v-1392477976"},{"id":"4b1c0375f964a520b30024e3","name":"Virgin Trains First Class Lounge","location":{"address":"London Euston Station (EUS)","lat":"51.52826350812219","lng":"-0.133209228515625","distance":"117","postalCode":"NW1 2RT","cc":"GB","city":"London","state":"Greater London","country":"United Kingdom"},"categories":[{"id":"4f04b25d2fb6e1c99f3db0c0","name":"Travel Lounge","pluralName":"Travel Lounges","shortName":"Lounge","icon":{"prefix":"https:\/\/ss1.4sqi.net\/img\/categories_v2\/travel\/lounge_","suffix":".png"},"primary":"true"}],"verified":"false","restricted":"true","stats":{"checkinsCount":"4197","usersCount":"2265","tipCount":"71"},"specials":{"count":"0"},"hereNow":{"count":"0"},"referralId":"v-1392477976"},{"id":"4ad991e4f964a5204e1a21e3","name":"Double Six Cafe","location":{"address":"Eversholt St","lat":"51.52942761141764","lng":"-0.13309469780110733","distance":"25","postalCode":"NW1 1","cc":"GB","city":"Camden Town","state":"Greater London","country":"United Kingdom"},"categories":[{"id":"4bf58dd8d48988d16d941735","name":"Caf\u00e9","pluralName":"Caf\u00e9s","shortName":"Caf\u00e9","icon":{"prefix":"https:\/\/ss1.4sqi.net\/img\/categories_v2\/food\/cafe_","suffix":".png"},"primary":"true"}],"verified":"false","restricted":"true","stats":{"checkinsCount":"59","usersCount":"16","tipCount":"1"},"specials":{"count":"0"},"hereNow":{"count":"0"},"referralId":"v-1392477976"},{"id":"4f7d90f6e4b0783d0162379c","name":"Ec London-Euston","location":{"address":"24 Eversholt St","lat":"51.52873551562006","lng":"-0.13200222365109512","distance":"82","cc":"GB","city":"London","state":"Greater London","country":"United Kingdom"},"categories":[{"id":"4bf58dd8d48988d1ab941735","name":"Student Center","pluralName":"Student Centers","shortName":"Student Center","icon":{"prefix":"https:\/\/ss1.4sqi.net\/img\/categories_v2\/education\/studentcenter_","suffix":".png"},"primary":"true"}],"verified":"false","restricted":"true","stats":{"checkinsCount":"766","usersCount":"160","tipCount":"0"},"specials":{"count":"0"},"hereNow":{"count":"0"},"referralId":"v-1392477976"},{"id":"4b154b3af964a52074aa23e3","name":"Caff\u00e8 Nero","contact":{"phone":"+442073889810","formattedPhone":"+44 20 7388 9810","twitter":"caffenero"},"location":{"address":"London Euston Station (EUS)","lat":"51.52819676092564","lng":"-0.1336812973022461","distance":"135","postalCode":"NW1 2RT","cc":"GB","city":"London","state":"Greater London","country":"United Kingdom"},"categories":[{"id":"4bf58dd8d48988d1e0931735","name":"Coffee Shop","pluralName":"Coffee Shops","shortName":"Coffee Shop","icon":{"prefix":"https:\/\/ss1.4sqi.net\/img\/categories_v2\/food\/coffeeshop_","suffix":".png"},"primary":"true"}],"verified":"false","restricted":"true","stats":{"checkinsCount":"2659","usersCount":"1665","tipCount":"26"},"url":"http:\/\/www.caffenero.com","menu":{"type":"Menu","label":"Menu","anchor":"View Menu","url":"https:\/\/foursquare.com\/v\/caff%C3%A8-nero\/4b154b3af964a52074aa23e3\/menu","mobileUrl":"https:\/\/foursquare.com\/v\/4b154b3af964a52074aa23e3\/device_menu"},"specials":{"count":"0"},"hereNow":{"count":"1","groups":[{"type":"others","name":"Other people here","count":"1"}]},"referralId":"v-1392477976"},{"id":"4b55b8c9f964a52030ed27e3","name":"Nando's","contact":{"twitter":"nandosuk"},"location":{"address":"Unit 5 The Piazza Euston Railway Station","crossStreet":"Euston Rd.","lat":"51.528089965207634","lng":"-0.13370275497436523","distance":"147","postalCode":"NW1 2RT","cc":"GB","city":"London","state":"Greater London","country":"United Kingdom"},"categories":[{"id":"4def73e84765ae376e57713a","name":"Portuguese Restaurant","pluralName":"Portuguese Restaurants","shortName":"Portuguese","icon":{"prefix":"https:\/\/ss1.4sqi.net\/img\/categories_v2\/food\/default_","suffix":".png"},"primary":"true"}],"verified":"true","restricted":"true","stats":{"checkinsCount":"2378","usersCount":"1662","tipCount":"16"},"url":"http:\/\/www.nandos.co.uk","specials":{"count":"0"},"hereNow":{"count":"0"},"storeId":"N193","referralId":"v-1392477976"},{"id":"4afc6311f964a520272222e3","name":"Prince Arthur","contact":{"phone":"+442073872165","formattedPhone":"+44 20 7387 2165"},"location":{"address":"80-82 Eversholt St","crossStreet":"at Phoenix Rd","lat":"51.52977","lng":"-0.133496","distance":"71","postalCode":"NW1 1BX","cc":"GB","city":"Euston","state":"Greater London","country":"United Kingdom"},"categories":[{"id":"4bf58dd8d48988d11b941735","name":"Pub","pluralName":"Pubs","shortName":"Pub","icon":{"prefix":"https:\/\/ss1.4sqi.net\/img\/categories_v2\/nightlife\/pub_","suffix":".png"},"primary":"true"}],"verified":"false","restricted":"true","stats":{"checkinsCount":"508","usersCount":"301","tipCount":"5"},"url":"http:\/\/www.princearthur.co.uk","specials":{"count":"0"},"hereNow":{"count":"0"},"referralId":"v-1392477976"},{"id":"4fc2154ae4b08acecbac155c","name":"Hint Hunt","location":{"lat":"51.52966352478429","lng":"-0.13342914099660377","distance":"60","cc":"GB","country":"United Kingdom"},"categories":[{"id":"4bf58dd8d48988d171941735","name":"Event Space","pluralName":"Event Spaces","shortName":"Event Space","icon":{"prefix":"https:\/\/ss1.4sqi.net\/img\/categories_v2\/building\/eventspace_","suffix":".png"},"primary":"true"}],"verified":"false","restricted":"true","stats":{"checkinsCount":"95","usersCount":"93","tipCount":"2"},"specials":{"count":"0"},"hereNow":{"count":"0"},"referralId":"v-1392477976"},{"id":"4b0a3327f964a520652223e3","name":"Marks & Spencer Simply Food","contact":{"phone":"+442073888798","formattedPhone":"+44 20 7388 8798"},"location":{"address":"London Euston Railway Station (EUS)","lat":"51.528186368029594","lng":"-0.13276613710899102","distance":"122","postalCode":"NW1 2HS","cc":"GB","city":"London","state":"Greater London","country":"United Kingdom"},"categories":[{"id":"4bf58dd8d48988d1f9941735","name":"Food & Drink Shop","pluralName":"Food & Drink Shops","shortName":"Food & Drink","icon":{"prefix":"https:\/\/ss1.4sqi.net\/img\/categories_v2\/shops\/foodanddrink_","suffix":".png"},"primary":"true"}],"verified":"true","restricted":"true","stats":{"checkinsCount":"1783","usersCount":"835","tipCount":"4"},"url":"http:\/\/www.marksandspencer.com","specials":{"count":"0"},"hereNow":{"count":"0"},"storeId":"Euston Station Simply Food","referralId":"v-1392477976"},{"id":"4bb48054bd4b9c7408a932f5","name":"Platform 6","location":{"address":"London Euston Station (EUS)","lat":"51.528892819501095","lng":"-0.13394536214348404","distance":"90","postalCode":"NW1 2RT","cc":"GB","city":"London","state":"Greater London","country":"United Kingdom"},"categories":[{"id":"4f4531504b9074f6e4fb0102","name":"Platform","pluralName":"Platforms","shortName":"Platform","icon":{"prefix":"https:\/\/ss1.4sqi.net\/img\/categories_v2\/travel\/trainstation_","suffix":".png"},"primary":"true"}],"verified":"false","restricted":"true","stats":{"checkinsCount":"1010","usersCount":"504","tipCount":"4"},"specials":{"count":"0"},"hereNow":{"count":"0"},"referralId":"v-1392477976"},{"id":"4b5dabe0f964a520196629e3","name":"Learning Tree","location":{"lat":"51.52869993695586","lng":"-0.13187922452424142","distance":"91","cc":"GB","country":"United Kingdom"},"categories":[{"id":"4bf58dd8d48988d124941735","name":"Office","pluralName":"Offices","shortName":"Office","icon":{"prefix":"https:\/\/ss1.4sqi.net\/img\/categories_v2\/building\/default_","suffix":".png"},"primary":"true"}],"verified":"false","restricted":"true","stats":{"checkinsCount":"730","usersCount":"248","tipCount":"2"},"specials":{"count":"0"},"hereNow":{"count":"0"},"referralId":"v-1392477976"},{"id":"4b8575e9f964a520685f31e3","name":"Platform 5","location":{"address":"London Euston Station (EUS)","lat":"51.528570543965884","lng":"-0.13308048248291016","distance":"82","postalCode":"NW1 2RT","cc":"GB","city":"London","state":"Greater London","country":"United Kingdom"},"categories":[{"id":"4f4531504b9074f6e4fb0102","name":"Platform","pluralName":"Platforms","shortName":"Platform","icon":{"prefix":"https:\/\/ss1.4sqi.net\/img\/categories_v2\/travel\/trainstation_","suffix":".png"},"primary":"true"}],"verified":"false","restricted":"true","stats":{"checkinsCount":"973","usersCount":"472","tipCount":"4"},"specials":{"count":"0"},"hereNow":{"count":"0"},"referralId":"v-1392477976"},{"id":"4c0f948796fc952119efc0cb","name":"Platform 4","location":{"address":"London Euston Station (EUS)","lat":"51.52829020697338","lng":"-0.1338958740234375","distance":"134","postalCode":"NW1 2RT","cc":"GB","city":"London","state":"Greater London","country":"United Kingdom"},"categories":[{"id":"4f4531504b9074f6e4fb0102","name":"Platform","pluralName":"Platforms","shortName":"Platform","icon":{"prefix":"https:\/\/ss1.4sqi.net\/img\/categories_v2\/travel\/trainstation_","suffix":".png"},"primary":"true"}],"verified":"false","restricted":"true","stats":{"checkinsCount":"614","usersCount":"383","tipCount":"1"},"specials":{"count":"0"},"hereNow":{"count":"0"},"referralId":"v-1392477976"},{"id":"4baf5fa8f964a52029fb3be3","name":"Ed's Easy Diner","contact":{"phone":"+442073886967","formattedPhone":"+44 20 7388 6967","twitter":"eds_easy_diner"},"location":{"address":"The Piazza, London Euston Station (EUS)","lat":"51.52756933249509","lng":"-0.13269424438476562","distance":"191","postalCode":"NW1 2DY","cc":"GB","city":"London","state":"Greater London","country":"United Kingdom"},"categories":[{"id":"4bf58dd8d48988d147941735","name":"Diner","pluralName":"Diners","shortName":"Diner","icon":{"prefix":"https:\/\/ss1.4sqi.net\/img\/categories_v2\/food\/diner_","suffix":".png"},"primary":"true"}],"verified":"true","restricted":"true","stats":{"checkinsCount":"2089","usersCount":"1522","tipCount":"44"},"url":"http:\/\/www.edseasydiner.com\/location\/euston.php","menu":{"type":"Menu","label":"Menu","anchor":"View Menu","url":"https:\/\/foursquare.com\/v\/eds-easy-diner\/4baf5fa8f964a52029fb3be3\/menu","mobileUrl":"https:\/\/foursquare.com\/v\/4baf5fa8f964a52029fb3be3\/device_menu"},"specials":{"count":"0"},"hereNow":{"count":"1","groups":[{"type":"others","name":"Other people here","count":"1"}]},"storeId":"","referralId":"v-1392477976"},{"id":"4c8b2ba93dc2a1cd5625b432","name":"Euston Piazza","location":{"address":"Euston Sq.","lat":"51.527796275691486","lng":"-0.13286590576171875","distance":"166","postalCode":"NW1 2BN","cc":"GB","city":"Euston","state":"Greater London","country":"United Kingdom"},"categories":[{"id":"4bf58dd8d48988d164941735","name":"Plaza","pluralName":"Plazas","shortName":"Plaza","icon":{"prefix":"https:\/\/ss1.4sqi.net\/img\/categories_v2\/parks_outdoors\/plaza_","suffix":".png"},"primary":"true"}],"verified":"false","restricted":"true","stats":{"checkinsCount":"1913","usersCount":"813","tipCount":"3"},"specials":{"count":"0"},"hereNow":{"count":"0"},"referralId":"v-1392477976"},{"id":"4c0f94b796fc952123efc0cb","name":"Platform 8","location":{"address":"London Euston Station (EUS)","lat":"51.5283703034331","lng":"-0.13406753540039062","distance":"134","postalCode":"NW1 2RT","cc":"GB","city":"London","state":"Greater London","country":"United Kingdom"},"categories":[{"id":"4f4531504b9074f6e4fb0102","name":"Platform","pluralName":"Platforms","shortName":"Platform","icon":{"prefix":"https:\/\/ss1.4sqi.net\/img\/categories_v2\/travel\/trainstation_","suffix":".png"},"primary":"true"}],"verified":"false","restricted":"true","stats":{"checkinsCount":"1526","usersCount":"499","tipCount":"1"},"specials":{"count":"0"},"hereNow":{"count":"0"},"referralId":"v-1392477976"},{"id":"4bf4b8d2cad2c92821529c99","name":"Platform 14","location":{"address":"London Euston Station (EUS)","lat":"51.528637290614434","lng":"-0.13449668884277344","distance":"137","postalCode":"NW1 2RT","cc":"GB","city":"London","state":"Greater London","country":"United Kingdom"},"categories":[{"id":"4f4531504b9074f6e4fb0102","name":"Platform","pluralName":"Platforms","shortName":"Platform","icon":{"prefix":"https:\/\/ss1.4sqi.net\/img\/categories_v2\/travel\/trainstation_","suffix":".png"},"primary":"true"}],"verified":"false","restricted":"true","stats":{"checkinsCount":"1260","usersCount":"671","tipCount":"6"},"specials":{"count":"0"},"hereNow":{"count":"0"},"referralId":"v-1392477976"},{"id":"4b956cb7f964a520dca134e3","name":"Platform 3","location":{"address":"London Euston Station (EUS)","lat":"51.52861059196677","lng":"-0.13355255126953125","distance":"91","postalCode":"NW1 2RT","cc":"GB","city":"London","state":"Greater London","country":"United Kingdom"},"categories":[{"id":"4f4531504b9074f6e4fb0102","name":"Platform","pluralName":"Platforms","shortName":"Platform","icon":{"prefix":"https:\/\/ss1.4sqi.net\/img\/categories_v2\/travel\/trainstation_","suffix":".png"},"primary":"true"}],"verified":"false","restricted":"true","stats":{"checkinsCount":"775","usersCount":"334","tipCount":"1"},"specials":{"count":"0"},"hereNow":{"count":"0"},"referralId":"v-1392477976"},{"id":"4bfafb9465fbc9b67bce906c","name":"Platform 10","location":{"address":"London Euston Station (EUS)","lat":"51.52877078361801","lng":"-0.13404607772827148","distance":"103","postalCode":"NW1 2RT","cc":"GB","city":"London","state":"Greater London","country":"United Kingdom"},"categories":[{"id":"4f4531504b9074f6e4fb0102","name":"Platform","pluralName":"Platforms","shortName":"Platform","icon":{"prefix":"https:\/\/ss1.4sqi.net\/img\/categories_v2\/travel\/trainstation_","suffix":".png"},"primary":"true"}],"verified":"false","restricted":"true","stats":{"checkinsCount":"1535","usersCount":"532","tipCount":"2"},"specials":{"count":"0"},"hereNow":{"count":"0"},"referralId":"v-1392477976"},{"id":"4bf0e8906f8aa5930f60c23c","name":"Platform 7","location":{"address":"London Euston Station (EUS)","lat":"51.52873375432975","lng":"-0.13403898301592493","distance":"105","postalCode":"NW1 2RT","cc":"GB","city":"London","state":"Greater London","country":"United Kingdom"},"categories":[{"id":"4f4531504b9074f6e4fb0102","name":"Platform","pluralName":"Platforms","shortName":"Platform","icon":{"prefix":"https:\/\/ss1.4sqi.net\/img\/categories_v2\/travel\/trainstation_","suffix":".png"},"primary":"true"}],"verified":"false","restricted":"true","stats":{"checkinsCount":"864","usersCount":"462","tipCount":"4"},"specials":{"count":"0"},"hereNow":{"count":"0"},"referralId":"v-1392477976"},{"id":"4b236d33f964a520db5524e3","name":"The Britannia","location":{"address":"London Euston Station (EUS)","lat":"51.527964299748845","lng":"-0.1330704812016058","distance":"148","postalCode":"NW1 2RT","cc":"GB","city":"London","state":"Greater London","country":"United Kingdom"},"categories":[{"id":"4bf58dd8d48988d11b941735","name":"Pub","pluralName":"Pubs","shortName":"Pub","icon":{"prefix":"https:\/\/ss1.4sqi.net\/img\/categories_v2\/nightlife\/pub_","suffix":".png"},"primary":"true"}],"verified":"false","restricted":"true","stats":{"checkinsCount":"1206","usersCount":"821","tipCount":"19"},"specials":{"count":"0"},"hereNow":{"count":"0"},"referralId":"v-1392477976"},{"id":"4bfd0827b68d0f47b51de857","name":"Euston Chinese","location":{"address":"40 Doric way","lat":"51.528958249999995","lng":"-0.132058","distance":"63","postalCode":"NW1 1LH","cc":"GB","city":"London","state":"Greater London","country":"United Kingdom"},"categories":[{"id":"4bf58dd8d48988d145941735","name":"Chinese Restaurant","pluralName":"Chinese Restaurants","shortName":"Chinese","icon":{"prefix":"https:\/\/ss1.4sqi.net\/img\/categories_v2\/food\/chinese_","suffix":".png"},"primary":"true"}],"verified":"false","restricted":"true","stats":{"checkinsCount":"141","usersCount":"40","tipCount":"3"},"specials":{"count":"0"},"hereNow":{"count":"0"},"referralId":"v-1392477976"},{"id":"4d41d30e89616dcb9d1413b5","name":"Caf\u00e9 Rouge","contact":{"phone":"+442073889100","formattedPhone":"+44 20 7388 9100","twitter":"caferougetweet","facebook":"207511922592337"},"location":{"address":"The Piazza, Euston Station,","lat":"51.527758383127136","lng":"-0.13285562927867148","distance":"170","postalCode":"NW1 2RT","cc":"GB","city":"London","state":"Greater London","country":"United Kingdom"},"categories":[{"id":"4bf58dd8d48988d10c941735","name":"French Restaurant","pluralName":"French Restaurants","shortName":"French","icon":{"prefix":"https:\/\/ss1.4sqi.net\/img\/categories_v2\/food\/french_","suffix":".png"},"primary":"true"}],"verified":"true","restricted":"true","stats":{"checkinsCount":"834","usersCount":"624","tipCount":"20"},"url":"http:\/\/www.caferouge.co.uk\/french-restaurant\/euston-express","specials":{"count":"0"},"hereNow":{"count":"0"},"storeId":"8106770","referralId":"v-1392477976"},{"id":"4ba10d71f964a520e19237e3","name":"Platform 2","location":{"address":"London Euston Station (EUS)","lat":"51.529370494650564","lng":"-0.13417603567090117","distance":"95","postalCode":"NW1 2RT","cc":"GB","city":"London","state":"Greater London","country":"United Kingdom"},"categories":[{"id":"4f4531504b9074f6e4fb0102","name":"Platform","pluralName":"Platforms","shortName":"Platform","icon":{"prefix":"https:\/\/ss1.4sqi.net\/img\/categories_v2\/travel\/trainstation_","suffix":".png"},"primary":"true"}],"verified":"false","restricted":"true","stats":{"checkinsCount":"976","usersCount":"480","tipCount":"2"},"specials":{"count":"0"},"hereNow":{"count":"0"},"referralId":"v-1392477976"},{"id":"4b7d0f83f964a52088ad2fe3","name":"Caff\u00e8 Ritazza, Euston Railway Station","contact":{"twitter":"critazza","facebook":"218850398202661"},"location":{"address":"Euston Station","lat":"51.52798028050271","lng":"-0.13304619973233753","distance":"146","postalCode":"NW1 1BF","cc":"GB","city":"Camden Town","state":"Greater London","country":"United Kingdom"},"categories":[{"id":"4bf58dd8d48988d1e0931735","name":"Coffee Shop","pluralName":"Coffee Shops","shortName":"Coffee Shop","icon":{"prefix":"https:\/\/ss1.4sqi.net\/img\/categories_v2\/food\/coffeeshop_","suffix":".png"},"primary":"true"}],"verified":"true","restricted":"true","stats":{"checkinsCount":"886","usersCount":"407","tipCount":"14"},"url":"http:\/\/cafferitazza.com","menu":{"type":"Menu","label":"Menu","anchor":"View Menu","url":"https:\/\/foursquare.com\/v\/caff%C3%A8-ritazza-euston-railway-station\/4b7d0f83f964a52088ad2fe3\/menu","mobileUrl":"https:\/\/foursquare.com\/v\/4b7d0f83f964a52088ad2fe3\/device_menu"},"specials":{"count":"0"},"hereNow":{"count":"0"},"storeId":"1181411","referralId":"v-1392477976"},{"id":"524482d811d2e9cf2feade9b","name":"Doric Lounge","location":{"address":"44 Doric Way","lat":"51.528937","lng":"-0.132483","distance":"45","postalCode":"NW1 1LH","cc":"GB","city":"London","state":"Greater London","country":"United Kingdom"},"categories":[{"id":"4bf58dd8d48988d121941735","name":"Lounge","pluralName":"Lounges","shortName":"Lounge","icon":{"prefix":"https:\/\/ss1.4sqi.net\/img\/categories_v2\/nightlife\/lounge_","suffix":".png"},"primary":"true"}],"verified":"false","restricted":"true","stats":{"checkinsCount":"18","usersCount":"8","tipCount":"0"},"specials":{"count":"0"},"hereNow":{"count":"0"},"referralId":"v-1392477976"},{"id":"4c0f957c96fc952143efc0cb","name":"Platform 16","location":{"address":"London Euston Station (EUS)","lat":"51.52881083144275","lng":"-0.13443231582641602","distance":"124","postalCode":"NW1 2RT","cc":"GB","city":"London","state":"Greater London","country":"United Kingdom"},"categories":[{"id":"4f4531504b9074f6e4fb0102","name":"Platform","pluralName":"Platforms","shortName":"Platform","icon":{"prefix":"https:\/\/ss1.4sqi.net\/img\/categories_v2\/travel\/trainstation_","suffix":".png"},"primary":"true"}],"verified":"false","restricted":"true","stats":{"checkinsCount":"1058","usersCount":"372","tipCount":"0"},"specials":{"count":"0"},"hereNow":{"count":"0"},"referralId":"v-1392477976"},{"id":"4b99338bf964a520546935e3","name":"Platform 9","location":{"address":"London Euston Station (EUS)","lat":"51.52873073575804","lng":"-0.13441085815429688","distance":"127","postalCode":"NW1 2RT","cc":"GB","city":"London","state":"Greater London","country":"United Kingdom"},"categories":[{"id":"4f4531504b9074f6e4fb0102","name":"Platform","pluralName":"Platforms","shortName":"Platform","icon":{"prefix":"https:\/\/ss1.4sqi.net\/img\/categories_v2\/travel\/trainstation_","suffix":".png"},"primary":"true"}],"verified":"false","restricted":"true","stats":{"checkinsCount":"1527","usersCount":"559","tipCount":"5"},"specials":{"count":"0"},"hereNow":{"count":"0"},"referralId":"v-1392477976"}],"confident":"true"}}