{"meta":{"code":"200"},"response":{"venues":[{"id":"4bbf94bb461576b096cc7832","name":"Marlin Apartments","location":{"address":"58 Commercial Road","lat":"51.51480620526641","lng":"-0.06762974748622756","distance":"58","postalCode":"E1 1AJ","cc":"GB","city":"London","state":"Greater London","country":"United Kingdom"},"categories":[{"id":"4bf58dd8d48988d1fa931735","name":"Hotel","pluralName":"Hotels","shortName":"Hotel","icon":{"prefix":"https:\/\/ss1.4sqi.net\/img\/categories_v2\/travel\/hotel_","suffix":".png"},"primary":"true"}],"verified":"false","restricted":"true","stats":{"checkinsCount":"559","usersCount":"166","tipCount":"4"},"specials":{"count":"0"},"hereNow":{"count":"0"},"referralId":"v-1392478022"},{"id":"4c8f2a8ca8de224b6a672d01","name":"Imparando","contact":{"phone":"+442077029033","formattedPhone":"+44 20 7702 9033"},"location":{"address":"56 Commercial Rd","lat":"51.51483867800444","lng":"-0.06759166717529297","distance":"62","postalCode":"E1 1LP","cc":"GB","city":"London","state":"Greater London","country":"United Kingdom"},"categories":[{"id":"4bf58dd8d48988d1a0941735","name":"College Classroom","pluralName":"College Classrooms","shortName":"Classroom","icon":{"prefix":"https:\/\/ss1.4sqi.net\/img\/categories_v2\/education\/classroom_","suffix":".png"},"primary":"true"}],"verified":"false","restricted":"true","stats":{"checkinsCount":"294","usersCount":"120","tipCount":"0"},"specials":{"count":"0"},"hereNow":{"count":"0"},"referralId":"v-1392478022"},{"id":"5058c722e4b0eaaf49de8dd6","name":"Go Native Assam Loft","location":{"address":"33-35 Commercial Road","lat":"51.515498894398185","lng":"-0.06804430182775316","distance":"135","cc":"GB","country":"United Kingdom"},"categories":[{"id":"4bf58dd8d48988d1fa931735","name":"Hotel","pluralName":"Hotels","shortName":"Hotel","icon":{"prefix":"https:\/\/ss1.4sqi.net\/img\/categories_v2\/travel\/hotel_","suffix":".png"},"primary":"true"}],"verified":"false","restricted":"true","stats":{"checkinsCount":"274","usersCount":"98","tipCount":"4"},"specials":{"count":"0"},"hereNow":{"count":"1","groups":[{"type":"others","name":"Other people here","count":"1"}]},"referralId":"v-1392478022"},{"id":"4b47ab8cf964a520e23926e3","name":"The Castle","location":{"address":"44 Commercial Rd.","lat":"51.5149644823855","lng":"-0.0684673160919146","distance":"88","cc":"GB","city":"London","state":"Greater London","country":"United Kingdom"},"categories":[{"id":"4bf58dd8d48988d11b941735","name":"Pub","pluralName":"Pubs","shortName":"Pub","icon":{"prefix":"https:\/\/ss1.4sqi.net\/img\/categories_v2\/nightlife\/pub_","suffix":".png"},"primary":"true"}],"verified":"false","restricted":"true","stats":{"checkinsCount":"401","usersCount":"253","tipCount":"8"},"specials":{"count":"0"},"hereNow":{"count":"0"},"referralId":"v-1392478022"},{"id":"51e1364a498ed6f7a61579de","name":"Airbnb 35a Commercial Road","location":{"address":"35a Commercial Road","lat":"51.515006","lng":"-0.067259","distance":"88","cc":"GB","city":"London","state":"Greater London","country":"United Kingdom"},"categories":[{"id":"4bf58dd8d48988d1f8931735","name":"Bed & Breakfast","pluralName":"Bed & Breakfasts","shortName":"B & B","icon":{"prefix":"https:\/\/ss1.4sqi.net\/img\/categories_v2\/travel\/bedandbreakfast_","suffix":".png"},"primary":"true"}],"verified":"false","restricted":"true","stats":{"checkinsCount":"49","usersCount":"18","tipCount":"0"},"specials":{"count":"0"},"hereNow":{"count":"0"},"referralId":"v-1392478022"},{"id":"522383ba11d26720162cf6d8","name":"Student Castle","location":{"address":"65 Leman Street","lat":"51.51310045656548","lng":"-0.06990206473872697","distance":"196","cc":"GB","city":"London","state":"Greater London","country":"United Kingdom"},"categories":[{"id":"4d954b06a243a5684965b473","name":"Residential Building (Apartment \/ Condo)","pluralName":"Residential Buildings (Apartments \/ Condos)","shortName":"Residential","icon":{"prefix":"https:\/\/ss1.4sqi.net\/img\/categories_v2\/building\/apartment_","suffix":".png"},"primary":"true"}],"verified":"false","restricted":"true","stats":{"checkinsCount":"470","usersCount":"43","tipCount":"0"},"specials":{"count":"0"},"hereNow":{"count":"0"},"referralId":"v-1392478022"},{"id":"4ee8a24b61afa438e179fad6","name":"LMU","location":{"address":"41 Commercial Rd","lat":"51.514889155428556","lng":"-0.06589171009996567","distance":"148","postalCode":"E1 1LA","cc":"GB","city":"London","state":"Greater London","country":"United Kingdom"},"categories":[{"id":"4bf58dd8d48988d1ae941735","name":"University","pluralName":"Universities","shortName":"University","icon":{"prefix":"https:\/\/ss1.4sqi.net\/img\/categories_v2\/education\/default_","suffix":".png"},"primary":"true"}],"verified":"false","restricted":"true","stats":{"checkinsCount":"315","usersCount":"46","tipCount":"0"},"url":"http:\/\/www.thecass.com","specials":{"count":"0"},"hereNow":{"count":"0"},"referralId":"v-1392478022"},{"id":"5262c65b11d2099bed712005","name":"Qbic Hotel","location":{"address":"42 Adler street","lat":"51.51615607635758","lng":"-0.06751221795561375","distance":"208","cc":"GB","city":"London","state":"Greater London","country":"United Kingdom"},"categories":[{"id":"4bf58dd8d48988d12f951735","name":"Resort","pluralName":"Resorts","shortName":"Resort","icon":{"prefix":"https:\/\/ss1.4sqi.net\/img\/categories_v2\/travel\/resort_","suffix":".png"},"primary":"true"}],"verified":"false","restricted":"true","stats":{"checkinsCount":"250","usersCount":"130","tipCount":"6"},"specials":{"count":"0"},"hereNow":{"count":"0"},"referralId":"v-1392478022"},{"id":"52c29e7711d223f6db2784c7","name":"Straits Times Kopitiam","contact":{"twitter":"straitstimesuk"},"location":{"address":"66A Whitechapel High St","crossStreet":"Opposite Whitechapel Gallery","lat":"51.515913611236506","lng":"-0.06967306137084961","distance":"222","postalCode":"E1 7PL","cc":"GB","city":"London","state":"Greater London","country":"United Kingdom"},"categories":[{"id":"4bf58dd8d48988d1e0931735","name":"Coffee Shop","pluralName":"Coffee Shops","shortName":"Coffee Shop","icon":{"prefix":"https:\/\/ss1.4sqi.net\/img\/categories_v2\/food\/coffeeshop_","suffix":".png"},"primary":"true"}],"verified":"true","restricted":"true","stats":{"checkinsCount":"28","usersCount":"18","tipCount":"10"},"specials":{"count":"1","items":[{"id":"52cabf56498ee97c9bb57a10","type":"frequency","message":"Check in between 8:00 and 12:00 & get a free hot drink with your order on sandwich\/salad !!","photo":{"id":"52cabf5611d2c8dccdc5b1b1","createdAt":"1389018966","prefix":"https:\/\/irs1.4sqi.net\/img\/general\/","suffix":"\/74968354_U9lTCGWAGDJdgz3SbYgtfxbOYPN7YZoSQcCZlmwf-rk.png","width":"1200","height":"965"},"description":"Unlocked every check-in","icon":"check-in","title":"Check-in Special","provider":"foursquare","redemption":"standard","page":{"id":"74968354","firstName":"Straits Times Kopitiam","gender":"none","photo":{"prefix":"https:\/\/irs0.4sqi.net\/img\/user\/","suffix":"\/74968354-NRRHUQHA4QV2LJ1O.jpg"},"type":"venuePage","venue":{"id":"52c29e7711d223f6db2784c7"},"tips":{"count":"3"},"homeCity":"London, ENG","bio":""}}]},"hereNow":{"count":"2","groups":[{"type":"others","name":"Other people here","count":"2"}]},"venuePage":{"id":"74968354"},"storeId":"","referralId":"v-1392478022"},{"id":"4ace3423f964a5200fcf20e3","name":"Wool House","location":{"address":"74 Back Church Lane","lat":"51.51248101298709","lng":"-0.06700984288223209","distance":"208","postalCode":"E1 1AB","cc":"GB","city":"London","state":"Greater London","country":"United Kingdom"},"categories":[{"id":"4d954b06a243a5684965b473","name":"Residential Building (Apartment \/ Condo)","pluralName":"Residential Buildings (Apartments \/ Condos)","shortName":"Residential","icon":{"prefix":"https:\/\/ss1.4sqi.net\/img\/categories_v2\/building\/apartment_","suffix":".png"},"primary":"true"}],"verified":"false","restricted":"true","stats":{"checkinsCount":"1521","usersCount":"174","tipCount":"4"},"specials":{"count":"0"},"hereNow":{"count":"0"},"referralId":"v-1392478022"},{"id":"52239d3311d259e6e52b815e","name":"Assam Place Gym","location":{"address":"33 Commercial Road","lat":"51.51564264622324","lng":"-0.06787239091672992","distance":"150","cc":"GB","city":"London","state":"Greater London","country":"United Kingdom"},"categories":[{"id":"4bf58dd8d48988d176941735","name":"Gym","pluralName":"Gyms","shortName":"Gym","icon":{"prefix":"https:\/\/ss1.4sqi.net\/img\/categories_v2\/building\/gym_","suffix":".png"},"primary":"true"}],"verified":"false","restricted":"true","stats":{"checkinsCount":"37","usersCount":"6","tipCount":"0"},"specials":{"count":"0"},"hereNow":{"count":"0"},"referralId":"v-1392478022"},{"id":"4bacbdd6f964a52083083be3","name":"The Jasmine Kitchen","contact":{"phone":"+447894903288","formattedPhone":"+44 7894 903288"},"location":{"address":"24 White Church Lane","lat":"51.515217","lng":"-0.068934","distance":"129","postalCode":"E1 7QL","cc":"GB","city":"London","state":"Greater London","country":"United Kingdom"},"categories":[{"id":"4bf58dd8d48988d149941735","name":"Thai Restaurant","pluralName":"Thai Restaurants","shortName":"Thai","icon":{"prefix":"https:\/\/ss1.4sqi.net\/img\/categories_v2\/food\/thai_","suffix":".png"},"primary":"true"}],"verified":"false","restricted":"true","stats":{"checkinsCount":"100","usersCount":"55","tipCount":"7"},"specials":{"count":"0"},"hereNow":{"count":"0"},"referralId":"v-1392478022"},{"id":"4d027b94f832a35d6072f637","name":"The Oliver Conquest","contact":{"phone":"+447725647082","formattedPhone":"+44 7725 647082","twitter":"oliverconquest"},"location":{"address":"70 Leman St.","lat":"51.51309529616986","lng":"-0.06996609438215796","distance":"200","postalCode":"E1 8EU","cc":"GB","city":"London","state":"Greater London","country":"United Kingdom"},"categories":[{"id":"4bf58dd8d48988d11b941735","name":"Pub","pluralName":"Pubs","shortName":"Pub","icon":{"prefix":"https:\/\/ss1.4sqi.net\/img\/categories_v2\/nightlife\/pub_","suffix":".png"},"primary":"true"}],"verified":"true","restricted":"true","stats":{"checkinsCount":"233","usersCount":"121","tipCount":"7"},"specials":{"count":"0"},"hereNow":{"count":"0"},"venuePage":{"id":"75623399"},"referralId":"v-1392478022"},{"id":"4bbf99ed461576b0cad57832","name":"The Dispensary","location":{"address":"19a Leman St","lat":"51.514039324978846","lng":"-0.07079916456402471","distance":"209","postalCode":"E1 8EN","cc":"GB","city":"Poplar","state":"Greater London","country":"United Kingdom"},"categories":[{"id":"4bf58dd8d48988d116941735","name":"Bar","pluralName":"Bars","shortName":"Bar","icon":{"prefix":"https:\/\/ss1.4sqi.net\/img\/categories_v2\/nightlife\/bar_","suffix":".png"},"primary":"true"}],"verified":"false","restricted":"true","stats":{"checkinsCount":"309","usersCount":"193","tipCount":"2"},"url":"http:\/\/www.thedispensarylondon.co.uk","menu":{"type":"Menu","label":"Menu","anchor":"View Menu","url":"https:\/\/foursquare.com\/v\/the-dispensary\/4bbf99ed461576b0cad57832\/menu","mobileUrl":"https:\/\/foursquare.com\/v\/4bbf99ed461576b0cad57832\/device_menu"},"specials":{"count":"0"},"hereNow":{"count":"0"},"referralId":"v-1392478022"},{"id":"4d472cbf1911a0934ce6f2d8","name":"Skyline Plaza Building","location":{"lat":"51.51460660268606","lng":"-0.06625160243876815","distance":"113","cc":"GB","country":"United Kingdom"},"categories":[{"id":"4bf58dd8d48988d130941735","name":"Building","pluralName":"Buildings","shortName":"Building","icon":{"prefix":"https:\/\/ss1.4sqi.net\/img\/categories_v2\/building\/default_","suffix":".png"},"primary":"true"}],"verified":"false","restricted":"true","stats":{"checkinsCount":"54","usersCount":"26","tipCount":"1"},"specials":{"count":"0"},"hereNow":{"count":"0"},"referralId":"v-1392478022"},{"id":"51324f0fe4b08f70f1c4a367","name":"Sushi no EN","location":{"address":"2 White Church Lane","lat":"51.51616545895264","lng":"-0.06916431902557157","distance":"229","cc":"GB","city":"London","state":"Greater London","country":"United Kingdom"},"categories":[{"id":"4bf58dd8d48988d1d2941735","name":"Sushi Restaurant","pluralName":"Sushi Restaurants","shortName":"Sushi","icon":{"prefix":"https:\/\/ss1.4sqi.net\/img\/categories_v2\/food\/sushi_","suffix":".png"},"primary":"true"}],"verified":"false","restricted":"true","stats":{"checkinsCount":"81","usersCount":"60","tipCount":"6"},"specials":{"count":"0"},"hereNow":{"count":"0"},"referralId":"v-1392478022"},{"id":"51c19670498e8c2d16103568","name":"The Grocer","location":{"address":"30 Commercial Road","lat":"51.51494455876924","lng":"-0.06783194107766541","distance":"73","cc":"GB","city":"London","state":"Greater London","country":"United Kingdom"},"categories":[{"id":"4bf58dd8d48988d16d941735","name":"Caf\u00e9","pluralName":"Caf\u00e9s","shortName":"Caf\u00e9","icon":{"prefix":"https:\/\/ss1.4sqi.net\/img\/categories_v2\/food\/cafe_","suffix":".png"},"primary":"true"}],"verified":"false","restricted":"true","stats":{"checkinsCount":"20","usersCount":"16","tipCount":"0"},"specials":{"count":"0"},"hereNow":{"count":"0"},"referralId":"v-1392478022"},{"id":"4f950adee4b04c0ca0356b80","name":"The Knowledge Academy","location":{"address":"32 Leman St, London Borough of Tower Hamlets, London E1","lat":"51.51412063312736","lng":"-0.07093132242328587","distance":"217","cc":"GB","country":"United Kingdom"},"categories":[{"id":"4bf58dd8d48988d1a8941735","name":"General College & University","pluralName":"General Colleges & Universities","shortName":"Education","icon":{"prefix":"https:\/\/ss1.4sqi.net\/img\/categories_v2\/education\/other_","suffix":".png"},"primary":"true"}],"verified":"false","restricted":"true","stats":{"checkinsCount":"114","usersCount":"44","tipCount":"2"},"specials":{"count":"0"},"hereNow":{"count":"0"},"referralId":"v-1392478022"},{"id":"4c48400576d72d7f37b13f4d","name":"Ligne Roset","location":{"lat":"51.514905","lng":"-0.066687","distance":"103","cc":"GB","country":"United Kingdom"},"categories":[{"id":"4bf58dd8d48988d1f8941735","name":"Furniture \/ Home Store","pluralName":"Furniture \/ Home Stores","shortName":"Furniture \/ Home","icon":{"prefix":"https:\/\/ss1.4sqi.net\/img\/categories_v2\/shops\/furniture_","suffix":".png"},"primary":"true"}],"verified":"false","restricted":"true","stats":{"checkinsCount":"54","usersCount":"24","tipCount":"0"},"specials":{"count":"0"},"hereNow":{"count":"0"},"referralId":"v-1392478022"},{"id":"5219d32611d265d403b78fbf","name":"Constantine Court","location":{"lat":"51.513221740722656","lng":"-0.06627050042152405","distance":"159","cc":"GB","country":"United Kingdom"},"categories":[{"id":"4d954b06a243a5684965b473","name":"Residential Building (Apartment \/ Condo)","pluralName":"Residential Buildings (Apartments \/ Condos)","shortName":"Residential","icon":{"prefix":"https:\/\/ss1.4sqi.net\/img\/categories_v2\/building\/apartment_","suffix":".png"},"primary":"true"}],"verified":"false","restricted":"true","stats":{"checkinsCount":"4","usersCount":"1","tipCount":"0"},"specials":{"count":"0"},"hereNow":{"count":"0"},"referralId":"v-1392478022"},{"id":"519220a8498e472c9b63f702","name":"The Grocer On Kings","location":{"lat":"51.51494216918945","lng":"-0.0676627978682518","distance":"73","cc":"GB","country":"United Kingdom"},"categories":[{"id":"4bf58dd8d48988d118951735","name":"Grocery Store","pluralName":"Grocery Stores","shortName":"Grocery Store","icon":{"prefix":"https:\/\/ss1.4sqi.net\/img\/categories_v2\/shops\/food_grocery_","suffix":".png"},"primary":"true"}],"verified":"false","restricted":"true","stats":{"checkinsCount":"6","usersCount":"5","tipCount":"0"},"specials":{"count":"0"},"hereNow":{"count":"0"},"referralId":"v-1392478022"},{"id":"52e82ac6498e9748e2deb654","name":"House Of Modern Living","contact":{"phone":"+442030516819","formattedPhone":"+44 20 3051 6819"},"location":{"address":"Unit B1, Malvern House","lat":"51.51259","lng":"-0.068233","distance":"191","cc":"GB","city":"London","state":"Greater London","country":"United Kingdom"},"categories":[{"id":"4d954b06a243a5684965b473","name":"Residential Building (Apartment \/ Condo)","pluralName":"Residential Buildings (Apartments \/ Condos)","shortName":"Residential","icon":{"prefix":"https:\/\/ss1.4sqi.net\/img\/categories_v2\/building\/apartment_","suffix":".png"},"primary":"true"}],"verified":"false","restricted":"true","stats":{"checkinsCount":"2","usersCount":"2","tipCount":"0"},"specials":{"count":"0"},"hereNow":{"count":"0"},"referralId":"v-1392478022"},{"id":"51aa404f498e6d7f20f364f6","name":"The Black Horse","contact":{"phone":"+442074881406","formattedPhone":"+44 20 7488 1406"},"location":{"address":"40 Leman St","crossStreet":"Alie St","lat":"51.51393741786364","lng":"-0.07053483957859506","distance":"193","postalCode":"E1 8EU","cc":"GB","city":"London","state":"Greater London","country":"United Kingdom"},"categories":[{"id":"4bf58dd8d48988d11b941735","name":"Pub","pluralName":"Pubs","shortName":"Pub","icon":{"prefix":"https:\/\/ss1.4sqi.net\/img\/categories_v2\/nightlife\/pub_","suffix":".png"},"primary":"true"}],"verified":"false","restricted":"true","stats":{"checkinsCount":"61","usersCount":"44","tipCount":"5"},"specials":{"count":"0"},"hereNow":{"count":"0"},"referralId":"v-1392478022"},{"id":"4ad4e590f964a52089fc20e3","name":"Altab Ali Park","location":{"address":"40 Adler St","crossStreet":"Whitechapel Rd","lat":"51.51622203341609","lng":"-0.06839614827925292","distance":"219","postalCode":"E1 1EE","cc":"GB","city":"London","state":"Greater London","country":"United Kingdom"},"categories":[{"id":"4bf58dd8d48988d163941735","name":"Park","pluralName":"Parks","shortName":"Park","icon":{"prefix":"https:\/\/ss1.4sqi.net\/img\/categories_v2\/parks_outdoors\/park_","suffix":".png"},"primary":"true"}],"verified":"false","restricted":"true","stats":{"checkinsCount":"410","usersCount":"189","tipCount":"1"},"specials":{"count":"0"},"hereNow":{"count":"0"},"referralId":"v-1392478022"},{"id":"4c66ddc39cedd13a97e776a1","name":"Ice Father Nation","contact":{"phone":"+442073775577","formattedPhone":"+44 20 7377 5577"},"location":{"address":"33-35","crossStreet":"Commercial Road","lat":"51.514596","lng":"-0.067394","distance":"44","postalCode":"E1 1LN","cc":"GB","city":"Poplar","state":"Greater London","country":"United Kingdom"},"categories":[{"id":"4bf58dd8d48988d1e9931735","name":"Rock Club","pluralName":"Rock Clubs","shortName":"Rock Club","icon":{"prefix":"https:\/\/ss1.4sqi.net\/img\/categories_v2\/arts_entertainment\/musicvenue_rockclub_","suffix":".png"},"primary":"true"}],"verified":"false","restricted":"true","stats":{"checkinsCount":"19","usersCount":"16","tipCount":"1"},"specials":{"count":"0"},"hereNow":{"count":"0"},"referralId":"v-1392478022"},{"id":"4d73979cd145a1cdfcd7c4f3","name":"Fresh Cafe","location":{"address":"29-31 Commercial road","lat":"51.51499019887697","lng":"-0.06818621678617241","distance":"82","postalCode":"E1 1ld","cc":"GB","city":"Poplar","state":"Greater London","country":"United Kingdom"},"categories":[{"id":"4bf58dd8d48988d143941735","name":"Breakfast Spot","pluralName":"Breakfast Spots","shortName":"Breakfast","icon":{"prefix":"https:\/\/ss1.4sqi.net\/img\/categories_v2\/food\/breakfast_","suffix":".png"},"primary":"true"}],"verified":"false","restricted":"true","stats":{"checkinsCount":"54","usersCount":"38","tipCount":"4"},"specials":{"count":"0"},"hereNow":{"count":"0"},"referralId":"v-1392478022"},{"id":"52b8ef08498eecdae2c69bec","name":"18 plumbers row","location":{"lat":"51.515692","lng":"-0.066888","distance":"168","cc":"GB","country":"United Kingdom"},"categories":[{"id":"4d954b06a243a5684965b473","name":"Residential Building (Apartment \/ Condo)","pluralName":"Residential Buildings (Apartments \/ Condos)","shortName":"Residential","icon":{"prefix":"https:\/\/ss1.4sqi.net\/img\/categories_v2\/building\/apartment_","suffix":".png"},"primary":"true"}],"verified":"false","restricted":"true","stats":{"checkinsCount":"4","usersCount":"1","tipCount":"0"},"specials":{"count":"0"},"hereNow":{"count":"0"},"referralId":"v-1392478022"},{"id":"4e1322c97d8b4d5613e9733a","name":"City Of London College","location":{"lat":"51.51292246287769","lng":"-0.06670120899857655","distance":"170","cc":"GB","city":"London","state":"Greater London","country":"United Kingdom"},"categories":[{"id":"4d4b7105d754a06372d81259","name":"College & University","pluralName":"Colleges & Universities","shortName":"College & Education","icon":{"prefix":"https:\/\/ss1.4sqi.net\/img\/categories_v2\/education\/default_","suffix":".png"},"primary":"true"}],"verified":"false","restricted":"true","stats":{"checkinsCount":"131","usersCount":"40","tipCount":"2"},"specials":{"count":"0"},"hereNow":{"count":"0"},"referralId":"v-1392478022"},{"id":"4e3015d7fa7614797de971da","name":"Lloyds","location":{"address":"Aldgate east","lat":"51.516206315933935","lng":"-0.06938204668321407","distance":"239","cc":"GB","city":"Poplar","state":"Greater London","country":"United Kingdom"},"categories":[{"id":"4bf58dd8d48988d10a951735","name":"Bank","pluralName":"Banks","shortName":"Bank","icon":{"prefix":"https:\/\/ss1.4sqi.net\/img\/categories_v2\/shops\/financial_","suffix":".png"},"primary":"true"}],"verified":"false","restricted":"true","stats":{"checkinsCount":"75","usersCount":"44","tipCount":"0"},"specials":{"count":"0"},"hereNow":{"count":"0"},"referralId":"v-1392478022"},{"id":"4e06652ba809495e6192a90a","name":"Times Square, City Quarter","location":{"address":"1-54 Hooper St","crossStreet":"Gower's Walk","lat":"51.5125779040582","lng":"-0.06838692831537382","distance":"194","postalCode":"E1 8GD","cc":"GB","city":"London","state":"Greater London","country":"United Kingdom"},"categories":[{"id":"4d954b06a243a5684965b473","name":"Residential Building (Apartment \/ Condo)","pluralName":"Residential Buildings (Apartments \/ Condos)","shortName":"Residential","icon":{"prefix":"https:\/\/ss1.4sqi.net\/img\/categories_v2\/building\/apartment_","suffix":".png"},"primary":"true"}],"verified":"false","restricted":"true","stats":{"checkinsCount":"123","usersCount":"46","tipCount":"0"},"specials":{"count":"0"},"hereNow":{"count":"0"},"referralId":"v-1392478022"}],"confident":"true"}}