{"meta":{"code":"200"},"response":{"venues":[{"id":"4b8bbb69f964a520cba832e3","name":"Haggerston Park","location":{"address":"Queensbridge Rd.","crossStreet":"Audley St.","lat":"51.533749793069674","lng":"-0.06772041320800781","distance":"60","postalCode":"E2 8NP","cc":"GB","city":"London","state":"Greater London","country":"United Kingdom"},"categories":[{"id":"4bf58dd8d48988d163941735","name":"Park","pluralName":"Parks","shortName":"Park","icon":{"prefix":"https:\/\/ss1.4sqi.net\/img\/categories_v2\/parks_outdoors\/park_","suffix":".png"},"primary":"true"}],"verified":"false","restricted":"true","stats":{"checkinsCount":"1511","usersCount":"703","tipCount":"5"},"specials":{"count":"0"},"hereNow":{"count":"0"},"referralId":"v-1392477969"},{"id":"4ac518cef964a5200ba620e3","name":"Hackney City Farm","contact":{"phone":"+442077296381","formattedPhone":"+44 20 7729 6381","twitter":"hackneycityfarm"},"location":{"address":"1 Goldsmiths Row","crossStreet":"at Haggerston Park","lat":"51.53175362805135","lng":"-0.06645339863790044","distance":"297","postalCode":"E2 8QA","cc":"GB","city":"Hackney","state":"Greater London","country":"United Kingdom"},"categories":[{"id":"4bf58dd8d48988d15b941735","name":"Farm","pluralName":"Farms","shortName":"Farm","icon":{"prefix":"https:\/\/ss1.4sqi.net\/img\/categories_v2\/parks_outdoors\/farm_","suffix":".png"},"primary":"true"}],"verified":"false","restricted":"true","stats":{"checkinsCount":"1628","usersCount":"1106","tipCount":"26"},"url":"http:\/\/hackneycityfarm.co.uk","specials":{"count":"0"},"hereNow":{"count":"2","groups":[{"type":"others","name":"Other people here","count":"2"}]},"referralId":"v-1392477969"},{"id":"4b49e9fcf964a520e57526e3","name":"The Marksman Pub","contact":{"phone":"+442077397393","formattedPhone":"+44 20 7739 7393","twitter":"marksmanpub"},"location":{"address":"254 Hackney Rd.","crossStreet":"Horatio","lat":"51.53096629491958","lng":"-0.06960816639063301","distance":"390","postalCode":"E2 7SJ","cc":"GB","city":"London","state":"Greater London","country":"United Kingdom"},"categories":[{"id":"4bf58dd8d48988d11b941735","name":"Pub","pluralName":"Pubs","shortName":"Pub","icon":{"prefix":"https:\/\/ss1.4sqi.net\/img\/categories_v2\/nightlife\/pub_","suffix":".png"},"primary":"true"}],"verified":"false","restricted":"true","stats":{"checkinsCount":"1151","usersCount":"572","tipCount":"16"},"url":"http:\/\/www.marksmanpub.com","specials":{"count":"0"},"hereNow":{"count":"2","groups":[{"type":"others","name":"Other people here","count":"2"}]},"referralId":"v-1392477969"},{"id":"4b1aa81df964a5208fee23e3","name":"The Albion","contact":{"phone":"+442077390185","formattedPhone":"+44 20 7739 0185"},"location":{"address":"96 Goldsmith's Row","lat":"51.53369","lng":"-0.064451","distance":"241","cc":"GB","city":"London","state":"Greater London","country":"United Kingdom"},"categories":[{"id":"4bf58dd8d48988d11b941735","name":"Pub","pluralName":"Pubs","shortName":"Pub","icon":{"prefix":"https:\/\/ss1.4sqi.net\/img\/categories_v2\/nightlife\/pub_","suffix":".png"},"primary":"true"}],"verified":"false","restricted":"true","stats":{"checkinsCount":"916","usersCount":"237","tipCount":"18"},"url":"http:\/\/www.thealbioningoldsmithsrow.co.uk\/Pages\/About.html","specials":{"count":"0"},"hereNow":{"count":"0"},"referralId":"v-1392477969"},{"id":"52d7e3f311d21f46d32a7402","name":"Studio Nick Thompson","contact":{"phone":"+442077496902","formattedPhone":"+44 20 7749 6902"},"location":{"address":"21 Whiston Road","lat":"51.53508947167456","lng":"-0.06947519589102423","distance":"146","postalCode":"E2 8EX","cc":"GB","city":"London","state":"Greater London","country":"United Kingdom"},"categories":[{"id":"4bf58dd8d48988d130941735","name":"Building","pluralName":"Buildings","shortName":"Building","icon":{"prefix":"https:\/\/ss1.4sqi.net\/img\/categories_v2\/building\/default_","suffix":".png"},"primary":"true"}],"verified":"false","restricted":"true","stats":{"checkinsCount":"6","usersCount":"1","tipCount":"0"},"specials":{"count":"0"},"hereNow":{"count":"0"},"referralId":"v-1392477969"},{"id":"4ad65c5ef964a520c50621e3","name":"The Star of the East","location":{"address":"Goldsmiths Row","lat":"51.533284405062105","lng":"-0.0653555635979781","distance":"203","cc":"GB","city":"London","state":"Greater London","country":"United Kingdom"},"categories":[{"id":"4bf58dd8d48988d11b941735","name":"Pub","pluralName":"Pubs","shortName":"Pub","icon":{"prefix":"https:\/\/ss1.4sqi.net\/img\/categories_v2\/nightlife\/pub_","suffix":".png"},"primary":"true"}],"verified":"false","restricted":"true","stats":{"checkinsCount":"115","usersCount":"2","tipCount":"0"},"specials":{"count":"0"},"hereNow":{"count":"0"},"referralId":"v-1392477969"},{"id":"50958868e4b0e52fa3d58c09","name":"Mr Buckley's","contact":{"phone":"+442036640033","formattedPhone":"+44 20 3664 0033"},"location":{"address":"277 Hackney Rd","lat":"51.53115713064411","lng":"-0.06811108452489964","distance":"349","postalCode":"E2 8NA","cc":"GB","city":"Shoreditch","state":"Greater London","country":"United Kingdom"},"categories":[{"id":"4bf58dd8d48988d1c4941735","name":"Restaurant","pluralName":"Restaurants","shortName":"Restaurant","icon":{"prefix":"https:\/\/ss1.4sqi.net\/img\/categories_v2\/food\/default_","suffix":".png"},"primary":"true"}],"verified":"true","restricted":"true","stats":{"checkinsCount":"562","usersCount":"382","tipCount":"11"},"url":"http:\/\/www.mrbuckleys.com","menu":{"type":"Menu","label":"Menu","anchor":"View Menu","url":"https:\/\/foursquare.com\/v\/mr-buckleys\/50958868e4b0e52fa3d58c09\/menu","mobileUrl":"https:\/\/foursquare.com\/v\/50958868e4b0e52fa3d58c09\/device_menu"},"specials":{"count":"0"},"hereNow":{"count":"0"},"venuePage":{"id":"55400867"},"storeId":"","referralId":"v-1392477969"},{"id":"4acf0018f964a5203ed220e3","name":"Little Georgia","contact":{"phone":"+442077398154","formattedPhone":"+44 20 7739 8154"},"location":{"address":"87 Goldsmiths Row","crossStreet":"Audrey Street","lat":"51.533192076769566","lng":"-0.06510863934468226","distance":"222","postalCode":"E2 8QR","cc":"GB","city":"London","state":"Greater London","country":"United Kingdom"},"categories":[{"id":"4bf58dd8d48988d109941735","name":"Eastern European Restaurant","pluralName":"Eastern European Restaurants","shortName":"Eastern European","icon":{"prefix":"https:\/\/ss1.4sqi.net\/img\/categories_v2\/food\/default_","suffix":".png"},"primary":"true"}],"verified":"false","restricted":"true","stats":{"checkinsCount":"482","usersCount":"315","tipCount":"16"},"specials":{"count":"0"},"hereNow":{"count":"0"},"referralId":"v-1392477969"},{"id":"50234d65e4b00d9a1e029aa4","name":"Haggerston","location":{"address":"Everywhere!","lat":"51.53722167979578","lng":"-0.06888378276144369","distance":"334","cc":"GB","city":"London","state":"Greater London","country":"United Kingdom"},"categories":[{"id":"4f2a25ac4b909258e854f55f","name":"Neighborhood","pluralName":"Neighborhoods","shortName":"Neighborhood","icon":{"prefix":"https:\/\/ss1.4sqi.net\/img\/categories_v2\/parks_outdoors\/neighborhood_","suffix":".png"},"primary":"true"}],"verified":"false","restricted":"true","stats":{"checkinsCount":"222","usersCount":"63","tipCount":"0"},"specials":{"count":"0"},"hereNow":{"count":"0"},"referralId":"v-1392477969"},{"id":"4af55318f964a520cef821e3","name":"Frizzante","contact":{"phone":"+442077392266","formattedPhone":"+44 20 7739 2266"},"location":{"address":"Hackney City Farm, 1a Goldsmiths Row","crossStreet":"Hackney Road","lat":"51.5315585","lng":"-0.06641307098847603","distance":"318","postalCode":"E2 8QA","cc":"GB","city":"London","state":"Greater London","country":"United Kingdom"},"categories":[{"id":"4bf58dd8d48988d110941735","name":"Italian Restaurant","pluralName":"Italian Restaurants","shortName":"Italian","icon":{"prefix":"https:\/\/ss1.4sqi.net\/img\/categories_v2\/food\/italian_","suffix":".png"},"primary":"true"}],"verified":"false","restricted":"true","stats":{"checkinsCount":"202","usersCount":"150","tipCount":"12"},"menu":{"type":"Menu","label":"Menu","anchor":"View Menu","url":"https:\/\/foursquare.com\/v\/frizzante\/4af55318f964a520cef821e3\/menu","mobileUrl":"https:\/\/foursquare.com\/v\/4af55318f964a520cef821e3\/device_menu"},"specials":{"count":"0"},"hereNow":{"count":"0"},"referralId":"v-1392477969"},{"id":"4c0a3b90340720a1490a8693","name":"Hurwundeki Salon","location":{"lat":"51.53347360674427","lng":"-0.06997185371573862","distance":"175","cc":"GB","country":"United Kingdom"},"categories":[{"id":"4bf58dd8d48988d110951735","name":"Salon \/ Barbershop","pluralName":"Salons \/ Barbershops","shortName":"Salon \/ Barbershop","icon":{"prefix":"https:\/\/ss1.4sqi.net\/img\/categories_v2\/shops\/salon_barber_","suffix":".png"},"primary":"true"}],"verified":"false","restricted":"true","stats":{"checkinsCount":"8","usersCount":"8","tipCount":"0"},"specials":{"count":"0"},"hereNow":{"count":"0"},"referralId":"v-1392477969"},{"id":"4b66851af964a52028232be3","name":"Adelaide Wharf","location":{"address":"120 Queensbridge Rd.","lat":"51.53550025014407","lng":"-0.06982154745737187","distance":"194","postalCode":"E2 8FB","cc":"GB","city":"London","state":"Greater London","country":"United Kingdom"},"categories":[{"id":"4d954b06a243a5684965b473","name":"Residential Building (Apartment \/ Condo)","pluralName":"Residential Buildings (Apartments \/ Condos)","shortName":"Residential","icon":{"prefix":"https:\/\/ss1.4sqi.net\/img\/categories_v2\/building\/apartment_","suffix":".png"},"primary":"true"}],"verified":"false","restricted":"true","stats":{"checkinsCount":"280","usersCount":"60","tipCount":"1"},"specials":{"count":"0"},"hereNow":{"count":"0"},"referralId":"v-1392477969"},{"id":"528b616f11d2c9fb265acc80","name":"HOOKD","contact":{"phone":"+447706813324","formattedPhone":"+44 7706 813324","twitter":"hookdonmedia"},"location":{"address":"Industry Workspace","crossStreet":"21 Winston Road","lat":"51.53496442856059","lng":"-0.06925463676452637","distance":"125","postalCode":"E2 8EX","cc":"GB","city":"London","state":"Greater London","country":"United Kingdom"},"categories":[{"id":"4bf58dd8d48988d125941735","name":"Tech Startup","pluralName":"Tech Startups","shortName":"Tech Startup","icon":{"prefix":"https:\/\/ss1.4sqi.net\/img\/categories_v2\/shops\/technology_","suffix":".png"},"primary":"true"}],"verified":"false","restricted":"true","stats":{"checkinsCount":"9","usersCount":"1","tipCount":"1"},"specials":{"count":"0"},"hereNow":{"count":"0"},"referralId":"v-1392477969"},{"id":"4ec785750aaf9c3ccc5cd8d5","name":"Caffe-in","location":{"address":"334 Hackney Rd","crossStreet":"Goldsmiths Row","lat":"51.531292","lng":"-0.066328","distance":"348","postalCode":"E2","cc":"GB","city":"Hackney","state":"Greater London","country":"United Kingdom"},"categories":[{"id":"4bf58dd8d48988d16d941735","name":"Caf\u00e9","pluralName":"Caf\u00e9s","shortName":"Caf\u00e9","icon":{"prefix":"https:\/\/ss1.4sqi.net\/img\/categories_v2\/food\/cafe_","suffix":".png"},"primary":"true"}],"verified":"false","restricted":"true","stats":{"checkinsCount":"153","usersCount":"123","tipCount":"3"},"specials":{"count":"0"},"hereNow":{"count":"0"},"referralId":"v-1392477969"},{"id":"4c900e61590ab1f71346e47d","name":"Queensbridge","location":{"lat":"51.53655761813553","lng":"-0.07018848096434976","distance":"301","cc":"GB","country":"United Kingdom"},"categories":[{"id":"4bf58dd8d48988d165941735","name":"Scenic Lookout","pluralName":"Scenic Lookouts","shortName":"Scenic Lookout","icon":{"prefix":"https:\/\/ss1.4sqi.net\/img\/categories_v2\/parks_outdoors\/sceniclookout_","suffix":".png"},"primary":"true"}],"verified":"false","restricted":"true","stats":{"checkinsCount":"217","usersCount":"41","tipCount":"1"},"specials":{"count":"0"},"hereNow":{"count":"0"},"referralId":"v-1392477969"},{"id":"4dc24e3dd1643ed27a4c05b0","name":"Window Canteen","contact":{"phone":"+442077397393","formattedPhone":"+44 20 7739 7393","twitter":"coffeesoteria"},"location":{"address":"276 Hackney Rd.","lat":"51.53105421426396","lng":"-0.06855256050076713","distance":"363","postalCode":"E2 7SJ","cc":"GB","city":"London","state":"Greater London","country":"United Kingdom"},"categories":[{"id":"4bf58dd8d48988d1e0931735","name":"Coffee Shop","pluralName":"Coffee Shops","shortName":"Coffee Shop","icon":{"prefix":"https:\/\/ss1.4sqi.net\/img\/categories_v2\/food\/coffeeshop_","suffix":".png"},"primary":"true"}],"verified":"false","restricted":"true","stats":{"checkinsCount":"236","usersCount":"124","tipCount":"4"},"specials":{"count":"0"},"hereNow":{"count":"0"},"referralId":"v-1392477969"},{"id":"5130fec9e4b0680a788cf270","name":"Haggerston Playground","location":{"lat":"51.533639","lng":"-0.068756","distance":"97","cc":"GB","city":"London","state":"Greater London","country":"United Kingdom"},"categories":[{"id":"4bf58dd8d48988d1e7941735","name":"Playground","pluralName":"Playgrounds","shortName":"Playground","icon":{"prefix":"https:\/\/ss1.4sqi.net\/img\/categories_v2\/parks_outdoors\/playground_","suffix":".png"},"primary":"true"}],"verified":"false","restricted":"true","stats":{"checkinsCount":"3","usersCount":"2","tipCount":"0"},"specials":{"count":"0"},"hereNow":{"count":"0"},"referralId":"v-1392477969"},{"id":"50420512e4b01c18097e3d2d","name":"Suzuki Hub","location":{"address":"114 Weymouth Terrace","lat":"51.53371810913086","lng":"-0.07245220243930817","distance":"328","postalCode":"E2","cc":"GB","city":"London","state":"Greater London","country":"United Kingdom"},"categories":[{"id":"50328a8e91d4c4b30a586d6c","name":"Non-Profit","pluralName":"Non-Profits","shortName":"Non-Profit","icon":{"prefix":"https:\/\/ss1.4sqi.net\/img\/categories_v2\/building\/default_","suffix":".png"},"primary":"true"}],"verified":"false","restricted":"true","stats":{"checkinsCount":"33","usersCount":"6","tipCount":"0"},"specials":{"count":"0"},"hereNow":{"count":"0"},"referralId":"v-1392477969"},{"id":"507ecef6e4b0889aa5b13a88","name":"Haggeston Park","location":{"address":"Whiston Road","lat":"51.534530017472115","lng":"-0.0665012554642984","distance":"94","cc":"GB","city":"London","state":"Greater London","country":"United Kingdom"},"categories":[{"id":"4bf58dd8d48988d163941735","name":"Park","pluralName":"Parks","shortName":"Park","icon":{"prefix":"https:\/\/ss1.4sqi.net\/img\/categories_v2\/parks_outdoors\/park_","suffix":".png"},"primary":"true"}],"verified":"false","restricted":"true","stats":{"checkinsCount":"3","usersCount":"3","tipCount":"0"},"specials":{"count":"0"},"hereNow":{"count":"0"},"referralId":"v-1392477969"},{"id":"50dba4a3e4b0cc60def6ad26","name":"Hoxton Docks","location":{"lat":"51.535702","lng":"-0.071746","distance":"315","cc":"GB","country":"United Kingdom"},"categories":[{"id":"4bf58dd8d48988d11f941735","name":"Nightclub","pluralName":"Nightclubs","shortName":"Nightclub","icon":{"prefix":"https:\/\/ss1.4sqi.net\/img\/categories_v2\/nightlife\/nightclub_","suffix":".png"},"primary":"true"}],"verified":"false","restricted":"true","stats":{"checkinsCount":"30","usersCount":"30","tipCount":"1"},"specials":{"count":"0"},"hereNow":{"count":"0"},"referralId":"v-1392477969"},{"id":"523063af11d25d3b6579e913","name":"Nisa Local","location":{"lat":"51.533181","lng":"-0.072539","distance":"350","cc":"GB","country":"United Kingdom"},"categories":[{"id":"4bf58dd8d48988d118951735","name":"Grocery Store","pluralName":"Grocery Stores","shortName":"Grocery Store","icon":{"prefix":"https:\/\/ss1.4sqi.net\/img\/categories_v2\/shops\/food_grocery_","suffix":".png"},"primary":"true"}],"verified":"false","restricted":"true","stats":{"checkinsCount":"5","usersCount":"2","tipCount":"0"},"specials":{"count":"0"},"hereNow":{"count":"0"},"referralId":"v-1392477969"},{"id":"51f2ffef498e69a39fe1fc0c","name":"The Crown","location":{"lat":"51.534807","lng":"-0.066644","distance":"98","cc":"GB","country":"United Kingdom"},"categories":[{"id":"4bf58dd8d48988d116941735","name":"Bar","pluralName":"Bars","shortName":"Bar","icon":{"prefix":"https:\/\/ss1.4sqi.net\/img\/categories_v2\/nightlife\/bar_","suffix":".png"},"primary":"true"}],"verified":"false","restricted":"true","stats":{"checkinsCount":"5","usersCount":"2","tipCount":"0"},"specials":{"count":"0"},"hereNow":{"count":"0"},"referralId":"v-1392477969"},{"id":"4c40cc85da3dc9283aeac7b9","name":"TfL Bus 394","location":{"address":"Moving Target!","lat":"51.535113160912005","lng":"-0.06391925886057276","distance":"284","cc":"GB","city":"London","state":"Greater London","country":"United Kingdom"},"categories":[{"id":"4bf58dd8d48988d12b951735","name":"Bus Line","pluralName":"Bus Lines","shortName":"Bus","icon":{"prefix":"https:\/\/ss1.4sqi.net\/img\/categories_v2\/travel\/busstation_","suffix":".png"},"primary":"true"}],"verified":"false","restricted":"true","stats":{"checkinsCount":"405","usersCount":"60","tipCount":"6"},"specials":{"count":"0"},"hereNow":{"count":"0"},"referralId":"v-1392477969"},{"id":"4f874dbee4b0767178de1199","name":"Laxfield Court","location":{"lat":"51.53634454787626","lng":"-0.06534601715371771","distance":"285","cc":"GB","country":"United Kingdom"},"categories":[{"id":"4d954b06a243a5684965b473","name":"Residential Building (Apartment \/ Condo)","pluralName":"Residential Buildings (Apartments \/ Condos)","shortName":"Residential","icon":{"prefix":"https:\/\/ss1.4sqi.net\/img\/categories_v2\/building\/apartment_","suffix":".png"},"primary":"true"}],"verified":"false","restricted":"true","stats":{"checkinsCount":"105","usersCount":"9","tipCount":"0"},"specials":{"count":"0"},"hereNow":{"count":"0"},"referralId":"v-1392477969"},{"id":"504b0820e4b0548541917dfb","name":"Haggerston School","location":{"lat":"51.53238773491087","lng":"-0.07173050982647443","distance":"344","cc":"GB","country":"United Kingdom"},"categories":[{"id":"4f4533814b9074f6e4fb0106","name":"Middle School","pluralName":"Middle Schools","shortName":"Middle School","icon":{"prefix":"https:\/\/ss1.4sqi.net\/img\/categories_v2\/building\/school_","suffix":".png"},"primary":"true"}],"verified":"false","restricted":"true","stats":{"checkinsCount":"46","usersCount":"14","tipCount":"0"},"specials":{"count":"0"},"hereNow":{"count":"0"},"referralId":"v-1392477969"},{"id":"4ad6de28f964a520570821e3","name":"Industry Workspace","location":{"address":"21 Whiston Road","lat":"51.535093","lng":"-0.069408","distance":"142","postalCode":"E2 8EX","cc":"GB","city":"London","state":"Greater London","country":"United Kingdom"},"categories":[{"id":"4bf58dd8d48988d174941735","name":"Coworking Space","pluralName":"Coworking Spaces","shortName":"Coworking Space","icon":{"prefix":"https:\/\/ss1.4sqi.net\/img\/categories_v2\/building\/office_coworkingspace_","suffix":".png"},"primary":"true"}],"verified":"false","restricted":"true","stats":{"checkinsCount":"20","usersCount":"9","tipCount":"0"},"specials":{"count":"0"},"hereNow":{"count":"0"},"referralId":"v-1392477969"},{"id":"517d0a8c498ef6c9eab43b0b","name":"The Co-Operative","location":{"lat":"51.530969","lng":"-0.070031","distance":"400","cc":"GB","country":"United Kingdom"},"categories":[{"id":"4bf58dd8d48988d118951735","name":"Grocery Store","pluralName":"Grocery Stores","shortName":"Grocery Store","icon":{"prefix":"https:\/\/ss1.4sqi.net\/img\/categories_v2\/shops\/food_grocery_","suffix":".png"},"primary":"true"}],"verified":"false","restricted":"true","stats":{"checkinsCount":"12","usersCount":"8","tipCount":"0"},"specials":{"count":"0"},"hereNow":{"count":"0"},"referralId":"v-1392477969"},{"id":"4d8bc196ace98cfa23d25c9a","name":"Marques-Michelon's Arms","contact":{"phone":"+447894949283","formattedPhone":"+44 7894 949283","twitter":"pablo_marques"},"location":{"address":"Flat 317, 120 queensbridge road","lat":"51.535348","lng":"-0.070135","distance":"199","postalCode":"E28EZ","cc":"GB","city":"Hackney","state":"Greater London","country":"United Kingdom"},"categories":[{"id":"4bf58dd8d48988d1e1931735","name":"Arcade","pluralName":"Arcades","shortName":"Arcade","icon":{"prefix":"https:\/\/ss1.4sqi.net\/img\/categories_v2\/arts_entertainment\/arcade_","suffix":".png"},"primary":"true"}],"verified":"false","restricted":"true","stats":{"checkinsCount":"54","usersCount":"3","tipCount":"2"},"specials":{"count":"0"},"hereNow":{"count":"0"},"referralId":"v-1392477969"},{"id":"4c0a6604bbc676b0bdb349d5","name":"The Sandwich Barge","location":{"address":"1 Andrew's Rd","lat":"51.535783195350994","lng":"-0.06840928728105262","distance":"171","postalCode":"E8 4","cc":"GB","city":"Hackney","state":"Greater London","country":"United Kingdom"},"categories":[{"id":"4bf58dd8d48988d1c5941735","name":"Sandwich Place","pluralName":"Sandwich Places","shortName":"Sandwiches","icon":{"prefix":"https:\/\/ss1.4sqi.net\/img\/categories_v2\/food\/sandwiches_","suffix":".png"},"primary":"true"}],"verified":"false","restricted":"true","stats":{"checkinsCount":"7","usersCount":"7","tipCount":"0"},"specials":{"count":"0"},"hereNow":{"count":"0"},"referralId":"v-1392477969"},{"id":"514648c8e4b0b6e416781c82","name":"Bullion Productions","location":{"address":"21 Whiston Road","lat":"51.535174","lng":"-0.069534","distance":"155","postalCode":"E28ex","cc":"GB","city":"London","state":"Greater London","country":"United Kingdom"},"categories":[{"id":"4bf58dd8d48988d130941735","name":"Building","pluralName":"Buildings","shortName":"Building","icon":{"prefix":"https:\/\/ss1.4sqi.net\/img\/categories_v2\/building\/default_","suffix":".png"},"primary":"true"}],"verified":"false","restricted":"true","stats":{"checkinsCount":"0","usersCount":"0","tipCount":"0"},"specials":{"count":"0"},"hereNow":{"count":"0"},"referralId":"v-1392477969"}],"confident":"true"}}