{"meta":{"code":"200"},"response":{"venues":[{"id":"4bd0432a9854d13a6855f74d","name":"look mum no hands!","contact":{"phone":"+442072531025","formattedPhone":"+44 20 7253 1025","twitter":"1ookmumnohands"},"location":{"address":"49 Old St","lat":"51.52404155529859","lng":"-0.0969618558883667","distance":"64","postalCode":"EC1V 9HX","cc":"GB","city":"London","state":"Greater London","country":"United Kingdom"},"categories":[{"id":"4bf58dd8d48988d16d941735","name":"Caf\u00e9","pluralName":"Caf\u00e9s","shortName":"Caf\u00e9","icon":{"prefix":"https:\/\/ss1.4sqi.net\/img\/categories_v2\/food\/cafe_","suffix":".png"},"primary":"true"}],"verified":"true","restricted":"true","stats":{"checkinsCount":"6074","usersCount":"2874","tipCount":"109"},"url":"http:\/\/www.lookmumnohands.com","menu":{"type":"Menu","label":"Menu","anchor":"View Menu","url":"https:\/\/foursquare.com\/v\/look-mum-no-hands\/4bd0432a9854d13a6855f74d\/menu","mobileUrl":"https:\/\/foursquare.com\/v\/4bd0432a9854d13a6855f74d\/device_menu"},"specials":{"count":"0"},"hereNow":{"count":"1","groups":[{"type":"others","name":"Other people here","count":"1"}]},"venuePage":{"id":"42278068"},"storeId":"","referralId":"v-1392477995"},{"id":"50ae228be4b0ca599950b947","name":"HomeMade","contact":{"phone":"+442071931431","formattedPhone":"+44 20 7193 1431","twitter":"homemadedigital"},"location":{"address":"14 - 18 Old Street","lat":"51.52443625180033","lng":"-0.09749732228190652","distance":"26","postalCode":"EC1V 9BH","cc":"GB","city":"London","state":"Greater London","country":"United Kingdom"},"categories":[{"id":"4bf58dd8d48988d1dc931735","name":"Tea Room","pluralName":"Tea Rooms","shortName":"Tea Room","icon":{"prefix":"https:\/\/ss1.4sqi.net\/img\/categories_v2\/food\/tearoom_","suffix":".png"},"primary":"true"}],"verified":"false","restricted":"true","stats":{"checkinsCount":"6","usersCount":"3","tipCount":"0"},"specials":{"count":"0"},"hereNow":{"count":"1","groups":[{"type":"others","name":"Other people here","count":"1"}]},"referralId":"v-1392477995"},{"id":"4bed4b7c3372c92896621114","name":"Russia Visa Application Centre","location":{"address":"15-27 Gee St.","lat":"51.524194277210846","lng":"-0.0982893835386687","distance":"35","postalCode":"EC1V 3RD","cc":"GB","city":"Camden Town","state":"Greater London","country":"United Kingdom"},"categories":[{"id":"4bf58dd8d48988d130941735","name":"Building","pluralName":"Buildings","shortName":"Building","icon":{"prefix":"https:\/\/ss1.4sqi.net\/img\/categories_v2\/building\/default_","suffix":".png"},"primary":"true"}],"verified":"false","restricted":"true","stats":{"checkinsCount":"360","usersCount":"244","tipCount":"11"},"specials":{"count":"0"},"hereNow":{"count":"0"},"referralId":"v-1392477995"},{"id":"50c30200498ef1fd43d55c27","name":"Timberyard","contact":{"twitter":"timberyarduk","facebook":"130397907126808"},"location":{"address":"61-67 Old St","crossStreet":"Central Street","lat":"51.524113819786066","lng":"-0.09636635660017508","distance":"101","postalCode":"EC1V 9HW","cc":"GB","city":"London","state":"Greater London","country":"United Kingdom"},"categories":[{"id":"4bf58dd8d48988d1e0931735","name":"Coffee Shop","pluralName":"Coffee Shops","shortName":"Coffee Shop","icon":{"prefix":"https:\/\/ss1.4sqi.net\/img\/categories_v2\/food\/coffeeshop_","suffix":".png"},"primary":"true"}],"verified":"true","restricted":"true","stats":{"checkinsCount":"1281","usersCount":"605","tipCount":"41"},"url":"http:\/\/www.timberyardlondon.com","specials":{"count":"0"},"hereNow":{"count":"1","groups":[{"type":"others","name":"Other people here","count":"1"}]},"venuePage":{"id":"78054635"},"storeId":"","referralId":"v-1392477995"},{"id":"52ecba5611d232d837d7a71a","name":"Gee6","location":{"lat":"51.524214","lng":"-0.097845","distance":"8","cc":"GB","country":"United Kingdom"},"categories":[{"id":"4bf58dd8d48988d15b941735","name":"Farm","pluralName":"Farms","shortName":"Farm","icon":{"prefix":"https:\/\/ss1.4sqi.net\/img\/categories_v2\/parks_outdoors\/farm_","suffix":".png"},"primary":"true"}],"verified":"false","restricted":"true","stats":{"checkinsCount":"2","usersCount":"2","tipCount":"0"},"specials":{"count":"0"},"hereNow":{"count":"0"},"referralId":"v-1392477995"},{"id":"4c0fd61ef1b6a59317ec7a27","name":"The Skills Matter eXchange","contact":{"phone":"+442071839040","formattedPhone":"+44 20 7183 9040","twitter":"skillsmatter"},"location":{"address":"116-120 Goswell Rd","lat":"51.524271853728756","lng":"-0.09896278381347656","distance":"80","postalCode":"EC1V 7DP","cc":"GB","city":"Islington","state":"Greater London","country":"United Kingdom"},"categories":[{"id":"4bf58dd8d48988d171941735","name":"Event Space","pluralName":"Event Spaces","shortName":"Event Space","icon":{"prefix":"https:\/\/ss1.4sqi.net\/img\/categories_v2\/building\/eventspace_","suffix":".png"},"primary":"true"}],"verified":"true","restricted":"true","stats":{"checkinsCount":"2293","usersCount":"906","tipCount":"10"},"url":"http:\/\/skillsmatter.com","specials":{"count":"0"},"hereNow":{"count":"0"},"venuePage":{"id":"36227990"},"storeId":"","referralId":"v-1392477995"},{"id":"4bbb2122cf2fc9b6d62fa202","name":"Starbucks","contact":{"twitter":"starbucksuk"},"location":{"address":"8 Charterhouse Buildings, Goswell Rd.","lat":"51.52323431723105","lng":"-0.09821073738753783","distance":"120","postalCode":"EC1M 7AN","cc":"GB","city":"London","state":"Greater London","country":"United Kingdom"},"categories":[{"id":"4bf58dd8d48988d1e0931735","name":"Coffee Shop","pluralName":"Coffee Shops","shortName":"Coffee Shop","icon":{"prefix":"https:\/\/ss1.4sqi.net\/img\/categories_v2\/food\/coffeeshop_","suffix":".png"},"primary":"true"}],"verified":"true","restricted":"true","stats":{"checkinsCount":"2372","usersCount":"625","tipCount":"9"},"url":"http:\/\/starbucks.co.uk","specials":{"count":"0"},"hereNow":{"count":"1","groups":[{"type":"others","name":"Other people here","count":"1"}]},"storeId":"12224","referralId":"v-1392477995"},{"id":"4acdaafff964a5209ccc20e3","name":"NUSA","contact":{"phone":"+442072533134","formattedPhone":"+44 20 7253 3134"},"location":{"address":"9 Old St.","lat":"51.523458","lng":"-0.098093","distance":"94","postalCode":"EC1V 9HL","cc":"GB","city":"Islington","state":"Greater London","country":"United Kingdom"},"categories":[{"id":"4bf58dd8d48988d1dd931735","name":"Soup Place","pluralName":"Soup Places","shortName":"Soup","icon":{"prefix":"https:\/\/ss1.4sqi.net\/img\/categories_v2\/food\/soup_","suffix":".png"},"primary":"true"}],"verified":"false","restricted":"true","stats":{"checkinsCount":"1630","usersCount":"290","tipCount":"25"},"specials":{"count":"0"},"hereNow":{"count":"0"},"referralId":"v-1392477995"},{"id":"4bf5093ee5eba59339472090","name":"Kingston Smith","contact":{"phone":"+442075664000","formattedPhone":"+44 20 7566 4000","twitter":"kingstonsmith"},"location":{"address":"Devonshire House","lat":"51.52331627692705","lng":"-0.09811260009803949","distance":"110","postalCode":"EC1M 7AD","cc":"GB","city":"London","state":"Greater London","country":"United Kingdom"},"categories":[{"id":"4bf58dd8d48988d124941735","name":"Office","pluralName":"Offices","shortName":"Office","icon":{"prefix":"https:\/\/ss1.4sqi.net\/img\/categories_v2\/building\/default_","suffix":".png"},"primary":"true"}],"verified":"true","restricted":"true","stats":{"checkinsCount":"326","usersCount":"26","tipCount":"0"},"specials":{"count":"1","items":[{"id":"4ee60deaa17ceecb1628aa95","type":"frequency","message":"Thanks for visiting us at Kingston Smith again! Treat yourself to a free place at one of our seminars, worth \u00a325","description":"Unlocked every 2 check-ins","finePrint":"Unfortunately we cannot offer free places at KSFM training, or for places at the Kingston Smith W1 Annual Marketing Services Survey seminar.","icon":"frequency","title":"Loyalty Special","provider":"foursquare","redemption":"standard"}]},"hereNow":{"count":"0"},"referralId":"v-1392477995"},{"id":"50ee7df1e4b06780b526325a","name":"Farfetch","contact":{"twitter":"farfetch"},"location":{"address":"90-98 Goswell Rd","crossStreet":"2nd Floor","lat":"51.52406028930103","lng":"-0.09874215788040235","distance":"69","postalCode":"EC1V 7DF","cc":"GB","city":"London","state":"Greater London","country":"United Kingdom"},"categories":[{"id":"4bf58dd8d48988d124941735","name":"Office","pluralName":"Offices","shortName":"Office","icon":{"prefix":"https:\/\/ss1.4sqi.net\/img\/categories_v2\/building\/default_","suffix":".png"},"primary":"true"}],"verified":"false","restricted":"true","stats":{"checkinsCount":"155","usersCount":"14","tipCount":"0"},"url":"http:\/\/www.farfetch.com","specials":{"count":"0"},"hereNow":{"count":"0"},"referralId":"v-1392477995"},{"id":"4ad9d59bf964a5201e1b21e3","name":"Costa Coffee","location":{"address":"Goswell Rd","lat":"51.52321714412434","lng":"-0.09793281555175781","distance":"119","cc":"GB","city":"London","state":"Greater London","country":"United Kingdom"},"categories":[{"id":"4bf58dd8d48988d1e0931735","name":"Coffee Shop","pluralName":"Coffee Shops","shortName":"Coffee Shop","icon":{"prefix":"https:\/\/ss1.4sqi.net\/img\/categories_v2\/food\/coffeeshop_","suffix":".png"},"primary":"true"}],"verified":"false","restricted":"true","stats":{"checkinsCount":"850","usersCount":"352","tipCount":"10"},"specials":{"count":"0"},"hereNow":{"count":"0"},"referralId":"v-1392477995"},{"id":"4ae05443f964a520ab7e21e3","name":"LIFE Bar","contact":{"phone":"+442072503737","formattedPhone":"+44 20 7250 3737"},"location":{"address":"2-4 Old St","lat":"51.523471","lng":"-0.098058","distance":"92","postalCode":"EC1V 9AA","cc":"GB","city":"Clerkenwell","state":"Greater London","country":"United Kingdom"},"categories":[{"id":"4bf58dd8d48988d111941735","name":"Japanese Restaurant","pluralName":"Japanese Restaurants","shortName":"Japanese","icon":{"prefix":"https:\/\/ss1.4sqi.net\/img\/categories_v2\/food\/japanese_","suffix":".png"},"primary":"true"}],"verified":"false","restricted":"true","stats":{"checkinsCount":"599","usersCount":"372","tipCount":"15"},"url":"http:\/\/www.life-oldst.com","specials":{"count":"0"},"hereNow":{"count":"0"},"referralId":"v-1392477995"},{"id":"4cc96c2e4650a35db22e8e1e","name":"Cision UK","location":{"lat":"51.52333301267756","lng":"-0.09708534810187378","distance":"117","cc":"GB","country":"United Kingdom"},"categories":[{"id":"4bf58dd8d48988d124941735","name":"Office","pluralName":"Offices","shortName":"Office","icon":{"prefix":"https:\/\/ss1.4sqi.net\/img\/categories_v2\/building\/default_","suffix":".png"},"primary":"true"}],"verified":"false","restricted":"true","stats":{"checkinsCount":"522","usersCount":"15","tipCount":"0"},"specials":{"count":"0"},"hereNow":{"count":"0"},"referralId":"v-1392477995"},{"id":"4b4dc83cf964a52096d726e3","name":"Il Cicchetto","contact":{"twitter":"ilcicchettobar"},"location":{"address":"44 Old Street","lat":"51.524029","lng":"-0.09641802","distance":"100","postalCode":"EC1V 9AQ","cc":"GB","city":"London","state":"Greater London","country":"United Kingdom"},"categories":[{"id":"4bf58dd8d48988d11b941735","name":"Pub","pluralName":"Pubs","shortName":"Pub","icon":{"prefix":"https:\/\/ss1.4sqi.net\/img\/categories_v2\/nightlife\/pub_","suffix":".png"},"primary":"true"}],"verified":"true","restricted":"true","stats":{"checkinsCount":"297","usersCount":"115","tipCount":"5"},"url":"http:\/\/ilcicchetto.co.uk","menu":{"type":"Menu","label":"Menu","anchor":"View Menu","url":"https:\/\/foursquare.com\/v\/il-cicchetto\/4b4dc83cf964a52096d726e3\/menu","mobileUrl":"https:\/\/foursquare.com\/v\/4b4dc83cf964a52096d726e3\/device_menu"},"specials":{"count":"0"},"hereNow":{"count":"0"},"venuePage":{"id":"67016570"},"referralId":"v-1392477995"},{"id":"5271016f498e53cf79b4117a","name":"Temptations","location":{"address":"No. 5 Clerkenwell Road","crossStreet":"Goswell Road","lat":"51.52351611819009","lng":"-0.09888343220167935","distance":"114","postalCode":"EC1","cc":"GB","city":"London","state":"Greater London","country":"United Kingdom"},"categories":[{"id":"4bf58dd8d48988d1e0931735","name":"Coffee Shop","pluralName":"Coffee Shops","shortName":"Coffee Shop","icon":{"prefix":"https:\/\/ss1.4sqi.net\/img\/categories_v2\/food\/coffeeshop_","suffix":".png"},"primary":"true"}],"verified":"false","restricted":"true","stats":{"checkinsCount":"26","usersCount":"11","tipCount":"1"},"specials":{"count":"0"},"hereNow":{"count":"0"},"referralId":"v-1392477995"},{"id":"4ad5c88ff964a520790321e3","name":"Pret A Manger","contact":{"phone":"+442079325302","formattedPhone":"+44 20 7932 5302","twitter":"pret","facebook":"162638680417951"},"location":{"address":"9\/10 Charterhouse Buildings, Goswell Road","lat":"51.523190442298336","lng":"-0.09853363037109375","distance":"132","postalCode":"EC1M 7AN","cc":"GB","city":"Goswell Road, London","country":"United Kingdom"},"categories":[{"id":"4bf58dd8d48988d1c5941735","name":"Sandwich Place","pluralName":"Sandwich Places","shortName":"Sandwiches","icon":{"prefix":"https:\/\/ss1.4sqi.net\/img\/categories_v2\/food\/sandwiches_","suffix":".png"},"primary":"true"}],"verified":"true","restricted":"true","stats":{"checkinsCount":"1283","usersCount":"301","tipCount":"3"},"url":"http:\/\/www.pret.com","specials":{"count":"0"},"hereNow":{"count":"0"},"storeId":"102","referralId":"v-1392477995"},{"id":"51f6851d498ea92412de8b12","name":"DG Spot On UK","location":{"lat":"51.523658798872006","lng":"-0.09898157682801265","distance":"107","cc":"GB","country":"United Kingdom"},"categories":[{"id":"4bf58dd8d48988d125941735","name":"Tech Startup","pluralName":"Tech Startups","shortName":"Tech Startup","icon":{"prefix":"https:\/\/ss1.4sqi.net\/img\/categories_v2\/shops\/technology_","suffix":".png"},"primary":"true"}],"verified":"false","restricted":"true","stats":{"checkinsCount":"82","usersCount":"4","tipCount":"0"},"specials":{"count":"0"},"hereNow":{"count":"0"},"referralId":"v-1392477995"},{"id":"4ae9a29af964a52073b521e3","name":"Foolproof","contact":{"phone":"+442075393840","formattedPhone":"+44 20 7539 3840","twitter":"foolproof_ux"},"location":{"address":"90-98 Goswell Road","crossStreet":"Old Street","lat":"51.523964788896386","lng":"-0.09879112243652344","distance":"77","postalCode":"EC1V 7DF","cc":"GB","city":"London","state":"Greater London","country":"United Kingdom"},"categories":[{"id":"4bf58dd8d48988d124941735","name":"Office","pluralName":"Offices","shortName":"Office","icon":{"prefix":"https:\/\/ss1.4sqi.net\/img\/categories_v2\/building\/default_","suffix":".png"},"primary":"true"}],"verified":"false","restricted":"true","stats":{"checkinsCount":"1063","usersCount":"112","tipCount":"3"},"url":"http:\/\/www.foolproof.co.uk","specials":{"count":"0"},"hereNow":{"count":"0"},"referralId":"v-1392477995"},{"id":"4ea1335b5c5cd12b3519904f","name":"turned out nice again","contact":{"twitter":"turnedoutnice"},"location":{"address":"49-59 old street","lat":"51.52400023626092","lng":"-0.09657169943467726","distance":"91","postalCode":"EC1V 9HX","cc":"GB","city":"London","state":"Greater London","country":"United Kingdom"},"categories":[{"id":"4bf58dd8d48988d124941735","name":"Office","pluralName":"Offices","shortName":"Office","icon":{"prefix":"https:\/\/ss1.4sqi.net\/img\/categories_v2\/building\/default_","suffix":".png"},"primary":"true"}],"verified":"false","restricted":"true","stats":{"checkinsCount":"12","usersCount":"5","tipCount":"0"},"specials":{"count":"0"},"hereNow":{"count":"0"},"referralId":"v-1392477995"},{"id":"4d2de44b49bb721e852f7a95","name":"AbilityNet","contact":{"twitter":"abilitynet"},"location":{"address":"25 Angel Gate Office Village","crossStreet":"326 City Road","lat":"51.524066","lng":"-0.098746","distance":"69","postalCode":"EC1V 2PT","cc":"GB","city":"Islington","state":"Greater London","country":"United Kingdom"},"categories":[{"id":"4bf58dd8d48988d124941735","name":"Office","pluralName":"Offices","shortName":"Office","icon":{"prefix":"https:\/\/ss1.4sqi.net\/img\/categories_v2\/building\/default_","suffix":".png"},"primary":"true"}],"verified":"false","restricted":"true","stats":{"checkinsCount":"146","usersCount":"10","tipCount":"1"},"specials":{"count":"0"},"hereNow":{"count":"0"},"referralId":"v-1392477995"},{"id":"4cd7e9d4a99d3704b94302ce","name":"Gee Street Family Court","location":{"lat":"51.524349","lng":"-0.097705","distance":"9","cc":"GB","country":"United Kingdom"},"categories":[{"id":"4bf58dd8d48988d12b941735","name":"Courthouse","pluralName":"Courthouses","shortName":"Courthouse","icon":{"prefix":"https:\/\/ss1.4sqi.net\/img\/categories_v2\/building\/government_courthouse_","suffix":".png"},"primary":"true"}],"verified":"false","restricted":"true","stats":{"checkinsCount":"16","usersCount":"11","tipCount":"0"},"specials":{"count":"0"},"hereNow":{"count":"0"},"referralId":"v-1392477995"},{"id":"4e9eeeed754a510fd138bb02","name":"The SCIN Gallery","contact":{"phone":"+442073577574","formattedPhone":"+44 20 7357 7574"},"location":{"address":"27 Old St.","lat":"51.52355091562866","lng":"-0.09801864624023438","distance":"83","postalCode":"EC1V 9HL","cc":"GB","city":"London","state":"Greater London","country":"United Kingdom"},"categories":[{"id":"4bf58dd8d48988d1e2931735","name":"Art Gallery","pluralName":"Art Galleries","shortName":"Art Gallery","icon":{"prefix":"https:\/\/ss1.4sqi.net\/img\/categories_v2\/arts_entertainment\/artgallery_","suffix":".png"},"primary":"true"}],"verified":"false","restricted":"true","stats":{"checkinsCount":"18","usersCount":"18","tipCount":"1"},"specials":{"count":"0"},"hereNow":{"count":"0"},"referralId":"v-1392477995"},{"id":"4de4fd522271bfb844d6d40d","name":"Nisa Local","location":{"address":"Islington, City of London EC1V 9HX","crossStreet":"Old Street","lat":"51.523964544649246","lng":"-0.09685883496665769","distance":"74","postalCode":"EC1V 9HX","cc":"GB","city":"London","state":"Greater London","country":"United Kingdom"},"categories":[{"id":"4bf58dd8d48988d1f9941735","name":"Food & Drink Shop","pluralName":"Food & Drink Shops","shortName":"Food & Drink","icon":{"prefix":"https:\/\/ss1.4sqi.net\/img\/categories_v2\/shops\/foodanddrink_","suffix":".png"},"primary":"true"}],"verified":"false","restricted":"true","stats":{"checkinsCount":"71","usersCount":"16","tipCount":"0"},"specials":{"count":"0"},"hereNow":{"count":"0"},"referralId":"v-1392477995"},{"id":"4b4f2141f964a520fffa26e3","name":"HSBC","contact":{"twitter":"hsbc"},"location":{"address":"74 Goswell Rd","crossStreet":"Old St","lat":"51.52337067932019","lng":"-0.09845852851867676","distance":"111","postalCode":"EC1V 7DA","cc":"GB","city":"London","state":"Greater London","country":"United Kingdom"},"categories":[{"id":"4bf58dd8d48988d10a951735","name":"Bank","pluralName":"Banks","shortName":"Bank","icon":{"prefix":"https:\/\/ss1.4sqi.net\/img\/categories_v2\/shops\/financial_","suffix":".png"},"primary":"true"}],"verified":"false","restricted":"true","stats":{"checkinsCount":"314","usersCount":"130","tipCount":"3"},"specials":{"count":"0"},"hereNow":{"count":"0"},"referralId":"v-1392477995"},{"id":"4e71ba078877dff6bceb8b77","name":"The Clearing","location":{"lat":"51.52478","lng":"-0.097836","distance":"54","postalCode":"EC1V 3PS","cc":"GB","city":"Islington","state":"Greater London","country":"United Kingdom"},"categories":[{"id":"4bf58dd8d48988d124941735","name":"Office","pluralName":"Offices","shortName":"Office","icon":{"prefix":"https:\/\/ss1.4sqi.net\/img\/categories_v2\/building\/default_","suffix":".png"},"primary":"true"}],"verified":"false","restricted":"true","stats":{"checkinsCount":"233","usersCount":"8","tipCount":"0"},"specials":{"count":"0"},"hereNow":{"count":"0"},"referralId":"v-1392477995"},{"id":"4b2b864ef964a5202db724e3","name":"Ravello","location":{"address":"46-48 Old St","lat":"51.524149738601594","lng":"-0.0964119828431633","distance":"97","postalCode":"EC1V 9AQ","cc":"GB","city":"London","state":"Greater London","country":"United Kingdom"},"categories":[{"id":"4bf58dd8d48988d110941735","name":"Italian Restaurant","pluralName":"Italian Restaurants","shortName":"Italian","icon":{"prefix":"https:\/\/ss1.4sqi.net\/img\/categories_v2\/food\/italian_","suffix":".png"},"primary":"true"}],"verified":"false","restricted":"true","stats":{"checkinsCount":"32","usersCount":"28","tipCount":"2"},"url":"http:\/\/www.ravellorestaurant.co.uk","reservations":{"url":"http:\/\/www.toptable.co.uk\/single.aspx?rid=85414&ref=9601"},"menu":{"type":"Menu","label":"Menu","anchor":"View Menu","url":"https:\/\/foursquare.com\/v\/ravello\/4b2b864ef964a5202db724e3\/menu","mobileUrl":"https:\/\/foursquare.com\/v\/4b2b864ef964a5202db724e3\/device_menu"},"specials":{"count":"0"},"hereNow":{"count":"0"},"referralId":"v-1392477995"},{"id":"4bd052a8046076b0b4b36f71","name":"Via-Agra","contact":{"phone":"+442072531118","formattedPhone":"+44 20 7253 1118"},"location":{"address":"82 Goswell Rd","lat":"51.523512","lng":"-0.098728","distance":"107","postalCode":"EC1M 5","cc":"GB","city":"Islington","state":"Greater London","country":"United Kingdom"},"categories":[{"id":"4bf58dd8d48988d16d941735","name":"Caf\u00e9","pluralName":"Caf\u00e9s","shortName":"Caf\u00e9","icon":{"prefix":"https:\/\/ss1.4sqi.net\/img\/categories_v2\/food\/cafe_","suffix":".png"},"primary":"true"}],"verified":"false","restricted":"true","stats":{"checkinsCount":"77","usersCount":"48","tipCount":"2"},"specials":{"count":"0"},"hereNow":{"count":"0"},"referralId":"v-1392477995"},{"id":"52ff3293498e6a151a16dc83","name":"The Queue for the Vitra One Day Sale","location":{"lat":"51.523713","lng":"-0.098884","distance":"98","cc":"GB","country":"United Kingdom"},"categories":[{"id":"4bf58dd8d48988d1f8941735","name":"Furniture \/ Home Store","pluralName":"Furniture \/ Home Stores","shortName":"Furniture \/ Home","icon":{"prefix":"https:\/\/ss1.4sqi.net\/img\/categories_v2\/shops\/furniture_","suffix":".png"},"primary":"true"}],"verified":"false","restricted":"true","stats":{"checkinsCount":"1","usersCount":"1","tipCount":"0"},"specials":{"count":"0"},"hereNow":{"count":"0"},"referralId":"v-1392477995"},{"id":"4d30ba7796fe6ea8d2e11744","name":"Cabinet Gallery","contact":{"phone":"+442072516114","formattedPhone":"+44 20 7251 6114"},"location":{"address":"49-59 Old St","lat":"51.52422054932385","lng":"-0.09749703531334786","distance":"22","cc":"GB","city":"Islington","state":"Greater London","country":"United Kingdom"},"categories":[{"id":"4bf58dd8d48988d1e2931735","name":"Art Gallery","pluralName":"Art Galleries","shortName":"Art Gallery","icon":{"prefix":"https:\/\/ss1.4sqi.net\/img\/categories_v2\/arts_entertainment\/artgallery_","suffix":".png"},"primary":"true"}],"verified":"false","restricted":"true","stats":{"checkinsCount":"19","usersCount":"5","tipCount":"0"},"specials":{"count":"0"},"hereNow":{"count":"0"},"referralId":"v-1392477995"},{"id":"52652447498eab63a6b83eb4","name":"Youhi","location":{"lat":"51.523899","lng":"-0.096758","distance":"84","cc":"GB","country":"United Kingdom"},"categories":[{"id":"4bf58dd8d48988d1d2941735","name":"Sushi Restaurant","pluralName":"Sushi Restaurants","shortName":"Sushi","icon":{"prefix":"https:\/\/ss1.4sqi.net\/img\/categories_v2\/food\/sushi_","suffix":".png"},"primary":"true"}],"verified":"false","restricted":"true","stats":{"checkinsCount":"3","usersCount":"1","tipCount":"0"},"specials":{"count":"0"},"hereNow":{"count":"0"},"referralId":"v-1392477995"}],"confident":"true"}}