{"meta":{"code":"200"},"response":{"venues":[{"id":"4acdcffcf964a52015cd20e3","name":"Swiss Cottage","contact":{"twitter":"swiss_cottage"},"location":{"address":"Everywhere!","lat":"51.542211524878915","lng":"-0.17447233200073242","distance":"398","postalCode":"NW3","cc":"GB","city":"London","state":"Greater London","country":"United Kingdom"},"categories":[{"id":"4f2a25ac4b909258e854f55f","name":"Neighborhood","pluralName":"Neighborhoods","shortName":"Neighborhood","icon":{"prefix":"https:\/\/ss1.4sqi.net\/img\/categories_v2\/parks_outdoors\/neighborhood_","suffix":".png"},"primary":"true"}],"verified":"false","restricted":"true","stats":{"checkinsCount":"1531","usersCount":"480","tipCount":"5"},"specials":{"count":"0"},"hereNow":{"count":"0"},"referralId":"v-1392477945"},{"id":"4ac518faf964a52031b020e3","name":"Swiss Cottage Leisure Centre","location":{"address":"Winchester Rd.","lat":"51.542304942159305","lng":"-0.17239093780517578","distance":"503","postalCode":"N9","cc":"GB","city":"London","state":"Greater London","country":"United Kingdom"},"categories":[{"id":"4bf58dd8d48988d175941735","name":"Gym \/ Fitness Center","pluralName":"Gyms or Fitness Centers","shortName":"Gym \/ Fitness","icon":{"prefix":"https:\/\/ss1.4sqi.net\/img\/categories_v2\/building\/gym_","suffix":".png"},"primary":"true"}],"verified":"false","restricted":"true","stats":{"checkinsCount":"4236","usersCount":"586","tipCount":"16"},"specials":{"count":"0"},"hereNow":{"count":"0"},"referralId":"v-1392477945"},{"id":"4bcf3fa3a8b3a5930bd8615f","name":"Atariya Sushi Bar","location":{"address":"79-81 Fairfax Rd.","lat":"51.542307","lng":"-0.17967","distance":"359","postalCode":"NW6 4DY","cc":"GB","city":"London","state":"Greater London","country":"United Kingdom"},"categories":[{"id":"4bf58dd8d48988d1d2941735","name":"Sushi Restaurant","pluralName":"Sushi Restaurants","shortName":"Sushi","icon":{"prefix":"https:\/\/ss1.4sqi.net\/img\/categories_v2\/food\/sushi_","suffix":".png"},"primary":"true"}],"verified":"false","restricted":"true","stats":{"checkinsCount":"510","usersCount":"275","tipCount":"15"},"menu":{"type":"Menu","label":"Menu","anchor":"View Menu","url":"https:\/\/foursquare.com\/v\/atariya-sushi-bar\/4bcf3fa3a8b3a5930bd8615f\/menu","mobileUrl":"https:\/\/foursquare.com\/v\/4bcf3fa3a8b3a5930bd8615f\/device_menu"},"specials":{"count":"0"},"hereNow":{"count":"0"},"referralId":"v-1392477945"},{"id":"4ac518e8f964a520a3ab20e3","name":"Odeon Swiss Cottage","contact":{"phone":"+448712244007","formattedPhone":"+44 871 224 4007","twitter":"odeoncinemas"},"location":{"address":"96 Finchley Rd","lat":"51.542668505623915","lng":"-0.17492008766858141","distance":"425","postalCode":"NW3 5EL","cc":"GB","city":"South Hampstead","state":"Greater London","country":"United Kingdom"},"categories":[{"id":"4bf58dd8d48988d180941735","name":"Multiplex","pluralName":"Multiplexes","shortName":"Cineplex","icon":{"prefix":"https:\/\/ss1.4sqi.net\/img\/categories_v2\/arts_entertainment\/movietheater_cineplex_","suffix":".png"},"primary":"true"}],"verified":"false","restricted":"true","stats":{"checkinsCount":"2229","usersCount":"1269","tipCount":"21"},"url":"http:\/\/www.odeon.co.uk","specials":{"count":"0"},"events":{"count":"6","summary":"6 movies"},"hereNow":{"count":"0"},"referralId":"v-1392477945"},{"id":"5036b36ccc6417d4bcd9a23f","name":"South Hampstead London Overground Station","contact":{"phone":"+448432221234","formattedPhone":"+44 843 222 1234","twitter":"tflofficial","facebook":"212038972186253"},"location":{"address":"156 Loudoun Rd.","lat":"51.541447910161224","lng":"-0.1789642058250749","distance":"253","postalCode":"NW8 0DJ","cc":"GB","city":"London","state":"Greater London","country":"United Kingdom"},"categories":[{"id":"4bf58dd8d48988d129951735","name":"Train Station","pluralName":"Train Stations","shortName":"Train Station","icon":{"prefix":"https:\/\/ss1.4sqi.net\/img\/categories_v2\/travel\/trainstation_","suffix":".png"},"primary":"true"}],"verified":"true","restricted":"true","stats":{"checkinsCount":"1044","usersCount":"336","tipCount":"3"},"url":"http:\/\/www.tfl.gov.uk\/livetravelnews","specials":{"count":"0"},"hereNow":{"count":"0"},"storeId":"","referralId":"v-1392477945"},{"id":"512bfb1be4b0510e2df390e4","name":"Sherlock Court","location":{"lat":"51.540316","lng":"-0.176311","distance":"154","cc":"GB","country":"United Kingdom"},"categories":[{"id":"4d954b06a243a5684965b473","name":"Residential Building (Apartment \/ Condo)","pluralName":"Residential Buildings (Apartments \/ Condos)","shortName":"Residential","icon":{"prefix":"https:\/\/ss1.4sqi.net\/img\/categories_v2\/building\/apartment_","suffix":".png"},"primary":"true"}],"verified":"false","restricted":"true","stats":{"checkinsCount":"117","usersCount":"8","tipCount":"0"},"specials":{"count":"0"},"hereNow":{"count":"0"},"referralId":"v-1392477945"},{"id":"4b2d35e0f964a52022d124e3","name":"Singapore Garden","contact":{"phone":"+442073285314","formattedPhone":"+44 20 7328 5314"},"location":{"address":"Fairfax Rd","lat":"51.542198","lng":"-0.179463","distance":"343","postalCode":"NW6 4DY","cc":"GB","city":"London","state":"Greater London","country":"United Kingdom"},"categories":[{"id":"4bf58dd8d48988d156941735","name":"Malaysian Restaurant","pluralName":"Malaysian Restaurants","shortName":"Malaysian","icon":{"prefix":"https:\/\/ss1.4sqi.net\/img\/categories_v2\/food\/default_","suffix":".png"},"primary":"true"}],"verified":"false","restricted":"true","stats":{"checkinsCount":"562","usersCount":"259","tipCount":"16"},"url":"http:\/\/www.singaporegarden.co.uk","menu":{"type":"Menu","label":"Menu","anchor":"View Menu","url":"https:\/\/foursquare.com\/v\/singapore-garden\/4b2d35e0f964a52022d124e3\/menu","mobileUrl":"https:\/\/foursquare.com\/v\/4b2d35e0f964a52022d124e3\/device_menu"},"specials":{"count":"0"},"hereNow":{"count":"0"},"referralId":"v-1392477945"},{"id":"4b5092a7f964a520db2727e3","name":"Ye Olde Swiss Cottage","contact":{"phone":"+442072223487","formattedPhone":"+44 20 7222 3487"},"location":{"address":"98 Finchley Rd","lat":"51.542934110877376","lng":"-0.17482349195849303","distance":"455","postalCode":"NW3 5EL","cc":"GB","city":"London","state":"Greater London","country":"United Kingdom"},"categories":[{"id":"4bf58dd8d48988d11b941735","name":"Pub","pluralName":"Pubs","shortName":"Pub","icon":{"prefix":"https:\/\/ss1.4sqi.net\/img\/categories_v2\/nightlife\/pub_","suffix":".png"},"primary":"true"}],"verified":"false","restricted":"true","stats":{"checkinsCount":"853","usersCount":"527","tipCount":"15"},"specials":{"count":"0"},"hereNow":{"count":"0"},"referralId":"v-1392477945"},{"id":"4bd1ec80462cb7137131db07","name":"Tesco Express","contact":{"phone":"+448456746379","formattedPhone":"+44 845 674 6379","twitter":"uktescooffers"},"location":{"address":"47-49 Belsize Road","lat":"51.542095","lng":"-0.179548","distance":"334","postalCode":"NW6 4RY","cc":"GB","city":"Hampstead","state":"Greater London","country":"United Kingdom"},"categories":[{"id":"4bf58dd8d48988d118951735","name":"Grocery Store","pluralName":"Grocery Stores","shortName":"Grocery Store","icon":{"prefix":"https:\/\/ss1.4sqi.net\/img\/categories_v2\/shops\/food_grocery_","suffix":".png"},"primary":"true"}],"verified":"true","restricted":"true","stats":{"checkinsCount":"702","usersCount":"126","tipCount":"2"},"url":"http:\/\/www.tesco.com","specials":{"count":"0"},"hereNow":{"count":"0"},"storeId":"5532","referralId":"v-1392477945"},{"id":"4f678b94e4b04103a0760d96","name":"Mia Lounge London","contact":{"phone":"+442077224232","formattedPhone":"+44 20 7722 4232","twitter":"mialoungelondon"},"location":{"address":"100 Avenue Road","crossStreet":"Swiss Cottage","lat":"51.54316333416122","lng":"-0.17369791628471853","distance":"516","postalCode":"NW3 6HF","cc":"GB","city":"London","state":"Greater London","country":"United Kingdom"},"categories":[{"id":"4bf58dd8d48988d121941735","name":"Lounge","pluralName":"Lounges","shortName":"Lounge","icon":{"prefix":"https:\/\/ss1.4sqi.net\/img\/categories_v2\/nightlife\/lounge_","suffix":".png"},"primary":"true"}],"verified":"false","restricted":"true","stats":{"checkinsCount":"1253","usersCount":"528","tipCount":"7"},"url":"http:\/\/www.mialounge.com","reservations":{"url":"http:\/\/www.toptable.co.uk\/single.aspx?rid=90489&ref=9601"},"menu":{"type":"Menu","label":"Menu","anchor":"View Menu","url":"https:\/\/foursquare.com\/v\/mia-lounge-london\/4f678b94e4b04103a0760d96\/menu","mobileUrl":"https:\/\/foursquare.com\/v\/4f678b94e4b04103a0760d96\/device_menu"},"specials":{"count":"0"},"hereNow":{"count":"0"},"referralId":"v-1392477945"},{"id":"514de74fe4b0ec8b7ac94604","name":"bake with maria","location":{"lat":"51.540729521796244","lng":"-0.17943067676908264","distance":"195","cc":"GB","country":"United Kingdom"},"categories":[{"id":"4bf58dd8d48988d16a941735","name":"Bakery","pluralName":"Bakeries","shortName":"Bakery","icon":{"prefix":"https:\/\/ss1.4sqi.net\/img\/categories_v2\/food\/bakery_","suffix":".png"},"primary":"true"}],"verified":"false","restricted":"true","stats":{"checkinsCount":"10","usersCount":"5","tipCount":"0"},"specials":{"count":"0"},"hereNow":{"count":"0"},"referralId":"v-1392477945"},{"id":"4ac518eaf964a520f2ab20e3","name":"Hampstead Theatre","contact":{"phone":"+442077229301","formattedPhone":"+44 20 7722 9301","twitter":"hamps_theatre"},"location":{"address":"Eton Avenue","lat":"51.543766230368064","lng":"-0.17365694046020508","distance":"575","postalCode":"NW3 3EU","cc":"GB","city":"London","state":"Greater London","country":"United Kingdom"},"categories":[{"id":"4bf58dd8d48988d137941735","name":"Theater","pluralName":"Theaters","shortName":"Theater","icon":{"prefix":"https:\/\/ss1.4sqi.net\/img\/categories_v2\/arts_entertainment\/performingarts_theater_","suffix":".png"},"primary":"true"}],"verified":"false","restricted":"true","stats":{"checkinsCount":"852","usersCount":"480","tipCount":"11"},"url":"http:\/\/www.hampsteadtheatre.com","specials":{"count":"0"},"hereNow":{"count":"0"},"referralId":"v-1392477945"},{"id":"4cf11cc1899c6ea88b89eec1","name":"St Johns Wood Park","location":{"lat":"51.53859099306359","lng":"-0.17551924142904282","distance":"176","cc":"GB","country":"United Kingdom"},"categories":[{"id":"4bf58dd8d48988d163941735","name":"Park","pluralName":"Parks","shortName":"Park","icon":{"prefix":"https:\/\/ss1.4sqi.net\/img\/categories_v2\/parks_outdoors\/park_","suffix":".png"},"primary":"true"}],"verified":"false","restricted":"true","stats":{"checkinsCount":"321","usersCount":"86","tipCount":"0"},"specials":{"count":"0"},"hereNow":{"count":"0"},"referralId":"v-1392477945"},{"id":"4b59ee8df964a520dfa128e3","name":"Cafe Med","location":{"address":"Loudoun Road","lat":"51.537434","lng":"-0.178924","distance":"220","postalCode":"NW8 0NB","cc":"GB","city":"London","state":"Greater London","country":"United Kingdom"},"categories":[{"id":"4bf58dd8d48988d16d941735","name":"Caf\u00e9","pluralName":"Caf\u00e9s","shortName":"Caf\u00e9","icon":{"prefix":"https:\/\/ss1.4sqi.net\/img\/categories_v2\/food\/cafe_","suffix":".png"},"primary":"true"}],"verified":"false","restricted":"true","stats":{"checkinsCount":"96","usersCount":"87","tipCount":"1"},"specials":{"count":"0"},"hereNow":{"count":"0"},"referralId":"v-1392477945"},{"id":"521f5f2c11d2c445d9df2cbf","name":"Boydell Court","location":{"lat":"51.54118352486454","lng":"-0.1738578975223754","distance":"345","cc":"GB","country":"United Kingdom"},"categories":[{"id":"4d954b06a243a5684965b473","name":"Residential Building (Apartment \/ Condo)","pluralName":"Residential Buildings (Apartments \/ Condos)","shortName":"Residential","icon":{"prefix":"https:\/\/ss1.4sqi.net\/img\/categories_v2\/building\/apartment_","suffix":".png"},"primary":"true"}],"verified":"false","restricted":"true","stats":{"checkinsCount":"51","usersCount":"10","tipCount":"0"},"specials":{"count":"0"},"hereNow":{"count":"0"},"referralId":"v-1392477945"},{"id":"4debde28636555593e5814a1","name":"Quintin Kynaston Community Academy","contact":{"phone":"+442077228141","formattedPhone":"+44 20 7722 8141"},"location":{"address":"Marlborough Hill","lat":"51.53716053766154","lng":"-0.17689475071433808","distance":"245","postalCode":"NW8 0NL","cc":"GB","city":"London","state":"Greater London","country":"United Kingdom"},"categories":[{"id":"4bf58dd8d48988d1ab941735","name":"Student Center","pluralName":"Student Centers","shortName":"Student Center","icon":{"prefix":"https:\/\/ss1.4sqi.net\/img\/categories_v2\/education\/studentcenter_","suffix":".png"},"primary":"true"}],"verified":"false","restricted":"true","stats":{"checkinsCount":"88","usersCount":"17","tipCount":"1"},"specials":{"count":"0"},"hereNow":{"count":"0"},"referralId":"v-1392477945"},{"id":"4f665716e4b0dc7721c281b2","name":"Buttermere Court","location":{"lat":"51.53928236456938","lng":"-0.17538228635736317","distance":"167","cc":"GB","country":"United Kingdom"},"categories":[{"id":"4d954b06a243a5684965b473","name":"Residential Building (Apartment \/ Condo)","pluralName":"Residential Buildings (Apartments \/ Condos)","shortName":"Residential","icon":{"prefix":"https:\/\/ss1.4sqi.net\/img\/categories_v2\/building\/apartment_","suffix":".png"},"primary":"true"}],"verified":"false","restricted":"true","stats":{"checkinsCount":"12","usersCount":"5","tipCount":"0"},"specials":{"count":"0"},"hereNow":{"count":"0"},"referralId":"v-1392477945"},{"id":"4ed681c499112d6efebe84e8","name":"Bus Stop E","location":{"lat":"51.54223223962718","lng":"-0.1738760283675203","distance":"425","cc":"GB","city":"Camden Town","state":"Greater London","country":"United Kingdom"},"categories":[{"id":"4bf58dd8d48988d1fe931735","name":"Bus Station","pluralName":"Bus Stations","shortName":"Bus Station","icon":{"prefix":"https:\/\/ss1.4sqi.net\/img\/categories_v2\/travel\/busstation_","suffix":".png"},"primary":"true"}],"verified":"false","restricted":"true","stats":{"checkinsCount":"106","usersCount":"38","tipCount":"0"},"specials":{"count":"0"},"hereNow":{"count":"0"},"referralId":"v-1392477945"},{"id":"4e2184a018501a60d2feb166","name":"Nona","location":{"address":"9 Fairhazel Gardens","lat":"51.54198465354242","lng":"-0.1810598373413086","distance":"375","postalCode":"NW6 3QE","cc":"GB","city":"London","state":"Greater London","country":"United Kingdom"},"categories":[{"id":"4bf58dd8d48988d16d941735","name":"Caf\u00e9","pluralName":"Caf\u00e9s","shortName":"Caf\u00e9","icon":{"prefix":"https:\/\/ss1.4sqi.net\/img\/categories_v2\/food\/cafe_","suffix":".png"},"primary":"true"}],"verified":"false","restricted":"true","stats":{"checkinsCount":"166","usersCount":"55","tipCount":"5"},"specials":{"count":"0"},"hereNow":{"count":"0"},"referralId":"v-1392477945"},{"id":"4e89b6002c5b673ad549a933","name":"Dental Surgeon","location":{"address":"34 Finchley Road","lat":"51.53698570034489","lng":"-0.17558255473719622","distance":"298","postalCode":"NW8","cc":"GB","city":"London","state":"Greater London","country":"United Kingdom"},"verified":"false","restricted":"true","stats":{"checkinsCount":"9","usersCount":"3","tipCount":"0"},"specials":{"count":"0"},"hereNow":{"count":"0"},"referralId":"v-1392477945"},{"id":"52e2c786498e192bf2ac431c","name":"Tara Tari","location":{"address":"117 Finchley Rd","lat":"51.54298218012651","lng":"-0.17375986714434413","distance":"497","postalCode":"NW3 6HY","cc":"GB","city":"London","state":"Greater London","country":"United Kingdom"},"categories":[{"id":"4bf58dd8d48988d1c4941735","name":"Restaurant","pluralName":"Restaurants","shortName":"Restaurant","icon":{"prefix":"https:\/\/ss1.4sqi.net\/img\/categories_v2\/food\/default_","suffix":".png"},"primary":"true"}],"verified":"false","restricted":"true","stats":{"checkinsCount":"7","usersCount":"7","tipCount":"0"},"url":"http:\/\/www.taratari.co.uk","specials":{"count":"0"},"hereNow":{"count":"0"},"referralId":"v-1392477945"},{"id":"4fae9e1ee4b0fd09a93bc0a8","name":"La Delizia","location":{"address":"44 Fairfax Rd.","lat":"51.543015071015944","lng":"-0.17896270938673656","distance":"422","postalCode":"NW6 4HA","cc":"GB","city":"London","state":"Greater London","country":"United Kingdom"},"categories":[{"id":"4bf58dd8d48988d110941735","name":"Italian Restaurant","pluralName":"Italian Restaurants","shortName":"Italian","icon":{"prefix":"https:\/\/ss1.4sqi.net\/img\/categories_v2\/food\/italian_","suffix":".png"},"primary":"true"}],"verified":"false","restricted":"true","stats":{"checkinsCount":"63","usersCount":"32","tipCount":"2"},"reservations":{"url":"http:\/\/www.toptable.co.uk\/single.aspx?rid=99138&ref=9601"},"specials":{"count":"0"},"hereNow":{"count":"0"},"referralId":"v-1392477945"},{"id":"52f95164498e1beba6864a1c","name":"Loudoun road","location":{"address":"Southhempton","crossStreet":"Loudoun Road","lat":"51.54111918372999","lng":"-0.18131187597455597","distance":"317","cc":"GB","city":"London","state":"Greater London","country":"United Kingdom"},"categories":[{"id":"4bf58dd8d48988d130941735","name":"Building","pluralName":"Buildings","shortName":"Building","icon":{"prefix":"https:\/\/ss1.4sqi.net\/img\/categories_v2\/building\/default_","suffix":".png"},"primary":"true"}],"verified":"false","restricted":"true","stats":{"checkinsCount":"2","usersCount":"1","tipCount":"0"},"specials":{"count":"0"},"hereNow":{"count":"0"},"referralId":"v-1392477945"},{"id":"5079b514e4b0e94247731b12","name":"Walton Court","location":{"lat":"51.54284533161347","lng":"-0.17939824524342807","distance":"411","cc":"GB","country":"United Kingdom"},"categories":[{"id":"4bf58dd8d48988d165941735","name":"Scenic Lookout","pluralName":"Scenic Lookouts","shortName":"Scenic Lookout","icon":{"prefix":"https:\/\/ss1.4sqi.net\/img\/categories_v2\/parks_outdoors\/sceniclookout_","suffix":".png"},"primary":"true"}],"verified":"false","restricted":"true","stats":{"checkinsCount":"73","usersCount":"9","tipCount":"0"},"specials":{"count":"0"},"hereNow":{"count":"0"},"referralId":"v-1392477945"},{"id":"4cea8bd90f196dcb7f7452ae","name":"Swiss Cottage School","location":{"address":"80 Avenue Road","lat":"51.54154022109886","lng":"-0.17286298108560413","distance":"424","postalCode":"NW8","cc":"GB","city":"Camden Town","state":"Greater London","country":"United Kingdom"},"categories":[{"id":"4bf58dd8d48988d13b941735","name":"School","pluralName":"Schools","shortName":"School","icon":{"prefix":"https:\/\/ss1.4sqi.net\/img\/categories_v2\/building\/school_","suffix":".png"},"primary":"true"}],"verified":"false","restricted":"true","stats":{"checkinsCount":"42","usersCount":"10","tipCount":"2"},"specials":{"count":"0"},"hereNow":{"count":"0"},"referralId":"v-1392477945"},{"id":"4fc14e00e4b0a06f8e8014de","name":"TfL Bus Stop (Y)","location":{"address":"Belsize Road","lat":"51.54069860967109","lng":"-0.18170174941245446","distance":"312","postalCode":"NW6","cc":"GB","city":"London","state":"Greater London","country":"United Kingdom"},"categories":[{"id":"4bf58dd8d48988d12b951735","name":"Bus Line","pluralName":"Bus Lines","shortName":"Bus","icon":{"prefix":"https:\/\/ss1.4sqi.net\/img\/categories_v2\/travel\/busstation_","suffix":".png"},"primary":"true"}],"verified":"false","restricted":"true","stats":{"checkinsCount":"52","usersCount":"8","tipCount":"0"},"specials":{"count":"0"},"hereNow":{"count":"0"},"referralId":"v-1392477945"},{"id":"52c31463498e8b25e5a681cd","name":"La Voss","location":{"lat":"51.543113708496094","lng":"-0.17492729425430298","distance":"470","cc":"GB","country":"United Kingdom"},"categories":[{"id":"4bf58dd8d48988d110941735","name":"Italian Restaurant","pluralName":"Italian Restaurants","shortName":"Italian","icon":{"prefix":"https:\/\/ss1.4sqi.net\/img\/categories_v2\/food\/italian_","suffix":".png"},"primary":"true"}],"verified":"false","restricted":"true","stats":{"checkinsCount":"7","usersCount":"7","tipCount":"1"},"reservations":{"url":"http:\/\/www.toptable.co.uk\/single.aspx?rid=100497&ref=9601"},"specials":{"count":"0"},"hereNow":{"count":"0"},"referralId":"v-1392477945"},{"id":"4acda30cf964a52074cc20e3","name":"Del'Aziz","contact":{"phone":"+442075863338","formattedPhone":"+44 20 7586 3338","twitter":"delazizlondon","facebook":"95676299014"},"location":{"address":"Swiss Cottage","crossStreet":"Adelaide Rd.","lat":"51.542832","lng":"-0.17363929999999997","distance":"488","postalCode":"NW3 3NF","cc":"GB","city":"London","state":"Greater London","country":"United Kingdom"},"categories":[{"id":"4bf58dd8d48988d1c3941735","name":"Moroccan Restaurant","pluralName":"Moroccan Restaurants","shortName":"Moroccan","icon":{"prefix":"https:\/\/ss1.4sqi.net\/img\/categories_v2\/food\/moroccan_","suffix":".png"},"primary":"true"}],"verified":"true","restricted":"true","stats":{"checkinsCount":"399","usersCount":"172","tipCount":"9"},"specials":{"count":"0"},"hereNow":{"count":"0"},"referralId":"v-1392477945"},{"id":"4e0c5b5ae4cdc8c1cde7cb50","name":"Claphams All Male Erotic Dance School","location":{"lat":"51.5402166778728","lng":"-0.1789078912104307","distance":"128","cc":"GB","city":"London","state":"Greater London","country":"United Kingdom"},"categories":[{"id":"4bf58dd8d48988d1ad941735","name":"Trade School","pluralName":"Trade Schools","shortName":"Trade School","icon":{"prefix":"https:\/\/ss1.4sqi.net\/img\/categories_v2\/education\/tradeschool_","suffix":".png"},"primary":"true"}],"verified":"false","restricted":"true","stats":{"checkinsCount":"33","usersCount":"13","tipCount":"2"},"specials":{"count":"0"},"hereNow":{"count":"0"},"referralId":"v-1392477945"},{"id":"4b4ba562f964a520c4a226e3","name":"The Arches","location":{"address":"7 fairhazel gardens","lat":"51.542017","lng":"-0.180693","distance":"363","postalCode":"NW6 3qe","cc":"GB","city":"Camden Town","state":"Greater London","country":"United Kingdom"},"categories":[{"id":"4bf58dd8d48988d16d941735","name":"Caf\u00e9","pluralName":"Caf\u00e9s","shortName":"Caf\u00e9","icon":{"prefix":"https:\/\/ss1.4sqi.net\/img\/categories_v2\/food\/cafe_","suffix":".png"},"primary":"true"}],"verified":"false","restricted":"true","stats":{"checkinsCount":"381","usersCount":"143","tipCount":"12"},"specials":{"count":"0"},"hereNow":{"count":"0"},"referralId":"v-1392477945"}],"confident":"false"}}