{"meta":{"code":"200"},"response":{"venues":[{"id":"4b2f71d7f964a52070eb24e3","name":"London Waterloo East Railway Station (WAE)","contact":{"phone":"+448457484950","formattedPhone":"+44 845 748 4950","twitter":"nationalrailenq","facebook":"94740547473"},"location":{"address":"Sandell St.","lat":"51.5039744199054","lng":"-0.10924100875854492","distance":"105","postalCode":"SE1 8NH","cc":"GB","city":"London","state":"Greater London","country":"United Kingdom"},"categories":[{"id":"4bf58dd8d48988d129951735","name":"Train Station","pluralName":"Train Stations","shortName":"Train Station","icon":{"prefix":"https:\/\/ss1.4sqi.net\/img\/categories_v2\/travel\/trainstation_","suffix":".png"},"primary":"true"}],"verified":"true","restricted":"true","stats":{"checkinsCount":"11800","usersCount":"2998","tipCount":"19"},"url":"http:\/\/www.nationalrail.co.uk\/stations\/wae\/details.html","specials":{"count":"0"},"hereNow":{"count":"0"},"storeId":"WAE","referralId":"v-1392478044"},{"id":"4c177dffd4ee9521ba37ba05","name":"EF International Language Centres","location":{"address":"74 Roupell Street","lat":"51.504961569298345","lng":"-0.10786567986702048","distance":"74","postalCode":"SE1 8SS","cc":"GB","city":"London","state":"Greater London","country":"United Kingdom"},"categories":[{"id":"4bf58dd8d48988d198941735","name":"College Academic Building","pluralName":"College Academic Buildings","shortName":"Academic Building","icon":{"prefix":"https:\/\/ss1.4sqi.net\/img\/categories_v2\/education\/academicbuilding_","suffix":".png"},"primary":"true"}],"verified":"true","restricted":"true","stats":{"checkinsCount":"3135","usersCount":"395","tipCount":"6"},"url":"http:\/\/www.ef.com","specials":{"count":"0"},"hereNow":{"count":"1","groups":[{"type":"others","name":"Other people here","count":"1"}]},"referralId":"v-1392478044"},{"id":"4ae9977bf964a5203eb521e3","name":"The Kings Arms","contact":{"phone":"+442072070784","formattedPhone":"+44 20 7207 0784","twitter":"thekingsarmsse1"},"location":{"address":"25 Roupell St.","lat":"51.50442202227849","lng":"-0.10908655001919369","distance":"90","postalCode":"SE1 8TB","cc":"GB","city":"London","state":"Greater London","country":"United Kingdom"},"categories":[{"id":"4bf58dd8d48988d11b941735","name":"Pub","pluralName":"Pubs","shortName":"Pub","icon":{"prefix":"https:\/\/ss1.4sqi.net\/img\/categories_v2\/nightlife\/pub_","suffix":".png"},"primary":"true"}],"verified":"false","restricted":"true","stats":{"checkinsCount":"2097","usersCount":"1206","tipCount":"37"},"url":"http:\/\/www.windmilltaverns.com\/the-kings-arms","menu":{"type":"Menu","label":"Menu","anchor":"View Menu","url":"https:\/\/foursquare.com\/v\/the-kings-arms\/4ae9977bf964a5203eb521e3\/menu","mobileUrl":"https:\/\/foursquare.com\/v\/4ae9977bf964a5203eb521e3\/device_menu"},"specials":{"count":"0"},"hereNow":{"count":"1","groups":[{"type":"others","name":"Other people here","count":"1"}]},"referralId":"v-1392478044"},{"id":"4c5569f91b46c9b63d712fd0","name":"Platform D","location":{"address":"Waterloo East Station (WAE)","lat":"51.50404120260676","lng":"-0.10891914367675781","distance":"82","postalCode":"SE1 8NH","cc":"GB","city":"London","state":"Greater London","country":"United Kingdom"},"categories":[{"id":"4f4531504b9074f6e4fb0102","name":"Platform","pluralName":"Platforms","shortName":"Platform","icon":{"prefix":"https:\/\/ss1.4sqi.net\/img\/categories_v2\/travel\/trainstation_","suffix":".png"},"primary":"true"}],"verified":"false","restricted":"true","stats":{"checkinsCount":"665","usersCount":"92","tipCount":"2"},"specials":{"count":"0"},"hereNow":{"count":"0"},"referralId":"v-1392478044"},{"id":"51294eb5e4b0d9d0013d0f02","name":"Young Vic Theatre","contact":{"phone":"+442079222922","formattedPhone":"+44 20 7922 2922","twitter":"youngvictheatre"},"location":{"address":"66 The Cut","crossStreet":"at Greet St.","lat":"51.5030686156482","lng":"-0.10746907412711222","distance":"137","postalCode":"SE1 8LZ","cc":"GB","city":"London","state":"Greater London","country":"United Kingdom"},"categories":[{"id":"4bf58dd8d48988d137941735","name":"Theater","pluralName":"Theaters","shortName":"Theater","icon":{"prefix":"https:\/\/ss1.4sqi.net\/img\/categories_v2\/arts_entertainment\/performingarts_theater_","suffix":".png"},"primary":"true"}],"verified":"false","restricted":"true","stats":{"checkinsCount":"477","usersCount":"384","tipCount":"4"},"url":"http:\/\/www.youngvic.org","specials":{"count":"0"},"hereNow":{"count":"4","groups":[{"type":"others","name":"Other people here","count":"4"}]},"referralId":"v-1392478044"},{"id":"4b4f1d33f964a52095fa26e3","name":"Soho Gyms","contact":{"phone":"+448452709270","formattedPhone":"+44 845 270 9270","twitter":"sohogyms"},"location":{"address":"11-15 Brad St.","lat":"51.50421125806339","lng":"-0.10938973950881721","distance":"110","postalCode":"SE1 8TN","cc":"GB","city":"Southwark","country":"United Kingdom"},"categories":[{"id":"4bf58dd8d48988d176941735","name":"Gym","pluralName":"Gyms","shortName":"Gym","icon":{"prefix":"https:\/\/ss1.4sqi.net\/img\/categories_v2\/building\/gym_","suffix":".png"},"primary":"true"}],"verified":"false","restricted":"true","stats":{"checkinsCount":"3028","usersCount":"282","tipCount":"8"},"url":"http:\/\/sohogyms.com","specials":{"count":"0"},"hereNow":{"count":"0"},"referralId":"v-1392478044"},{"id":"4f65e435e4b0bca46389adc4","name":"Byron","contact":{"phone":"+442076339882","formattedPhone":"+44 20 7633 9882","twitter":"byronhamburgers"},"location":{"address":"41-45 The Cut","lat":"51.50328462226872","lng":"-0.10691259774974153","distance":"127","postalCode":"SE1 8LF","cc":"GB","city":"London","state":"Greater London","country":"United Kingdom"},"categories":[{"id":"4bf58dd8d48988d16c941735","name":"Burger Joint","pluralName":"Burger Joints","shortName":"Burgers","icon":{"prefix":"https:\/\/ss1.4sqi.net\/img\/categories_v2\/food\/burger_","suffix":".png"},"primary":"true"}],"verified":"true","restricted":"true","stats":{"checkinsCount":"1382","usersCount":"948","tipCount":"18"},"url":"http:\/\/www.byronhamburgers.com","specials":{"count":"0"},"hereNow":{"count":"0"},"storeId":"","referralId":"v-1392478044"},{"id":"4ac518c3f964a52030a420e3","name":"The Anchor & Hope","contact":{"phone":"+442079289898","formattedPhone":"+44 20 7928 9898"},"location":{"address":"36 The Cut","crossStreet":"Waterloo","lat":"51.50335199200709","lng":"-0.10634535509188554","distance":"145","postalCode":"SE1 8LP","cc":"GB","city":"London","state":"Greater London","country":"United Kingdom"},"categories":[{"id":"4bf58dd8d48988d116941735","name":"Bar","pluralName":"Bars","shortName":"Bar","icon":{"prefix":"https:\/\/ss1.4sqi.net\/img\/categories_v2\/nightlife\/bar_","suffix":".png"},"primary":"true"}],"verified":"false","restricted":"true","stats":{"checkinsCount":"1499","usersCount":"1132","tipCount":"30"},"url":"http:\/\/www.charleswells.co.uk\/home\/pub-guide\/pub\/anchor-and-hope-Waterloo","specials":{"count":"0"},"hereNow":{"count":"2","groups":[{"type":"others","name":"Other people here","count":"2"}]},"referralId":"v-1392478044"},{"id":"4c51ee68250dd13a88e3067e","name":"Platform A","location":{"address":"Waterloo East Station (WAE)","lat":"51.5041088448173","lng":"-0.10937769966010817","distance":"110","postalCode":"SE1 8NH","cc":"GB","city":"London","state":"Greater London","country":"United Kingdom"},"categories":[{"id":"4f4531504b9074f6e4fb0102","name":"Platform","pluralName":"Platforms","shortName":"Platform","icon":{"prefix":"https:\/\/ss1.4sqi.net\/img\/categories_v2\/travel\/trainstation_","suffix":".png"},"primary":"true"}],"verified":"false","restricted":"true","stats":{"checkinsCount":"910","usersCount":"231","tipCount":"4"},"specials":{"count":"0"},"hereNow":{"count":"0"},"referralId":"v-1392478044"},{"id":"517e5301e4b0a6c196f7247c","name":"The Digital Consultancy","location":{"lat":"51.503997191778545","lng":"-0.10779934742851856","distance":"32","cc":"GB","country":"United Kingdom"},"categories":[{"id":"4bf58dd8d48988d130941735","name":"Building","pluralName":"Buildings","shortName":"Building","icon":{"prefix":"https:\/\/ss1.4sqi.net\/img\/categories_v2\/building\/default_","suffix":".png"},"primary":"true"}],"verified":"false","restricted":"true","stats":{"checkinsCount":"10","usersCount":"3","tipCount":"0"},"specials":{"count":"0"},"hereNow":{"count":"0"},"referralId":"v-1392478044"},{"id":"508fcc34e4b0d49481dc54d2","name":"Nicoventures","location":{"lat":"51.50420721919831","lng":"-0.10820763151914778","distance":"29","cc":"GB","country":"United Kingdom"},"categories":[{"id":"4bf58dd8d48988d124941735","name":"Office","pluralName":"Offices","shortName":"Office","icon":{"prefix":"https:\/\/ss1.4sqi.net\/img\/categories_v2\/building\/default_","suffix":".png"},"primary":"true"}],"verified":"false","restricted":"true","stats":{"checkinsCount":"22","usersCount":"7","tipCount":"0"},"specials":{"count":"0"},"hereNow":{"count":"0"},"referralId":"v-1392478044"},{"id":"4cc412104fcfbfb72c7ebe24","name":"Platform B","location":{"address":"Waterloo East Station (WAE)","lat":"51.504014489537944","lng":"-0.1093912124633789","distance":"114","postalCode":"SE1 8NH","cc":"GB","city":"London","state":"Greater London","country":"United Kingdom"},"categories":[{"id":"4f4531504b9074f6e4fb0102","name":"Platform","pluralName":"Platforms","shortName":"Platform","icon":{"prefix":"https:\/\/ss1.4sqi.net\/img\/categories_v2\/travel\/trainstation_","suffix":".png"},"primary":"true"}],"verified":"false","restricted":"true","stats":{"checkinsCount":"411","usersCount":"165","tipCount":"0"},"specials":{"count":"0"},"hereNow":{"count":"0"},"referralId":"v-1392478044"},{"id":"4b9ce0b8f964a520488036e3","name":"Ev Restaurant","contact":{"phone":"+442076206191","formattedPhone":"+44 20 7620 6191"},"location":{"address":"97-99 Isabella St.","lat":"51.504188124205214","lng":"-0.10615110397338867","distance":"115","postalCode":"SE1 8DA","cc":"GB","city":"Southwark","state":"Greater London","country":"United Kingdom"},"categories":[{"id":"4f04af1f2fb6e1c99f3db0bb","name":"Turkish Restaurant","pluralName":"Turkish Restaurants","shortName":"Turkish","icon":{"prefix":"https:\/\/ss1.4sqi.net\/img\/categories_v2\/food\/turkish_","suffix":".png"},"primary":"true"}],"verified":"false","restricted":"true","stats":{"checkinsCount":"1571","usersCount":"981","tipCount":"37"},"specials":{"count":"0"},"hereNow":{"count":"0"},"referralId":"v-1392478044"},{"id":"4daeb3b20437710b813865db","name":"Acxiom","contact":{"phone":"+442075265100","formattedPhone":"+44 20 7526 5100"},"location":{"address":"17 Hatfields","lat":"51.50454264600526","lng":"-0.10625896180440782","distance":"110","postalCode":"SE1 8DJ","cc":"GB","city":"Camberwell","state":"Greater London","country":"United Kingdom"},"categories":[{"id":"4bf58dd8d48988d124941735","name":"Office","pluralName":"Offices","shortName":"Office","icon":{"prefix":"https:\/\/ss1.4sqi.net\/img\/categories_v2\/building\/default_","suffix":".png"},"primary":"true"}],"verified":"false","restricted":"true","stats":{"checkinsCount":"657","usersCount":"49","tipCount":"0"},"specials":{"count":"0"},"hereNow":{"count":"0"},"referralId":"v-1392478044"},{"id":"4c62401a86b6be9a82c98b34","name":"Platform C","location":{"address":"Waterloo East Station (WAE)","lat":"51.5039256692214","lng":"-0.10898645267006937","distance":"91","postalCode":"SE1 8NH","cc":"GB","city":"London","state":"Greater London","country":"United Kingdom"},"categories":[{"id":"4f4531504b9074f6e4fb0102","name":"Platform","pluralName":"Platforms","shortName":"Platform","icon":{"prefix":"https:\/\/ss1.4sqi.net\/img\/categories_v2\/travel\/trainstation_","suffix":".png"},"primary":"true"}],"verified":"false","restricted":"true","stats":{"checkinsCount":"1141","usersCount":"255","tipCount":"3"},"specials":{"count":"0"},"hereNow":{"count":"0"},"referralId":"v-1392478044"},{"id":"4f7aa89ce4b07183b4a6cd22","name":"Market Gravity Ltd","location":{"address":"29 Wootton Street","lat":"51.504083","lng":"-0.10776","distance":"23","postalCode":"SE1 8TG","cc":"GB","city":"London","state":"Greater London","country":"United Kingdom"},"categories":[{"id":"4bf58dd8d48988d124941735","name":"Office","pluralName":"Offices","shortName":"Office","icon":{"prefix":"https:\/\/ss1.4sqi.net\/img\/categories_v2\/building\/default_","suffix":".png"},"primary":"true"}],"verified":"false","restricted":"true","stats":{"checkinsCount":"11","usersCount":"10","tipCount":"0"},"specials":{"count":"0"},"hereNow":{"count":"0"},"referralId":"v-1392478044"},{"id":"4ae6168ef964a520a2a421e3","name":"Caff\u00e8 Nero","contact":{"phone":"+442079286213","formattedPhone":"+44 20 7928 6213"},"location":{"address":"65a-67 The Cut","lat":"51.502652102264484","lng":"-0.1080179214477539","distance":"182","postalCode":"SE1 8LL","cc":"GB","city":"London","state":"Greater London","country":"United Kingdom"},"categories":[{"id":"4bf58dd8d48988d1e0931735","name":"Coffee Shop","pluralName":"Coffee Shops","shortName":"Coffee Shop","icon":{"prefix":"https:\/\/ss1.4sqi.net\/img\/categories_v2\/food\/coffeeshop_","suffix":".png"},"primary":"true"}],"verified":"false","restricted":"true","stats":{"checkinsCount":"1281","usersCount":"514","tipCount":"16"},"menu":{"type":"Menu","label":"Menu","anchor":"View Menu","url":"https:\/\/foursquare.com\/v\/caff%C3%A8-nero-london\/4ae6168ef964a520a2a421e3\/menu","mobileUrl":"https:\/\/foursquare.com\/v\/4ae6168ef964a520a2a421e3\/device_menu"},"specials":{"count":"0"},"hereNow":{"count":"2","groups":[{"type":"others","name":"Other people here","count":"2"}]},"referralId":"v-1392478044"},{"id":"4b7ee367f964a520260730e3","name":"Tas","contact":{"phone":"+442079282111","formattedPhone":"+44 20 7928 2111"},"location":{"address":"33 The Cut","lat":"51.50336617000001","lng":"-0.106415","distance":"140","postalCode":"SE1 8LF","cc":"GB","city":"London","state":"Greater London","country":"United Kingdom"},"categories":[{"id":"4f04af1f2fb6e1c99f3db0bb","name":"Turkish Restaurant","pluralName":"Turkish Restaurants","shortName":"Turkish","icon":{"prefix":"https:\/\/ss1.4sqi.net\/img\/categories_v2\/food\/turkish_","suffix":".png"},"primary":"true"}],"verified":"false","restricted":"true","stats":{"checkinsCount":"652","usersCount":"548","tipCount":"13"},"url":"http:\/\/www.tasrestaurants.co.uk","menu":{"type":"Menu","label":"Menu","anchor":"View Menu","url":"https:\/\/foursquare.com\/v\/tas\/4b7ee367f964a520260730e3\/menu","mobileUrl":"https:\/\/foursquare.com\/v\/4b7ee367f964a520260730e3\/device_menu"},"specials":{"count":"0"},"hereNow":{"count":"0"},"referralId":"v-1392478044"},{"id":"4acfbd0af964a520a6d520e3","name":"Jack's","contact":{"phone":"+442079280678","formattedPhone":"+44 20 7928 0678"},"location":{"address":"96 Isabella St","crossStreet":"The Arches","lat":"51.504162992912256","lng":"-0.1058602890478558","distance":"135","postalCode":"SE1 8DA","cc":"GB","city":"London","state":"Greater London","country":"United Kingdom"},"categories":[{"id":"4bf58dd8d48988d116941735","name":"Bar","pluralName":"Bars","shortName":"Bar","icon":{"prefix":"https:\/\/ss1.4sqi.net\/img\/categories_v2\/nightlife\/bar_","suffix":".png"},"primary":"true"}],"verified":"false","restricted":"true","stats":{"checkinsCount":"1173","usersCount":"781","tipCount":"12"},"url":"http:\/\/www.jackscs.co.uk","menu":{"type":"Menu","label":"Menu","anchor":"View Menu","url":"https:\/\/foursquare.com\/v\/jacks\/4acfbd0af964a520a6d520e3\/menu","mobileUrl":"https:\/\/foursquare.com\/v\/4acfbd0af964a520a6d520e3\/device_menu"},"specials":{"count":"0"},"hereNow":{"count":"0"},"referralId":"v-1392478044"},{"id":"4ac518c4f964a5206fa420e3","name":"The Cut Bar and Restaurant","contact":{"phone":"+442079284400","formattedPhone":"+44 20 7928 4400"},"location":{"address":"Young Vic Theatre","crossStreet":"66 The Cut","lat":"51.503134","lng":"-0.107424","distance":"131","postalCode":"SE1 8LZ","cc":"GB","city":"Lambeth","state":"Greater London","country":"United Kingdom"},"categories":[{"id":"4bf58dd8d48988d11b941735","name":"Pub","pluralName":"Pubs","shortName":"Pub","icon":{"prefix":"https:\/\/ss1.4sqi.net\/img\/categories_v2\/nightlife\/pub_","suffix":".png"},"primary":"true"}],"verified":"true","restricted":"true","stats":{"checkinsCount":"925","usersCount":"569","tipCount":"7"},"url":"http:\/\/www.thecutbar.com","specials":{"count":"0"},"hereNow":{"count":"0"},"referralId":"v-1392478044"},{"id":"4cc13f1022ce4688d3693c47","name":"Pret A Manger","contact":{"phone":"+442079325363","formattedPhone":"+44 20 7932 5363","twitter":"pret","facebook":"162638680417951"},"location":{"address":"69-71 The Cut","lat":"51.5026924494314","lng":"-0.107939062447728","distance":"177","postalCode":"SE1 8LL","cc":"GB","city":"Lambeth","state":"Greater London","country":"United Kingdom"},"categories":[{"id":"4bf58dd8d48988d1c5941735","name":"Sandwich Place","pluralName":"Sandwich Places","shortName":"Sandwiches","icon":{"prefix":"https:\/\/ss1.4sqi.net\/img\/categories_v2\/food\/sandwiches_","suffix":".png"},"primary":"true"}],"verified":"true","restricted":"true","stats":{"checkinsCount":"789","usersCount":"326","tipCount":"9"},"url":"http:\/\/www.pret.com","specials":{"count":"0"},"hereNow":{"count":"0"},"storeId":"271","referralId":"v-1392478044"},{"id":"4b2449b4f964a520516524e3","name":"The Windmill Tavern","contact":{"phone":"+442072073984","formattedPhone":"+44 20 7207 3984"},"location":{"address":"86 The Cut","crossStreet":"Windmill Walk","lat":"51.502857776782804","lng":"-0.10808265746290308","distance":"160","postalCode":"SE1 8LW","cc":"GB","city":"Lambeth","state":"Greater London","country":"United Kingdom"},"categories":[{"id":"4bf58dd8d48988d149941735","name":"Thai Restaurant","pluralName":"Thai Restaurants","shortName":"Thai","icon":{"prefix":"https:\/\/ss1.4sqi.net\/img\/categories_v2\/food\/thai_","suffix":".png"},"primary":"true"}],"verified":"false","restricted":"true","stats":{"checkinsCount":"982","usersCount":"736","tipCount":"16"},"url":"http:\/\/www.windmilltaverns.com\/the-windmill","menu":{"type":"Menu","label":"Menu","anchor":"View Menu","url":"https:\/\/foursquare.com\/v\/the-windmill-tavern\/4b2449b4f964a520516524e3\/menu","mobileUrl":"https:\/\/foursquare.com\/v\/4b2449b4f964a520516524e3\/device_menu"},"specials":{"count":"0"},"hereNow":{"count":"0"},"referralId":"v-1392478044"},{"id":"4b2295d4f964a520894924e3","name":"Culture Grub","contact":{"phone":"+442079289972","formattedPhone":"+44 20 7928 9972"},"location":{"address":"84 The Cut","crossStreet":"Waterloo","lat":"51.502901","lng":"-0.1079","distance":"154","postalCode":"SE1 8LW","cc":"GB","city":"London","state":"Greater London","country":"United Kingdom"},"categories":[{"id":"4bf58dd8d48988d145941735","name":"Chinese Restaurant","pluralName":"Chinese Restaurants","shortName":"Chinese","icon":{"prefix":"https:\/\/ss1.4sqi.net\/img\/categories_v2\/food\/chinese_","suffix":".png"},"primary":"true"}],"verified":"false","restricted":"true","stats":{"checkinsCount":"391","usersCount":"181","tipCount":"12"},"specials":{"count":"0"},"hereNow":{"count":"0"},"referralId":"v-1392478044"},{"id":"5065840de4b08514ab515917","name":"EF Cafeteria","location":{"lat":"51.50498238941601","lng":"-0.10779126035092751","distance":"77","cc":"GB","country":"United Kingdom"},"categories":[{"id":"4bf58dd8d48988d1e0931735","name":"Coffee Shop","pluralName":"Coffee Shops","shortName":"Coffee Shop","icon":{"prefix":"https:\/\/ss1.4sqi.net\/img\/categories_v2\/food\/coffeeshop_","suffix":".png"},"primary":"true"}],"verified":"false","restricted":"true","stats":{"checkinsCount":"360","usersCount":"54","tipCount":"2"},"specials":{"count":"0"},"hereNow":{"count":"0"},"referralId":"v-1392478044"},{"id":"4b8a7441f964a520666d32e3","name":"Capital Kebab House","contact":{"phone":"+442072072274","formattedPhone":"+44 20 7207 2274"},"location":{"address":"63 The Cut","lat":"51.50287916963861","lng":"-0.10771751403808594","distance":"157","postalCode":"SE1 8LL","cc":"GB","city":"Lambeth","state":"Greater London","country":"United Kingdom"},"categories":[{"id":"4bf58dd8d48988d16e941735","name":"Fast Food Restaurant","pluralName":"Fast Food Restaurants","shortName":"Fast Food","icon":{"prefix":"https:\/\/ss1.4sqi.net\/img\/categories_v2\/food\/fastfood_","suffix":".png"},"primary":"true"}],"verified":"false","restricted":"true","stats":{"checkinsCount":"401","usersCount":"153","tipCount":"8"},"specials":{"count":"0"},"hereNow":{"count":"0"},"referralId":"v-1392478044"},{"id":"520a1d35498ecb394894427a","name":"Ef iLab","location":{"lat":"51.504976","lng":"-0.107908","distance":"76","cc":"GB","country":"United Kingdom"},"categories":[{"id":"4bf58dd8d48988d1a9941735","name":"College Rec Center","pluralName":"College Rec Centers","shortName":"Rec Center","icon":{"prefix":"https:\/\/ss1.4sqi.net\/img\/categories_v2\/education\/reccenter_","suffix":".png"},"primary":"true"}],"verified":"false","restricted":"true","stats":{"checkinsCount":"31","usersCount":"10","tipCount":"0"},"specials":{"count":"0"},"hereNow":{"count":"0"},"referralId":"v-1392478044"},{"id":"4b43b26df964a520bce625e3","name":"Spice of India","location":{"address":"The Cut","lat":"51.50298","lng":"-0.108018","distance":"146","cc":"GB","city":"London","state":"Greater London","country":"United Kingdom"},"categories":[{"id":"4bf58dd8d48988d10f941735","name":"Indian Restaurant","pluralName":"Indian Restaurants","shortName":"Indian","icon":{"prefix":"https:\/\/ss1.4sqi.net\/img\/categories_v2\/food\/indian_","suffix":".png"},"primary":"true"}],"verified":"false","restricted":"true","stats":{"checkinsCount":"83","usersCount":"68","tipCount":"1"},"specials":{"count":"0"},"hereNow":{"count":"0"},"referralId":"v-1392478044"},{"id":"4da02b44784f3704f76093af","name":"Southwark Gates","location":{"address":"Waterloo East","lat":"51.504142","lng":"-0.10785","distance":"16","cc":"GB","city":"Lambeth","state":"Greater London","country":"United Kingdom"},"categories":[{"id":"4bf58dd8d48988d1fc931735","name":"Light Rail","pluralName":"Light Rails","shortName":"Light Rail","icon":{"prefix":"https:\/\/ss1.4sqi.net\/img\/categories_v2\/travel\/lightrail_","suffix":".png"},"primary":"true"}],"verified":"false","restricted":"true","stats":{"checkinsCount":"154","usersCount":"24","tipCount":"1"},"specials":{"count":"0"},"hereNow":{"count":"0"},"referralId":"v-1392478044"},{"id":"4bbdc26807809521bde3da91","name":"delicate","contact":{"phone":"+442079221379","formattedPhone":"+44 20 7922 1379"},"location":{"address":"The Cut","crossStreet":"Short Street","lat":"51.50303714910902","lng":"-0.10808833581005958","distance":"140","cc":"GB","city":"London","state":"Greater London","country":"United Kingdom"},"categories":[{"id":"4bf58dd8d48988d143941735","name":"Breakfast Spot","pluralName":"Breakfast Spots","shortName":"Breakfast","icon":{"prefix":"https:\/\/ss1.4sqi.net\/img\/categories_v2\/food\/breakfast_","suffix":".png"},"primary":"true"}],"verified":"false","restricted":"true","stats":{"checkinsCount":"178","usersCount":"43","tipCount":"3"},"specials":{"count":"0"},"hereNow":{"count":"0"},"referralId":"v-1392478044"},{"id":"4bb5fae0941ad13a3fb61ee3","name":"Meson Don Felipe","contact":{"phone":"+442079283237","formattedPhone":"+44 20 7928 3237"},"location":{"address":"53 The Cut","lat":"51.50297086067479","lng":"-0.10736005384288408","distance":"149","postalCode":"SE1 8LF","cc":"GB","city":"London","state":"Greater London","country":"United Kingdom"},"categories":[{"id":"4bf58dd8d48988d1db931735","name":"Tapas Restaurant","pluralName":"Tapas Restaurants","shortName":"Tapas","icon":{"prefix":"https:\/\/ss1.4sqi.net\/img\/categories_v2\/food\/tapas_","suffix":".png"},"primary":"true"}],"verified":"false","restricted":"true","stats":{"checkinsCount":"519","usersCount":"403","tipCount":"18"},"url":"http:\/\/www.mesondonfelipe.com","menu":{"type":"Menu","label":"Menu","anchor":"View Menu","url":"https:\/\/foursquare.com\/v\/meson-don-felipe\/4bb5fae0941ad13a3fb61ee3\/menu","mobileUrl":"https:\/\/foursquare.com\/v\/4bb5fae0941ad13a3fb61ee3\/device_menu"},"specials":{"count":"0"},"hereNow":{"count":"0"},"referralId":"v-1392478044"}],"confident":"true"}}