{"meta":{"code":"200"},"response":{"venues":[{"id":"4ad20e3ef964a52015df20e3","name":"Viet Grill","contact":{"phone":"+442077396686","formattedPhone":"+44 20 7739 6686","twitter":"caytrevietgrill","facebook":"195503237137092"},"location":{"address":"58 Kingsland Rd","lat":"51.528877577739046","lng":"-0.0776982307434082","distance":"46","postalCode":"E2 8DP","cc":"GB","city":"London","state":"Greater London","country":"United Kingdom"},"categories":[{"id":"4bf58dd8d48988d14a941735","name":"Vietnamese Restaurant","pluralName":"Vietnamese Restaurants","shortName":"Vietnamese","icon":{"prefix":"https:\/\/ss1.4sqi.net\/img\/categories_v2\/food\/default_","suffix":".png"},"primary":"true"}],"verified":"true","restricted":"true","stats":{"checkinsCount":"1335","usersCount":"967","tipCount":"40"},"url":"http:\/\/vietnamesekitchen.co.uk","menu":{"type":"Menu","label":"Menu","anchor":"View Menu","url":"https:\/\/foursquare.com\/v\/viet-grill\/4ad20e3ef964a52015df20e3\/menu","mobileUrl":"https:\/\/foursquare.com\/v\/4ad20e3ef964a52015df20e3\/device_menu"},"specials":{"count":"0"},"hereNow":{"count":"1","groups":[{"type":"others","name":"Other people here","count":"1"}]},"venuePage":{"id":"47725119"},"storeId":"","referralId":"v-1392477981"},{"id":"4dbc3cfe4b222080d38c25b2","name":"76 Kingsland Rd","location":{"lat":"51.52940554361043","lng":"-0.07755942859515266","distance":"21","cc":"GB","city":"Hackney","state":"Greater London","country":"United Kingdom"},"categories":[{"id":"4bf58dd8d48988d1f1931735","name":"General Entertainment","pluralName":"General Entertainment","shortName":"Entertainment","icon":{"prefix":"https:\/\/ss1.4sqi.net\/img\/categories_v2\/arts_entertainment\/default_","suffix":".png"},"primary":"true"}],"verified":"false","restricted":"true","stats":{"checkinsCount":"521","usersCount":"21","tipCount":"0"},"specials":{"count":"0"},"hereNow":{"count":"0"},"referralId":"v-1392477981"},{"id":"4ac518d8f964a5207aa820e3","name":"Viet Hoa","location":{"address":"70 Kingsland Rd.","lat":"51.52934908463002","lng":"-0.07755300394383388","distance":"18","postalCode":"E2 8DP","cc":"GB","city":"London","state":"Greater London","country":"United Kingdom"},"categories":[{"id":"4bf58dd8d48988d14a941735","name":"Vietnamese Restaurant","pluralName":"Vietnamese Restaurants","shortName":"Vietnamese","icon":{"prefix":"https:\/\/ss1.4sqi.net\/img\/categories_v2\/food\/default_","suffix":".png"},"primary":"true"}],"verified":"false","restricted":"true","stats":{"checkinsCount":"807","usersCount":"596","tipCount":"31"},"reservations":{"url":"http:\/\/www.toptable.co.uk\/single.aspx?rid=100431&ref=9601"},"menu":{"type":"Menu","label":"Menu","anchor":"View Menu","url":"https:\/\/foursquare.com\/v\/viet-hoa\/4ac518d8f964a5207aa820e3\/menu","mobileUrl":"https:\/\/foursquare.com\/v\/4ac518d8f964a5207aa820e3\/device_menu"},"specials":{"count":"0"},"hereNow":{"count":"0"},"referralId":"v-1392477981"},{"id":"4addec49f964a5204e6621e3","name":"Tay Do Caf\u00e9","contact":{"phone":"+442077297223","formattedPhone":"+44 20 7729 7223"},"location":{"address":"65 Kingsland Rd.","lat":"51.529693155255565","lng":"-0.07751438037603027","distance":"49","postalCode":"E2 8AG","cc":"GB","city":"London","state":"Greater London","country":"United Kingdom"},"categories":[{"id":"4bf58dd8d48988d14a941735","name":"Vietnamese Restaurant","pluralName":"Vietnamese Restaurants","shortName":"Vietnamese","icon":{"prefix":"https:\/\/ss1.4sqi.net\/img\/categories_v2\/food\/default_","suffix":".png"},"primary":"true"}],"verified":"false","restricted":"true","stats":{"checkinsCount":"1416","usersCount":"834","tipCount":"30"},"menu":{"type":"Menu","label":"Menu","anchor":"View Menu","url":"https:\/\/foursquare.com\/v\/tay-do-caf%C3%A9\/4addec49f964a5204e6621e3\/menu","mobileUrl":"https:\/\/foursquare.com\/v\/4addec49f964a5204e6621e3\/device_menu"},"specials":{"count":"0"},"hereNow":{"count":"0"},"referralId":"v-1392477981"},{"id":"4ad30c88f964a52003e320e3","name":"The Grocery","contact":{"phone":"+442077296855","formattedPhone":"+44 20 7729 6855"},"location":{"address":"54-56 Kingsland Rd.","lat":"51.528851","lng":"-0.077733","distance":"48","postalCode":"E2 8DP","cc":"GB","city":"London","state":"Greater London","country":"United Kingdom"},"categories":[{"id":"4bf58dd8d48988d118951735","name":"Grocery Store","pluralName":"Grocery Stores","shortName":"Grocery Store","icon":{"prefix":"https:\/\/ss1.4sqi.net\/img\/categories_v2\/shops\/food_grocery_","suffix":".png"},"primary":"true"}],"verified":"false","restricted":"true","stats":{"checkinsCount":"1360","usersCount":"526","tipCount":"23"},"specials":{"count":"0"},"hereNow":{"count":"0"},"referralId":"v-1392477981"},{"id":"4ad046f3f964a520cbd720e3","name":"theprintspace","contact":{"phone":"+442077391060","formattedPhone":"+44 20 7739 1060","twitter":"theprintspace","facebook":"298192646929805"},"location":{"address":"74 Kingsland Road","lat":"51.529275","lng":"-0.077592","distance":"14","postalCode":"E2 8DL","cc":"GB","city":"London","state":"Greater London","country":"United Kingdom"},"categories":[{"id":"4bf58dd8d48988d1e2931735","name":"Art Gallery","pluralName":"Art Galleries","shortName":"Art Gallery","icon":{"prefix":"https:\/\/ss1.4sqi.net\/img\/categories_v2\/arts_entertainment\/artgallery_","suffix":".png"},"primary":"true"}],"verified":"true","restricted":"true","stats":{"checkinsCount":"189","usersCount":"94","tipCount":"4"},"url":"http:\/\/www.theprintspace.co.uk","specials":{"count":"0"},"hereNow":{"count":"0"},"venuePage":{"id":"38734595"},"storeId":"","referralId":"v-1392477981"},{"id":"4ea69ade6d868470b3635da5","name":"iQ London Hoxton Student Accommodation","contact":{"phone":"+442077399199","formattedPhone":"+44 20 7739 9199"},"location":{"address":"67 Kingsland Road","lat":"51.52966517664533","lng":"-0.07761240005493164","distance":"43","postalCode":"E2 8AG","cc":"GB","city":"London","state":"Greater London","country":"United Kingdom"},"categories":[{"id":"4bf58dd8d48988d1a3941735","name":"College Residence Hall","pluralName":"College Residence Halls","shortName":"Residence Hall","icon":{"prefix":"https:\/\/ss1.4sqi.net\/img\/categories_v2\/education\/residencehall_","suffix":".png"},"primary":"true"}],"verified":"true","restricted":"true","stats":{"checkinsCount":"565","usersCount":"83","tipCount":"0"},"url":"http:\/\/www.iq-student-accommodation.com\/student-accommodation\/hoxton","specials":{"count":"0"},"hereNow":{"count":"0"},"storeId":"","referralId":"v-1392477981"},{"id":"4cd57d19fb595481057bde50","name":"Motoden Honda","location":{"address":"41 kingsland road","lat":"51.52940541092651","lng":"-0.07759383868537054","distance":"19","postalCode":"e8 4au","cc":"GB","city":"Shoreditch","state":"Greater London","country":"United Kingdom"},"verified":"false","restricted":"true","stats":{"checkinsCount":"51","usersCount":"16","tipCount":"1"},"specials":{"count":"0"},"hereNow":{"count":"0"},"referralId":"v-1392477981"},{"id":"4ace7585f964a520aed020e3","name":"Glassworks Studios","location":{"address":"Basing Place","lat":"51.52914841189899","lng":"-0.07802921644458229","distance":"22","postalCode":"E2 8AB","cc":"GB","city":"London","state":"Greater London","country":"United Kingdom"},"categories":[{"id":"4bf58dd8d48988d1f4941735","name":"Design Studio","pluralName":"Design Studios","shortName":"Design","icon":{"prefix":"https:\/\/ss1.4sqi.net\/img\/categories_v2\/shops\/design_","suffix":".png"},"primary":"true"}],"verified":"true","restricted":"true","stats":{"checkinsCount":"338","usersCount":"27","tipCount":"2"},"specials":{"count":"0"},"hereNow":{"count":"0"},"referralId":"v-1392477981"},{"id":"4b439315f964a5208ae325e3","name":"The Bridge","contact":{"phone":"+442034892216","formattedPhone":"+44 20 3489 2216"},"location":{"address":"15 Kingsland Rd.","lat":"51.52855385728847","lng":"-0.07812738418579102","distance":"84","postalCode":"E2 8AA","cc":"GB","city":"Shoreditch","state":"Greater London","country":"United Kingdom"},"categories":[{"id":"4bf58dd8d48988d1e0931735","name":"Coffee Shop","pluralName":"Coffee Shops","shortName":"Coffee Shop","icon":{"prefix":"https:\/\/ss1.4sqi.net\/img\/categories_v2\/food\/coffeeshop_","suffix":".png"},"primary":"true"}],"verified":"false","restricted":"true","stats":{"checkinsCount":"1391","usersCount":"995","tipCount":"44"},"specials":{"count":"0"},"hereNow":{"count":"0"},"referralId":"v-1392477981"},{"id":"4bdb48dbc79cc9289dfd81e9","name":"Basing House","location":{"address":"Kingsland Rd.","lat":"51.52892764339476","lng":"-0.0778907314783964","distance":"40","postalCode":"E2 8","cc":"GB","city":"Hackney","state":"Greater London","country":"United Kingdom"},"categories":[{"id":"4bf58dd8d48988d11f941735","name":"Nightclub","pluralName":"Nightclubs","shortName":"Nightclub","icon":{"prefix":"https:\/\/ss1.4sqi.net\/img\/categories_v2\/nightlife\/nightclub_","suffix":".png"},"primary":"true"}],"verified":"false","restricted":"true","stats":{"checkinsCount":"290","usersCount":"228","tipCount":"8"},"specials":{"count":"0"},"hereNow":{"count":"0"},"referralId":"v-1392477981"},{"id":"52e1696a11d2ca423469587a","name":"Bones Restaurant","contact":{"phone":"+442070339008","formattedPhone":"+44 20 7033 9008","twitter":"bonesrestaurant"},"location":{"address":"52 Kingsland Rd.","crossStreet":"at Waterson St.","lat":"51.528830855341894","lng":"-0.0776982307434082","distance":"51","postalCode":"E2 8DP","cc":"GB","city":"London","state":"Greater London","country":"United Kingdom"},"categories":[{"id":"4bf58dd8d48988d1c4941735","name":"Restaurant","pluralName":"Restaurants","shortName":"Restaurant","icon":{"prefix":"https:\/\/ss1.4sqi.net\/img\/categories_v2\/food\/default_","suffix":".png"},"primary":"true"}],"verified":"false","restricted":"true","stats":{"checkinsCount":"13","usersCount":"13","tipCount":"0"},"reservations":{"url":"http:\/\/www.toptable.co.uk\/single.aspx?rid=99405&ref=9601"},"specials":{"count":"0"},"hereNow":{"count":"0"},"referralId":"v-1392477981"},{"id":"4fdc95b3e4b0735a6de8b424","name":"Bus Stop KP","location":{"lat":"51.52961","lng":"-0.077529","distance":"40","cc":"GB","country":"United Kingdom"},"categories":[{"id":"4bf58dd8d48988d1fe931735","name":"Bus Station","pluralName":"Bus Stations","shortName":"Bus Station","icon":{"prefix":"https:\/\/ss1.4sqi.net\/img\/categories_v2\/travel\/busstation_","suffix":".png"},"primary":"true"}],"verified":"false","restricted":"true","stats":{"checkinsCount":"74","usersCount":"10","tipCount":"0"},"specials":{"count":"0"},"hereNow":{"count":"0"},"referralId":"v-1392477981"},{"id":"525fcf29498eaf45b3705863","name":"Aobaba Bubble Tea","contact":{"phone":"+442077393968","formattedPhone":"+44 20 7739 3968"},"location":{"address":"53 Kingsland Road","lat":"51.52962120968368","lng":"-0.07755974252507615","distance":"40","postalCode":"E2 8AG","cc":"GB","city":"London","state":"Greater London","country":"United Kingdom"},"categories":[{"id":"4bf58dd8d48988d14a941735","name":"Vietnamese Restaurant","pluralName":"Vietnamese Restaurants","shortName":"Vietnamese","icon":{"prefix":"https:\/\/ss1.4sqi.net\/img\/categories_v2\/food\/default_","suffix":".png"},"primary":"true"}],"verified":"false","restricted":"true","stats":{"checkinsCount":"24","usersCount":"19","tipCount":"2"},"specials":{"count":"0"},"hereNow":{"count":"0"},"referralId":"v-1392477981"},{"id":"52e97174498e044c72486342","name":"Little Red Staircase","location":{"lat":"51.5291","lng":"-0.077724","distance":"21","cc":"GB","country":"United Kingdom"},"categories":[{"id":"4bf58dd8d48988d11e941735","name":"Cocktail Bar","pluralName":"Cocktail Bars","shortName":"Cocktail","icon":{"prefix":"https:\/\/ss1.4sqi.net\/img\/categories_v2\/nightlife\/cocktails_","suffix":".png"},"primary":"true"}],"verified":"false","restricted":"true","stats":{"checkinsCount":"1","usersCount":"1","tipCount":"0"},"specials":{"count":"0"},"hereNow":{"count":"0"},"referralId":"v-1392477981"},{"id":"50d49b67e4b0fd8bb7263d4a","name":"Kingsland Road Bus Stop V","location":{"lat":"51.528999828297096","lng":"-0.07774742532039813","distance":"32","cc":"GB","country":"United Kingdom"},"categories":[{"id":"4bf58dd8d48988d1fe931735","name":"Bus Station","pluralName":"Bus Stations","shortName":"Bus Station","icon":{"prefix":"https:\/\/ss1.4sqi.net\/img\/categories_v2\/travel\/busstation_","suffix":".png"},"primary":"true"}],"verified":"false","restricted":"true","stats":{"checkinsCount":"19","usersCount":"4","tipCount":"0"},"specials":{"count":"0"},"hereNow":{"count":"0"},"referralId":"v-1392477981"},{"id":"4afabdf6f964a520761822e3","name":"Mien Tay","contact":{"phone":"+442077293074","formattedPhone":"+44 20 7729 3074"},"location":{"address":"122 Kingsland Rd.","lat":"51.53041772134567","lng":"-0.07720738649368286","distance":"132","postalCode":"E2 8DP","cc":"GB","city":"Shoreditch","state":"Greater London","country":"United Kingdom"},"categories":[{"id":"4bf58dd8d48988d14a941735","name":"Vietnamese Restaurant","pluralName":"Vietnamese Restaurants","shortName":"Vietnamese","icon":{"prefix":"https:\/\/ss1.4sqi.net\/img\/categories_v2\/food\/default_","suffix":".png"},"primary":"true"}],"verified":"false","restricted":"true","stats":{"checkinsCount":"1277","usersCount":"872","tipCount":"42"},"menu":{"type":"Menu","label":"Menu","anchor":"View Menu","url":"https:\/\/foursquare.com\/v\/mien-tay\/4afabdf6f964a520761822e3\/menu","mobileUrl":"https:\/\/foursquare.com\/v\/4afabdf6f964a520761822e3\/device_menu"},"specials":{"count":"0"},"hereNow":{"count":"0"},"referralId":"v-1392477981"},{"id":"4b7fe218f964a520594230e3","name":"Que Viet Restaurant","contact":{"phone":"+442070330588","formattedPhone":"+44 20 7033 0588"},"location":{"address":"102 Kingsland Road","lat":"51.530064","lng":"-0.077351","distance":"91","postalCode":"E2 8DP","cc":"GB","city":"Shoreditch","state":"Greater London","country":"United Kingdom"},"categories":[{"id":"4bf58dd8d48988d14a941735","name":"Vietnamese Restaurant","pluralName":"Vietnamese Restaurants","shortName":"Vietnamese","icon":{"prefix":"https:\/\/ss1.4sqi.net\/img\/categories_v2\/food\/default_","suffix":".png"},"primary":"true"}],"verified":"false","restricted":"true","stats":{"checkinsCount":"588","usersCount":"437","tipCount":"19"},"specials":{"count":"0"},"hereNow":{"count":"0"},"referralId":"v-1392477982"},{"id":"4bd6d7e96798ef3b67aa658d","name":"Accelerator","contact":{"phone":"+442077494840","formattedPhone":"+44 20 7749 4840","twitter":"acceleratoruk"},"location":{"address":"35 Kingsland Road","lat":"51.52915040220765","lng":"-0.07778406143188477","distance":"15","postalCode":"E2 8AA","cc":"GB","city":"London","state":"Greater London","country":"United Kingdom"},"categories":[{"id":"4bf58dd8d48988d125941735","name":"Tech Startup","pluralName":"Tech Startups","shortName":"Tech Startup","icon":{"prefix":"https:\/\/ss1.4sqi.net\/img\/categories_v2\/shops\/technology_","suffix":".png"},"primary":"true"}],"verified":"true","restricted":"true","stats":{"checkinsCount":"199","usersCount":"83","tipCount":"3"},"specials":{"count":"0"},"hereNow":{"count":"0"},"referralId":"v-1392477982"},{"id":"4ac518dcf964a5204ba920e3","name":"Hanoi Cafe","location":{"address":"98 Kingsland Road","lat":"51.52993966638137","lng":"-0.07735956176025202","distance":"78","postalCode":"E2 8DP","cc":"GB","city":"London","state":"Greater London","country":"United Kingdom"},"categories":[{"id":"4bf58dd8d48988d14a941735","name":"Vietnamese Restaurant","pluralName":"Vietnamese Restaurants","shortName":"Vietnamese","icon":{"prefix":"https:\/\/ss1.4sqi.net\/img\/categories_v2\/food\/default_","suffix":".png"},"primary":"true"}],"verified":"false","restricted":"true","stats":{"checkinsCount":"500","usersCount":"188","tipCount":"16"},"reservations":{"url":"http:\/\/www.toptable.co.uk\/single.aspx?rid=84907&ref=9601"},"specials":{"count":"0"},"hereNow":{"count":"0"},"referralId":"v-1392477982"},{"id":"503601dce4b0aab52c0520d7","name":"Guerilla Galleries (London)","contact":{"phone":"+442077494846","formattedPhone":"+44 20 7749 4846","twitter":"ggalleries"},"location":{"address":"35 Kingsland Road","crossStreet":"Shoreditch","lat":"51.529112585918206","lng":"-0.07804620599358338","distance":"25","postalCode":"E2 8AA","cc":"GB","city":"London","state":"Greater London","country":"United Kingdom"},"verified":"false","restricted":"true","stats":{"checkinsCount":"11","usersCount":"7","tipCount":"0"},"specials":{"count":"0"},"hereNow":{"count":"0"},"referralId":"v-1392477982"},{"id":"4ff1cf6ae4b071c669b82bc5","name":"Bridge Supermarket","location":{"lat":"51.52939028043215","lng":"-0.0774340940476015","distance":"27","cc":"GB","country":"United Kingdom"},"categories":[{"id":"4d954b0ea243a5684a65b473","name":"Convenience Store","pluralName":"Convenience Stores","shortName":"Convenience Stores","icon":{"prefix":"https:\/\/ss1.4sqi.net\/img\/categories_v2\/shops\/conveniencestore_","suffix":".png"},"primary":"true"}],"verified":"false","restricted":"true","stats":{"checkinsCount":"55","usersCount":"7","tipCount":"0"},"specials":{"count":"0"},"hereNow":{"count":"0"},"referralId":"v-1392477982"},{"id":"51602513e4b0b5d65fde6cfe","name":"Shall Adore","location":{"address":"11a Kingsland Road","lat":"51.529985766386865","lng":"-0.07753779620304938","distance":"79","postalCode":"E2 8AA","cc":"GB","city":"London","state":"Greater London","country":"United Kingdom"},"categories":[{"id":"4bf58dd8d48988d1de931735","name":"Tattoo Parlor","pluralName":"Tattoo Parlors","shortName":"Tattoo","icon":{"prefix":"https:\/\/ss1.4sqi.net\/img\/categories_v2\/shops\/tattoos_","suffix":".png"},"primary":"true"}],"verified":"false","restricted":"true","stats":{"checkinsCount":"12","usersCount":"10","tipCount":"0"},"specials":{"count":"0"},"hereNow":{"count":"0"},"referralId":"v-1392477982"},{"id":"50f180c9e4b0e6ba60877e51","name":"Falkirk Street Bus Stop","location":{"lat":"51.529548","lng":"-0.077628","distance":"31","cc":"GB","country":"United Kingdom"},"categories":[{"id":"4bf58dd8d48988d1fe931735","name":"Bus Station","pluralName":"Bus Stations","shortName":"Bus Station","icon":{"prefix":"https:\/\/ss1.4sqi.net\/img\/categories_v2\/travel\/busstation_","suffix":".png"},"primary":"true"}],"verified":"false","restricted":"true","stats":{"checkinsCount":"12","usersCount":"6","tipCount":"0"},"specials":{"count":"0"},"hereNow":{"count":"0"},"referralId":"v-1392477982"},{"id":"4f71ff24e4b00bcde2f54e34","name":"Article","location":{"address":"96 Kingsland Road","lat":"51.52986259000352","lng":"-0.07748592358485942","distance":"67","cc":"GB","city":"London","state":"Greater London","country":"United Kingdom"},"categories":[{"id":"4bf58dd8d48988d103951735","name":"Clothing Store","pluralName":"Clothing Stores","shortName":"Apparel","icon":{"prefix":"https:\/\/ss1.4sqi.net\/img\/categories_v2\/shops\/apparel_","suffix":".png"},"primary":"true"}],"verified":"false","restricted":"true","stats":{"checkinsCount":"76","usersCount":"43","tipCount":"2"},"specials":{"count":"0"},"hereNow":{"count":"0"},"referralId":"v-1392477982"},{"id":"4d278667f7a9224bf71fec9f","name":"Anh Dao","location":{"address":"106-106 Kingsland Road","lat":"51.53012452387192","lng":"-0.07736565743324078","distance":"97","postalCode":"E2 8DP","cc":"GB","city":"Hackney","state":"Greater London","country":"United Kingdom"},"categories":[{"id":"4bf58dd8d48988d14a941735","name":"Vietnamese Restaurant","pluralName":"Vietnamese Restaurants","shortName":"Vietnamese","icon":{"prefix":"https:\/\/ss1.4sqi.net\/img\/categories_v2\/food\/default_","suffix":".png"},"primary":"true"}],"verified":"false","restricted":"true","stats":{"checkinsCount":"242","usersCount":"180","tipCount":"12"},"specials":{"count":"0"},"hereNow":{"count":"0"},"referralId":"v-1392477982"},{"id":"5126b6a4e4b077f7061599af","name":"Bus Stop S","location":{"lat":"51.52930789236025","lng":"-0.07774254381044318","distance":"4","cc":"GB","country":"United Kingdom"},"categories":[{"id":"4bf58dd8d48988d1fe931735","name":"Bus Station","pluralName":"Bus Stations","shortName":"Bus Station","icon":{"prefix":"https:\/\/ss1.4sqi.net\/img\/categories_v2\/travel\/busstation_","suffix":".png"},"primary":"true"}],"verified":"false","restricted":"true","stats":{"checkinsCount":"1","usersCount":"1","tipCount":"0"},"specials":{"count":"0"},"hereNow":{"count":"0"},"referralId":"v-1392477982"},{"id":"505cd273e4b03a3839fc93da","name":"Express Convenience","location":{"address":"110 Kingsland Rd","lat":"51.529503","lng":"-0.077757","distance":"24","postalCode":"E2 8DL","cc":"GB","city":"London","state":"Greater London","country":"United Kingdom"},"categories":[{"id":"4bf58dd8d48988d146941735","name":"Deli \/ Bodega","pluralName":"Delis \/ Bodegas","shortName":"Deli \/ Bodega","icon":{"prefix":"https:\/\/ss1.4sqi.net\/img\/categories_v2\/food\/deli_","suffix":".png"},"primary":"true"}],"verified":"false","restricted":"true","stats":{"checkinsCount":"38","usersCount":"3","tipCount":"0"},"specials":{"count":"0"},"hereNow":{"count":"0"},"referralId":"v-1392477982"},{"id":"525fdb5e11d23305f4ad1dd5","name":"Aobaba","location":{"lat":"51.529253","lng":"-0.077861","distance":"5","cc":"GB","country":"United Kingdom"},"categories":[{"id":"4bf58dd8d48988d14a941735","name":"Vietnamese Restaurant","pluralName":"Vietnamese Restaurants","shortName":"Vietnamese","icon":{"prefix":"https:\/\/ss1.4sqi.net\/img\/categories_v2\/food\/default_","suffix":".png"},"primary":"true"}],"verified":"false","restricted":"true","stats":{"checkinsCount":"1","usersCount":"1","tipCount":"0"},"specials":{"count":"0"},"hereNow":{"count":"0"},"referralId":"v-1392477982"},{"id":"4c1104936b7e2d7f54832835","name":"Shangri La Tattoo","location":{"address":"Kingsland Rd.","lat":"51.5287805586495","lng":"-0.07775285030200947","distance":"56","cc":"GB","city":"Hackney","state":"Greater London","country":"United Kingdom"},"categories":[{"id":"4bf58dd8d48988d1de931735","name":"Tattoo Parlor","pluralName":"Tattoo Parlors","shortName":"Tattoo","icon":{"prefix":"https:\/\/ss1.4sqi.net\/img\/categories_v2\/shops\/tattoos_","suffix":".png"},"primary":"true"}],"verified":"false","restricted":"true","stats":{"checkinsCount":"38","usersCount":"19","tipCount":"0"},"specials":{"count":"0"},"hereNow":{"count":"0"},"referralId":"v-1392477982"}],"confident":"true"}}