{"meta":{"code":"200"},"response":{"venues":[{"id":"4bc4286ff8219c746a07b710","name":"Southwark Bridge","location":{"address":"Southwark Bridge Road","lat":"51.50933342046702","lng":"-0.09382903575897217","distance":"71","cc":"GB","city":"London","state":"Greater London","country":"United Kingdom"},"categories":[{"id":"4bf58dd8d48988d1df941735","name":"Bridge","pluralName":"Bridges","shortName":"Bridge","icon":{"prefix":"https:\/\/ss1.4sqi.net\/img\/categories_v2\/parks_outdoors\/bridge_","suffix":".png"},"primary":"true"}],"verified":"false","restricted":"true","stats":{"checkinsCount":"2721","usersCount":"1224","tipCount":"8"},"specials":{"count":"0"},"hereNow":{"count":"1","groups":[{"type":"others","name":"Other people here","count":"1"}]},"referralId":"v-1392478032"},{"id":"4ad2501af964a520dbe020e3","name":"Nuffield Health City Fitness & Wellbeing Centre","contact":{"phone":"+442072830101","formattedPhone":"+44 20 7283 0101"},"location":{"address":"20 Cousin Ln.","crossStreet":"at Cannon St.","lat":"51.50998594863149","lng":"-0.09140605969789783","distance":"124","postalCode":"EC4R 3XJ","cc":"GB","city":"London","state":"Greater London","country":"United Kingdom"},"categories":[{"id":"4bf58dd8d48988d176941735","name":"Gym","pluralName":"Gyms","shortName":"Gym","icon":{"prefix":"https:\/\/ss1.4sqi.net\/img\/categories_v2\/building\/gym_","suffix":".png"},"primary":"true"}],"verified":"false","restricted":"true","stats":{"checkinsCount":"2067","usersCount":"214","tipCount":"9"},"url":"http:\/\/www.nuffieldhealth.com\/gyms\/london","specials":{"count":"0"},"hereNow":{"count":"0"},"referralId":"v-1392478032"},{"id":"4c08e264009a0f4770bbe6bf","name":"The Banker","contact":{"phone":"+442072835206","formattedPhone":"+44 20 7283 5206"},"location":{"address":"2 Cousin Ln.","lat":"51.509463631328444","lng":"-0.09165644645690918","distance":"81","postalCode":"EC4R 3TE","cc":"GB","city":"London","state":"Greater London","country":"United Kingdom"},"categories":[{"id":"4bf58dd8d48988d11b941735","name":"Pub","pluralName":"Pubs","shortName":"Pub","icon":{"prefix":"https:\/\/ss1.4sqi.net\/img\/categories_v2\/nightlife\/pub_","suffix":".png"},"primary":"true"}],"verified":"false","restricted":"true","stats":{"checkinsCount":"1072","usersCount":"575","tipCount":"10"},"url":"http:\/\/banker-london.co.uk","specials":{"count":"0"},"hereNow":{"count":"0"},"referralId":"v-1392478032"},{"id":"4aeb0da7f964a520a0bd21e3","name":"Nando's","contact":{"phone":"+442073578662","formattedPhone":"+44 20 7357 8662","twitter":"nandosuk"},"location":{"address":"225-227 Clink St","lat":"51.50721994598464","lng":"-0.09265422821044922","distance":"230","postalCode":"SE1 9DG","cc":"GB","city":"London","state":"Greater London","country":"United Kingdom"},"categories":[{"id":"4def73e84765ae376e57713a","name":"Portuguese Restaurant","pluralName":"Portuguese Restaurants","shortName":"Portuguese","icon":{"prefix":"https:\/\/ss1.4sqi.net\/img\/categories_v2\/food\/default_","suffix":".png"},"primary":"true"}],"verified":"true","restricted":"true","stats":{"checkinsCount":"2476","usersCount":"1850","tipCount":"26"},"url":"http:\/\/www.nandos.co.uk","specials":{"count":"0"},"hereNow":{"count":"1","groups":[{"type":"others","name":"Other people here","count":"1"}]},"storeId":"N115","referralId":"v-1392478032"},{"id":"4bf58c83493c2d7fded74785","name":"Little Ship Club","location":{"address":"Bell Wharf Lane","crossStreet":"Upper Thames St","lat":"51.50967151430629","lng":"-0.09301184487830098","distance":"44","postalCode":"EC4R 3TB","cc":"GB","city":"London","state":"Greater London","country":"United Kingdom"},"categories":[{"id":"4bf58dd8d48988d116941735","name":"Bar","pluralName":"Bars","shortName":"Bar","icon":{"prefix":"https:\/\/ss1.4sqi.net\/img\/categories_v2\/nightlife\/bar_","suffix":".png"},"primary":"true"}],"verified":"false","restricted":"true","stats":{"checkinsCount":"116","usersCount":"48","tipCount":"1"},"specials":{"count":"0"},"hereNow":{"count":"0"},"referralId":"v-1392478032"},{"id":"4ac518bef964a520faa220e3","name":"The Anchor","location":{"address":"34 Park St","lat":"51.507310096187","lng":"-0.09285271167755127","distance":"220","postalCode":"SE1 9EF","cc":"GB","city":"Bankside","state":"Greater London","country":"United Kingdom"},"categories":[{"id":"4bf58dd8d48988d11b941735","name":"Pub","pluralName":"Pubs","shortName":"Pub","icon":{"prefix":"https:\/\/ss1.4sqi.net\/img\/categories_v2\/nightlife\/pub_","suffix":".png"},"primary":"true"}],"verified":"true","restricted":"true","stats":{"checkinsCount":"4777","usersCount":"3913","tipCount":"64"},"specials":{"count":"0"},"hereNow":{"count":"0"},"referralId":"v-1392478032"},{"id":"4ac518e3f964a520c5aa20e3","name":"The Real Greek","contact":{"phone":"+442076200162","formattedPhone":"+44 20 7620 0162"},"location":{"address":"2A Southwark Bridge Road","lat":"51.508224943706374","lng":"-0.09527742862701416","distance":"208","postalCode":"SE1 9HA","cc":"GB","city":"London","state":"Greater London","country":"United Kingdom"},"categories":[{"id":"4bf58dd8d48988d10e941735","name":"Greek Restaurant","pluralName":"Greek Restaurants","shortName":"Greek","icon":{"prefix":"https:\/\/ss1.4sqi.net\/img\/categories_v2\/food\/greek_","suffix":".png"},"primary":"true"}],"verified":"false","restricted":"true","stats":{"checkinsCount":"1123","usersCount":"939","tipCount":"40"},"specials":{"count":"0"},"hereNow":{"count":"1","groups":[{"type":"others","name":"Other people here","count":"1"}]},"referralId":"v-1392478032"},{"id":"4acda6d0f964a52085cc20e3","name":"Financial Times","contact":{"phone":"+442078733000","formattedPhone":"+44 20 7873 3000"},"location":{"address":"One Southwark Bridge","crossStreet":"at Park Street","lat":"51.50744699059763","lng":"-0.09432792663574219","distance":"230","postalCode":"SE1 9HL","cc":"GB","city":"London","state":"Greater London","country":"United Kingdom"},"categories":[{"id":"4bf58dd8d48988d124941735","name":"Office","pluralName":"Offices","shortName":"Office","icon":{"prefix":"https:\/\/ss1.4sqi.net\/img\/categories_v2\/building\/default_","suffix":".png"},"primary":"true"}],"verified":"true","restricted":"true","stats":{"checkinsCount":"4584","usersCount":"641","tipCount":"6"},"url":"http:\/\/www.ft.com","specials":{"count":"0"},"hereNow":{"count":"0"},"referralId":"v-1392478032"},{"id":"4b4cd381f964a52076c026e3","name":"PizzaExpress","contact":{"phone":"+442074013977","formattedPhone":"+44 20 7401 3977","twitter":"pizzaexpress"},"location":{"address":"Benbow House","lat":"51.5085038","lng":"-0.09593103","distance":"233","postalCode":"SE1 9DS","cc":"GB","city":"24 New Globe Walk","state":"Greater London","country":"United Kingdom"},"categories":[{"id":"4bf58dd8d48988d1ca941735","name":"Pizza Place","pluralName":"Pizza Places","shortName":"Pizza","icon":{"prefix":"https:\/\/ss1.4sqi.net\/img\/categories_v2\/food\/pizza_","suffix":".png"},"primary":"true"}],"verified":"true","restricted":"true","stats":{"checkinsCount":"1229","usersCount":"1024","tipCount":"7"},"url":"http:\/\/www.pizzaexpress.com","specials":{"count":"0"},"hereNow":{"count":"1","groups":[{"type":"others","name":"Other people here","count":"1"}]},"storeId":"","referralId":"v-1392478032"},{"id":"4c8f484dd68c6dcb21d702a2","name":"Vintners Place","location":{"lat":"51.51041462324616","lng":"-0.09333935399636","distance":"130","cc":"GB","country":"United Kingdom"},"categories":[{"id":"4bf58dd8d48988d124941735","name":"Office","pluralName":"Offices","shortName":"Office","icon":{"prefix":"https:\/\/ss1.4sqi.net\/img\/categories_v2\/building\/default_","suffix":".png"},"primary":"true"}],"verified":"false","restricted":"true","stats":{"checkinsCount":"816","usersCount":"127","tipCount":"0"},"specials":{"count":"0"},"hereNow":{"count":"0"},"referralId":"v-1392478032"},{"id":"4f1d5a8fe4b0c74ef3c7400d","name":"The Oyster Shed","contact":{"phone":"+442072563240","formattedPhone":"+44 20 7256 3240","twitter":"oystershed"},"location":{"address":"5 Angel Lane","crossStreet":"Upper Thames St.","lat":"51.50921656424888","lng":"-0.08974671363830566","distance":"211","postalCode":"EC4R 3AB","cc":"GB","city":"London","state":"Greater London","country":"United Kingdom"},"categories":[{"id":"4bf58dd8d48988d155941735","name":"Gastropub","pluralName":"Gastropubs","shortName":"Gastropub","icon":{"prefix":"https:\/\/ss1.4sqi.net\/img\/categories_v2\/food\/gastropub_","suffix":".png"},"primary":"true"}],"verified":"true","restricted":"true","stats":{"checkinsCount":"815","usersCount":"474","tipCount":"14"},"url":"http:\/\/www.geronimo-inns.co.uk\/theoystershed","reservations":{"url":"http:\/\/www.toptable.co.uk\/single.aspx?rid=81991&ref=9601"},"menu":{"type":"Menu","label":"Menu","anchor":"View Menu","url":"https:\/\/foursquare.com\/v\/the-oyster-shed\/4f1d5a8fe4b0c74ef3c7400d\/menu","mobileUrl":"https:\/\/foursquare.com\/v\/4f1d5a8fe4b0c74ef3c7400d\/device_menu"},"specials":{"count":"0"},"hereNow":{"count":"0"},"referralId":"v-1392478032"},{"id":"4b0be2a4f964a5206e3423e3","name":"EAT.","contact":{"phone":"+442076368331","formattedPhone":"+44 20 7636 8331","twitter":"eat_news"},"location":{"address":"2A Southwark Bridge Road","lat":"51.50820665567296","lng":"-0.09497358477983119","distance":"192","postalCode":"SE1 9HA","cc":"GB","city":"London","state":"Greater London","country":"United Kingdom"},"categories":[{"id":"4bf58dd8d48988d1c5941735","name":"Sandwich Place","pluralName":"Sandwich Places","shortName":"Sandwiches","icon":{"prefix":"https:\/\/ss1.4sqi.net\/img\/categories_v2\/food\/sandwiches_","suffix":".png"},"primary":"true"}],"verified":"true","restricted":"true","stats":{"checkinsCount":"875","usersCount":"504","tipCount":"10"},"url":"http:\/\/www.eat.co.uk","specials":{"count":"0"},"hereNow":{"count":"0"},"storeId":"EAT - Riverside","referralId":"v-1392478032"},{"id":"4ba3c58af964a520875d38e3","name":"Wagamama","contact":{"phone":"+442074033659","formattedPhone":"+44 20 7403 3659"},"location":{"address":"1 Clink St.","lat":"51.50718321807329","lng":"-0.09267032146453857","distance":"234","postalCode":"SE1 9BU","cc":"GB","city":"London","state":"Greater London","country":"United Kingdom"},"categories":[{"id":"4bf58dd8d48988d1d1941735","name":"Ramen \/ Noodle House","pluralName":"Ramen \/ Noodle House","shortName":"Ramen \/ Noodles","icon":{"prefix":"https:\/\/ss1.4sqi.net\/img\/categories_v2\/food\/ramen_","suffix":".png"},"primary":"true"}],"verified":"false","restricted":"true","stats":{"checkinsCount":"1743","usersCount":"1388","tipCount":"16"},"url":"http:\/\/wagamama.com","specials":{"count":"0"},"hereNow":{"count":"0"},"referralId":"v-1392478032"},{"id":"4af00c9ff964a52082da21e3","name":"Ofcom","contact":{"phone":"+442079813000","formattedPhone":"+44 20 7981 3000","twitter":"ofcom"},"location":{"address":"2a Southwark Bridge Road","crossStreet":"River Thames","lat":"51.508078555533174","lng":"-0.09503655725115807","distance":"205","postalCode":"SE1 9HA","cc":"GB","city":"London","state":"Greater London","country":"United Kingdom"},"categories":[{"id":"4bf58dd8d48988d124941735","name":"Office","pluralName":"Offices","shortName":"Office","icon":{"prefix":"https:\/\/ss1.4sqi.net\/img\/categories_v2\/building\/default_","suffix":".png"},"primary":"true"}],"verified":"false","restricted":"true","stats":{"checkinsCount":"700","usersCount":"107","tipCount":"1"},"url":"http:\/\/www.ofcom.org.uk","specials":{"count":"0"},"hereNow":{"count":"0"},"referralId":"v-1392478032"},{"id":"4b6941edf964a520139d2be3","name":"Nomura","location":{"address":"1 Angel Lane","crossStreet":"Upper Thames St.","lat":"51.5097106970682","lng":"-0.08977890014648438","distance":"214","postalCode":"EC4R 3AB","cc":"GB","city":"London","state":"Greater London","country":"United Kingdom"},"categories":[{"id":"4bf58dd8d48988d124941735","name":"Office","pluralName":"Offices","shortName":"Office","icon":{"prefix":"https:\/\/ss1.4sqi.net\/img\/categories_v2\/building\/default_","suffix":".png"},"primary":"true"}],"verified":"false","restricted":"true","stats":{"checkinsCount":"1447","usersCount":"168","tipCount":"1"},"specials":{"count":"0"},"hereNow":{"count":"0"},"referralId":"v-1392478032"},{"id":"4c7cb4ab48c6236ab36b6211","name":"IG Index","location":{"address":"Cannon Bridge House","crossStreet":"25 Dowgate Hill","lat":"51.51035555449244","lng":"-0.09070325733590495","distance":"187","postalCode":"EC4R 3XX","cc":"GB","city":"London","state":"Greater London","country":"United Kingdom"},"categories":[{"id":"4bf58dd8d48988d124941735","name":"Office","pluralName":"Offices","shortName":"Office","icon":{"prefix":"https:\/\/ss1.4sqi.net\/img\/categories_v2\/building\/default_","suffix":".png"},"primary":"true"}],"verified":"false","restricted":"true","stats":{"checkinsCount":"1408","usersCount":"95","tipCount":"3"},"specials":{"count":"0"},"hereNow":{"count":"0"},"referralId":"v-1392478032"},{"id":"4c63d34ce1621b8d2bd12653","name":"Cannon Bridge House","location":{"address":"25 Dowgate Hill","lat":"51.510243142566665","lng":"-0.09085488060394922","distance":"171","postalCode":"EC4R 2YA","cc":"GB","city":"London","state":"Greater London","country":"United Kingdom"},"categories":[{"id":"4bf58dd8d48988d174941735","name":"Coworking Space","pluralName":"Coworking Spaces","shortName":"Coworking Space","icon":{"prefix":"https:\/\/ss1.4sqi.net\/img\/categories_v2\/building\/office_coworkingspace_","suffix":".png"},"primary":"true"}],"verified":"false","restricted":"true","stats":{"checkinsCount":"240","usersCount":"51","tipCount":"1"},"specials":{"count":"0"},"hereNow":{"count":"0"},"referralId":"v-1392478032"},{"id":"4c24ffeea852c928dc16e46c","name":"Zizzi","contact":{"phone":"+442074017407","formattedPhone":"+44 20 7401 7407","twitter":"wearezizzi"},"location":{"address":"Unit 4, Mezzanine Level, Riverside Hs, Southwark Bridge Rd","lat":"51.50826167077801","lng":"-0.09527206420898438","distance":"205","postalCode":"SE1 9HA","cc":"GB","city":"London","state":"Greater London","country":"United Kingdom"},"categories":[{"id":"4bf58dd8d48988d110941735","name":"Italian Restaurant","pluralName":"Italian Restaurants","shortName":"Italian","icon":{"prefix":"https:\/\/ss1.4sqi.net\/img\/categories_v2\/food\/italian_","suffix":".png"},"primary":"true"}],"verified":"false","restricted":"true","stats":{"checkinsCount":"623","usersCount":"525","tipCount":"13"},"url":"http:\/\/www.zizzi.co.uk\/venue\/index\/bankside","reservations":{"url":"http:\/\/www.toptable.co.uk\/single.aspx?rid=55371&ref=9601"},"menu":{"type":"Menu","label":"Menu","anchor":"View Menu","url":"https:\/\/foursquare.com\/v\/zizzi\/4c24ffeea852c928dc16e46c\/menu","mobileUrl":"https:\/\/foursquare.com\/v\/4c24ffeea852c928dc16e46c\/device_menu"},"specials":{"count":"0"},"hereNow":{"count":"0"},"referralId":"v-1392478032"},{"id":"4baa305bf964a520a5513ae3","name":"Gourmet Burger Kitchen","contact":{"phone":"+442074032379","formattedPhone":"+44 20 7403 2379","twitter":"gbkburgers","facebook":"109876765711105"},"location":{"address":"Soho Wharf","crossStreet":"Clink St.","lat":"51.50713981232172","lng":"-0.092010498046875","distance":"245","postalCode":"SE1 9DG","cc":"GB","city":"London","state":"Greater London","country":"United Kingdom"},"categories":[{"id":"4bf58dd8d48988d16c941735","name":"Burger Joint","pluralName":"Burger Joints","shortName":"Burgers","icon":{"prefix":"https:\/\/ss1.4sqi.net\/img\/categories_v2\/food\/burger_","suffix":".png"},"primary":"true"}],"verified":"true","restricted":"true","stats":{"checkinsCount":"779","usersCount":"632","tipCount":"11"},"url":"http:\/\/www.gbk.co.uk","specials":{"count":"0"},"hereNow":{"count":"0"},"storeId":"Clink Street","referralId":"v-1392478032"},{"id":"51c1dfc4498ec6e5993dc7dd","name":"Pelt Trader","contact":{"phone":"+442031371872","formattedPhone":"+44 20 3137 1872","twitter":"pelttrader"},"location":{"address":"3 Dowgate Hill","crossStreet":"Cannon St","lat":"51.51095936017433","lng":"-0.0911092758178711","distance":"219","postalCode":"EC4N 6AP","cc":"GB","city":"London","state":"Greater London","country":"United Kingdom"},"categories":[{"id":"4bf58dd8d48988d116941735","name":"Bar","pluralName":"Bars","shortName":"Bar","icon":{"prefix":"https:\/\/ss1.4sqi.net\/img\/categories_v2\/nightlife\/bar_","suffix":".png"},"primary":"true"}],"verified":"false","restricted":"true","stats":{"checkinsCount":"226","usersCount":"125","tipCount":"4"},"url":"http:\/\/www.pelttrader.co.uk","menu":{"type":"Menu","label":"Menu","anchor":"View Menu","url":"https:\/\/foursquare.com\/v\/pelt-trader\/51c1dfc4498ec6e5993dc7dd\/menu","mobileUrl":"https:\/\/foursquare.com\/v\/51c1dfc4498ec6e5993dc7dd\/device_menu"},"specials":{"count":"0"},"hereNow":{"count":"0"},"referralId":"v-1392478032"},{"id":"4eb95778e5fa17fc8869862b","name":"Walbrook Wharf","location":{"address":"78","crossStreet":"Lower Thames Street","lat":"51.50937911972497","lng":"-0.0922176850439944","distance":"41","cc":"GB","city":"London","state":"Greater London","country":"United Kingdom"},"categories":[{"id":"4bf58dd8d48988d124941735","name":"Office","pluralName":"Offices","shortName":"Office","icon":{"prefix":"https:\/\/ss1.4sqi.net\/img\/categories_v2\/building\/default_","suffix":".png"},"primary":"true"}],"verified":"false","restricted":"true","stats":{"checkinsCount":"14","usersCount":"14","tipCount":"0"},"specials":{"count":"0"},"hereNow":{"count":"0"},"referralId":"v-1392478032"},{"id":"4e7b69e652b1ac55f1c9627c","name":"Three Cranes Walk","location":{"address":"Three Cranes Walk","lat":"51.509412","lng":"-0.092388","distance":"31","postalCode":"TW2","cc":"GB","city":"London","state":"Greater London","country":"United Kingdom"},"categories":[{"id":"4bf58dd8d48988d164941735","name":"Plaza","pluralName":"Plazas","shortName":"Plaza","icon":{"prefix":"https:\/\/ss1.4sqi.net\/img\/categories_v2\/parks_outdoors\/plaza_","suffix":".png"},"primary":"true"}],"verified":"false","restricted":"true","stats":{"checkinsCount":"7","usersCount":"7","tipCount":"1"},"specials":{"count":"0"},"hereNow":{"count":"0"},"referralId":"v-1392478032"},{"id":"4bd53dd74e32d13a229dc080","name":"Riverside House","location":{"address":"2a Southwark Bridge Road","lat":"51.50784819645876","lng":"-0.09433156412836292","distance":"192","cc":"GB","city":"SE1","country":"United Kingdom"},"categories":[{"id":"4bf58dd8d48988d124941735","name":"Office","pluralName":"Offices","shortName":"Office","icon":{"prefix":"https:\/\/ss1.4sqi.net\/img\/categories_v2\/building\/default_","suffix":".png"},"primary":"true"}],"verified":"false","restricted":"true","stats":{"checkinsCount":"323","usersCount":"51","tipCount":"0"},"specials":{"count":"0"},"hereNow":{"count":"0"},"referralId":"v-1392478032"},{"id":"4c2a2caae19720a10ea6fa58","name":"Vintners' Hall","location":{"address":"68 Upper Thames Street","lat":"51.510794585614214","lng":"-0.09346783506955673","distance":"173","cc":"GB","city":"London","state":"Greater London","country":"United Kingdom"},"categories":[{"id":"4bf58dd8d48988d1ff931735","name":"Convention Center","pluralName":"Convention Centers","shortName":"Convention Center","icon":{"prefix":"https:\/\/ss1.4sqi.net\/img\/categories_v2\/building\/conventioncenter_","suffix":".png"},"primary":"true"}],"verified":"false","restricted":"true","stats":{"checkinsCount":"109","usersCount":"57","tipCount":"2"},"url":"http:\/\/www.vintnershall.co.uk","specials":{"count":"0"},"hereNow":{"count":"0"},"referralId":"v-1392478032"},{"id":"4ff06304e4b0279cf2cb9aec","name":"The Walbrook Building","location":{"address":"37a Walbrook","lat":"51.51063885098415","lng":"-0.09089469909667969","distance":"200","postalCode":"EC4N 8BS","cc":"GB","city":"London","state":"Greater London","country":"United Kingdom"},"categories":[{"id":"4bf58dd8d48988d130941735","name":"Building","pluralName":"Buildings","shortName":"Building","icon":{"prefix":"https:\/\/ss1.4sqi.net\/img\/categories_v2\/building\/default_","suffix":".png"},"primary":"true"}],"verified":"false","restricted":"true","stats":{"checkinsCount":"36","usersCount":"27","tipCount":"0"},"specials":{"count":"0"},"hereNow":{"count":"0"},"referralId":"v-1392478032"},{"id":"4f50bd59e4b0a18b7556d9f1","name":"Cycle Surgery","location":{"address":"72 Upper Thames St","lat":"51.51074375789442","lng":"-0.09273821337233477","distance":"162","postalCode":"EC4R 3TA","cc":"GB","city":"London","state":"Greater London","country":"United Kingdom"},"categories":[{"id":"4bf58dd8d48988d115951735","name":"Bike Shop","pluralName":"Bike Shops","shortName":"Bike shop","icon":{"prefix":"https:\/\/ss1.4sqi.net\/img\/categories_v2\/shops\/bikeshop_","suffix":".png"},"primary":"true"}],"verified":"false","restricted":"true","stats":{"checkinsCount":"37","usersCount":"26","tipCount":"0"},"specials":{"count":"0"},"hereNow":{"count":"0"},"referralId":"v-1392478032"},{"id":"4c59370d67ac0f47aea7034c","name":"Esquires Coffee House","contact":{"phone":"+442072361902","formattedPhone":"+44 20 7236 1902"},"location":{"address":"Thames House, Vintners Pl","crossStreet":"Upper Thames St","lat":"51.510272","lng":"-0.093722","distance":"126","postalCode":"EC4V 3BJ","cc":"GB","city":"Camberwell","state":"Greater London","country":"United Kingdom"},"categories":[{"id":"4bf58dd8d48988d1e0931735","name":"Coffee Shop","pluralName":"Coffee Shops","shortName":"Coffee Shop","icon":{"prefix":"https:\/\/ss1.4sqi.net\/img\/categories_v2\/food\/coffeeshop_","suffix":".png"},"primary":"true"}],"verified":"false","restricted":"true","stats":{"checkinsCount":"176","usersCount":"25","tipCount":"0"},"url":"http:\/\/esquirescoffee.co.uk\/author\/esquires-vintners-place\/","specials":{"count":"0"},"hereNow":{"count":"0"},"referralId":"v-1392478032"},{"id":"4d6e17b229586dcb9401adf1","name":"Platform 6","contact":{"phone":"+448457114141","formattedPhone":"+44 845 711 4141"},"location":{"address":"Cannon Street Station (CST)","crossStreet":"Cannon St.","lat":"51.510091309234575","lng":"-0.09098052978515625","distance":"154","postalCode":"EC4N 6AP","cc":"GB","city":"London","state":"Greater London","country":"United Kingdom"},"categories":[{"id":"4f4531504b9074f6e4fb0102","name":"Platform","pluralName":"Platforms","shortName":"Platform","icon":{"prefix":"https:\/\/ss1.4sqi.net\/img\/categories_v2\/travel\/trainstation_","suffix":".png"},"primary":"true"}],"verified":"false","restricted":"true","stats":{"checkinsCount":"82","usersCount":"23","tipCount":"0"},"specials":{"count":"0"},"hereNow":{"count":"0"},"referralId":"v-1392478032"},{"id":"4b71b334f964a52025572de3","name":"The Loose Cannon","contact":{"phone":"+442072831505","formattedPhone":"+44 20 7283 1505","twitter":"loosecannonbar"},"location":{"address":"13-16 Allhallows Ln.","crossStreet":"at Upper Thames St.","lat":"51.51012135742808","lng":"-0.09029120206832886","distance":"197","postalCode":"EC4R 3UL","cc":"GB","city":"London","state":"Greater London","country":"United Kingdom"},"categories":[{"id":"4bf58dd8d48988d116941735","name":"Bar","pluralName":"Bars","shortName":"Bar","icon":{"prefix":"https:\/\/ss1.4sqi.net\/img\/categories_v2\/nightlife\/bar_","suffix":".png"},"primary":"true"}],"verified":"false","restricted":"true","stats":{"checkinsCount":"131","usersCount":"81","tipCount":"2"},"url":"http:\/\/www.loosecannonec4.co.uk","menu":{"type":"Menu","label":"Menu","anchor":"View Menu","url":"https:\/\/foursquare.com\/v\/the-loose-cannon\/4b71b334f964a52025572de3\/menu","mobileUrl":"https:\/\/foursquare.com\/v\/4b71b334f964a52025572de3\/device_menu"},"specials":{"count":"0"},"hereNow":{"count":"0"},"referralId":"v-1392478032"},{"id":"4ce3e6d2ef2db60c8c18c35b","name":"City Livery Club","location":{"lat":"51.509557","lng":"-0.093201","distance":"40","cc":"GB","country":"United Kingdom"},"categories":[{"id":"4bf58dd8d48988d162941735","name":"Other Great Outdoors","pluralName":"Other Great Outdoors","shortName":"Other Outdoors","icon":{"prefix":"https:\/\/ss1.4sqi.net\/img\/categories_v2\/parks_outdoors\/outdoors_","suffix":".png"},"primary":"true"}],"verified":"false","restricted":"true","stats":{"checkinsCount":"4","usersCount":"2","tipCount":"0"},"specials":{"count":"0"},"hereNow":{"count":"0"},"referralId":"v-1392478032"}],"confident":"true"}}