{"meta":{"code":"200"},"response":{"venues":[{"id":"4ac518d1f964a52000a720e3","name":"Peter Pan Statue","location":{"address":"Kensington Gardens","lat":"51.50872449860815","lng":"-0.17584482432415235","distance":"149","postalCode":"W11 1PN","cc":"GB","city":"London","state":"Greater London","country":"United Kingdom"},"categories":[{"id":"4bf58dd8d48988d12d941735","name":"Monument \/ Landmark","pluralName":"Monuments \/ Landmarks","shortName":"Landmark","icon":{"prefix":"https:\/\/ss1.4sqi.net\/img\/categories_v2\/building\/government_monument_","suffix":".png"},"primary":"true"}],"verified":"false","restricted":"true","stats":{"checkinsCount":"673","usersCount":"577","tipCount":"7"},"specials":{"count":"0"},"hereNow":{"count":"0"},"referralId":"v-1392478024"},{"id":"4c39e5c31e06d13a4b467a3e","name":"Italian Gardens","location":{"lat":"51.51095279945388","lng":"-0.1757344157991217","distance":"234","cc":"GB","country":"United Kingdom"},"categories":[{"id":"4bf58dd8d48988d15a941735","name":"Garden","pluralName":"Gardens","shortName":"Garden","icon":{"prefix":"https:\/\/ss1.4sqi.net\/img\/categories_v2\/parks_outdoors\/garden_","suffix":".png"},"primary":"true"}],"verified":"false","restricted":"true","stats":{"checkinsCount":"1440","usersCount":"860","tipCount":"3"},"specials":{"count":"0"},"hereNow":{"count":"0"},"referralId":"v-1392478024"},{"id":"4c39e6ffdfb0e21e3022b1a8","name":"Italian Fountains","location":{"lat":"51.51068491940156","lng":"-0.1757054190274169","distance":"212","cc":"GB","country":"United Kingdom"},"categories":[{"id":"4bf58dd8d48988d161941735","name":"Lake","pluralName":"Lakes","shortName":"Lake","icon":{"prefix":"https:\/\/ss1.4sqi.net\/img\/categories_v2\/parks_outdoors\/lake_","suffix":".png"},"primary":"true"}],"verified":"false","restricted":"true","stats":{"checkinsCount":"1409","usersCount":"737","tipCount":"3"},"specials":{"count":"0"},"hereNow":{"count":"0"},"referralId":"v-1392478024"},{"id":"4bcdf67ecc8cd13ad679c3cf","name":"The Swan","contact":{"phone":"+442072625204","formattedPhone":"+44 20 7262 5204"},"location":{"address":"Lancaster Gate 48","crossStreet":"at Elms Mews","lat":"51.51147","lng":"-0.176818","distance":"252","postalCode":"W2 3NA","cc":"GB","city":"London","state":"Greater London","country":"United Kingdom"},"categories":[{"id":"4bf58dd8d48988d11b941735","name":"Pub","pluralName":"Pubs","shortName":"Pub","icon":{"prefix":"https:\/\/ss1.4sqi.net\/img\/categories_v2\/nightlife\/pub_","suffix":".png"},"primary":"true"}],"verified":"false","restricted":"true","stats":{"checkinsCount":"2340","usersCount":"1700","tipCount":"28"},"specials":{"count":"0"},"hereNow":{"count":"0"},"referralId":"v-1392478024"},{"id":"4ac518b6f964a520f2a020e3","name":"Corus Hotel Hyde Park","contact":{"phone":"+448447368601","formattedPhone":"+44 844 736 8601","twitter":"corushotelsuk"},"location":{"address":"1 Lancaster Gate","lat":"51.51184266248235","lng":"-0.17749760429284323","distance":"285","postalCode":"W2 3LG","cc":"GB","city":"London","state":"Greater London","country":"United Kingdom"},"categories":[{"id":"4bf58dd8d48988d1fa931735","name":"Hotel","pluralName":"Hotels","shortName":"Hotel","icon":{"prefix":"https:\/\/ss1.4sqi.net\/img\/categories_v2\/travel\/hotel_","suffix":".png"},"primary":"true"}],"verified":"false","restricted":"true","stats":{"checkinsCount":"2364","usersCount":"1050","tipCount":"32"},"url":"http:\/\/www.corushotels.com\/london","specials":{"count":"0"},"hereNow":{"count":"0"},"referralId":"v-1392478024"},{"id":"502b5a95e4b0b2dbe8cb8143","name":"Lancaster Gate","location":{"address":"Bayswater Road","lat":"51.51175728471771","lng":"-0.17515897750854492","distance":"330","cc":"GB","city":"London","state":"Greater London","country":"United Kingdom"},"categories":[{"id":"4bf58dd8d48988d15a941735","name":"Garden","pluralName":"Gardens","shortName":"Garden","icon":{"prefix":"https:\/\/ss1.4sqi.net\/img\/categories_v2\/parks_outdoors\/garden_","suffix":".png"},"primary":"true"}],"verified":"false","restricted":"true","stats":{"checkinsCount":"774","usersCount":"488","tipCount":"6"},"specials":{"count":"0"},"hereNow":{"count":"0"},"referralId":"v-1392478024"},{"id":"4bab2ca2f964a520e7973ae3","name":"Lancaster Hotel","contact":{"phone":"+442072626737","formattedPhone":"+44 20 7262 6737"},"location":{"address":"1 Lancaster Terrace","lat":"51.512226249917","lng":"-0.1752751756513036","distance":"370","postalCode":"W2 2TY","cc":"GB","city":"Paddington","state":"Greater London","country":"United Kingdom"},"categories":[{"id":"4bf58dd8d48988d1fa931735","name":"Hotel","pluralName":"Hotels","shortName":"Hotel","icon":{"prefix":"https:\/\/ss1.4sqi.net\/img\/categories_v2\/travel\/hotel_","suffix":".png"},"primary":"true"}],"verified":"false","restricted":"true","stats":{"checkinsCount":"3553","usersCount":"1943","tipCount":"25"},"menu":{"type":"Menu","label":"Menu","anchor":"View Menu","url":"https:\/\/foursquare.com\/v\/lancaster-hotel\/4bab2ca2f964a520e7973ae3\/menu","mobileUrl":"https:\/\/foursquare.com\/v\/4bab2ca2f964a520e7973ae3\/device_menu"},"specials":{"count":"0"},"hereNow":{"count":"0"},"storeId":"","referralId":"v-1392478024"},{"id":"4b7d19bdf964a52098ae2fe3","name":"Thistle Hyde Park","location":{"address":"92 Lancaster Gate","lat":"51.511154832329886","lng":"-0.1807672292428094","distance":"292","postalCode":"W2 3NR","cc":"GB","city":"London","state":"Greater London","country":"United Kingdom"},"categories":[{"id":"4bf58dd8d48988d1fa931735","name":"Hotel","pluralName":"Hotels","shortName":"Hotel","icon":{"prefix":"https:\/\/ss1.4sqi.net\/img\/categories_v2\/travel\/hotel_","suffix":".png"},"primary":"true"}],"verified":"false","restricted":"true","stats":{"checkinsCount":"453","usersCount":"219","tipCount":"2"},"specials":{"count":"0"},"hereNow":{"count":"0"},"referralId":"v-1392478024"},{"id":"4c85fcc8d92ea093384d6a72","name":"Speke Memorial","location":{"lat":"51.51045215696137","lng":"-0.18003519692536749","distance":"201","cc":"GB","country":"United Kingdom"},"categories":[{"id":"4bf58dd8d48988d166941735","name":"Sculpture Garden","pluralName":"Sculpture Gardens","shortName":"Sculpture","icon":{"prefix":"https:\/\/ss1.4sqi.net\/img\/categories_v2\/parks_outdoors\/sculpture_","suffix":".png"},"primary":"true"}],"verified":"false","restricted":"true","stats":{"checkinsCount":"439","usersCount":"75","tipCount":"0"},"specials":{"count":"0"},"hereNow":{"count":"0"},"referralId":"v-1392478024"},{"id":"4dce3cafc65bdac7135c2e10","name":"Physical Energy","location":{"address":"Kensington Gardens","lat":"51.50701542810753","lng":"-0.17945694909482163","distance":"277","postalCode":"W8","cc":"GB","city":"London","state":"Greater London","country":"United Kingdom"},"categories":[{"id":"52e81612bcbc57f1066b79ed","name":"Outdoor Sculpture","pluralName":"Outdoor Sculptures","shortName":"Outdoor Sculpture","icon":{"prefix":"https:\/\/ss1.4sqi.net\/img\/categories_v2\/parks_outdoors\/sculpture_","suffix":".png"},"primary":"true"}],"verified":"false","restricted":"true","stats":{"checkinsCount":"382","usersCount":"84","tipCount":"1"},"specials":{"count":"0"},"hereNow":{"count":"0"},"referralId":"v-1392478024"},{"id":"4ac518b6f964a5201ca120e3","name":"Best Western Mornington Hotel","location":{"address":"12 Lancaster Gate","lat":"51.512098128976156","lng":"-0.17836802102706675","distance":"315","postalCode":"W2 3LG","cc":"GB","city":"London","state":"Greater London","country":"United Kingdom"},"categories":[{"id":"4bf58dd8d48988d1fa931735","name":"Hotel","pluralName":"Hotels","shortName":"Hotel","icon":{"prefix":"https:\/\/ss1.4sqi.net\/img\/categories_v2\/travel\/hotel_","suffix":".png"},"primary":"true"}],"verified":"false","restricted":"true","stats":{"checkinsCount":"680","usersCount":"297","tipCount":"16"},"specials":{"count":"0"},"hereNow":{"count":"0"},"referralId":"v-1392478024"},{"id":"4d024b92e117f04d339423bf","name":"Lancaster Gate Hotel","contact":{"phone":"+442072625090","formattedPhone":"+44 20 7262 5090","twitter":"lghhydepark"},"location":{"address":"66 Lancaster Gate","lat":"51.51155363166466","lng":"-0.18121004104614258","distance":"345","postalCode":"W2 3NA","cc":"GB","city":"London","state":"Greater London","country":"United Kingdom"},"categories":[{"id":"4bf58dd8d48988d1fa931735","name":"Hotel","pluralName":"Hotels","shortName":"Hotel","icon":{"prefix":"https:\/\/ss1.4sqi.net\/img\/categories_v2\/travel\/hotel_","suffix":".png"},"primary":"true"}],"verified":"true","restricted":"true","stats":{"checkinsCount":"630","usersCount":"332","tipCount":"5"},"url":"http:\/\/www.lancastergatehotelhydepark.co.uk","menu":{"type":"Menu","label":"Menu","anchor":"View Menu","url":"https:\/\/foursquare.com\/v\/lancaster-gate-hotel\/4d024b92e117f04d339423bf\/menu","mobileUrl":"https:\/\/foursquare.com\/v\/4d024b92e117f04d339423bf\/device_menu"},"specials":{"count":"0"},"hereNow":{"count":"0"},"storeId":"","referralId":"v-1392478024"},{"id":"4f5f0ab9e4b0949d4154beff","name":"china town piccadili curcus","location":{"lat":"51.50955699623588","lng":"-0.1781154956903064","distance":"36","cc":"GB","country":"United Kingdom"},"verified":"false","restricted":"true","stats":{"checkinsCount":"19","usersCount":"19","tipCount":"0"},"specials":{"count":"0"},"hereNow":{"count":"0"},"referralId":"v-1392478024"},{"id":"4bfc2ca0f4dc9c7412939e3f","name":"Columbia Hotel","location":{"address":"Lancaster Gate","lat":"51.511290445497785","lng":"-0.1797028393529834","distance":"258","cc":"GB","city":"London","state":"Greater London","country":"United Kingdom"},"categories":[{"id":"4bf58dd8d48988d1fa931735","name":"Hotel","pluralName":"Hotels","shortName":"Hotel","icon":{"prefix":"https:\/\/ss1.4sqi.net\/img\/categories_v2\/travel\/hotel_","suffix":".png"},"primary":"true"}],"verified":"false","restricted":"true","stats":{"checkinsCount":"289","usersCount":"139","tipCount":"6"},"specials":{"count":"0"},"hereNow":{"count":"0"},"referralId":"v-1392478024"},{"id":"4ac518b6f964a520ffa020e3","name":"Commodore Hotel","location":{"address":"50 Lancaster Gate","lat":"51.51190218","lng":"-0.18061996","distance":"350","postalCode":"W2 3NA","cc":"GB","city":"London","state":"Greater London","country":"United Kingdom"},"categories":[{"id":"4bf58dd8d48988d1fa931735","name":"Hotel","pluralName":"Hotels","shortName":"Hotel","icon":{"prefix":"https:\/\/ss1.4sqi.net\/img\/categories_v2\/travel\/hotel_","suffix":".png"},"primary":"true"}],"verified":"false","restricted":"true","stats":{"checkinsCount":"282","usersCount":"128","tipCount":"8"},"specials":{"count":"0"},"hereNow":{"count":"0"},"referralId":"v-1392478024"},{"id":"4ac518f8f964a520f4af20e3","name":"Hyde Park Stables","contact":{"phone":"+442077232813","formattedPhone":"+44 20 7723 2813"},"location":{"address":"63 Bathurst Mews","crossStreet":"at Bayswater Rd.","lat":"51.51152964114112","lng":"-0.17502600661254344","distance":"315","postalCode":"W2 2SB","cc":"GB","city":"London","state":"Greater London","country":"United Kingdom"},"categories":[{"id":"4eb1baf03b7b2c5b1d4306ca","name":"Stables","pluralName":"Stables","shortName":"Stables","icon":{"prefix":"https:\/\/ss1.4sqi.net\/img\/categories_v2\/parks_outdoors\/stable_","suffix":".png"},"primary":"true"}],"verified":"false","restricted":"true","stats":{"checkinsCount":"282","usersCount":"233","tipCount":"5"},"url":"https:\/\/www.hydeparkstables.com","specials":{"count":"0"},"hereNow":{"count":"0"},"referralId":"v-1392478024"},{"id":"4ac518ddf964a5206ca920e3","name":"Island Grill","location":{"address":"Lancaster Terrace","lat":"51.51165610452652","lng":"-0.17579738839183046","distance":"297","postalCode":"W2 2TY","cc":"GB","city":"London","state":"Greater London","country":"United Kingdom"},"categories":[{"id":"4bf58dd8d48988d1c4941735","name":"Restaurant","pluralName":"Restaurants","shortName":"Restaurant","icon":{"prefix":"https:\/\/ss1.4sqi.net\/img\/categories_v2\/food\/default_","suffix":".png"},"primary":"true"}],"verified":"false","restricted":"true","stats":{"checkinsCount":"451","usersCount":"328","tipCount":"15"},"url":"http:\/\/www.islandrestaurant.co.uk","menu":{"type":"Menu","label":"Menu","anchor":"View Menu","url":"https:\/\/foursquare.com\/v\/island-grill\/4ac518ddf964a5206ca920e3\/menu","mobileUrl":"https:\/\/foursquare.com\/v\/4ac518ddf964a5206ca920e3\/device_menu"},"specials":{"count":"0"},"hereNow":{"count":"0"},"referralId":"v-1392478024"},{"id":"4ac518b8f964a5207fa120e3","name":"London Elizabeth Hotel","location":{"address":"Lancaster Terrace","lat":"51.511825","lng":"-0.175944","distance":"310","postalCode":"W2 3PF","cc":"GB","city":"London","state":"Greater London","country":"United Kingdom"},"categories":[{"id":"4bf58dd8d48988d1fa931735","name":"Hotel","pluralName":"Hotels","shortName":"Hotel","icon":{"prefix":"https:\/\/ss1.4sqi.net\/img\/categories_v2\/travel\/hotel_","suffix":".png"},"primary":"true"}],"verified":"false","restricted":"true","stats":{"checkinsCount":"375","usersCount":"176","tipCount":"6"},"specials":{"count":"0"},"hereNow":{"count":"0"},"referralId":"v-1392478024"},{"id":"4bd1affd5e0cce7202d6a184","name":"HydePark Premier Bayswater Hotel London","location":{"address":"Inverness Terrace Paddington Greater London W2 6 U","lat":"51.51032861819613","lng":"-0.17807113383704984","distance":"117","cc":"GB","city":"London","state":"Greater London","country":"United Kingdom"},"categories":[{"id":"4bf58dd8d48988d1fa931735","name":"Hotel","pluralName":"Hotels","shortName":"Hotel","icon":{"prefix":"https:\/\/ss1.4sqi.net\/img\/categories_v2\/travel\/hotel_","suffix":".png"},"primary":"true"}],"verified":"false","restricted":"true","stats":{"checkinsCount":"17","usersCount":"12","tipCount":"0"},"specials":{"count":"0"},"hereNow":{"count":"0"},"referralId":"v-1392478024"},{"id":"51778ba8e4b016f35acbff33","name":"Bus Stop LA (Lancaster Gate)","location":{"address":"Lancaster Terrace","lat":"51.512209358611614","lng":"-0.17583258686481257","distance":"352","cc":"GB","city":"London","state":"Greater London","country":"United Kingdom"},"categories":[{"id":"4bf58dd8d48988d1fe931735","name":"Bus Station","pluralName":"Bus Stations","shortName":"Bus Station","icon":{"prefix":"https:\/\/ss1.4sqi.net\/img\/categories_v2\/travel\/busstation_","suffix":".png"},"primary":"true"}],"verified":"false","restricted":"true","stats":{"checkinsCount":"120","usersCount":"31","tipCount":"0"},"specials":{"count":"0"},"hereNow":{"count":"0"},"referralId":"v-1392478024"},{"id":"4ccb2a68ee23a143a87515a8","name":"Bel Canto","location":{"address":"Corus Hotel","lat":"51.51150438150984","lng":"-0.1770863386121916","distance":"251","postalCode":"W2 3LG","cc":"GB","city":"Paddington","state":"Greater London","country":"United Kingdom"},"categories":[{"id":"4bf58dd8d48988d10c941735","name":"French Restaurant","pluralName":"French Restaurants","shortName":"French","icon":{"prefix":"https:\/\/ss1.4sqi.net\/img\/categories_v2\/food\/french_","suffix":".png"},"primary":"true"}],"verified":"false","restricted":"true","stats":{"checkinsCount":"189","usersCount":"141","tipCount":"4"},"url":"http:\/\/www.lebelcanto.com\/page.php?id=56&langue=1","reservations":{"url":"http:\/\/www.toptable.co.uk\/single.aspx?rid=73612&ref=9601"},"menu":{"type":"Menu","label":"Menu","anchor":"View Menu","url":"https:\/\/foursquare.com\/v\/bel-canto\/4ccb2a68ee23a143a87515a8\/menu","mobileUrl":"https:\/\/foursquare.com\/v\/4ccb2a68ee23a143a87515a8\/device_menu"},"specials":{"count":"0"},"hereNow":{"count":"0"},"referralId":"v-1392478024"},{"id":"52419a8c498e693f5139f04b","name":"Averade Hotel","location":{"lat":"51.511961","lng":"-0.178117","distance":"298","cc":"GB","country":"United Kingdom"},"categories":[{"id":"4d954b06a243a5684965b473","name":"Residential Building (Apartment \/ Condo)","pluralName":"Residential Buildings (Apartments \/ Condos)","shortName":"Residential","icon":{"prefix":"https:\/\/ss1.4sqi.net\/img\/categories_v2\/building\/apartment_","suffix":".png"},"primary":"true"}],"verified":"false","restricted":"true","stats":{"checkinsCount":"4","usersCount":"2","tipCount":"0"},"specials":{"count":"0"},"hereNow":{"count":"0"},"referralId":"v-1392478024"},{"id":"4ac518dbf964a5200ca920e3","name":"Nipa","contact":{"phone":"+442075516039","formattedPhone":"+44 20 7551 6039"},"location":{"address":"12 Lancaster Terrace","lat":"51.511983","lng":"-0.17535965000000003","distance":"344","postalCode":"W2 2TY","cc":"GB","city":"London","state":"Greater London","country":"United Kingdom"},"categories":[{"id":"4bf58dd8d48988d149941735","name":"Thai Restaurant","pluralName":"Thai Restaurants","shortName":"Thai","icon":{"prefix":"https:\/\/ss1.4sqi.net\/img\/categories_v2\/food\/thai_","suffix":".png"},"primary":"true"}],"verified":"false","restricted":"true","stats":{"checkinsCount":"147","usersCount":"117","tipCount":"4"},"url":"http:\/\/www.niparestaurant.co.uk","reservations":{"url":"http:\/\/www.toptable.co.uk\/single.aspx?rid=72832&ref=9601"},"menu":{"type":"Menu","label":"Menu","anchor":"View Menu","url":"https:\/\/foursquare.com\/v\/nipa-london-uk\/4ac518dbf964a5200ca920e3\/menu","mobileUrl":"https:\/\/foursquare.com\/v\/4ac518dbf964a5200ca920e3\/device_menu"},"specials":{"count":"0"},"hereNow":{"count":"0"},"referralId":"v-1392478024"},{"id":"4ceabab88ef78cfac689a89b","name":"Hapimag","location":{"address":"Lancaster Gate","lat":"51.51183914379223","lng":"-0.17963703244229587","distance":"311","postalCode":"W2 3","cc":"GB","city":"Paddington","state":"Greater London","country":"United Kingdom"},"categories":[{"id":"4bf58dd8d48988d1fa931735","name":"Hotel","pluralName":"Hotels","shortName":"Hotel","icon":{"prefix":"https:\/\/ss1.4sqi.net\/img\/categories_v2\/travel\/hotel_","suffix":".png"},"primary":"true"}],"verified":"false","restricted":"true","stats":{"checkinsCount":"143","usersCount":"50","tipCount":"0"},"specials":{"count":"0"},"hereNow":{"count":"0"},"referralId":"v-1392478024"},{"id":"4c39c3ed1e06d13a04117a3e","name":"Two Bears Drinking Fountain","location":{"address":"Hyde Park, nr Bayswater Rd tube","lat":"51.509021","lng":"-0.17670392990112305","distance":"81","postalCode":"W2 3","cc":"GB","city":"Paddington","state":"Greater London","country":"United Kingdom"},"categories":[{"id":"4bf58dd8d48988d162941735","name":"Other Great Outdoors","pluralName":"Other Great Outdoors","shortName":"Other Outdoors","icon":{"prefix":"https:\/\/ss1.4sqi.net\/img\/categories_v2\/parks_outdoors\/outdoors_","suffix":".png"},"primary":"true"}],"verified":"false","restricted":"true","stats":{"checkinsCount":"11","usersCount":"9","tipCount":"0"},"specials":{"count":"0"},"hereNow":{"count":"0"},"referralId":"v-1392478024"},{"id":"4f4e9e2de4b0cc5f13a529de","name":"Heron Court","location":{"address":"65 Lancaster Gate, City of Westminster, London W2","lat":"51.511348198600274","lng":"-0.18193172007685418","distance":"366","cc":"GB","country":"United Kingdom"},"categories":[{"id":"4bf58dd8d48988d164941735","name":"Plaza","pluralName":"Plazas","shortName":"Plaza","icon":{"prefix":"https:\/\/ss1.4sqi.net\/img\/categories_v2\/parks_outdoors\/plaza_","suffix":".png"},"primary":"true"}],"verified":"false","restricted":"true","stats":{"checkinsCount":"248","usersCount":"20","tipCount":"1"},"specials":{"count":"0"},"hereNow":{"count":"0"},"referralId":"v-1392478024"},{"id":"4c165c9c7f7f2d7f67d9e368","name":"Olio's Brasserie","contact":{"phone":"+448447368601","formattedPhone":"+44 844 736 8601"},"location":{"address":"at Corus Hotel Hyde Park","crossStreet":"Lancaster Gate","lat":"51.511464","lng":"-0.177462","distance":"243","postalCode":"W2 3LG","cc":"GB","city":"Paddington","state":"Greater London","country":"United Kingdom"},"categories":[{"id":"4bf58dd8d48988d1c4941735","name":"Restaurant","pluralName":"Restaurants","shortName":"Restaurant","icon":{"prefix":"https:\/\/ss1.4sqi.net\/img\/categories_v2\/food\/default_","suffix":".png"},"primary":"true"}],"verified":"false","restricted":"true","stats":{"checkinsCount":"85","usersCount":"61","tipCount":"3"},"url":"http:\/\/www.corushotels.com\/corus-hotel-hyde-park\/dining-leisure","reservations":{"url":"http:\/\/www.toptable.co.uk\/single.aspx?rid=95418&ref=9601"},"menu":{"type":"Menu","label":"Menu","anchor":"View Menu","url":"https:\/\/foursquare.com\/v\/olios-brasserie\/4c165c9c7f7f2d7f67d9e368\/menu","mobileUrl":"https:\/\/foursquare.com\/v\/4c165c9c7f7f2d7f67d9e368\/device_menu"},"specials":{"count":"0"},"hereNow":{"count":"0"},"referralId":"v-1392478024"},{"id":"52f582fe498e0b6c5e939682","name":"F&A","location":{"lat":"51.51208","lng":"-0.176733","distance":"319","cc":"GB","country":"United Kingdom"},"categories":[{"id":"4d954b06a243a5684965b473","name":"Residential Building (Apartment \/ Condo)","pluralName":"Residential Buildings (Apartments \/ Condos)","shortName":"Residential","icon":{"prefix":"https:\/\/ss1.4sqi.net\/img\/categories_v2\/building\/apartment_","suffix":".png"},"primary":"true"}],"verified":"false","restricted":"true","stats":{"checkinsCount":"3","usersCount":"1","tipCount":"0"},"specials":{"count":"0"},"hereNow":{"count":"0"},"referralId":"v-1392478024"},{"id":"5115fe34e4b03dc10fc9c4e8","name":"49 lancaster gate","location":{"lat":"51.511971500316825","lng":"-0.18086685023007326","distance":"366","cc":"GB","country":"United Kingdom"},"categories":[{"id":"4d954b06a243a5684965b473","name":"Residential Building (Apartment \/ Condo)","pluralName":"Residential Buildings (Apartments \/ Condos)","shortName":"Residential","icon":{"prefix":"https:\/\/ss1.4sqi.net\/img\/categories_v2\/building\/apartment_","suffix":".png"},"primary":"true"}],"verified":"false","restricted":"true","stats":{"checkinsCount":"16","usersCount":"10","tipCount":"0"},"specials":{"count":"0"},"hereNow":{"count":"0"},"referralId":"v-1392478024"},{"id":"51f3bf04498e5186b443c2b7","name":"AlBassam's","location":{"lat":"51.51130492177676","lng":"-0.18006933471804146","distance":"273","cc":"GB","country":"United Kingdom"},"categories":[{"id":"4d954b06a243a5684965b473","name":"Residential Building (Apartment \/ Condo)","pluralName":"Residential Buildings (Apartments \/ Condos)","shortName":"Residential","icon":{"prefix":"https:\/\/ss1.4sqi.net\/img\/categories_v2\/building\/apartment_","suffix":".png"},"primary":"true"}],"verified":"false","restricted":"true","stats":{"checkinsCount":"36","usersCount":"6","tipCount":"0"},"specials":{"count":"0"},"hereNow":{"count":"0"},"referralId":"v-1392478024"}],"confident":"true"}}