{"meta":{"code":"200"},"response":{"venues":[{"id":"4ac518d2f964a52047a720e3","name":"National Portrait Gallery","contact":{"phone":"+442073060055","formattedPhone":"+44 20 7306 0055","twitter":"npglondon"},"location":{"address":"St. Martin's Pl","lat":"51.50927666176991","lng":"-0.12759268283843994","distance":"14","postalCode":"WC2N 4JH","cc":"GB","city":"City of Westminster","state":"Greater London","country":"United Kingdom"},"categories":[{"id":"4bf58dd8d48988d1e2931735","name":"Art Gallery","pluralName":"Art Galleries","shortName":"Art Gallery","icon":{"prefix":"https:\/\/ss1.4sqi.net\/img\/categories_v2\/arts_entertainment\/artgallery_","suffix":".png"},"primary":"true"}],"verified":"false","restricted":"true","stats":{"checkinsCount":"10699","usersCount":"8589","tipCount":"103"},"url":"http:\/\/www.npg.org.uk","specials":{"count":"0"},"hereNow":{"count":"12","groups":[{"type":"others","name":"Other people here","count":"12"}]},"referralId":"v-1392478029"},{"id":"4ac518cdf964a520e6a520e3","name":"National Gallery","contact":{"phone":"+442077472885","formattedPhone":"+44 20 7747 2885","twitter":"nationalgallery"},"location":{"address":"Trafalgar Sq","lat":"51.50872242607024","lng":"-0.1283276081085205","distance":"72","postalCode":"WC2N 5DN","cc":"GB","city":"City of Westminster","state":"Greater London","country":"United Kingdom"},"categories":[{"id":"4bf58dd8d48988d18f941735","name":"Art Museum","pluralName":"Art Museums","shortName":"Art Museum","icon":{"prefix":"https:\/\/ss1.4sqi.net\/img\/categories_v2\/arts_entertainment\/museum_art_","suffix":".png"},"primary":"true"}],"verified":"true","restricted":"true","stats":{"checkinsCount":"21184","usersCount":"17678","tipCount":"168"},"url":"http:\/\/www.nationalgallery.org.uk","specials":{"count":"0"},"events":{"count":"1","summary":"The Rules of the Game (La Regle du jeu) (1939)","items":[{"id":"52fae77e11d2d2a1513451dd","name":"The Rules of the Game (La Regle du jeu) (1939)","categories":[{"id":"4dfb90c6bd413dd705e8f897","name":"Movie","pluralName":"Movies","shortName":"Movie","icon":{"prefix":"https:\/\/ss1.4sqi.net\/img\/categories_v2\/arts_entertainment\/movietheater_","suffix":".png"},"primary":"true"}],"startAt":"1392474600","endAt":"1392481800","allDay":"false","timeZone":"Europe\/London","text":"Now often cited as one of the greatest films ever made, Jean Renoir's La R\u00e8gle du jeu\/Rules of the Game was not warmly received on its original release in 1939: audiences at its opening engagements in Paris were openly hostile, responding to the film with shouts of derision, and distributors cut the movie from 113 minutes to a mere 80. It was banned as morally perilous during the German occupation and the original negative was destroyed during WWII. It wasn't until 1956 that Renoir was able to restore the film to its original length. In retrospect, this reaction seems both puzzling and understandable; at its heart, Rules of the Game is a very moral film about frequently amoral people. A comedy of manners whose wit only occasionally betrays its more serious intentions, it contrasts the romantic entanglements of rich and poor during a weekend at a country estate. Andr\u00e9 Jurieu (Roland Toutain), a French aviation hero, has fallen in love with Christine de la Chesnaye (Nora Gregor), who is married to wealthy aristocrat Marquis Robert de la Chesnaye (Marcel Dalio). Robert, however, has a mistress of his own, whom he invites to a weekend hunting party at his country home, along with Andr\u00e9 and his friend Octave (played by Jean Renoir himself). Meanwhile, the hired help have their own game of musical beds going on: a poacher is hired to work as a servant at the estate and immediately makes plans to seduce the gamekeeper's wife, while the gamekeeper recognizes him only as the man who's been trying to steal his rabbits. Among the upper classes, infidelity is not merely accepted but expected; codes are breached not by being unfaithful, but by lacking the courtesy to lie about it in public. The weekend ends in a tragedy that suggests that this way of life may soon be coming to an end. Renoir's witty, acidic screenplay makes none of the characters heroes or villains, and his graceful handling of his cast is well served by his visual style. He tells his story with long, uninterrupted takes using deep focus (cinematographer Jean Bachelet proves a worthy collaborator here), following the action with a subtle rhythm that never calls attention to itself. The sharply-cut hunting sequence makes clear that Renoir avoided more complex editing schemes by choice, believing that long takes created a more lifelike rhythm and reduced the manipulations of over-editing. Rules of the Game uses WWI as an allegory for WWII, and its representation of a vanishing way of life soon became all too true for Renoir himself, who, within a year of the film's release, was forced to leave Europe for the United States..~ Mark Deming, All Movie Guide","stats":{"checkinsCount":"0","usersCount":"0"},"participants":[{"participant":{"id":"4e172222bd41f54a306f3371","displayName":"The Rules of the Game (La Regle du jeu) (1939)","totalEvents":"0"},"role":"movie"}],"genres":"Comedy, Drama","rating":"No Rating","runningTime":"106"}]},"hereNow":{"count":"10","groups":[{"type":"others","name":"Other people here","count":"10"}]},"venuePage":{"id":"51313653"},"storeId":"","referralId":"v-1392478029"},{"id":"4cdadd2dc409b60cac66d11a","name":"Notes Music & Coffee","contact":{"phone":"+442072400424","formattedPhone":"+44 20 7240 0424","twitter":"notestrafsq"},"location":{"address":"31 St Martins Ln","lat":"51.50959050309188","lng":"-0.1268470287322998","distance":"74","postalCode":"WC2N 4AA","cc":"GB","city":"London","state":"Greater London","country":"United Kingdom"},"categories":[{"id":"4bf58dd8d48988d1e0931735","name":"Coffee Shop","pluralName":"Coffee Shops","shortName":"Coffee Shop","icon":{"prefix":"https:\/\/ss1.4sqi.net\/img\/categories_v2\/food\/coffeeshop_","suffix":".png"},"primary":"true"}],"verified":"false","restricted":"true","stats":{"checkinsCount":"3918","usersCount":"1554","tipCount":"71"},"url":"http:\/\/notes-uk.co.uk","specials":{"count":"0"},"hereNow":{"count":"0"},"referralId":"v-1392478029"},{"id":"4ac518bcf964a5208fa220e3","name":"The Chandos","contact":{"phone":"+448719511000","formattedPhone":"+44 871 951 1000"},"location":{"address":"29 St. Martin's Ln.","lat":"51.50943692143851","lng":"-0.12696504592895508","distance":"60","postalCode":"WC2N 4ER","cc":"GB","city":"London","state":"Greater London","country":"United Kingdom"},"categories":[{"id":"4bf58dd8d48988d11b941735","name":"Pub","pluralName":"Pubs","shortName":"Pub","icon":{"prefix":"https:\/\/ss1.4sqi.net\/img\/categories_v2\/nightlife\/pub_","suffix":".png"},"primary":"true"}],"verified":"false","restricted":"true","stats":{"checkinsCount":"3744","usersCount":"2583","tipCount":"39"},"specials":{"count":"0"},"hereNow":{"count":"1","groups":[{"type":"others","name":"Other people here","count":"1"}]},"referralId":"v-1392478029"},{"id":"4af41e26f964a52024f021e3","name":"Portrait Restaurant","contact":{"phone":"+442073122490","formattedPhone":"+44 20 7312 2490"},"location":{"address":"National Portrait Gallery","crossStreet":"Trafalgar Sq.","lat":"51.50922221765264","lng":"-0.12821527150954645","distance":"29","postalCode":"WC2N 4JJ","cc":"GB","city":"London","state":"Greater London","country":"United Kingdom"},"categories":[{"id":"4bf58dd8d48988d1dc931735","name":"Tea Room","pluralName":"Tea Rooms","shortName":"Tea Room","icon":{"prefix":"https:\/\/ss1.4sqi.net\/img\/categories_v2\/food\/tearoom_","suffix":".png"},"primary":"true"}],"verified":"false","restricted":"true","stats":{"checkinsCount":"578","usersCount":"515","tipCount":"11"},"url":"http:\/\/www.searcys.co.uk\/national-portrait-gallery\/","reservations":{"url":"http:\/\/www.toptable.co.uk\/single.aspx?rid=85648&ref=9601"},"menu":{"type":"Menu","label":"Menu","anchor":"View Menu","url":"https:\/\/foursquare.com\/v\/portrait-restaurant\/4af41e26f964a52024f021e3\/menu","mobileUrl":"https:\/\/foursquare.com\/v\/4af41e26f964a52024f021e3\/device_menu"},"specials":{"count":"0"},"hereNow":{"count":"0"},"referralId":"v-1392478029"},{"id":"4ba3cdf5f964a520606138e3","name":"The National Caf\u00e9","location":{"address":"The National Gallery, Trafalgar Sq","lat":"51.50888268768837","lng":"-0.12755513191223145","distance":"48","postalCode":"WC2N 5DN","cc":"GB","city":"London","state":"Greater London","country":"United Kingdom"},"categories":[{"id":"4bf58dd8d48988d16d941735","name":"Caf\u00e9","pluralName":"Caf\u00e9s","shortName":"Caf\u00e9","icon":{"prefix":"https:\/\/ss1.4sqi.net\/img\/categories_v2\/food\/cafe_","suffix":".png"},"primary":"true"}],"verified":"false","restricted":"true","stats":{"checkinsCount":"756","usersCount":"673","tipCount":"15"},"specials":{"count":"0"},"hereNow":{"count":"0"},"referralId":"v-1392478029"},{"id":"4ac518e7f964a52041ab20e3","name":"English National Opera at the London Coliseum","contact":{"phone":"+442078459300","formattedPhone":"+44 20 7845 9300","twitter":"e_n_o"},"location":{"address":"St Martin's Lane","lat":"51.50991187240485","lng":"-0.12692988976627465","distance":"92","postalCode":"WC2N 4ES","cc":"GB","city":"London","state":"Greater London","country":"United Kingdom"},"categories":[{"id":"4bf58dd8d48988d136941735","name":"Opera House","pluralName":"Opera Houses","shortName":"Opera House","icon":{"prefix":"https:\/\/ss1.4sqi.net\/img\/categories_v2\/arts_entertainment\/performingarts_operahouse_","suffix":".png"},"primary":"true"}],"verified":"true","restricted":"true","stats":{"checkinsCount":"3657","usersCount":"2427","tipCount":"28"},"url":"http:\/\/www.eno.org","specials":{"count":"0"},"hereNow":{"count":"0"},"venuePage":{"id":"76881893"},"referralId":"v-1392478029"},{"id":"4c4355accc410f471e14ae61","name":"Pret A Manger","contact":{"phone":"+442079325345","formattedPhone":"+44 20 7932 5345","twitter":"pret","facebook":"162638680417951"},"location":{"address":"7-8 St Martin's Place","crossStreet":"Trafalgar Square North","lat":"51.5093632362","lng":"-0.12689665526","distance":"63","postalCode":"WC2N 4JH","cc":"GB","city":"London","state":"Greater London","country":"United Kingdom"},"categories":[{"id":"4bf58dd8d48988d1c5941735","name":"Sandwich Place","pluralName":"Sandwich Places","shortName":"Sandwiches","icon":{"prefix":"https:\/\/ss1.4sqi.net\/img\/categories_v2\/food\/sandwiches_","suffix":".png"},"primary":"true"}],"verified":"true","restricted":"true","stats":{"checkinsCount":"1283","usersCount":"956","tipCount":"10"},"url":"http:\/\/www.pret.com","specials":{"count":"0"},"hereNow":{"count":"0"},"storeId":"145","referralId":"v-1392478029"},{"id":"4b228bfef964a520c34824e3","name":"Caf\u00e9 In The Crypt","location":{"address":"St. Martin-in-the-fields","lat":"51.50897281116473","lng":"-0.12697353296567","distance":"67","cc":"GB","city":"London","state":"Greater London","country":"United Kingdom"},"categories":[{"id":"4bf58dd8d48988d16d941735","name":"Caf\u00e9","pluralName":"Caf\u00e9s","shortName":"Caf\u00e9","icon":{"prefix":"https:\/\/ss1.4sqi.net\/img\/categories_v2\/food\/cafe_","suffix":".png"},"primary":"true"}],"verified":"false","restricted":"true","stats":{"checkinsCount":"1101","usersCount":"936","tipCount":"23"},"menu":{"type":"Menu","label":"Menu","anchor":"View Menu","url":"https:\/\/foursquare.com\/v\/caf%C3%A9-in-the-crypt\/4b228bfef964a520c34824e3\/menu","mobileUrl":"https:\/\/foursquare.com\/v\/4b228bfef964a520c34824e3\/device_menu"},"specials":{"count":"0"},"hereNow":{"count":"1","groups":[{"type":"others","name":"Other people here","count":"1"}]},"referralId":"v-1392478029"},{"id":"4b9a4eb0f964a5202bab35e3","name":"St Martin in the Fields","location":{"address":"5 Trafalgar Square","lat":"51.50880255694975","lng":"-0.12686848640441895","distance":"84","postalCode":"WC2N 4JJ","cc":"GB","city":"London","state":"Greater London","country":"United Kingdom"},"categories":[{"id":"4bf58dd8d48988d132941735","name":"Church","pluralName":"Churches","shortName":"Church","icon":{"prefix":"https:\/\/ss1.4sqi.net\/img\/categories_v2\/building\/religious_church_","suffix":".png"},"primary":"true"}],"verified":"false","restricted":"true","stats":{"checkinsCount":"2696","usersCount":"1985","tipCount":"28"},"menu":{"type":"Menu","label":"Menu","anchor":"View Menu","url":"https:\/\/foursquare.com\/v\/st-martin-in-the-fields\/4b9a4eb0f964a5202bab35e3\/menu","mobileUrl":"https:\/\/foursquare.com\/v\/4b9a4eb0f964a5202bab35e3\/device_menu"},"specials":{"count":"0"},"hereNow":{"count":"0"},"referralId":"v-1392478029"},{"id":"4c794ed9794e224b11f86428","name":"Steak & Co.","contact":{"phone":"+442078398100","formattedPhone":"+44 20 7839 8100","twitter":"steakandco"},"location":{"address":"3-5 Charing Cross Rd.","crossStreet":"off Irving St.","lat":"51.50994567411476","lng":"-0.12853467806782698","distance":"88","postalCode":"WC2H 0HA","cc":"GB","city":"London","state":"Greater London","country":"United Kingdom"},"categories":[{"id":"4bf58dd8d48988d1cc941735","name":"Steakhouse","pluralName":"Steakhouses","shortName":"Steakhouse","icon":{"prefix":"https:\/\/ss1.4sqi.net\/img\/categories_v2\/food\/steakhouse_","suffix":".png"},"primary":"true"}],"verified":"false","restricted":"true","stats":{"checkinsCount":"1217","usersCount":"991","tipCount":"40"},"url":"http:\/\/www.steakand.co.uk","menu":{"type":"Menu","label":"Menu","anchor":"View Menu","url":"https:\/\/foursquare.com\/v\/steak--co\/4c794ed9794e224b11f86428\/menu","mobileUrl":"https:\/\/foursquare.com\/v\/4c794ed9794e224b11f86428\/device_menu"},"specials":{"count":"0"},"hereNow":{"count":"0"},"referralId":"v-1392478029"},{"id":"4c62d713ec94a5932e3d2aca","name":"Prezzo","contact":{"phone":"+442072400352","formattedPhone":"+44 20 7240 0352","twitter":"love_prezzo"},"location":{"address":"116 St Martins Ln.","lat":"51.50961721289182","lng":"-0.12716889381408691","distance":"57","postalCode":"WC2N 4BF","cc":"GB","city":"Covent Garden","state":"Greater London","country":"United Kingdom"},"categories":[{"id":"4bf58dd8d48988d110941735","name":"Italian Restaurant","pluralName":"Italian Restaurants","shortName":"Italian","icon":{"prefix":"https:\/\/ss1.4sqi.net\/img\/categories_v2\/food\/italian_","suffix":".png"},"primary":"true"}],"verified":"true","restricted":"true","stats":{"checkinsCount":"503","usersCount":"408","tipCount":"11"},"url":"http:\/\/www.prezzorestaurants.co.uk","specials":{"count":"0"},"hereNow":{"count":"0"},"referralId":"v-1392478029"},{"id":"4ac518e7f964a52049ab20e3","name":"Garrick Theatre","location":{"address":"Charing Cross Rd.","lat":"51.51000784192644","lng":"-0.1278930902481079","distance":"80","postalCode":"WC2H 0HH","cc":"GB","city":"London","state":"Greater London","country":"United Kingdom"},"categories":[{"id":"4bf58dd8d48988d137941735","name":"Theater","pluralName":"Theaters","shortName":"Theater","icon":{"prefix":"https:\/\/ss1.4sqi.net\/img\/categories_v2\/arts_entertainment\/performingarts_theater_","suffix":".png"},"primary":"true"}],"verified":"false","restricted":"true","stats":{"checkinsCount":"2052","usersCount":"1673","tipCount":"18"},"specials":{"count":"0"},"hereNow":{"count":"0"},"referralId":"v-1392478029"},{"id":"4bc85fae92b376b0653a513a","name":"Post Office","location":{"address":"24 William IV St","lat":"51.509917697061866","lng":"-0.1272869110107422","distance":"78","postalCode":"WC2N 4DL","cc":"GB","city":"City of Westminster","state":"Greater London","country":"United Kingdom"},"categories":[{"id":"4bf58dd8d48988d172941735","name":"Post Office","pluralName":"Post Offices","shortName":"Post Office","icon":{"prefix":"https:\/\/ss1.4sqi.net\/img\/categories_v2\/building\/postoffice_","suffix":".png"},"primary":"true"}],"verified":"true","restricted":"true","stats":{"checkinsCount":"649","usersCount":"335","tipCount":"7"},"url":"http:\/\/www.postoffice.co.uk","specials":{"count":"0"},"hereNow":{"count":"0"},"referralId":"v-1392478029"},{"id":"4af025e2f964a5209bda21e3","name":"Wagamama","contact":{"phone":"+442078392323","formattedPhone":"+44 20 7839 2323","twitter":"wagamama_uk"},"location":{"address":"14 Irving St.","crossStreet":"Leicester Sq.","lat":"51.50994705","lng":"-0.128583","distance":"91","postalCode":"WC2H 7AF","cc":"GB","city":"London","state":"Greater London","country":"United Kingdom"},"categories":[{"id":"4bf58dd8d48988d1d1941735","name":"Ramen \/ Noodle House","pluralName":"Ramen \/ Noodle House","shortName":"Ramen \/ Noodles","icon":{"prefix":"https:\/\/ss1.4sqi.net\/img\/categories_v2\/food\/ramen_","suffix":".png"},"primary":"true"}],"verified":"false","restricted":"true","stats":{"checkinsCount":"1524","usersCount":"1243","tipCount":"21"},"url":"http:\/\/wagamama.com","menu":{"type":"Menu","label":"Menu","anchor":"View Menu","url":"https:\/\/foursquare.com\/v\/wagamama\/4af025e2f964a5209bda21e3\/menu","mobileUrl":"https:\/\/foursquare.com\/v\/4af025e2f964a5209bda21e3\/device_menu"},"specials":{"count":"0"},"hereNow":{"count":"0"},"referralId":"v-1392478029"},{"id":"4c37349d1e06d13ad373753e","name":"Kaplan International Colleges","contact":{"twitter":"kaplanintl"},"location":{"address":"3-5 Charing Cross Rd.","lat":"51.50990988216309","lng":"-0.12850573266094553","distance":"84","postalCode":"WC2H 0HA","cc":"GB","city":"London","state":"Greater London","country":"United Kingdom"},"categories":[{"id":"4bf58dd8d48988d1ab941735","name":"Student Center","pluralName":"Student Centers","shortName":"Student Center","icon":{"prefix":"https:\/\/ss1.4sqi.net\/img\/categories_v2\/education\/studentcenter_","suffix":".png"},"primary":"true"}],"verified":"false","restricted":"true","stats":{"checkinsCount":"1576","usersCount":"219","tipCount":"1"},"specials":{"count":"0"},"hereNow":{"count":"0"},"referralId":"v-1392478029"},{"id":"4d84fff78de9721e77823d51","name":"L'Ulivo","contact":{"phone":"+442079303279","formattedPhone":"+44 20 7930 3279"},"location":{"address":"14-15 Irving Street","lat":"51.50999163116051","lng":"-0.12873063418484695","distance":"101","postalCode":"WC2 H2AV","cc":"GB","city":"London","state":"Greater London","country":"United Kingdom"},"categories":[{"id":"4bf58dd8d48988d110941735","name":"Italian Restaurant","pluralName":"Italian Restaurants","shortName":"Italian","icon":{"prefix":"https:\/\/ss1.4sqi.net\/img\/categories_v2\/food\/italian_","suffix":".png"},"primary":"true"}],"verified":"false","restricted":"true","stats":{"checkinsCount":"284","usersCount":"260","tipCount":"4"},"url":"http:\/\/lulivo.co.uk","menu":{"type":"Menu","label":"Menu","anchor":"View Menu","url":"https:\/\/foursquare.com\/v\/lulivo\/4d84fff78de9721e77823d51\/menu","mobileUrl":"https:\/\/foursquare.com\/v\/4d84fff78de9721e77823d51\/device_menu"},"specials":{"count":"0"},"hereNow":{"count":"2","groups":[{"type":"others","name":"Other people here","count":"2"}]},"referralId":"v-1392478029"},{"id":"4b11679ff964a520db7b23e3","name":"Garrick Arms","location":{"address":"Charing Cross Rd.","lat":"51.510289960812926","lng":"-0.12834638357162476","distance":"117","cc":"GB","city":"London","state":"Greater London","country":"United Kingdom"},"categories":[{"id":"4bf58dd8d48988d11b941735","name":"Pub","pluralName":"Pubs","shortName":"Pub","icon":{"prefix":"https:\/\/ss1.4sqi.net\/img\/categories_v2\/nightlife\/pub_","suffix":".png"},"primary":"true"}],"verified":"false","restricted":"true","stats":{"checkinsCount":"1011","usersCount":"836","tipCount":"9"},"specials":{"count":"0"},"hereNow":{"count":"0"},"referralId":"v-1392478029"},{"id":"4d5aa62f8492a1431bfa3527","name":"Bella Italia","contact":{"phone":"+442078395509","formattedPhone":"+44 20 7839 5509","twitter":"big_bella"},"location":{"address":"Irving St","crossStreet":"Charing Cross Rd","lat":"51.509955","lng":"-0.128503","distance":"88","postalCode":"WC2H 7AT","cc":"GB","city":"London","state":"Greater London","country":"United Kingdom"},"categories":[{"id":"4bf58dd8d48988d110941735","name":"Italian Restaurant","pluralName":"Italian Restaurants","shortName":"Italian","icon":{"prefix":"https:\/\/ss1.4sqi.net\/img\/categories_v2\/food\/italian_","suffix":".png"},"primary":"true"}],"verified":"false","restricted":"true","stats":{"checkinsCount":"502","usersCount":"460","tipCount":"8"},"specials":{"count":"0"},"hereNow":{"count":"0"},"referralId":"v-1392478029"},{"id":"50cb4300e4b0d0701a53b223","name":"Siegel+Gale","location":{"address":"7 Saint Martin's Place","lat":"51.509501","lng":"-0.126731","distance":"77","postalCode":"WC2N 4HA","cc":"GB","city":"London","state":"Greater London","country":"United Kingdom"},"categories":[{"id":"4bf58dd8d48988d124941735","name":"Office","pluralName":"Offices","shortName":"Office","icon":{"prefix":"https:\/\/ss1.4sqi.net\/img\/categories_v2\/building\/default_","suffix":".png"},"primary":"true"}],"verified":"false","restricted":"true","stats":{"checkinsCount":"113","usersCount":"4","tipCount":"0"},"specials":{"count":"0"},"hereNow":{"count":"0"},"referralId":"v-1392478029"},{"id":"4ac518def964a520b3a920e3","name":"Spaghetti House","contact":{"twitter":"spaghetti_house"},"location":{"address":"30 St. Martin's Ln.","lat":"51.50979750363166","lng":"-0.12697577476501465","distance":"80","postalCode":"WC2N 4ER","cc":"GB","city":"London","state":"Greater London","country":"United Kingdom"},"categories":[{"id":"4bf58dd8d48988d110941735","name":"Italian Restaurant","pluralName":"Italian Restaurants","shortName":"Italian","icon":{"prefix":"https:\/\/ss1.4sqi.net\/img\/categories_v2\/food\/italian_","suffix":".png"},"primary":"true"}],"verified":"true","restricted":"true","stats":{"checkinsCount":"548","usersCount":"506","tipCount":"19"},"url":"http:\/\/www.spaghettihouse.co.uk\/spaghetti_house_st_martins_lane_charing_cross.php","menu":{"type":"Menu","label":"Menu","anchor":"View Menu","url":"https:\/\/foursquare.com\/v\/spaghetti-house\/4ac518def964a520b3a920e3\/menu","mobileUrl":"https:\/\/foursquare.com\/v\/4ac518def964a520b3a920e3\/device_menu"},"specials":{"count":"0"},"hereNow":{"count":"0"},"storeId":"","referralId":"v-1392478029"},{"id":"526d2464498ebc6b17a3f051","name":"Bus Stop D @ Trafalgar Square","contact":{"twitter":"tflofficial"},"location":{"address":"St. Martin's Pl.","crossStreet":"Trafalgar Sq.","lat":"51.50892067379098","lng":"-0.12700826166474372","distance":"68","cc":"GB","city":"London","state":"Greater London","country":"United Kingdom"},"categories":[{"id":"4bf58dd8d48988d1fe931735","name":"Bus Station","pluralName":"Bus Stations","shortName":"Bus Station","icon":{"prefix":"https:\/\/ss1.4sqi.net\/img\/categories_v2\/travel\/busstation_","suffix":".png"},"primary":"true"}],"verified":"false","restricted":"true","stats":{"checkinsCount":"23","usersCount":"3","tipCount":"0"},"specials":{"count":"0"},"hereNow":{"count":"0"},"referralId":"v-1392478029"},{"id":"4e3fbeb47d8b0e961086913a","name":"Edith Cavell Statue","location":{"address":"St Martin's Place","lat":"51.50935706486825","lng":"-0.12706777890892498","distance":"51","postalCode":"WC1V 4ET","cc":"GB","city":"London","state":"Greater London","country":"United Kingdom"},"categories":[{"id":"4deefb944765f83613cdba6e","name":"Historic Site","pluralName":"Historic Sites","shortName":"Historic Site","icon":{"prefix":"https:\/\/ss1.4sqi.net\/img\/categories_v2\/arts_entertainment\/historicsite_","suffix":".png"},"primary":"true"}],"verified":"false","restricted":"true","stats":{"checkinsCount":"159","usersCount":"59","tipCount":"0"},"specials":{"count":"0"},"hereNow":{"count":"0"},"referralId":"v-1392478029"},{"id":"4e96b6c99adf7f572e092c74","name":"Sense And Sensation","location":{"lat":"51.509149","lng":"-0.12812","distance":"26","cc":"GB","city":"London","state":"Greater London","country":"United Kingdom"},"categories":[{"id":"4bf58dd8d48988d1ed941735","name":"Spa","pluralName":"Spas","shortName":"Spa","icon":{"prefix":"https:\/\/ss1.4sqi.net\/img\/categories_v2\/shops\/spa_","suffix":".png"},"primary":"true"}],"verified":"false","restricted":"true","stats":{"checkinsCount":"6","usersCount":"3","tipCount":"0"},"specials":{"count":"0"},"hereNow":{"count":"0"},"referralId":"v-1392478029"},{"id":"4be12a5cd816c9288570efd9","name":"Caff\u00e8 Nero","contact":{"phone":"+442078365110","formattedPhone":"+44 20 7836 5110","twitter":"caffe_u"},"location":{"address":"36A St. Martin's Lane","lat":"51.50997446666667","lng":"-0.12695555000000003","distance":"96","postalCode":"WC2V 4ET","cc":"GB","city":"London","state":"Greater London","country":"United Kingdom"},"categories":[{"id":"4bf58dd8d48988d1e0931735","name":"Coffee Shop","pluralName":"Coffee Shops","shortName":"Coffee Shop","icon":{"prefix":"https:\/\/ss1.4sqi.net\/img\/categories_v2\/food\/coffeeshop_","suffix":".png"},"primary":"true"}],"verified":"false","restricted":"true","stats":{"checkinsCount":"364","usersCount":"289","tipCount":"5"},"url":"http:\/\/www.caffenero.com","menu":{"type":"Menu","label":"Menu","anchor":"View Menu","url":"https:\/\/foursquare.com\/v\/caff%C3%A8-nero\/4be12a5cd816c9288570efd9\/menu","mobileUrl":"https:\/\/foursquare.com\/v\/4be12a5cd816c9288570efd9\/device_menu"},"specials":{"count":"0"},"hereNow":{"count":"0"},"referralId":"v-1392478029"},{"id":"4c0a3bc8009a0f471c03e9bf","name":"Cass Art","contact":{"phone":"+442079309940","formattedPhone":"+44 20 7930 9940","twitter":"cassart","facebook":"163854617010907"},"location":{"address":"13 Charing Cross Road","lat":"51.51007934101214","lng":"-0.1282141275468366","distance":"92","postalCode":"WC2H 0EP","cc":"GB","city":"London","state":"Greater London","country":"United Kingdom"},"categories":[{"id":"4bf58dd8d48988d127951735","name":"Arts & Crafts Store","pluralName":"Arts & Crafts Stores","shortName":"Arts & Crafts","icon":{"prefix":"https:\/\/ss1.4sqi.net\/img\/categories_v2\/shops\/artstore_","suffix":".png"},"primary":"true"}],"verified":"true","restricted":"true","stats":{"checkinsCount":"284","usersCount":"198","tipCount":"1"},"url":"http:\/\/www.cassart.co.uk","specials":{"count":"0"},"hereNow":{"count":"0"},"storeId":"","referralId":"v-1392478029"},{"id":"51432454e4b0793256e08910","name":"Burrito Caf\u00e9","contact":{"phone":"+442072400622","formattedPhone":"+44 20 7240 0622"},"location":{"address":"38 William IV St","lat":"51.509557","lng":"-0.126782","distance":"76","postalCode":"WC2N 4DD","cc":"GB","city":"London","state":"Greater London","country":"United Kingdom"},"categories":[{"id":"4bf58dd8d48988d153941735","name":"Burrito Place","pluralName":"Burrito Places","shortName":"Burritos","icon":{"prefix":"https:\/\/ss1.4sqi.net\/img\/categories_v2\/food\/burrito_","suffix":".png"},"primary":"true"}],"verified":"false","restricted":"true","stats":{"checkinsCount":"107","usersCount":"95","tipCount":"3"},"url":"http:\/\/www.burritocafe.co.uk","specials":{"count":"0"},"hereNow":{"count":"0"},"referralId":"v-1392478029"},{"id":"4ea2908e61af76b39c97e958","name":"London Pass","location":{"lat":"51.50998176691514","lng":"-0.1282992404584679","distance":"84","cc":"GB","country":"United Kingdom"},"categories":[{"id":"4bf58dd8d48988d1e2931735","name":"Art Gallery","pluralName":"Art Galleries","shortName":"Art Gallery","icon":{"prefix":"https:\/\/ss1.4sqi.net\/img\/categories_v2\/arts_entertainment\/artgallery_","suffix":".png"},"primary":"true"}],"verified":"false","restricted":"true","stats":{"checkinsCount":"77","usersCount":"76","tipCount":"2"},"specials":{"count":"0"},"hereNow":{"count":"0"},"referralId":"v-1392478029"},{"id":"4dc2bd0245ddd5b5b6b32722","name":"Il Padrino's","location":{"lat":"51.509988","lng":"-0.128834","distance":"105","cc":"GB","city":"London","state":"Greater London","country":"United Kingdom"},"categories":[{"id":"4bf58dd8d48988d110941735","name":"Italian Restaurant","pluralName":"Italian Restaurants","shortName":"Italian","icon":{"prefix":"https:\/\/ss1.4sqi.net\/img\/categories_v2\/food\/italian_","suffix":".png"},"primary":"true"}],"verified":"false","restricted":"true","stats":{"checkinsCount":"190","usersCount":"174","tipCount":"5"},"specials":{"count":"0"},"hereNow":{"count":"0"},"referralId":"v-1392478029"},{"id":"506976a2e4b05eea710a31b5","name":"Garfunkels Saint Martins Lane","location":{"lat":"51.51010124305585","lng":"-0.12704813043938876","distance":"104","cc":"GB","country":"United Kingdom"},"categories":[{"id":"4bf58dd8d48988d14e941735","name":"American Restaurant","pluralName":"American Restaurants","shortName":"American","icon":{"prefix":"https:\/\/ss1.4sqi.net\/img\/categories_v2\/food\/default_","suffix":".png"},"primary":"true"}],"verified":"false","restricted":"true","stats":{"checkinsCount":"139","usersCount":"137","tipCount":"6"},"specials":{"count":"0"},"hereNow":{"count":"0"},"referralId":"v-1392478029"}],"confident":"true"}}