{"meta":{"code":"200"},"response":{"venues":[{"id":"4baab46ff964a5204a813ae3","name":"The Westbourne","contact":{"phone":"+442072211332","formattedPhone":"+44 20 7221 1332"},"location":{"address":"101 Westbourne Park Villas","crossStreet":"at Westbourne Park Rd","lat":"51.51932003772379","lng":"-0.1949178672569759","distance":"146","postalCode":"W2 5ED","cc":"GB","city":"London","state":"Greater London","country":"United Kingdom"},"categories":[{"id":"4bf58dd8d48988d155941735","name":"Gastropub","pluralName":"Gastropubs","shortName":"Gastropub","icon":{"prefix":"https:\/\/ss1.4sqi.net\/img\/categories_v2\/food\/gastropub_","suffix":".png"},"primary":"true"}],"verified":"false","restricted":"true","stats":{"checkinsCount":"2121","usersCount":"1131","tipCount":"23"},"url":"http:\/\/www.thewestbourne.com","specials":{"count":"0"},"hereNow":{"count":"0"},"referralId":"v-1392477996"},{"id":"4ac518bdf964a520dfa220e3","name":"The Cow","contact":{"phone":"+442072210021","formattedPhone":"+44 20 7221 0021"},"location":{"address":"89 Westbourne Park Rd","lat":"51.519200629510514","lng":"-0.1954983152188697","distance":"186","postalCode":"W2 5QH","cc":"GB","city":"London","state":"Greater London","country":"United Kingdom"},"categories":[{"id":"4bf58dd8d48988d11b941735","name":"Pub","pluralName":"Pubs","shortName":"Pub","icon":{"prefix":"https:\/\/ss1.4sqi.net\/img\/categories_v2\/nightlife\/pub_","suffix":".png"},"primary":"true"}],"verified":"false","restricted":"true","stats":{"checkinsCount":"1070","usersCount":"650","tipCount":"33"},"url":"http:\/\/www.thecowlondon.co.uk","menu":{"type":"Menu","label":"Menu","anchor":"View Menu","url":"https:\/\/foursquare.com\/v\/the-cow\/4ac518bdf964a520dfa220e3\/menu","mobileUrl":"https:\/\/foursquare.com\/v\/4ac518bdf964a520dfa220e3\/device_menu"},"specials":{"count":"0"},"hereNow":{"count":"0"},"referralId":"v-1392477996"},{"id":"4ba9157ff964a520fb093ae3","name":"Academy Sport","contact":{"phone":"+442071210642","formattedPhone":"+44 20 7121 0642"},"location":{"address":"255 Harrow Rd.","crossStreet":"at Westminster Academy","lat":"51.519996982829475","lng":"-0.19214508188138546","distance":"91","postalCode":"W2 5EZ","cc":"GB","city":"City of Westminster","state":"Greater London","country":"United Kingdom"},"categories":[{"id":"4bf58dd8d48988d175941735","name":"Gym \/ Fitness Center","pluralName":"Gyms or Fitness Centers","shortName":"Gym \/ Fitness","icon":{"prefix":"https:\/\/ss1.4sqi.net\/img\/categories_v2\/building\/gym_","suffix":".png"},"primary":"true"}],"verified":"false","restricted":"true","stats":{"checkinsCount":"282","usersCount":"94","tipCount":"2"},"url":"http:\/\/www.westminsteracademy.net\/Academy-Sport.php","specials":{"count":"0"},"hereNow":{"count":"0"},"referralId":"v-1392477996"},{"id":"4c6e732f4d24b60cef9cd8d8","name":"Harbour Club Notting Hill","contact":{"phone":"+442072669314","formattedPhone":"+44 20 7266 9314"},"location":{"address":"1 Alfred Rd.","lat":"51.52118776072269","lng":"-0.1940631866455078","distance":"228","postalCode":"W2 5EU","cc":"GB","city":"London","state":"Greater London","country":"United Kingdom"},"categories":[{"id":"4bf58dd8d48988d176941735","name":"Gym","pluralName":"Gyms","shortName":"Gym","icon":{"prefix":"https:\/\/ss1.4sqi.net\/img\/categories_v2\/building\/gym_","suffix":".png"},"primary":"true"}],"verified":"false","restricted":"true","stats":{"checkinsCount":"1263","usersCount":"107","tipCount":"1"},"specials":{"count":"0"},"hereNow":{"count":"0"},"referralId":"v-1392477996"},{"id":"4b69d4d9f964a520efb62be3","name":"Westbourne Green Sports Complex","location":{"lat":"51.51993694510874","lng":"-0.19189314911136812","distance":"95","cc":"GB","country":"United Kingdom"},"categories":[{"id":"4bf58dd8d48988d162941735","name":"Other Great Outdoors","pluralName":"Other Great Outdoors","shortName":"Other Outdoors","icon":{"prefix":"https:\/\/ss1.4sqi.net\/img\/categories_v2\/parks_outdoors\/outdoors_","suffix":".png"},"primary":"true"}],"verified":"false","restricted":"true","stats":{"checkinsCount":"210","usersCount":"52","tipCount":"0"},"specials":{"count":"0"},"hereNow":{"count":"0"},"referralId":"v-1392477996"},{"id":"4ad777faf964a520f00a21e3","name":"Lucky 7","contact":{"phone":"+442077276771","formattedPhone":"+44 20 7727 6771"},"location":{"address":"127 Westbourne Park Rd","lat":"51.518909","lng":"-0.197348","distance":"317","postalCode":"W2 5QL","cc":"GB","city":"Westbourne Park","state":"Greater London","country":"United Kingdom"},"categories":[{"id":"4bf58dd8d48988d14e941735","name":"American Restaurant","pluralName":"American Restaurants","shortName":"American","icon":{"prefix":"https:\/\/ss1.4sqi.net\/img\/categories_v2\/food\/default_","suffix":".png"},"primary":"true"}],"verified":"false","restricted":"true","stats":{"checkinsCount":"912","usersCount":"528","tipCount":"28"},"url":"http:\/\/www.lucky7london.co.uk","menu":{"type":"Menu","label":"Menu","anchor":"View Menu","url":"https:\/\/foursquare.com\/v\/lucky-7\/4ad777faf964a520f00a21e3\/menu","mobileUrl":"https:\/\/foursquare.com\/v\/4ad777faf964a520f00a21e3\/device_menu"},"specials":{"count":"0"},"hereNow":{"count":"1","groups":[{"type":"others","name":"Other people here","count":"1"}]},"referralId":"v-1392477996"},{"id":"4ada304ef964a520bc1f21e3","name":"Crazy Homies","contact":{"phone":"+442077276771","formattedPhone":"+44 20 7727 6771"},"location":{"address":"125 Westbourne Park Rd","lat":"51.519066189942784","lng":"-0.19718100520564524","distance":"304","postalCode":"W2 5QL","cc":"GB","city":"London","state":"Greater London","country":"United Kingdom"},"categories":[{"id":"4bf58dd8d48988d1c1941735","name":"Mexican Restaurant","pluralName":"Mexican Restaurants","shortName":"Mexican","icon":{"prefix":"https:\/\/ss1.4sqi.net\/img\/categories_v2\/food\/mexican_","suffix":".png"},"primary":"true"}],"verified":"false","restricted":"true","stats":{"checkinsCount":"754","usersCount":"483","tipCount":"24"},"specials":{"count":"0"},"hereNow":{"count":"0"},"referralId":"v-1392477996"},{"id":"4ac518bdf964a520e8a220e3","name":"The Prince Bonaparte","contact":{"phone":"+442073139491","formattedPhone":"+44 20 7313 9491"},"location":{"address":"80 Chepstow Rd","lat":"51.51734281450781","lng":"-0.19578382572797018","distance":"299","postalCode":"W2 5BE","cc":"GB","city":"London","state":"Greater London","country":"United Kingdom"},"categories":[{"id":"4bf58dd8d48988d11b941735","name":"Pub","pluralName":"Pubs","shortName":"Pub","icon":{"prefix":"https:\/\/ss1.4sqi.net\/img\/categories_v2\/nightlife\/pub_","suffix":".png"},"primary":"true"}],"verified":"true","restricted":"true","stats":{"checkinsCount":"1451","usersCount":"748","tipCount":"22"},"url":"http:\/\/www.theprincebonapartew2.co.uk","reservations":{"url":"http:\/\/www.toptable.co.uk\/single.aspx?rid=81598&ref=9601"},"menu":{"type":"Menu","label":"Menu","anchor":"View Menu","url":"https:\/\/foursquare.com\/v\/the-prince-bonaparte\/4ac518bdf964a520e8a220e3\/menu","mobileUrl":"https:\/\/foursquare.com\/v\/4ac518bdf964a520e8a220e3\/device_menu"},"specials":{"count":"0"},"hereNow":{"count":"0"},"referralId":"v-1392477996"},{"id":"4b55cb65f964a52054f027e3","name":"Gusto Notting Hill","contact":{"phone":"+442077923369","formattedPhone":"+44 20 7792 3369"},"location":{"address":"97 Westbourne Park Villas","crossStreet":"Corner of Westbourne Park Road","lat":"51.519104878455764","lng":"-0.19419193267822266","distance":"98","postalCode":"W2 5ED","cc":"GB","city":"London","state":"Greater London","country":"United Kingdom"},"categories":[{"id":"4bf58dd8d48988d110941735","name":"Italian Restaurant","pluralName":"Italian Restaurants","shortName":"Italian","icon":{"prefix":"https:\/\/ss1.4sqi.net\/img\/categories_v2\/food\/italian_","suffix":".png"},"primary":"true"}],"verified":"true","restricted":"true","stats":{"checkinsCount":"270","usersCount":"128","tipCount":"6"},"url":"http:\/\/www.gustonottinghill.com","menu":{"type":"Menu","label":"Menu","anchor":"View Menu","url":"https:\/\/foursquare.com\/v\/gusto-notting-hill\/4b55cb65f964a52054f027e3\/menu","mobileUrl":"https:\/\/foursquare.com\/v\/4b55cb65f964a52054f027e3\/device_menu"},"specials":{"count":"0"},"hereNow":{"count":"0"},"venuePage":{"id":"41539348"},"storeId":"","referralId":"v-1392477996"},{"id":"528dfc3011d2fa547691145f","name":"Wildflower Cafe","location":{"lat":"51.518909","lng":"-0.196182","distance":"237","cc":"GB","city":"London","state":"Greater London","country":"United Kingdom"},"categories":[{"id":"4bf58dd8d48988d16d941735","name":"Caf\u00e9","pluralName":"Caf\u00e9s","shortName":"Caf\u00e9","icon":{"prefix":"https:\/\/ss1.4sqi.net\/img\/categories_v2\/food\/cafe_","suffix":".png"},"primary":"true"}],"verified":"false","restricted":"true","stats":{"checkinsCount":"8","usersCount":"7","tipCount":"2"},"reservations":{"url":"http:\/\/www.toptable.co.uk\/single.aspx?rid=101502&ref=9601"},"specials":{"count":"0"},"hereNow":{"count":"1","groups":[{"type":"others","name":"Other people here","count":"1"}]},"referralId":"v-1392477996"},{"id":"4c35972a16adc9280901c79c","name":"The Stowe Centre","location":{"address":"Harrow road","lat":"51.520501670481295","lng":"-0.1914164513929808","distance":"165","cc":"GB","city":"City of Westminster","state":"Greater London","country":"United Kingdom"},"categories":[{"id":"4bf58dd8d48988d177941735","name":"Doctor's Office","pluralName":"Doctor's Offices","shortName":"Doctor's Office","icon":{"prefix":"https:\/\/ss1.4sqi.net\/img\/categories_v2\/building\/medical_doctorsoffice_","suffix":".png"},"primary":"true"}],"verified":"false","restricted":"true","stats":{"checkinsCount":"79","usersCount":"37","tipCount":"0"},"specials":{"count":"0"},"hereNow":{"count":"0"},"referralId":"v-1392477996"},{"id":"4c1c07fa8b3aa5931b3d985f","name":"St Stephens Gardens","location":{"address":"Shrewsbury Rd.","lat":"51.518197399973424","lng":"-0.19543023011647995","distance":"218","postalCode":"W2","cc":"GB","city":"City of Westminster","state":"Greater London","country":"United Kingdom"},"categories":[{"id":"4bf58dd8d48988d15a941735","name":"Garden","pluralName":"Gardens","shortName":"Garden","icon":{"prefix":"https:\/\/ss1.4sqi.net\/img\/categories_v2\/parks_outdoors\/garden_","suffix":".png"},"primary":"true"}],"verified":"false","restricted":"true","stats":{"checkinsCount":"162","usersCount":"66","tipCount":"1"},"specials":{"count":"0"},"hereNow":{"count":"0"},"referralId":"v-1392477996"},{"id":"4d66a69ff75c37044cbcda9a","name":"Idler Academy","contact":{"phone":"+442072215908","formattedPhone":"+44 20 7221 5908"},"location":{"address":"81 Westbourne Park Rd.","lat":"51.51922751014934","lng":"-0.19505561891670656","distance":"156","postalCode":"W2 5QH","cc":"GB","city":"London","state":"Greater London","country":"United Kingdom"},"categories":[{"id":"4bf58dd8d48988d1f1931735","name":"General Entertainment","pluralName":"General Entertainment","shortName":"Entertainment","icon":{"prefix":"https:\/\/ss1.4sqi.net\/img\/categories_v2\/arts_entertainment\/default_","suffix":".png"},"primary":"true"}],"verified":"false","restricted":"true","stats":{"checkinsCount":"108","usersCount":"68","tipCount":"1"},"specials":{"count":"0"},"hereNow":{"count":"0"},"referralId":"v-1392477996"},{"id":"4c00f31b379020a1bb34477f","name":"77","location":{"address":"77 westbourne park road","lat":"51.519034","lng":"-0.194968","distance":"152","cc":"GB","city":"Paddington","state":"Greater London","country":"United Kingdom"},"categories":[{"id":"4bf58dd8d48988d110951735","name":"Salon \/ Barbershop","pluralName":"Salons \/ Barbershops","shortName":"Salon \/ Barbershop","icon":{"prefix":"https:\/\/ss1.4sqi.net\/img\/categories_v2\/shops\/salon_barber_","suffix":".png"},"primary":"true"}],"verified":"false","restricted":"true","stats":{"checkinsCount":"39","usersCount":"15","tipCount":"1"},"specials":{"count":"0"},"hereNow":{"count":"0"},"referralId":"v-1392477996"},{"id":"4e0068e1091a5da4052a5553","name":"Royal Oak Skate Park","location":{"address":"Torquay Street","lat":"51.52001281320712","lng":"-0.19163846969604492","distance":"114","postalCode":"W25EJ","cc":"GB","city":"Royal Oak","state":"Greater London","country":"United Kingdom"},"categories":[{"id":"4bf58dd8d48988d167941735","name":"Skate Park","pluralName":"Skate Parks","shortName":"Skate Park","icon":{"prefix":"https:\/\/ss1.4sqi.net\/img\/categories_v2\/parks_outdoors\/skate_park_","suffix":".png"},"primary":"true"}],"verified":"false","restricted":"true","stats":{"checkinsCount":"198","usersCount":"86","tipCount":"5"},"specials":{"count":"0"},"hereNow":{"count":"0"},"referralId":"v-1392477996"},{"id":"51abe3ee498ea2ceb8614219","name":"Kildare Terrace W2","location":{"lat":"51.517135","lng":"-0.193299","distance":"242","cc":"GB","country":"United Kingdom"},"categories":[{"id":"4d954b06a243a5684965b473","name":"Residential Building (Apartment \/ Condo)","pluralName":"Residential Buildings (Apartments \/ Condos)","shortName":"Residential","icon":{"prefix":"https:\/\/ss1.4sqi.net\/img\/categories_v2\/building\/apartment_","suffix":".png"},"primary":"true"}],"verified":"false","restricted":"true","stats":{"checkinsCount":"29","usersCount":"5","tipCount":"3"},"specials":{"count":"0"},"hereNow":{"count":"0"},"referralId":"v-1392477996"},{"id":"4e53e033fa766dacedead3ab","name":"West London Buddhist Centre","location":{"lat":"51.51928419601803","lng":"-0.19392912017710398","distance":"78","cc":"GB","city":"Paddington","state":"Greater London","country":"United Kingdom"},"verified":"false","restricted":"true","stats":{"checkinsCount":"51","usersCount":"22","tipCount":"2"},"specials":{"count":"0"},"hereNow":{"count":"0"},"referralId":"v-1392477996"},{"id":"4beea9d7e24d20a1d3277314","name":"Haminados","contact":{"phone":"+442072295204","formattedPhone":"+44 20 7229 5204"},"location":{"address":"78 Chepstow Rd","lat":"51.51736324295749","lng":"-0.19585841250016625","distance":"301","postalCode":"W2 5BE","cc":"GB","city":"London","state":"Greater London","country":"United Kingdom"},"categories":[{"id":"4bf58dd8d48988d16d941735","name":"Caf\u00e9","pluralName":"Caf\u00e9s","shortName":"Caf\u00e9","icon":{"prefix":"https:\/\/ss1.4sqi.net\/img\/categories_v2\/food\/cafe_","suffix":".png"},"primary":"true"}],"verified":"false","restricted":"true","stats":{"checkinsCount":"302","usersCount":"55","tipCount":"5"},"specials":{"count":"0"},"hereNow":{"count":"0"},"referralId":"v-1392477996"},{"id":"4b9026e6f964a520c67833e3","name":"Great Western Studios","location":{"address":"65 Alfred Road","lat":"51.52137720595604","lng":"-0.1948372021622828","distance":"271","postalCode":"W2 5EU","cc":"GB","city":"London","state":"Greater London","country":"United Kingdom"},"categories":[{"id":"4bf58dd8d48988d174941735","name":"Coworking Space","pluralName":"Coworking Spaces","shortName":"Coworking Space","icon":{"prefix":"https:\/\/ss1.4sqi.net\/img\/categories_v2\/building\/office_coworkingspace_","suffix":".png"},"primary":"true"}],"verified":"false","restricted":"true","stats":{"checkinsCount":"141","usersCount":"68","tipCount":"1"},"specials":{"count":"0"},"hereNow":{"count":"0"},"referralId":"v-1392477996"},{"id":"4faeee5be4b0c8d288642062","name":"UCI Cinenas","location":{"address":"Whiteley's","crossStreet":"Redan Place","lat":"51.52010049940345","lng":"-0.1916678565369534","distance":"119","postalCode":"w2 6 es","cc":"GB","country":"United Kingdom"},"categories":[{"id":"4bf58dd8d48988d1f1931735","name":"General Entertainment","pluralName":"General Entertainment","shortName":"Entertainment","icon":{"prefix":"https:\/\/ss1.4sqi.net\/img\/categories_v2\/arts_entertainment\/default_","suffix":".png"},"primary":"true"}],"verified":"false","restricted":"true","stats":{"checkinsCount":"18","usersCount":"5","tipCount":"0"},"specials":{"count":"0"},"hereNow":{"count":"0"},"referralId":"v-1392477996"},{"id":"4e61e723b3ad629a3a61f294","name":"Paddington Library","contact":{"phone":"+442076411300","formattedPhone":"+44 20 7641 1300","twitter":"wcclibraries"},"location":{"address":"Adult Library, Porchester Rd.","lat":"51.517702884830896","lng":"-0.18867731094360352","distance":"335","postalCode":"W2 5DU","cc":"GB","city":"Paddington","state":"Greater London","country":"United Kingdom"},"categories":[{"id":"4bf58dd8d48988d12f941735","name":"Library","pluralName":"Libraries","shortName":"Library","icon":{"prefix":"https:\/\/ss1.4sqi.net\/img\/categories_v2\/building\/library_","suffix":".png"},"primary":"true"}],"verified":"false","restricted":"true","stats":{"checkinsCount":"181","usersCount":"103","tipCount":"0"},"url":"http:\/\/www.westminster.gov.uk\/libraries","specials":{"count":"0"},"hereNow":{"count":"0"},"referralId":"v-1392477996"},{"id":"4bf696e2004ed13a7fb042a0","name":"HEX Depot","location":{"lat":"51.519528","lng":"-0.191907","distance":"67","cc":"GB","country":"United Kingdom"},"categories":[{"id":"4bf58dd8d48988d1f6931735","name":"General Travel","pluralName":"General Travel","shortName":"Travel","icon":{"prefix":"https:\/\/ss1.4sqi.net\/img\/categories_v2\/travel\/default_","suffix":".png"},"primary":"true"}],"verified":"false","restricted":"true","stats":{"checkinsCount":"1","usersCount":"1","tipCount":"0"},"specials":{"count":"0"},"hereNow":{"count":"0"},"referralId":"v-1392477996"},{"id":"4f21e7bce4b067a32442dfa0","name":"thepad@westbournegardens","location":{"address":"Notting Hill","lat":"51.517843099250996","lng":"-0.18974994709385334","distance":"265","cc":"GB","city":"London","state":"Greater London","country":"United Kingdom"},"categories":[{"id":"4d954b06a243a5684965b473","name":"Residential Building (Apartment \/ Condo)","pluralName":"Residential Buildings (Apartments \/ Condos)","shortName":"Residential","icon":{"prefix":"https:\/\/ss1.4sqi.net\/img\/categories_v2\/building\/apartment_","suffix":".png"},"primary":"true"}],"verified":"false","restricted":"true","stats":{"checkinsCount":"66","usersCount":"4","tipCount":"0"},"specials":{"count":"0"},"hereNow":{"count":"0"},"referralId":"v-1392477996"},{"id":"51dd744e498e8af530d04f9e","name":"Royal Rock","location":{"lat":"51.51858040409044","lng":"-0.1889039552725466","distance":"281","cc":"GB","country":"United Kingdom"},"categories":[{"id":"4bf58dd8d48988d110941735","name":"Italian Restaurant","pluralName":"Italian Restaurants","shortName":"Italian","icon":{"prefix":"https:\/\/ss1.4sqi.net\/img\/categories_v2\/food\/italian_","suffix":".png"},"primary":"true"}],"verified":"false","restricted":"true","stats":{"checkinsCount":"19","usersCount":"10","tipCount":"0"},"specials":{"count":"0"},"hereNow":{"count":"0"},"referralId":"v-1392477996"},{"id":"4d8cb86bd00a6ea815ce904f","name":"Ariana Persian And Afghan Restaurant","location":{"lat":"51.52047063486031","lng":"-0.19080873739975912","distance":"190","cc":"GB","city":"Paddington","state":"Greater London","country":"United Kingdom"},"categories":[{"id":"4bf58dd8d48988d142941735","name":"Asian Restaurant","pluralName":"Asian Restaurants","shortName":"Asian","icon":{"prefix":"https:\/\/ss1.4sqi.net\/img\/categories_v2\/food\/asian_","suffix":".png"},"primary":"true"}],"verified":"false","restricted":"true","stats":{"checkinsCount":"12","usersCount":"12","tipCount":"2"},"specials":{"count":"0"},"hereNow":{"count":"0"},"referralId":"v-1392477996"},{"id":"525c324011d227afe1b9d460","name":"Vyzantio","location":{"lat":"51.519099072778886","lng":"-0.18872218708097382","distance":"283","cc":"GB","country":"United Kingdom"},"categories":[{"id":"4bf58dd8d48988d128941735","name":"Cafeteria","pluralName":"Cafeterias","shortName":"Cafeteria","icon":{"prefix":"https:\/\/ss1.4sqi.net\/img\/categories_v2\/food\/cafeteria_","suffix":".png"},"primary":"true"}],"verified":"false","restricted":"true","stats":{"checkinsCount":"6","usersCount":"6","tipCount":"0"},"specials":{"count":"0"},"hereNow":{"count":"0"},"referralId":"v-1392477996"},{"id":"52344dba11d2e5a53c438f9c","name":"Marianne","location":{"address":"104 Chepstow Street","crossStreet":"St. Stephen's Mews","lat":"51.518768","lng":"-0.196266","distance":"246","postalCode":"W2 5QS","cc":"GB","city":"London","state":"Greater London","country":"United Kingdom"},"categories":[{"id":"4bf58dd8d48988d1c4941735","name":"Restaurant","pluralName":"Restaurants","shortName":"Restaurant","icon":{"prefix":"https:\/\/ss1.4sqi.net\/img\/categories_v2\/food\/default_","suffix":".png"},"primary":"true"}],"verified":"false","restricted":"true","stats":{"checkinsCount":"6","usersCount":"6","tipCount":"0"},"specials":{"count":"0"},"hereNow":{"count":"0"},"referralId":"v-1392477996"},{"id":"4c4a444b959220a144a2dc0d","name":"Westbourne Gardens","location":{"lat":"51.517419071799644","lng":"-0.19026571775685425","distance":"272","cc":"GB","country":"United Kingdom"},"categories":[{"id":"4bf58dd8d48988d162941735","name":"Other Great Outdoors","pluralName":"Other Great Outdoors","shortName":"Other Outdoors","icon":{"prefix":"https:\/\/ss1.4sqi.net\/img\/categories_v2\/parks_outdoors\/outdoors_","suffix":".png"},"primary":"true"}],"verified":"false","restricted":"true","stats":{"checkinsCount":"62","usersCount":"30","tipCount":"0"},"specials":{"count":"0"},"hereNow":{"count":"0"},"referralId":"v-1392477996"},{"id":"4da358a8d686b60c54f6ca28","name":"The Bengal","location":{"address":"62 Porchester Rd.","lat":"51.51830273448158","lng":"-0.1890173368955044","distance":"284","postalCode":"W2 6ET","cc":"GB","city":"Paddington","state":"Greater London","country":"United Kingdom"},"categories":[{"id":"4bf58dd8d48988d10f941735","name":"Indian Restaurant","pluralName":"Indian Restaurants","shortName":"Indian","icon":{"prefix":"https:\/\/ss1.4sqi.net\/img\/categories_v2\/food\/indian_","suffix":".png"},"primary":"true"}],"verified":"false","restricted":"true","stats":{"checkinsCount":"101","usersCount":"45","tipCount":"1"},"url":"http:\/\/www.thebengal.co.uk","reservations":{"url":"http:\/\/www.toptable.co.uk\/single.aspx?rid=68380&ref=9601"},"menu":{"type":"Menu","label":"Menu","anchor":"View Menu","url":"https:\/\/foursquare.com\/v\/the-bengal-paddington-greater-london\/4da358a8d686b60c54f6ca28\/menu","mobileUrl":"https:\/\/foursquare.com\/v\/4da358a8d686b60c54f6ca28\/device_menu"},"specials":{"count":"0"},"hereNow":{"count":"0"},"referralId":"v-1392477996"},{"id":"4bb3421442959c74d4ac212c","name":"Masala house","location":{"address":"Bishops Bridge Road","lat":"51.518944","lng":"-0.191676","distance":"87","cc":"GB","city":"Paddington","state":"Greater London","country":"United Kingdom"},"verified":"false","restricted":"true","stats":{"checkinsCount":"1","usersCount":"1","tipCount":"0"},"specials":{"count":"0"},"hereNow":{"count":"0"},"referralId":"v-1392477996"}],"confident":"false"}}