{"meta":{"code":"200"},"response":{"venues":[{"id":"4acbc300f964a52058c520e3","name":"London Euston Railway Station (EUS)","contact":{"phone":"+448457484950","formattedPhone":"+44 845 748 4950","twitter":"nationalrailenq","facebook":"94740547473"},"location":{"address":"Euston Rd","lat":"51.5284370503752","lng":"-0.13402462005615234","distance":"278","postalCode":"NW1 2RT","cc":"GB","city":"London","state":"Greater London","country":"United Kingdom"},"categories":[{"id":"4bf58dd8d48988d129951735","name":"Train Station","pluralName":"Train Stations","shortName":"Train Station","icon":{"prefix":"https:\/\/ss1.4sqi.net\/img\/categories_v2\/travel\/trainstation_","suffix":".png"},"primary":"true"}],"verified":"true","restricted":"true","stats":{"checkinsCount":"104323","usersCount":"27996","tipCount":"244"},"url":"http:\/\/www.nationalrail.co.uk\/stations\/eus\/details.html","specials":{"count":"0"},"hereNow":{"count":"8","groups":[{"type":"others","name":"Other people here","count":"8"}]},"storeId":"EUS","referralId":"v-1392477976"},{"id":"4acf80a6f964a52024d420e3","name":"Thistle Euston","location":{"address":"Cardington St.","lat":"51.52903213406477","lng":"-0.13722667578074604","distance":"49","postalCode":"NW1 2LP","cc":"GB","city":"Camden","state":"Greater London","country":"United Kingdom"},"categories":[{"id":"4bf58dd8d48988d1fa931735","name":"Hotel","pluralName":"Hotels","shortName":"Hotel","icon":{"prefix":"https:\/\/ss1.4sqi.net\/img\/categories_v2\/travel\/hotel_","suffix":".png"},"primary":"true"}],"verified":"false","restricted":"true","stats":{"checkinsCount":"1423","usersCount":"709","tipCount":"18"},"specials":{"count":"0"},"hereNow":{"count":"0"},"referralId":"v-1392477976"},{"id":"4aded6a5f964a520ce7621e3","name":"Mestizo","contact":{"phone":"+442073874064","formattedPhone":"+44 20 7387 4064"},"location":{"address":"103 Hampstead Rd.","lat":"51.52768077658435","lng":"-0.13866622847802534","distance":"188","postalCode":"NW1 3EL","cc":"GB","city":"London","state":"Greater London","country":"United Kingdom"},"categories":[{"id":"4bf58dd8d48988d1c1941735","name":"Mexican Restaurant","pluralName":"Mexican Restaurants","shortName":"Mexican","icon":{"prefix":"https:\/\/ss1.4sqi.net\/img\/categories_v2\/food\/mexican_","suffix":".png"},"primary":"true"}],"verified":"true","restricted":"true","stats":{"checkinsCount":"2037","usersCount":"1278","tipCount":"62"},"url":"http:\/\/www.mestizomx.com","menu":{"type":"Menu","label":"Menu","anchor":"View Menu","url":"https:\/\/foursquare.com\/v\/mestizo\/4aded6a5f964a520ce7621e3\/menu","mobileUrl":"https:\/\/foursquare.com\/v\/4aded6a5f964a520ce7621e3\/device_menu"},"specials":{"count":"1","items":[{"id":"4ddc076e813093e30233f9ee","type":"frequency","message":"Get a free house tequila shot or margarita with your dinner","description":"Unlocked every check-in","finePrint":"Restrictions apply","icon":"check-in","title":"Check-in Special","provider":"foursquare","redemption":"standard"}]},"hereNow":{"count":"0"},"venuePage":{"id":"53584452"},"storeId":"","referralId":"v-1392477976"},{"id":"4e9b20d4754aab1ca9dc046c","name":"Shaker & Company","contact":{"phone":"+442073875474","formattedPhone":"+44 20 7387 5474","twitter":"shaker_company"},"location":{"address":"119 Hampstead Rd.","lat":"51.528057","lng":"-0.13866","distance":"149","postalCode":"NW1 3EE","cc":"GB","city":"Euston","state":"Greater London","country":"United Kingdom"},"categories":[{"id":"4bf58dd8d48988d11e941735","name":"Cocktail Bar","pluralName":"Cocktail Bars","shortName":"Cocktail","icon":{"prefix":"https:\/\/ss1.4sqi.net\/img\/categories_v2\/nightlife\/cocktails_","suffix":".png"},"primary":"true"}],"verified":"false","restricted":"true","stats":{"checkinsCount":"669","usersCount":"398","tipCount":"16"},"url":"http:\/\/www.shakerandcompany.co.uk","menu":{"type":"Menu","label":"Menu","anchor":"View Menu","url":"https:\/\/foursquare.com\/v\/shaker--company\/4e9b20d4754aab1ca9dc046c\/menu","mobileUrl":"https:\/\/foursquare.com\/v\/4e9b20d4754aab1ca9dc046c\/device_menu"},"specials":{"count":"0"},"hereNow":{"count":"0"},"referralId":"v-1392477976"},{"id":"4ad85fb3f964a5201f1121e3","name":"The Bree Louise","contact":{"phone":"+442076814930","formattedPhone":"+44 20 7681 4930","twitter":"thebreelouise"},"location":{"address":"69 Coburg St","crossStreet":"at Euston St","lat":"51.52704276666666","lng":"-0.135501","distance":"296","postalCode":"NW1 2HH","cc":"GB","city":"Euston","state":"Greater London","country":"United Kingdom"},"categories":[{"id":"4bf58dd8d48988d11b941735","name":"Pub","pluralName":"Pubs","shortName":"Pub","icon":{"prefix":"https:\/\/ss1.4sqi.net\/img\/categories_v2\/nightlife\/pub_","suffix":".png"},"primary":"true"}],"verified":"false","restricted":"true","stats":{"checkinsCount":"2150","usersCount":"1270","tipCount":"42"},"url":"http:\/\/www.thebreelouise.com","menu":{"type":"Menu","label":"Menu","anchor":"View Menu","url":"https:\/\/foursquare.com\/v\/the-bree-louise-euston-greater-london\/4ad85fb3f964a5201f1121e3\/menu","mobileUrl":"https:\/\/foursquare.com\/v\/4ad85fb3f964a5201f1121e3\/device_menu"},"specials":{"count":"0"},"hereNow":{"count":"2","groups":[{"type":"others","name":"Other people here","count":"2"}]},"referralId":"v-1392477976"},{"id":"4ac518b4f964a5207aa020e3","name":"Ibis Hotel","contact":{"phone":"+442073887777","formattedPhone":"+44 20 7388 7777","twitter":"accorhotels"},"location":{"address":"3 Cardington St.","crossStreet":"Euston Station","lat":"51.52770282862996","lng":"-0.13535499572753906","distance":"244","postalCode":"NW1 2LW","cc":"GB","city":"Euston","state":"Greater London","country":"United Kingdom"},"categories":[{"id":"4bf58dd8d48988d1fa931735","name":"Hotel","pluralName":"Hotels","shortName":"Hotel","icon":{"prefix":"https:\/\/ss1.4sqi.net\/img\/categories_v2\/travel\/hotel_","suffix":".png"},"primary":"true"}],"verified":"false","restricted":"true","stats":{"checkinsCount":"2117","usersCount":"865","tipCount":"34"},"url":"http:\/\/www.ibishotel.com","specials":{"count":"0"},"hereNow":{"count":"0"},"referralId":"v-1392477976"},{"id":"4b55b8c9f964a52030ed27e3","name":"Nando's","contact":{"twitter":"nandosuk"},"location":{"address":"Unit 5 The Piazza Euston Railway Station","crossStreet":"Euston Rd.","lat":"51.528089965207634","lng":"-0.13370275497436523","distance":"313","postalCode":"NW1 2RT","cc":"GB","city":"London","state":"Greater London","country":"United Kingdom"},"categories":[{"id":"4def73e84765ae376e57713a","name":"Portuguese Restaurant","pluralName":"Portuguese Restaurants","shortName":"Portuguese","icon":{"prefix":"https:\/\/ss1.4sqi.net\/img\/categories_v2\/food\/default_","suffix":".png"},"primary":"true"}],"verified":"true","restricted":"true","stats":{"checkinsCount":"2378","usersCount":"1662","tipCount":"16"},"url":"http:\/\/www.nandos.co.uk","specials":{"count":"0"},"hereNow":{"count":"0"},"storeId":"N193","referralId":"v-1392477976"},{"id":"4b154b3af964a52074aa23e3","name":"Caff\u00e8 Nero","contact":{"phone":"+442073889810","formattedPhone":"+44 20 7388 9810","twitter":"caffenero"},"location":{"address":"London Euston Station (EUS)","lat":"51.52819676092564","lng":"-0.1336812973022461","distance":"310","postalCode":"NW1 2RT","cc":"GB","city":"London","state":"Greater London","country":"United Kingdom"},"categories":[{"id":"4bf58dd8d48988d1e0931735","name":"Coffee Shop","pluralName":"Coffee Shops","shortName":"Coffee Shop","icon":{"prefix":"https:\/\/ss1.4sqi.net\/img\/categories_v2\/food\/coffeeshop_","suffix":".png"},"primary":"true"}],"verified":"false","restricted":"true","stats":{"checkinsCount":"2659","usersCount":"1665","tipCount":"26"},"url":"http:\/\/www.caffenero.com","menu":{"type":"Menu","label":"Menu","anchor":"View Menu","url":"https:\/\/foursquare.com\/v\/caff%C3%A8-nero\/4b154b3af964a52074aa23e3\/menu","mobileUrl":"https:\/\/foursquare.com\/v\/4b154b3af964a52074aa23e3\/device_menu"},"specials":{"count":"0"},"hereNow":{"count":"1","groups":[{"type":"others","name":"Other people here","count":"1"}]},"referralId":"v-1392477976"},{"id":"4bf4b8d2cad2c92821529c99","name":"Platform 14","location":{"address":"London Euston Station (EUS)","lat":"51.528637290614434","lng":"-0.13449668884277344","distance":"240","postalCode":"NW1 2RT","cc":"GB","city":"London","state":"Greater London","country":"United Kingdom"},"categories":[{"id":"4f4531504b9074f6e4fb0102","name":"Platform","pluralName":"Platforms","shortName":"Platform","icon":{"prefix":"https:\/\/ss1.4sqi.net\/img\/categories_v2\/travel\/trainstation_","suffix":".png"},"primary":"true"}],"verified":"false","restricted":"true","stats":{"checkinsCount":"1260","usersCount":"671","tipCount":"6"},"specials":{"count":"0"},"hereNow":{"count":"0"},"referralId":"v-1392477976"},{"id":"4b958124f964a52054a634e3","name":"Crown and Anchor","contact":{"phone":"+442073832681","formattedPhone":"+44 20 7383 2681","twitter":"anchornw1"},"location":{"address":"137 Drummond St.","crossStreet":"at N Gower St.","lat":"51.52686847136528","lng":"-0.13727009296417236","distance":"271","postalCode":"NW1 2HL","cc":"GB","city":"Euston","state":"Greater London","country":"United Kingdom"},"categories":[{"id":"4bf58dd8d48988d11b941735","name":"Pub","pluralName":"Pubs","shortName":"Pub","icon":{"prefix":"https:\/\/ss1.4sqi.net\/img\/categories_v2\/nightlife\/pub_","suffix":".png"},"primary":"true"}],"verified":"true","restricted":"true","stats":{"checkinsCount":"1100","usersCount":"653","tipCount":"12"},"url":"http:\/\/www.thecrownandanchornw1.co.uk","menu":{"type":"Menu","label":"Menu","anchor":"View Menu","url":"https:\/\/foursquare.com\/v\/crown-and-anchor\/4b958124f964a52054a634e3\/menu","mobileUrl":"https:\/\/foursquare.com\/v\/4b958124f964a52054a634e3\/device_menu"},"specials":{"count":"0"},"hereNow":{"count":"0"},"venuePage":{"id":"40847312"},"referralId":"v-1392477976"},{"id":"4b99338bf964a520546935e3","name":"Platform 9","location":{"address":"London Euston Station (EUS)","lat":"51.52873073575804","lng":"-0.13441085815429688","distance":"242","postalCode":"NW1 2RT","cc":"GB","city":"London","state":"Greater London","country":"United Kingdom"},"categories":[{"id":"4f4531504b9074f6e4fb0102","name":"Platform","pluralName":"Platforms","shortName":"Platform","icon":{"prefix":"https:\/\/ss1.4sqi.net\/img\/categories_v2\/travel\/trainstation_","suffix":".png"},"primary":"true"}],"verified":"false","restricted":"true","stats":{"checkinsCount":"1527","usersCount":"559","tipCount":"5"},"specials":{"count":"0"},"hereNow":{"count":"0"},"referralId":"v-1392477976"},{"id":"4bc3018874a9a59398e9d3f6","name":"Platform 15","location":{"address":"London Euston Station (EUS)","lat":"51.52878413289683","lng":"-0.13456106185913086","distance":"231","postalCode":"NW1 2RT","cc":"GB","city":"London","state":"Greater London","country":"United Kingdom"},"categories":[{"id":"4f4531504b9074f6e4fb0102","name":"Platform","pluralName":"Platforms","shortName":"Platform","icon":{"prefix":"https:\/\/ss1.4sqi.net\/img\/categories_v2\/travel\/trainstation_","suffix":".png"},"primary":"true"}],"verified":"false","restricted":"true","stats":{"checkinsCount":"599","usersCount":"366","tipCount":"1"},"specials":{"count":"0"},"hereNow":{"count":"0"},"referralId":"v-1392477976"},{"id":"4bb48054bd4b9c7408a932f5","name":"Platform 6","location":{"address":"London Euston Station (EUS)","lat":"51.528892819501095","lng":"-0.13394536214348404","distance":"270","postalCode":"NW1 2RT","cc":"GB","city":"London","state":"Greater London","country":"United Kingdom"},"categories":[{"id":"4f4531504b9074f6e4fb0102","name":"Platform","pluralName":"Platforms","shortName":"Platform","icon":{"prefix":"https:\/\/ss1.4sqi.net\/img\/categories_v2\/travel\/trainstation_","suffix":".png"},"primary":"true"}],"verified":"false","restricted":"true","stats":{"checkinsCount":"1010","usersCount":"504","tipCount":"4"},"specials":{"count":"0"},"hereNow":{"count":"0"},"referralId":"v-1392477976"},{"id":"4b9922bdf964a520d76335e3","name":"Platform 18","contact":{"phone":"+448457114141","formattedPhone":"+44 845 711 4141"},"location":{"address":"London Euston Station (EUS)","lat":"51.528663989246475","lng":"-0.13451814651489258","distance":"237","postalCode":"NW1 2RT","cc":"GB","city":"London","state":"Greater London","country":"United Kingdom"},"categories":[{"id":"4f4531504b9074f6e4fb0102","name":"Platform","pluralName":"Platforms","shortName":"Platform","icon":{"prefix":"https:\/\/ss1.4sqi.net\/img\/categories_v2\/travel\/trainstation_","suffix":".png"},"primary":"true"}],"verified":"false","restricted":"true","stats":{"checkinsCount":"1009","usersCount":"327","tipCount":"1"},"specials":{"count":"0"},"hereNow":{"count":"0"},"referralId":"v-1392477976"},{"id":"4c0f957c96fc952143efc0cb","name":"Platform 16","location":{"address":"London Euston Station (EUS)","lat":"51.52881083144275","lng":"-0.13443231582641602","distance":"239","postalCode":"NW1 2RT","cc":"GB","city":"London","state":"Greater London","country":"United Kingdom"},"categories":[{"id":"4f4531504b9074f6e4fb0102","name":"Platform","pluralName":"Platforms","shortName":"Platform","icon":{"prefix":"https:\/\/ss1.4sqi.net\/img\/categories_v2\/travel\/trainstation_","suffix":".png"},"primary":"true"}],"verified":"false","restricted":"true","stats":{"checkinsCount":"1058","usersCount":"372","tipCount":"0"},"specials":{"count":"0"},"hereNow":{"count":"0"},"referralId":"v-1392477976"},{"id":"51f2d539498ed4337900faeb","name":"Bar Thistle Houston","location":{"lat":"51.528924","lng":"-0.136755","distance":"83","cc":"GB","country":"United Kingdom"},"categories":[{"id":"4bf58dd8d48988d116941735","name":"Bar","pluralName":"Bars","shortName":"Bar","icon":{"prefix":"https:\/\/ss1.4sqi.net\/img\/categories_v2\/nightlife\/bar_","suffix":".png"},"primary":"true"}],"verified":"false","restricted":"true","stats":{"checkinsCount":"14","usersCount":"9","tipCount":"0"},"specials":{"count":"0"},"hereNow":{"count":"0"},"referralId":"v-1392477976"},{"id":"4fa976fce4b0bad8956e04ee","name":"Platform 13","location":{"address":"London Euston Railway Station (EUS)","lat":"51.52890218926312","lng":"-0.1348616531231123","distance":"208","cc":"GB","city":"London","state":"Greater London","country":"United Kingdom"},"categories":[{"id":"4f4531504b9074f6e4fb0102","name":"Platform","pluralName":"Platforms","shortName":"Platform","icon":{"prefix":"https:\/\/ss1.4sqi.net\/img\/categories_v2\/travel\/trainstation_","suffix":".png"},"primary":"true"}],"verified":"false","restricted":"true","stats":{"checkinsCount":"667","usersCount":"461","tipCount":"0"},"specials":{"count":"0"},"hereNow":{"count":"0"},"referralId":"v-1392477976"},{"id":"4c0f94b796fc952123efc0cb","name":"Platform 8","location":{"address":"London Euston Station (EUS)","lat":"51.5283703034331","lng":"-0.13406753540039062","distance":"278","postalCode":"NW1 2RT","cc":"GB","city":"London","state":"Greater London","country":"United Kingdom"},"categories":[{"id":"4f4531504b9074f6e4fb0102","name":"Platform","pluralName":"Platforms","shortName":"Platform","icon":{"prefix":"https:\/\/ss1.4sqi.net\/img\/categories_v2\/travel\/trainstation_","suffix":".png"},"primary":"true"}],"verified":"false","restricted":"true","stats":{"checkinsCount":"1526","usersCount":"499","tipCount":"1"},"specials":{"count":"0"},"hereNow":{"count":"0"},"referralId":"v-1392477976"},{"id":"4be99dfb415e20a1990ce4bb","name":"The Exmouth Arms","contact":{"phone":"+442073875440","formattedPhone":"+44 20 7387 5440"},"location":{"address":"1 Starcross St.","crossStreet":"at Cobourg St.","lat":"51.527835","lng":"-0.136376","distance":"189","postalCode":"NW1 2HR","cc":"GB","city":"Euston","state":"Greater London","country":"United Kingdom"},"categories":[{"id":"4bf58dd8d48988d11b941735","name":"Pub","pluralName":"Pubs","shortName":"Pub","icon":{"prefix":"https:\/\/ss1.4sqi.net\/img\/categories_v2\/nightlife\/pub_","suffix":".png"},"primary":"true"}],"verified":"false","restricted":"true","stats":{"checkinsCount":"201","usersCount":"134","tipCount":"4"},"url":"http:\/\/www.exmoutharms.co.uk","menu":{"type":"Menu","label":"Menu","anchor":"View Menu","url":"https:\/\/foursquare.com\/v\/the-exmouth-arms\/4be99dfb415e20a1990ce4bb\/menu","mobileUrl":"https:\/\/foursquare.com\/v\/4be99dfb415e20a1990ce4bb\/device_menu"},"specials":{"count":"0"},"hereNow":{"count":"0"},"referralId":"v-1392477976"},{"id":"4bfafb9465fbc9b67bce906c","name":"Platform 10","location":{"address":"London Euston Station (EUS)","lat":"51.52877078361801","lng":"-0.13404607772827148","distance":"266","postalCode":"NW1 2RT","cc":"GB","city":"London","state":"Greater London","country":"United Kingdom"},"categories":[{"id":"4f4531504b9074f6e4fb0102","name":"Platform","pluralName":"Platforms","shortName":"Platform","icon":{"prefix":"https:\/\/ss1.4sqi.net\/img\/categories_v2\/travel\/trainstation_","suffix":".png"},"primary":"true"}],"verified":"false","restricted":"true","stats":{"checkinsCount":"1535","usersCount":"532","tipCount":"2"},"specials":{"count":"0"},"hereNow":{"count":"0"},"referralId":"v-1392477976"},{"id":"4bf0e8906f8aa5930f60c23c","name":"Platform 7","location":{"address":"London Euston Station (EUS)","lat":"51.52873375432975","lng":"-0.13403898301592493","distance":"267","postalCode":"NW1 2RT","cc":"GB","city":"London","state":"Greater London","country":"United Kingdom"},"categories":[{"id":"4f4531504b9074f6e4fb0102","name":"Platform","pluralName":"Platforms","shortName":"Platform","icon":{"prefix":"https:\/\/ss1.4sqi.net\/img\/categories_v2\/travel\/trainstation_","suffix":".png"},"primary":"true"}],"verified":"false","restricted":"true","stats":{"checkinsCount":"864","usersCount":"462","tipCount":"4"},"specials":{"count":"0"},"hereNow":{"count":"0"},"referralId":"v-1392477976"},{"id":"4e8c650b93adecfdb9611d5a","name":"Nokia Global @ Wunderman","location":{"address":"Greater London House","crossStreet":"Hampstead Road","lat":"51.530222494758064","lng":"-0.138889074587496","distance":"128","postalCode":"NW1 7QP","cc":"GB","city":"London","state":"Greater London","country":"United Kingdom"},"categories":[{"id":"4bf58dd8d48988d124941735","name":"Office","pluralName":"Offices","shortName":"Office","icon":{"prefix":"https:\/\/ss1.4sqi.net\/img\/categories_v2\/building\/default_","suffix":".png"},"primary":"true"}],"verified":"false","restricted":"true","stats":{"checkinsCount":"288","usersCount":"13","tipCount":"0"},"specials":{"count":"0"},"hereNow":{"count":"0"},"referralId":"v-1392477976"},{"id":"4c093734340720a10d628493","name":"Platform 12","location":{"address":"London Euston Station (EUS)","lat":"51.528570543965884","lng":"-0.13430356979370117","distance":"255","postalCode":"NW1 2RT","cc":"GB","city":"London","state":"Greater London","country":"United Kingdom"},"categories":[{"id":"4f4531504b9074f6e4fb0102","name":"Platform","pluralName":"Platforms","shortName":"Platform","icon":{"prefix":"https:\/\/ss1.4sqi.net\/img\/categories_v2\/travel\/trainstation_","suffix":".png"},"primary":"true"}],"verified":"false","restricted":"true","stats":{"checkinsCount":"956","usersCount":"442","tipCount":"2"},"specials":{"count":"0"},"hereNow":{"count":"0"},"referralId":"v-1392477976"},{"id":"4b0a344bf964a5206c2223e3","name":"WHSmith","contact":{"phone":"+442073874640","formattedPhone":"+44 20 7387 4640","twitter":"whsmithcouk"},"location":{"address":"Station Concourse, Euston Station","lat":"51.528376978131696","lng":"-0.13434648513793945","distance":"260","postalCode":"NW1 2DU","cc":"GB","city":"London","state":"Greater London","country":"United Kingdom"},"categories":[{"id":"4bf58dd8d48988d114951735","name":"Bookstore","pluralName":"Bookstores","shortName":"Bookstore","icon":{"prefix":"https:\/\/ss1.4sqi.net\/img\/categories_v2\/shops\/bookstore_","suffix":".png"},"primary":"true"}],"verified":"true","restricted":"true","stats":{"checkinsCount":"419","usersCount":"284","tipCount":"4"},"specials":{"count":"0"},"hereNow":{"count":"0"},"storeId":"2620 Euston","referralId":"v-1392477976"},{"id":"4bc35b47abf4952187a2c393","name":"St James' Gardens","location":{"lat":"51.52838664069014","lng":"-0.13647529788163296","distance":"136","cc":"GB","country":"United Kingdom"},"categories":[{"id":"4bf58dd8d48988d163941735","name":"Park","pluralName":"Parks","shortName":"Park","icon":{"prefix":"https:\/\/ss1.4sqi.net\/img\/categories_v2\/parks_outdoors\/park_","suffix":".png"},"primary":"true"}],"verified":"false","restricted":"true","stats":{"checkinsCount":"65","usersCount":"58","tipCount":"0"},"specials":{"count":"0"},"hereNow":{"count":"0"},"referralId":"v-1392477976"},{"id":"4c0f948796fc952119efc0cb","name":"Platform 4","location":{"address":"London Euston Station (EUS)","lat":"51.52829020697338","lng":"-0.1338958740234375","distance":"292","postalCode":"NW1 2RT","cc":"GB","city":"London","state":"Greater London","country":"United Kingdom"},"categories":[{"id":"4f4531504b9074f6e4fb0102","name":"Platform","pluralName":"Platforms","shortName":"Platform","icon":{"prefix":"https:\/\/ss1.4sqi.net\/img\/categories_v2\/travel\/trainstation_","suffix":".png"},"primary":"true"}],"verified":"false","restricted":"true","stats":{"checkinsCount":"614","usersCount":"383","tipCount":"1"},"specials":{"count":"0"},"hereNow":{"count":"0"},"referralId":"v-1392477976"},{"id":"4da35c2b0f578cfa554eb718","name":"Brasserie 43","location":{"address":"43 Cardington Street","lat":"51.528928","lng":"-0.136816","distance":"79","postalCode":"NW1 2LP","cc":"GB","city":"London","state":"Greater London","country":"United Kingdom"},"categories":[{"id":"4bf58dd8d48988d1c4941735","name":"Restaurant","pluralName":"Restaurants","shortName":"Restaurant","icon":{"prefix":"https:\/\/ss1.4sqi.net\/img\/categories_v2\/food\/default_","suffix":".png"},"primary":"true"}],"verified":"false","restricted":"true","stats":{"checkinsCount":"57","usersCount":"43","tipCount":"0"},"specials":{"count":"0"},"hereNow":{"count":"0"},"referralId":"v-1392477976"},{"id":"524600f9498e704355de8642","name":"North Gower Flats","location":{"address":"187 North Gower St","lat":"51.52744517807839","lng":"-0.13807308160194345","distance":"206","cc":"GB","city":"London","state":"Greater London","country":"United Kingdom"},"categories":[{"id":"4d954b06a243a5684965b473","name":"Residential Building (Apartment \/ Condo)","pluralName":"Residential Buildings (Apartments \/ Condos)","shortName":"Residential","icon":{"prefix":"https:\/\/ss1.4sqi.net\/img\/categories_v2\/building\/apartment_","suffix":".png"},"primary":"true"}],"verified":"false","restricted":"true","stats":{"checkinsCount":"46","usersCount":"4","tipCount":"0"},"specials":{"count":"0"},"hereNow":{"count":"0"},"referralId":"v-1392477976"},{"id":"4ba10d71f964a520e19237e3","name":"Platform 2","location":{"address":"London Euston Station (EUS)","lat":"51.529370494650564","lng":"-0.13417603567090117","distance":"251","postalCode":"NW1 2RT","cc":"GB","city":"London","state":"Greater London","country":"United Kingdom"},"categories":[{"id":"4f4531504b9074f6e4fb0102","name":"Platform","pluralName":"Platforms","shortName":"Platform","icon":{"prefix":"https:\/\/ss1.4sqi.net\/img\/categories_v2\/travel\/trainstation_","suffix":".png"},"primary":"true"}],"verified":"false","restricted":"true","stats":{"checkinsCount":"976","usersCount":"480","tipCount":"2"},"specials":{"count":"0"},"hereNow":{"count":"0"},"referralId":"v-1392477976"},{"id":"52719c9611d2aff708b4e402","name":"Londres","location":{"lat":"51.52956538230561","lng":"-0.12503000752677948","distance":"885","cc":"GB","country":"United Kingdom"},"verified":"false","restricted":"true","stats":{"checkinsCount":"56","usersCount":"43","tipCount":"0"},"specials":{"count":"0"},"hereNow":{"count":"0"},"referralId":"v-1392477976"}],"confident":"true"}}