{"meta":{"code":"200"},"response":{"venues":[{"id":"50fd36f9e4b03727bd12020d","name":"Make Positive London","location":{"address":"30","crossStreet":"Great Guildford Street","lat":"51.50445810454057","lng":"-0.09708391113211498","distance":"53","postalCode":"SE1 0HS","cc":"GB","city":"London","state":"Greater London","country":"United Kingdom"},"categories":[{"id":"4bf58dd8d48988d124941735","name":"Office","pluralName":"Offices","shortName":"Office","icon":{"prefix":"https:\/\/ss1.4sqi.net\/img\/categories_v2\/building\/default_","suffix":".png"},"primary":"true"}],"verified":"false","restricted":"true","stats":{"checkinsCount":"148","usersCount":"20","tipCount":"1"},"specials":{"count":"0"},"hereNow":{"count":"0"},"referralId":"v-1392478045"},{"id":"4e4fecf52271a1bdc3e53057","name":"citizenM London Bankside","contact":{"phone":"+442035191680","formattedPhone":"+44 20 3519 1680","twitter":"citizenm","facebook":"173364980699"},"location":{"address":"20 Lavington Street","lat":"51.50506964384828","lng":"-0.0984048843383789","distance":"96","postalCode":"SE1 0NZ","cc":"GB","city":"London","state":"Greater London","country":"United Kingdom"},"categories":[{"id":"4bf58dd8d48988d1fa931735","name":"Hotel","pluralName":"Hotels","shortName":"Hotel","icon":{"prefix":"https:\/\/ss1.4sqi.net\/img\/categories_v2\/travel\/hotel_","suffix":".png"},"primary":"true"}],"verified":"true","restricted":"true","stats":{"checkinsCount":"3009","usersCount":"1259","tipCount":"43"},"url":"http:\/\/www.citizenm.com\/london-bankside","specials":{"count":"0"},"hereNow":{"count":"2","groups":[{"type":"others","name":"Other people here","count":"2"}]},"storeId":"","referralId":"v-1392478045"},{"id":"4d50128b7ee1a35d5ae98134","name":"Vapiano","contact":{"phone":"+442075932010","formattedPhone":"+44 20 7593 2010","twitter":"vapiano"},"location":{"address":"90b Southwark St","lat":"51.50559747292119","lng":"-0.09756948009111889","distance":"146","postalCode":"SE10FD","cc":"GB","city":"Southwark","state":"Greater London","country":"United Kingdom"},"categories":[{"id":"4bf58dd8d48988d110941735","name":"Italian Restaurant","pluralName":"Italian Restaurants","shortName":"Italian","icon":{"prefix":"https:\/\/ss1.4sqi.net\/img\/categories_v2\/food\/italian_","suffix":".png"},"primary":"true"}],"verified":"true","restricted":"true","stats":{"checkinsCount":"3023","usersCount":"1396","tipCount":"38"},"url":"http:\/\/www.vapiano.de\/uk","specials":{"count":"0"},"hereNow":{"count":"0"},"referralId":"v-1392478045"},{"id":"4e16db602271881f204fdb0c","name":"Crossfit Gym Central London","location":{"address":"Ewer Street","lat":"51.504718390350796","lng":"-0.09841999506333557","distance":"64","postalCode":"SE1","cc":"GB","city":"London","state":"Greater London","country":"United Kingdom"},"categories":[{"id":"4bf58dd8d48988d176941735","name":"Gym","pluralName":"Gyms","shortName":"Gym","icon":{"prefix":"https:\/\/ss1.4sqi.net\/img\/categories_v2\/building\/gym_","suffix":".png"},"primary":"true"}],"verified":"false","restricted":"true","stats":{"checkinsCount":"655","usersCount":"95","tipCount":"4"},"specials":{"count":"0"},"hereNow":{"count":"0"},"referralId":"v-1392478045"},{"id":"5240307c11d22e34c76a9cd6","name":"The Studio","location":{"lat":"51.504459","lng":"-0.098247","distance":"36","cc":"GB","country":"United Kingdom"},"categories":[{"id":"4bf58dd8d48988d124941735","name":"Office","pluralName":"Offices","shortName":"Office","icon":{"prefix":"https:\/\/ss1.4sqi.net\/img\/categories_v2\/building\/default_","suffix":".png"},"primary":"true"}],"verified":"false","restricted":"true","stats":{"checkinsCount":"38","usersCount":"2","tipCount":"0"},"specials":{"count":"0"},"hereNow":{"count":"0"},"referralId":"v-1392478045"},{"id":"4eae9f72b8f765aba1cee0a8","name":"Peerius Ltd.","contact":{"phone":"+442033974940","formattedPhone":"+44 20 3397 4940","twitter":"peerius"},"location":{"address":"Unit 232-234 Great Guildford Business Square, 30 Great Guildford Street","lat":"51.504534089564835","lng":"-0.09720336917806381","distance":"49","postalCode":"SE1 0HS","cc":"GB","city":"London","state":"Greater London","country":"United Kingdom"},"categories":[{"id":"4bf58dd8d48988d125941735","name":"Tech Startup","pluralName":"Tech Startups","shortName":"Tech Startup","icon":{"prefix":"https:\/\/ss1.4sqi.net\/img\/categories_v2\/shops\/technology_","suffix":".png"},"primary":"true"}],"verified":"false","restricted":"true","stats":{"checkinsCount":"494","usersCount":"18","tipCount":"1"},"url":"http:\/\/www.peerius.com","specials":{"count":"0"},"hereNow":{"count":"0"},"referralId":"v-1392478045"},{"id":"4ea81d7e29c25150a6887d40","name":"Great Guildford Business Centre","location":{"lat":"51.50443646320148","lng":"-0.09817376995758349","distance":"30","cc":"GB","city":"Camberwell","state":"Greater London","country":"United Kingdom"},"categories":[{"id":"4bf58dd8d48988d124941735","name":"Office","pluralName":"Offices","shortName":"Office","icon":{"prefix":"https:\/\/ss1.4sqi.net\/img\/categories_v2\/building\/default_","suffix":".png"},"primary":"true"}],"verified":"false","restricted":"true","stats":{"checkinsCount":"305","usersCount":"20","tipCount":"0"},"specials":{"count":"0"},"hereNow":{"count":"0"},"referralId":"v-1392478045"},{"id":"4ec52b856c254debeb2f1895","name":"collective-i","location":{"lat":"51.504318734209804","lng":"-0.09723223266460806","distance":"39","cc":"GB","country":"United Kingdom"},"categories":[{"id":"4bf58dd8d48988d124941735","name":"Office","pluralName":"Offices","shortName":"Office","icon":{"prefix":"https:\/\/ss1.4sqi.net\/img\/categories_v2\/building\/default_","suffix":".png"},"primary":"true"}],"verified":"false","restricted":"true","stats":{"checkinsCount":"113","usersCount":"4","tipCount":"1"},"specials":{"count":"0"},"hereNow":{"count":"0"},"referralId":"v-1392478045"},{"id":"5239711d498e25328dbcbb1d","name":"Pure Bankside","location":{"address":"51 Ewer Street","lat":"51.50430294366072","lng":"-0.09856868923807013","distance":"53","cc":"GB","city":"London","state":"Greater London","country":"United Kingdom"},"categories":[{"id":"4d954b06a243a5684965b473","name":"Residential Building (Apartment \/ Condo)","pluralName":"Residential Buildings (Apartments \/ Condos)","shortName":"Residential","icon":{"prefix":"https:\/\/ss1.4sqi.net\/img\/categories_v2\/building\/apartment_","suffix":".png"},"primary":"true"}],"verified":"false","restricted":"true","stats":{"checkinsCount":"27","usersCount":"7","tipCount":"0"},"specials":{"count":"0"},"hereNow":{"count":"0"},"referralId":"v-1392478045"},{"id":"4bbf2511006dc9b67c11fc3f","name":"London Fire Brigade HQ","contact":{"phone":"+442085551200","formattedPhone":"+44 20 8555 1200"},"location":{"address":"169 Union Street","lat":"51.50390466360818","lng":"-0.09609468613163129","distance":"125","postalCode":"SE1 0LL","cc":"GB","city":"Camberwell","state":"Greater London","country":"United Kingdom"},"categories":[{"id":"4bf58dd8d48988d12c941735","name":"Fire Station","pluralName":"Fire Stations","shortName":"Fire Station","icon":{"prefix":"https:\/\/ss1.4sqi.net\/img\/categories_v2\/building\/government_firestation_","suffix":".png"},"primary":"true"}],"verified":"false","restricted":"true","stats":{"checkinsCount":"385","usersCount":"76","tipCount":"2"},"specials":{"count":"0"},"hereNow":{"count":"0"},"referralId":"v-1392478045"},{"id":"4bf3d48c6a31d13a70ff942e","name":"M&S Simply Food","location":{"address":"90 Southwark Street","lat":"51.505426921574355","lng":"-0.09813129901885986","distance":"128","cc":"GB","country":"United Kingdom"},"categories":[{"id":"4bf58dd8d48988d118951735","name":"Grocery Store","pluralName":"Grocery Stores","shortName":"Grocery Store","icon":{"prefix":"https:\/\/ss1.4sqi.net\/img\/categories_v2\/shops\/food_grocery_","suffix":".png"},"primary":"true"}],"verified":"false","restricted":"true","stats":{"checkinsCount":"1496","usersCount":"401","tipCount":"9"},"specials":{"count":"0"},"hereNow":{"count":"0"},"referralId":"v-1392478045"},{"id":"4b700072f964a520ec022de3","name":"Rosie Tate","contact":{"phone":"+442079289100","formattedPhone":"+44 20 7928 9100"},"location":{"address":"11-17 Great Guildford St.","lat":"51.505445","lng":"-0.097666","distance":"129","postalCode":"SE1 0HS","cc":"GB","city":"Southwark","state":"Greater London","country":"United Kingdom"},"categories":[{"id":"4bf58dd8d48988d1c7941735","name":"Snack Place","pluralName":"Snack Places","shortName":"Snacks","icon":{"prefix":"https:\/\/ss1.4sqi.net\/img\/categories_v2\/food\/snacks_","suffix":".png"},"primary":"true"}],"verified":"false","restricted":"true","stats":{"checkinsCount":"559","usersCount":"125","tipCount":"5"},"specials":{"count":"0"},"hereNow":{"count":"0"},"referralId":"v-1392478045"},{"id":"50af8808e4b0be4dde608034","name":"Itsu","contact":{"phone":"+442032682175","formattedPhone":"+44 20 3268 2175","twitter":"itsuofficial","facebook":"115164458642981"},"location":{"address":"The Harlequin Building","crossStreet":"65 Southwark St.","lat":"51.505386536427","lng":"-0.09778078814608747","distance":"122","postalCode":"SE1 0HR","cc":"GB","city":"Southwark","state":"Greater London","country":"United Kingdom"},"categories":[{"id":"4bf58dd8d48988d1d2941735","name":"Sushi Restaurant","pluralName":"Sushi Restaurants","shortName":"Sushi","icon":{"prefix":"https:\/\/ss1.4sqi.net\/img\/categories_v2\/food\/sushi_","suffix":".png"},"primary":"true"}],"verified":"true","restricted":"true","stats":{"checkinsCount":"263","usersCount":"125","tipCount":"3"},"url":"http:\/\/www.itsu.com","specials":{"count":"0"},"hereNow":{"count":"0"},"storeId":"","referralId":"v-1392478045"},{"id":"4bf69c615efe2d7f7e6f6734","name":"RBS Bankside","location":{"address":"100 Southwark St","lat":"51.50569877978187","lng":"-0.0984469625182314","distance":"163","postalCode":"SE1 0SW","cc":"GB","city":"Camberwell","state":"Greater London","country":"United Kingdom"},"categories":[{"id":"4bf58dd8d48988d124941735","name":"Office","pluralName":"Offices","shortName":"Office","icon":{"prefix":"https:\/\/ss1.4sqi.net\/img\/categories_v2\/building\/default_","suffix":".png"},"primary":"true"}],"verified":"false","restricted":"true","stats":{"checkinsCount":"1202","usersCount":"196","tipCount":"6"},"specials":{"count":"0"},"hereNow":{"count":"0"},"referralId":"v-1392478045"},{"id":"514e0170e4b0ab0303a85cba","name":"The Blitz Party","location":{"lat":"51.50458920171681","lng":"-0.0984692600588867","distance":"56","cc":"GB","country":"United Kingdom"},"categories":[{"id":"4bf58dd8d48988d11f941735","name":"Nightclub","pluralName":"Nightclubs","shortName":"Nightclub","icon":{"prefix":"https:\/\/ss1.4sqi.net\/img\/categories_v2\/nightlife\/nightclub_","suffix":".png"},"primary":"true"}],"verified":"false","restricted":"true","stats":{"checkinsCount":"15","usersCount":"15","tipCount":"0"},"specials":{"count":"0"},"hereNow":{"count":"0"},"referralId":"v-1392478045"},{"id":"4bc2f2b5b492d13a3e11a860","name":"Webcredible","contact":{"phone":"+442074236320","formattedPhone":"+44 20 7423 6320","twitter":"webcredible"},"location":{"address":"61 Southwark Street","lat":"51.504829231091406","lng":"-0.09645223617553711","distance":"111","postalCode":"SE1 0HL","cc":"GB","city":"London","state":"Greater London","country":"United Kingdom"},"categories":[{"id":"4bf58dd8d48988d124941735","name":"Office","pluralName":"Offices","shortName":"Office","icon":{"prefix":"https:\/\/ss1.4sqi.net\/img\/categories_v2\/building\/default_","suffix":".png"},"primary":"true"}],"verified":"true","restricted":"true","stats":{"checkinsCount":"320","usersCount":"60","tipCount":"0"},"url":"http:\/\/www.webcredible.co.uk","specials":{"count":"0"},"hereNow":{"count":"0"},"venuePage":{"id":"35269636"},"storeId":"","referralId":"v-1392478045"},{"id":"4afd67acf964a5209e2722e3","name":"The Charles Dickens","contact":{"phone":"+442074013744","formattedPhone":"+44 20 7401 3744"},"location":{"address":"160 Union St.","lat":"51.50383","lng":"-0.09979147","distance":"146","postalCode":"SE1 0LH","cc":"GB","city":"Southwark","state":"Greater London","country":"United Kingdom"},"categories":[{"id":"4bf58dd8d48988d11b941735","name":"Pub","pluralName":"Pubs","shortName":"Pub","icon":{"prefix":"https:\/\/ss1.4sqi.net\/img\/categories_v2\/nightlife\/pub_","suffix":".png"},"primary":"true"}],"verified":"false","restricted":"true","stats":{"checkinsCount":"717","usersCount":"336","tipCount":"8"},"specials":{"count":"0"},"hereNow":{"count":"0"},"referralId":"v-1392478045"},{"id":"4ad2f913f964a520ece220e3","name":"Marks & Spencer","contact":{"phone":"+442076330068","formattedPhone":"+44 20 7633 0068"},"location":{"address":"91 Southwark St.","crossStreet":"Sumner St.","lat":"51.50547786493221","lng":"-0.0981425234188496","distance":"134","postalCode":"SE1 OHX","cc":"GB","city":"Southwark","state":"Greater London","country":"United Kingdom"},"categories":[{"id":"4bf58dd8d48988d118951735","name":"Grocery Store","pluralName":"Grocery Stores","shortName":"Grocery Store","icon":{"prefix":"https:\/\/ss1.4sqi.net\/img\/categories_v2\/shops\/food_grocery_","suffix":".png"},"primary":"true"}],"verified":"true","restricted":"true","stats":{"checkinsCount":"836","usersCount":"224","tipCount":"7"},"specials":{"count":"0"},"hereNow":{"count":"0"},"storeId":"Bankside Simply Food","referralId":"v-1392478045"},{"id":"4bc8214a92b376b046ed503a","name":"Momentum","contact":{"phone":"+442033500000","formattedPhone":"+44 20 3350 0000","twitter":"momomentsuk"},"location":{"address":"76-80 Southwark St.","lat":"51.50520320594292","lng":"-0.09696722030639648","distance":"117","postalCode":"SE1 0PN","cc":"GB","city":"London","state":"Greater London","country":"United Kingdom"},"categories":[{"id":"4bf58dd8d48988d124941735","name":"Office","pluralName":"Offices","shortName":"Office","icon":{"prefix":"https:\/\/ss1.4sqi.net\/img\/categories_v2\/building\/default_","suffix":".png"},"primary":"true"}],"verified":"false","restricted":"true","stats":{"checkinsCount":"1700","usersCount":"119","tipCount":"3"},"url":"http:\/\/www.momentumww.co.uk","specials":{"count":"0"},"hereNow":{"count":"0"},"referralId":"v-1392478045"},{"id":"4af86c8bf964a520210d22e3","name":"Pret A Manger","contact":{"phone":"+442079325257","formattedPhone":"+44 20 7932 5257","twitter":"pret","facebook":"162638680417951"},"location":{"address":"2 Canvey St.","lat":"51.50568903476011","lng":"-0.09947508573532104","distance":"194","postalCode":"SE1 9AN","cc":"GB","city":"Bankside","state":"Greater London","country":"United Kingdom"},"categories":[{"id":"4bf58dd8d48988d1c5941735","name":"Sandwich Place","pluralName":"Sandwich Places","shortName":"Sandwiches","icon":{"prefix":"https:\/\/ss1.4sqi.net\/img\/categories_v2\/food\/sandwiches_","suffix":".png"},"primary":"true"}],"verified":"true","restricted":"true","stats":{"checkinsCount":"1526","usersCount":"482","tipCount":"9"},"url":"http:\/\/www.pret.com","specials":{"count":"0"},"hereNow":{"count":"0"},"storeId":"215","referralId":"v-1392478045"},{"id":"4ffec4eae4b0bc634513ebc3","name":"Made Tech","contact":{"phone":"+442033977846","formattedPhone":"+44 20 3397 7846","twitter":"madebymade"},"location":{"address":"Unit 309\/310, 30 Great Guildford Street","lat":"51.50466895521549","lng":"-0.09713888168334961","distance":"62","postalCode":"SE1 0HS","cc":"GB","city":"London","state":"Greater London","country":"United Kingdom"},"categories":[{"id":"4bf58dd8d48988d130941735","name":"Building","pluralName":"Buildings","shortName":"Building","icon":{"prefix":"https:\/\/ss1.4sqi.net\/img\/categories_v2\/building\/default_","suffix":".png"},"primary":"true"}],"verified":"false","restricted":"true","stats":{"checkinsCount":"30","usersCount":"3","tipCount":"0"},"url":"http:\/\/www.madebymade.co.uk","specials":{"count":"0"},"hereNow":{"count":"0"},"referralId":"v-1392478045"},{"id":"51cb0274498e393574c162ec","name":"Stratigo Executive Headhunter \/ Supply Chain - Operational Excellence","contact":{"phone":"+442071593539","formattedPhone":"+44 20 7159 3539","twitter":"lean_headhunter"},"location":{"address":"Great Guildford Street","crossStreet":"Union Street","lat":"51.503899145935","lng":"-0.096800094226586","distance":"81","postalCode":"SE1 0FA","cc":"GB","city":"London","state":"Greater London","country":"United Kingdom"},"categories":[{"id":"5032764e91d4c4b30a586d5a","name":"Campaign Office","pluralName":"Campaign Offices","shortName":"Campaign","icon":{"prefix":"https:\/\/ss1.4sqi.net\/img\/categories_v2\/building\/default_","suffix":".png"},"primary":"true"}],"verified":"false","restricted":"true","stats":{"checkinsCount":"47","usersCount":"2","tipCount":"0"},"specials":{"count":"0"},"hereNow":{"count":"0"},"referralId":"v-1392478045"},{"id":"52ac16e1498e5f499a21e2df","name":"Mercure London Bridge Hotel","location":{"lat":"51.505521","lng":"-0.098777","distance":"152","cc":"GB","country":"United Kingdom"},"categories":[{"id":"4bf58dd8d48988d1fa931735","name":"Hotel","pluralName":"Hotels","shortName":"Hotel","icon":{"prefix":"https:\/\/ss1.4sqi.net\/img\/categories_v2\/travel\/hotel_","suffix":".png"},"primary":"true"}],"verified":"false","restricted":"true","stats":{"checkinsCount":"41","usersCount":"23","tipCount":"0"},"specials":{"count":"0"},"hereNow":{"count":"0"},"referralId":"v-1392478045"},{"id":"4d66a1e0f75c37046083da9a","name":"Hotel Mercure London City Bankside","location":{"address":"71-79 Southwark Street City of London SE1 0JA","lat":"51.505462954094924","lng":"-0.09920364090117091","distance":"162","postalCode":"United Kingd","cc":"GB","city":"London","state":"Greater London","country":"United Kingdom"},"categories":[{"id":"4bf58dd8d48988d1fa931735","name":"Hotel","pluralName":"Hotels","shortName":"Hotel","icon":{"prefix":"https:\/\/ss1.4sqi.net\/img\/categories_v2\/travel\/hotel_","suffix":".png"},"primary":"true"}],"verified":"false","restricted":"true","stats":{"checkinsCount":"800","usersCount":"391","tipCount":"15"},"specials":{"count":"0"},"hereNow":{"count":"0"},"referralId":"v-1392478045"},{"id":"506c296de4b0e6a9acfad031","name":"XP","location":{"address":"61 Southwark Street","lat":"51.50515664585342","lng":"-0.0968793930725463","distance":"115","cc":"GB","country":"United Kingdom"},"categories":[{"id":"4bf58dd8d48988d124941735","name":"Office","pluralName":"Offices","shortName":"Office","icon":{"prefix":"https:\/\/ss1.4sqi.net\/img\/categories_v2\/building\/default_","suffix":".png"},"primary":"true"}],"verified":"false","restricted":"true","stats":{"checkinsCount":"66","usersCount":"7","tipCount":"0"},"specials":{"count":"0"},"hereNow":{"count":"0"},"referralId":"v-1392478045"},{"id":"523deff1498eea65e86e764a","name":"Est. India","contact":{"phone":"+442074072004","formattedPhone":"+44 20 7407 2004"},"location":{"address":"73-75 Union Street","crossStreet":"Flat Iron Square","lat":"51.503966924186244","lng":"-0.09562091429607641","distance":"155","postalCode":"SE1 1SG","cc":"GB","city":"London","state":"Greater London","country":"United Kingdom"},"categories":[{"id":"4bf58dd8d48988d10f941735","name":"Indian Restaurant","pluralName":"Indian Restaurants","shortName":"Indian","icon":{"prefix":"https:\/\/ss1.4sqi.net\/img\/categories_v2\/food\/indian_","suffix":".png"},"primary":"true"}],"verified":"false","restricted":"true","stats":{"checkinsCount":"61","usersCount":"36","tipCount":"4"},"url":"http:\/\/www.estindia.co.uk","specials":{"count":"0"},"hereNow":{"count":"0"},"referralId":"v-1392478045"},{"id":"4b7e9100f964a5200ff32fe3","name":"Jerwood Space","contact":{"phone":"+442076540171","formattedPhone":"+44 20 7654 0171","twitter":"jerwoodspace"},"location":{"address":"171 Union Street","lat":"51.50373","lng":"-0.09940803050994873","distance":"127","postalCode":"SE1 0LN","cc":"GB","city":"Southwark","state":"Greater London","country":"United Kingdom"},"categories":[{"id":"4bf58dd8d48988d1f2931735","name":"Performing Arts Venue","pluralName":"Performing Arts Venues","shortName":"Performing Arts","icon":{"prefix":"https:\/\/ss1.4sqi.net\/img\/categories_v2\/arts_entertainment\/default_","suffix":".png"},"primary":"true"}],"verified":"false","restricted":"true","stats":{"checkinsCount":"426","usersCount":"187","tipCount":"6"},"url":"http:\/\/www.jerwoodspace.co.uk","specials":{"count":"0"},"hereNow":{"count":"0"},"referralId":"v-1392478045"},{"id":"4aeb31a3f964a5207bbf21e3","name":"Southwark Rooms","location":{"address":"60 Southwark St.","lat":"51.50493155309454","lng":"-0.09559942607771597","distance":"168","postalCode":"SE1 1UN","cc":"GB","city":"London","state":"Greater London","country":"United Kingdom"},"categories":[{"id":"4bf58dd8d48988d116941735","name":"Bar","pluralName":"Bars","shortName":"Bar","icon":{"prefix":"https:\/\/ss1.4sqi.net\/img\/categories_v2\/nightlife\/bar_","suffix":".png"},"primary":"true"}],"verified":"false","restricted":"true","stats":{"checkinsCount":"345","usersCount":"226","tipCount":"9"},"url":"http:\/\/www.southwarkrooms.com","menu":{"type":"Menu","label":"Menu","anchor":"View Menu","url":"https:\/\/foursquare.com\/v\/southwark-rooms\/4aeb31a3f964a5207bbf21e3\/menu","mobileUrl":"https:\/\/foursquare.com\/v\/4aeb31a3f964a5207bbf21e3\/device_menu"},"specials":{"count":"0"},"hereNow":{"count":"0"},"referralId":"v-1392478045"},{"id":"5075521ce4b0b561917e0313","name":"Photobox Announcements","location":{"address":"Unit 327","crossStreet":"30 Great Guildford Street","lat":"51.504447454971775","lng":"-0.09760536933567421","distance":"22","postalCode":"SE1 0HS","cc":"GB","city":"London","state":"Greater London","country":"United Kingdom"},"categories":[{"id":"4bf58dd8d48988d125941735","name":"Tech Startup","pluralName":"Tech Startups","shortName":"Tech Startup","icon":{"prefix":"https:\/\/ss1.4sqi.net\/img\/categories_v2\/shops\/technology_","suffix":".png"},"primary":"true"}],"verified":"false","restricted":"true","stats":{"checkinsCount":"15","usersCount":"5","tipCount":"0"},"specials":{"count":"0"},"hereNow":{"count":"0"},"referralId":"v-1392478045"},{"id":"4ad87a1ef964a520ab1121e3","name":"MRM Meteorite","contact":{"phone":"+442071538000","formattedPhone":"+44 20 7153 8000"},"location":{"address":"76-80 Southwark St.","lat":"51.50516313735562","lng":"-0.09720325469970703","distance":"105","postalCode":"SE1 0PN","cc":"GB","city":"London","state":"Greater London","country":"United Kingdom"},"categories":[{"id":"4bf58dd8d48988d125941735","name":"Tech Startup","pluralName":"Tech Startups","shortName":"Tech Startup","icon":{"prefix":"https:\/\/ss1.4sqi.net\/img\/categories_v2\/shops\/technology_","suffix":".png"},"primary":"true"}],"verified":"false","restricted":"true","stats":{"checkinsCount":"774","usersCount":"115","tipCount":"5"},"specials":{"count":"0"},"hereNow":{"count":"0"},"referralId":"v-1392478045"}],"confident":"false"}}