{"meta":{"code":"200"},"response":{"venues":[{"id":"4ac518cef964a520f5a520e3","name":"St Paul's Cathedral","contact":{"phone":"+442072468350","formattedPhone":"+44 20 7246 8350","twitter":"stpaulslondon"},"location":{"address":"St. Paul's Church Yard","lat":"51.51368359725126","lng":"-0.09943485260009766","distance":"131","postalCode":"EC4M 8AD","cc":"GB","city":"London","state":"Greater London","country":"United Kingdom"},"categories":[{"id":"4bf58dd8d48988d132941735","name":"Church","pluralName":"Churches","shortName":"Church","icon":{"prefix":"https:\/\/ss1.4sqi.net\/img\/categories_v2\/building\/religious_church_","suffix":".png"},"primary":"true"}],"verified":"false","restricted":"true","stats":{"checkinsCount":"26328","usersCount":"20358","tipCount":"138"},"url":"http:\/\/www.stpauls.co.uk","specials":{"count":"0"},"hereNow":{"count":"10","groups":[{"type":"others","name":"Other people here","count":"10"}]},"referralId":"v-1392478019"},{"id":"4b858c67f964a520d66431e3","name":"Dion Champagne Bar","contact":{"phone":"+442072488880","formattedPhone":"+44 20 7248 8880"},"location":{"address":"65 St Paul's Church Yard","crossStreet":"New Change","lat":"51.514377984568036","lng":"-0.09726762771606445","distance":"38","postalCode":"EC4M 8AB","cc":"GB","city":"London","state":"Greater London","country":"United Kingdom"},"categories":[{"id":"4bf58dd8d48988d116941735","name":"Bar","pluralName":"Bars","shortName":"Bar","icon":{"prefix":"https:\/\/ss1.4sqi.net\/img\/categories_v2\/nightlife\/bar_","suffix":".png"},"primary":"true"}],"verified":"false","restricted":"true","stats":{"checkinsCount":"616","usersCount":"346","tipCount":"10"},"menu":{"type":"Menu","label":"Menu","anchor":"View Menu","url":"https:\/\/foursquare.com\/v\/dion-champagne-bar\/4b858c67f964a520d66431e3\/menu","mobileUrl":"https:\/\/foursquare.com\/v\/4b858c67f964a520d66431e3\/device_menu"},"specials":{"count":"0"},"hereNow":{"count":"0"},"referralId":"v-1392478019"},{"id":"4d8f77893bfef04d3225af86","name":"St Paul's Churchyard","location":{"address":"St. Paul's Churchyard","lat":"51.51328160640716","lng":"-0.09720656923604823","distance":"119","postalCode":"EC4M","cc":"GB","city":"London","state":"Greater London","country":"United Kingdom"},"categories":[{"id":"4bf58dd8d48988d163941735","name":"Park","pluralName":"Parks","shortName":"Park","icon":{"prefix":"https:\/\/ss1.4sqi.net\/img\/categories_v2\/parks_outdoors\/park_","suffix":".png"},"primary":"true"}],"verified":"false","restricted":"true","stats":{"checkinsCount":"3371","usersCount":"2533","tipCount":"11"},"specials":{"count":"0"},"hereNow":{"count":"0"},"referralId":"v-1392478019"},{"id":"515458a7e4b02b4f03b155f6","name":"Artigiano Espresso Bar","contact":{"phone":"+442072480407","formattedPhone":"+44 20 7248 0407","twitter":"artigianoesp"},"location":{"address":"1 Paternoster Square","lat":"51.51422454408193","lng":"-0.09862075146166085","distance":"57","postalCode":"EC4M 7DX","cc":"GB","city":"London","state":"Greater London","country":"United Kingdom"},"categories":[{"id":"4bf58dd8d48988d1e0931735","name":"Coffee Shop","pluralName":"Coffee Shops","shortName":"Coffee Shop","icon":{"prefix":"https:\/\/ss1.4sqi.net\/img\/categories_v2\/food\/coffeeshop_","suffix":".png"},"primary":"true"}],"verified":"false","restricted":"true","stats":{"checkinsCount":"230","usersCount":"114","tipCount":"9"},"specials":{"count":"0"},"hereNow":{"count":"0"},"referralId":"v-1392478019"},{"id":"4b0fe07bf964a520c06523e3","name":"Itsu","contact":{"phone":"+442072489343","formattedPhone":"+44 20 7248 9343","twitter":"itsuofficial","facebook":"115164458642981"},"location":{"address":"4 Paternoster Sq","crossStreet":"St. Paul's","lat":"51.51467176063095","lng":"-0.09776115417480469","distance":"42","postalCode":"EC4M 7DX","cc":"GB","city":"London","state":"Greater London","country":"United Kingdom"},"categories":[{"id":"4bf58dd8d48988d1d2941735","name":"Sushi Restaurant","pluralName":"Sushi Restaurants","shortName":"Sushi","icon":{"prefix":"https:\/\/ss1.4sqi.net\/img\/categories_v2\/food\/sushi_","suffix":".png"},"primary":"true"}],"verified":"true","restricted":"true","stats":{"checkinsCount":"583","usersCount":"299","tipCount":"5"},"url":"http:\/\/www.itsu.com","specials":{"count":"0"},"hereNow":{"count":"0"},"storeId":"","referralId":"v-1392478019"},{"id":"4d42d55e85c1721e4ce4e292","name":"Poncho 8","contact":{"phone":"+442072486744","formattedPhone":"+44 20 7248 6744","twitter":"ponchono8"},"location":{"address":"11 Queens Head Passage","lat":"51.514850856972856","lng":"-0.09850244013873957","distance":"79","postalCode":"EC4M 7DZ","cc":"GB","city":"London","state":"Greater London","country":"United Kingdom"},"categories":[{"id":"4bf58dd8d48988d153941735","name":"Burrito Place","pluralName":"Burrito Places","shortName":"Burritos","icon":{"prefix":"https:\/\/ss1.4sqi.net\/img\/categories_v2\/food\/burrito_","suffix":".png"},"primary":"true"}],"verified":"true","restricted":"true","stats":{"checkinsCount":"931","usersCount":"299","tipCount":"8"},"url":"http:\/\/www.poncho8.com\/locations\/st-pauls\/","menu":{"type":"Menu","label":"Menu","anchor":"View Menu","url":"https:\/\/foursquare.com\/v\/poncho-8\/4d42d55e85c1721e4ce4e292\/menu","mobileUrl":"https:\/\/foursquare.com\/v\/4d42d55e85c1721e4ce4e292\/device_menu"},"specials":{"count":"0"},"hereNow":{"count":"0"},"referralId":"v-1392478019"},{"id":"519e07a3498ef2130cf8946b","name":"Coco di Mama","contact":{"phone":"+442075839277","formattedPhone":"+44 20 7583 9277"},"location":{"address":"8 Queen's Head Passage","lat":"51.51490739461376","lng":"-0.0985544920980094","distance":"86","postalCode":"EC4M 7DZ","cc":"GB","city":"London","state":"Greater London","country":"United Kingdom"},"categories":[{"id":"4bf58dd8d48988d110941735","name":"Italian Restaurant","pluralName":"Italian Restaurants","shortName":"Italian","icon":{"prefix":"https:\/\/ss1.4sqi.net\/img\/categories_v2\/food\/italian_","suffix":".png"},"primary":"true"}],"verified":"false","restricted":"true","stats":{"checkinsCount":"392","usersCount":"68","tipCount":"5"},"url":"http:\/\/cocodimama.co.uk","specials":{"count":"0"},"hereNow":{"count":"0"},"referralId":"v-1392478019"},{"id":"4b28e283f964a520e59524e3","name":"Starbucks","contact":{"twitter":"starbucksuk"},"location":{"address":"Unit 3, 143-144 Cheapside","lat":"51.51456493319091","lng":"-0.09603381156921387","distance":"126","postalCode":"EC2V 6BJ","cc":"GB","city":"London","state":"Greater London","country":"United Kingdom"},"categories":[{"id":"4bf58dd8d48988d1e0931735","name":"Coffee Shop","pluralName":"Coffee Shops","shortName":"Coffee Shop","icon":{"prefix":"https:\/\/ss1.4sqi.net\/img\/categories_v2\/food\/coffeeshop_","suffix":".png"},"primary":"true"}],"verified":"true","restricted":"true","stats":{"checkinsCount":"1752","usersCount":"895","tipCount":"8"},"url":"http:\/\/starbucks.co.uk","specials":{"count":"0"},"hereNow":{"count":"1","groups":[{"type":"others","name":"Other people here","count":"1"}]},"storeId":"12197","referralId":"v-1392478019"},{"id":"4ac518d1f964a520dca620e3","name":"London Stock Exchange","location":{"address":"10 Paternoster Square","lat":"51.51475270748885","lng":"-0.09921312578608416","distance":"110","postalCode":"EC4M 7LS","cc":"GB","city":"London","state":"Greater London","country":"United Kingdom"},"categories":[{"id":"503287a291d4c4b30a586d65","name":"Financial or Legal Service","pluralName":"Financial or Legal Services","shortName":"Financial \/ Legal","icon":{"prefix":"https:\/\/ss1.4sqi.net\/img\/categories_v2\/shops\/financial_","suffix":".png"},"primary":"true"}],"verified":"false","restricted":"true","stats":{"checkinsCount":"1878","usersCount":"754","tipCount":"14"},"specials":{"count":"0"},"hereNow":{"count":"0"},"referralId":"v-1392478019"},{"id":"4acf5c05f964a52036d320e3","name":"BT Centre","contact":{"twitter":"btcare"},"location":{"address":"81 Newgate St","crossStreet":"at Cheapside","lat":"51.51546735524816","lng":"-0.0978854506403571","distance":"131","postalCode":"EC1A 7AJ","cc":"GB","city":"London","state":"Greater London","country":"United Kingdom"},"categories":[{"id":"4bf58dd8d48988d124941735","name":"Office","pluralName":"Offices","shortName":"Office","icon":{"prefix":"https:\/\/ss1.4sqi.net\/img\/categories_v2\/building\/default_","suffix":".png"},"primary":"true"}],"verified":"false","restricted":"true","stats":{"checkinsCount":"5331","usersCount":"725","tipCount":"12"},"url":"http:\/\/www.bt.com\/help","specials":{"count":"0"},"hereNow":{"count":"0"},"referralId":"v-1392478019"},{"id":"4c0cca2dc700c9b69059a1dd","name":"Caff\u00e8 Nero","location":{"address":"Unit 11, St Martin's Court","crossStreet":"Paternoster Square","lat":"51.51500893309526","lng":"-0.09777724742889404","distance":"80","postalCode":"EC4M 8AD","cc":"GB","city":"London","state":"Greater London","country":"United Kingdom"},"categories":[{"id":"4bf58dd8d48988d1e0931735","name":"Coffee Shop","pluralName":"Coffee Shops","shortName":"Coffee Shop","icon":{"prefix":"https:\/\/ss1.4sqi.net\/img\/categories_v2\/food\/coffeeshop_","suffix":".png"},"primary":"true"}],"verified":"false","restricted":"true","stats":{"checkinsCount":"683","usersCount":"505","tipCount":"5"},"specials":{"count":"0"},"hereNow":{"count":"0"},"referralId":"v-1392478019"},{"id":"4b62d706f964a520e2542ae3","name":"Starbucks","contact":{"twitter":"starbucksuk"},"location":{"address":"1 Paternoster Sq.","crossStreet":"Paternoster House","lat":"51.514575","lng":"-0.098969","distance":"86","postalCode":"EC4M 7DX","cc":"GB","city":"London","state":"Greater London","country":"United Kingdom"},"categories":[{"id":"4bf58dd8d48988d1e0931735","name":"Coffee Shop","pluralName":"Coffee Shops","shortName":"Coffee Shop","icon":{"prefix":"https:\/\/ss1.4sqi.net\/img\/categories_v2\/food\/coffeeshop_","suffix":".png"},"primary":"true"}],"verified":"true","restricted":"true","stats":{"checkinsCount":"1530","usersCount":"922","tipCount":"10"},"url":"http:\/\/starbucks.co.uk","specials":{"count":"0"},"hereNow":{"count":"0"},"storeId":"12428","referralId":"v-1392478019"},{"id":"4c5bfa7194fd0f471b42c745","name":"Wasabi","location":{"address":"10 Paternoster Row","crossStreet":"Paternoster Square","lat":"51.514666224648025","lng":"-0.09866840656401328","distance":"73","postalCode":"EC4M 7EJ","cc":"GB","city":"London","state":"Greater London","country":"United Kingdom"},"categories":[{"id":"4bf58dd8d48988d1d2941735","name":"Sushi Restaurant","pluralName":"Sushi Restaurants","shortName":"Sushi","icon":{"prefix":"https:\/\/ss1.4sqi.net\/img\/categories_v2\/food\/sushi_","suffix":".png"},"primary":"true"}],"verified":"false","restricted":"true","stats":{"checkinsCount":"698","usersCount":"264","tipCount":"2"},"specials":{"count":"0"},"hereNow":{"count":"0"},"referralId":"v-1392478019"},{"id":"4b38e190f964a520a45125e3","name":"Paul","contact":{"phone":"+442073294705","formattedPhone":"+44 20 7329 4705"},"location":{"address":"Paternoster Lodge","crossStreet":"Paternoster Square","lat":"51.51412127161648","lng":"-0.09937285689025276","distance":"110","postalCode":"EC4M 7DX","cc":"GB","city":"London","state":"Greater London","country":"United Kingdom"},"categories":[{"id":"4bf58dd8d48988d16a941735","name":"Bakery","pluralName":"Bakeries","shortName":"Bakery","icon":{"prefix":"https:\/\/ss1.4sqi.net\/img\/categories_v2\/food\/bakery_","suffix":".png"},"primary":"true"}],"verified":"false","restricted":"true","stats":{"checkinsCount":"719","usersCount":"505","tipCount":"9"},"specials":{"count":"0"},"hereNow":{"count":"0"},"referralId":"v-1392478019"},{"id":"4b851c21f964a520644c31e3","name":"pod","contact":{"phone":"+442031740399","formattedPhone":"+44 20 3174 0399","twitter":"podlondon"},"location":{"address":"10 St Martin Le Grand","crossStreet":"Cheapside","lat":"51.515125774456045","lng":"-0.09709596633911133","distance":"105","postalCode":"EC1A 4EN","cc":"GB","city":"London","state":"Greater London","country":"United Kingdom"},"categories":[{"id":"4bf58dd8d48988d1bd941735","name":"Salad Place","pluralName":"Salad Shop","shortName":"Salad","icon":{"prefix":"https:\/\/ss1.4sqi.net\/img\/categories_v2\/food\/salad_","suffix":".png"},"primary":"true"}],"verified":"true","restricted":"true","stats":{"checkinsCount":"920","usersCount":"267","tipCount":"9"},"specials":{"count":"0"},"hereNow":{"count":"0"},"storeId":"","referralId":"v-1392478019"},{"id":"50ead4a2e4b0c5df421fa650","name":"AIG","location":{"address":"150 Cheapside","lat":"51.51449336431629","lng":"-0.0964180946191225","distance":"98","cc":"GB","city":"London","state":"Greater London","country":"United Kingdom"},"categories":[{"id":"4bf58dd8d48988d124941735","name":"Office","pluralName":"Offices","shortName":"Office","icon":{"prefix":"https:\/\/ss1.4sqi.net\/img\/categories_v2\/building\/default_","suffix":".png"},"primary":"true"}],"verified":"false","restricted":"true","stats":{"checkinsCount":"247","usersCount":"17","tipCount":"0"},"specials":{"count":"0"},"hereNow":{"count":"0"},"referralId":"v-1392478019"},{"id":"4dff32bae4cdf7246077a9aa","name":"Pilpel","contact":{"phone":"+442072489281","formattedPhone":"+44 20 7248 9281"},"location":{"address":"5 Queens Head Passage","lat":"51.515169233022924","lng":"-0.09848013522702911","distance":"108","postalCode":"EC4M 7DZ","cc":"GB","city":"London","state":"Greater London","country":"United Kingdom"},"categories":[{"id":"4bf58dd8d48988d10b941735","name":"Falafel Restaurant","pluralName":"Falafel Restaurants","shortName":"Falafel","icon":{"prefix":"https:\/\/ss1.4sqi.net\/img\/categories_v2\/food\/falafel_","suffix":".png"},"primary":"true"}],"verified":"false","restricted":"true","stats":{"checkinsCount":"607","usersCount":"214","tipCount":"7"},"url":"http:\/\/www.pilpel.co.uk","specials":{"count":"0"},"hereNow":{"count":"0"},"referralId":"v-1392478019"},{"id":"4b61ca0ef964a520f2222ae3","name":"The Paternoster","contact":{"phone":"+442072484035","formattedPhone":"+44 20 7248 4035","twitter":"paternostersq"},"location":{"address":"Paternoster Square","crossStreet":"2-4 Queens Head Passage","lat":"51.51523598450621","lng":"-0.098750808186851","distance":"124","postalCode":"EC4M 7DZ","cc":"GB","city":"London","state":"Greater London","country":"United Kingdom"},"categories":[{"id":"4bf58dd8d48988d11b941735","name":"Pub","pluralName":"Pubs","shortName":"Pub","icon":{"prefix":"https:\/\/ss1.4sqi.net\/img\/categories_v2\/nightlife\/pub_","suffix":".png"},"primary":"true"}],"verified":"true","restricted":"true","stats":{"checkinsCount":"938","usersCount":"600","tipCount":"6"},"url":"http:\/\/www.thepaternoster.co.uk","specials":{"count":"0"},"hereNow":{"count":"0"},"referralId":"v-1392478019"},{"id":"4af9c2e5f964a520001422e3","name":"Gourmet Burger Kitchen","contact":{"phone":"+442072489199","formattedPhone":"+44 20 7248 9199","twitter":"gbkburgers","facebook":"109876765711105"},"location":{"address":"Unit 4, Condor House","crossStreet":"St Pauls Church Yard","lat":"51.51350999876814","lng":"-0.09943217039108276","distance":"142","postalCode":"EC4M 8AL","cc":"GB","city":"London","state":"Greater London","country":"United Kingdom"},"categories":[{"id":"4bf58dd8d48988d16c941735","name":"Burger Joint","pluralName":"Burger Joints","shortName":"Burgers","icon":{"prefix":"https:\/\/ss1.4sqi.net\/img\/categories_v2\/food\/burger_","suffix":".png"},"primary":"true"}],"verified":"true","restricted":"true","stats":{"checkinsCount":"1110","usersCount":"855","tipCount":"13"},"url":"http:\/\/www.gbk.co.uk","specials":{"count":"0"},"hereNow":{"count":"0"},"storeId":"St Pauls","referralId":"v-1392478019"},{"id":"4b66d782f964a520082d2be3","name":"Corney & Barrow Paternoster Square","contact":{"phone":"+442076189520","formattedPhone":"+44 20 7618 9520","twitter":"corneybarrowbar"},"location":{"address":"10 Paternoster Square","lat":"51.514611","lng":"-0.099017","distance":"91","postalCode":"EC4M 7DY","cc":"GB","city":"London","state":"Greater London","country":"United Kingdom"},"categories":[{"id":"4bf58dd8d48988d123941735","name":"Wine Bar","pluralName":"Wine Bars","shortName":"Wine Bar","icon":{"prefix":"https:\/\/ss1.4sqi.net\/img\/categories_v2\/nightlife\/wine_","suffix":".png"},"primary":"true"}],"verified":"true","restricted":"true","stats":{"checkinsCount":"712","usersCount":"523","tipCount":"2"},"url":"http:\/\/www.corney-barrow.com","specials":{"count":"0"},"hereNow":{"count":"0"},"venuePage":{"id":"38083105"},"storeId":"","referralId":"v-1392478019"},{"id":"4cdbd44b99026dcb7c290f81","name":"St Pauls Station Bus Stop","location":{"address":"City of London, London EC4M 7BB","lat":"51.51499566788093","lng":"-0.09736814335353865","distance":"84","postalCode":"EC4M 7BB","cc":"GB","city":"London","state":"Greater London","country":"United Kingdom"},"categories":[{"id":"4bf58dd8d48988d12b951735","name":"Bus Line","pluralName":"Bus Lines","shortName":"Bus","icon":{"prefix":"https:\/\/ss1.4sqi.net\/img\/categories_v2\/travel\/busstation_","suffix":".png"},"primary":"true"}],"verified":"false","restricted":"true","stats":{"checkinsCount":"353","usersCount":"302","tipCount":"0"},"specials":{"count":"0"},"hereNow":{"count":"0"},"referralId":"v-1392478019"},{"id":"4b5059aef964a5200d2127e3","name":"Pret A Manger","contact":{"phone":"+442079325379","formattedPhone":"+44 20 7932 5379","twitter":"pret","facebook":"162638680417951"},"location":{"address":"10 Paternoster Sq","lat":"51.5146332339","lng":"-0.0994126935506","distance":"117","postalCode":"EC4M 7DY","cc":"GB","city":"Paternoster Square, London","country":"United Kingdom"},"categories":[{"id":"4bf58dd8d48988d1c5941735","name":"Sandwich Place","pluralName":"Sandwich Places","shortName":"Sandwiches","icon":{"prefix":"https:\/\/ss1.4sqi.net\/img\/categories_v2\/food\/sandwiches_","suffix":".png"},"primary":"true"}],"verified":"true","restricted":"true","stats":{"checkinsCount":"626","usersCount":"251","tipCount":"2"},"url":"http:\/\/www.pret.com","specials":{"count":"0"},"hereNow":{"count":"0"},"storeId":"179","referralId":"v-1392478019"},{"id":"4b8fe00ef964a520d86633e3","name":"Haz Restaurant & Cafe","contact":{"phone":"+442076004172","formattedPhone":"+44 20 7600 4172"},"location":{"address":"34 Foster Ln.","lat":"51.5148835965129","lng":"-0.09639135005137035","distance":"118","postalCode":"EC2V 6HD","cc":"GB","city":"London","state":"Greater London","country":"United Kingdom"},"categories":[{"id":"4f04af1f2fb6e1c99f3db0bb","name":"Turkish Restaurant","pluralName":"Turkish Restaurants","shortName":"Turkish","icon":{"prefix":"https:\/\/ss1.4sqi.net\/img\/categories_v2\/food\/turkish_","suffix":".png"},"primary":"true"}],"verified":"false","restricted":"true","stats":{"checkinsCount":"681","usersCount":"495","tipCount":"11"},"menu":{"type":"Menu","label":"Menu","anchor":"View Menu","url":"https:\/\/foursquare.com\/v\/haz-restaurant--cafe\/4b8fe00ef964a520d86633e3\/menu","mobileUrl":"https:\/\/foursquare.com\/v\/4b8fe00ef964a520d86633e3\/device_menu"},"specials":{"count":"0"},"hereNow":{"count":"0"},"referralId":"v-1392478019"},{"id":"4c971d3703413704a6ed89ef","name":"Costa Coffee","location":{"address":"138 Cheapside","lat":"51.514544809125375","lng":"-0.09663773852334442","distance":"85","postalCode":"EC2V 6LB","cc":"GB","city":"London","state":"Greater London","country":"United Kingdom"},"categories":[{"id":"4bf58dd8d48988d1e0931735","name":"Coffee Shop","pluralName":"Coffee Shops","shortName":"Coffee Shop","icon":{"prefix":"https:\/\/ss1.4sqi.net\/img\/categories_v2\/food\/coffeeshop_","suffix":".png"},"primary":"true"}],"verified":"false","restricted":"true","stats":{"checkinsCount":"313","usersCount":"139","tipCount":"4"},"specials":{"count":"0"},"hereNow":{"count":"0"},"referralId":"v-1392478019"},{"id":"4e50d38031510f6fa1a7cbb1","name":"CME Group","location":{"address":"One New Change","lat":"51.514164328059515","lng":"-0.09581923484802246","distance":"138","cc":"GB","city":"London","state":"Greater London","country":"United Kingdom"},"categories":[{"id":"4bf58dd8d48988d124941735","name":"Office","pluralName":"Offices","shortName":"Office","icon":{"prefix":"https:\/\/ss1.4sqi.net\/img\/categories_v2\/building\/default_","suffix":".png"},"primary":"true"}],"verified":"true","restricted":"true","stats":{"checkinsCount":"601","usersCount":"15","tipCount":"1"},"specials":{"count":"0"},"hereNow":{"count":"0"},"referralId":"v-1392478019"},{"id":"4bacbd81f964a52064083be3","name":"BT Centre Connections Cafe","location":{"address":"81 Newgate St","lat":"51.515252358623044","lng":"-0.09733806873150726","distance":"111","cc":"GB","city":"London","state":"Greater London","country":"United Kingdom"},"categories":[{"id":"4bf58dd8d48988d16d941735","name":"Caf\u00e9","pluralName":"Caf\u00e9s","shortName":"Caf\u00e9","icon":{"prefix":"https:\/\/ss1.4sqi.net\/img\/categories_v2\/food\/cafe_","suffix":".png"},"primary":"true"}],"verified":"false","restricted":"true","stats":{"checkinsCount":"579","usersCount":"56","tipCount":"0"},"specials":{"count":"0"},"hereNow":{"count":"0"},"referralId":"v-1392478019"},{"id":"4b964972f964a52011c434e3","name":"Birley Sandwiches","location":{"address":"Paternoster Sq","lat":"51.514795","lng":"-0.099509","distance":"130","postalCode":"EC4M 7BP","cc":"GB","city":"London","state":"Greater London","country":"United Kingdom"},"categories":[{"id":"4bf58dd8d48988d1c5941735","name":"Sandwich Place","pluralName":"Sandwich Places","shortName":"Sandwiches","icon":{"prefix":"https:\/\/ss1.4sqi.net\/img\/categories_v2\/food\/sandwiches_","suffix":".png"},"primary":"true"}],"verified":"false","restricted":"true","stats":{"checkinsCount":"383","usersCount":"135","tipCount":"4"},"specials":{"count":"0"},"hereNow":{"count":"0"},"referralId":"v-1392478019"},{"id":"4cd54c927da9a35da89be8b9","name":"Topshop","contact":{"twitter":"topshop"},"location":{"address":"Unit Msu1","lat":"51.51451823599111","lng":"-0.09636134335702003","distance":"103","postalCode":"EC2V 6AH","cc":"GB","city":"London","state":"Greater London","country":"United Kingdom"},"categories":[{"id":"4bf58dd8d48988d108951735","name":"Women's Store","pluralName":"Women's Stores","shortName":"Women's Store","icon":{"prefix":"https:\/\/ss1.4sqi.net\/img\/categories_v2\/shops\/apparel_women_","suffix":".png"},"primary":"true"}],"verified":"true","restricted":"true","stats":{"checkinsCount":"322","usersCount":"268","tipCount":"1"},"url":"http:\/\/www.topshop.com","specials":{"count":"0"},"hereNow":{"count":"0"},"storeId":"0873","referralId":"v-1392478019"},{"id":"4e467bb852b1bac0d97648d4","name":"St Paul's Golden Gallery","location":{"lat":"51.513639274053276","lng":"-0.09835274890065193","distance":"81","cc":"GB","city":"London","state":"Greater London","country":"United Kingdom"},"categories":[{"id":"4bf58dd8d48988d132941735","name":"Church","pluralName":"Churches","shortName":"Church","icon":{"prefix":"https:\/\/ss1.4sqi.net\/img\/categories_v2\/building\/religious_church_","suffix":".png"},"primary":"true"}],"verified":"false","restricted":"true","stats":{"checkinsCount":"93","usersCount":"90","tipCount":"1"},"specials":{"count":"0"},"hereNow":{"count":"0"},"referralId":"v-1392478019"},{"id":"4e53d89b1495a46b65bc207c","name":"Sanrizz","location":{"lat":"51.51431193323613","lng":"-0.09855238951366944","distance":"51","cc":"GB","city":"London","state":"Greater London","country":"United Kingdom"},"categories":[{"id":"4bf58dd8d48988d110951735","name":"Salon \/ Barbershop","pluralName":"Salons \/ Barbershops","shortName":"Salon \/ Barbershop","icon":{"prefix":"https:\/\/ss1.4sqi.net\/img\/categories_v2\/shops\/salon_barber_","suffix":".png"},"primary":"true"}],"verified":"false","restricted":"true","stats":{"checkinsCount":"18","usersCount":"8","tipCount":"0"},"specials":{"count":"0"},"hereNow":{"count":"0"},"referralId":"v-1392478019"}],"confident":"true"}}