{"meta":{"code":"200"},"response":{"venues":[{"id":"4c08f35cffb8c9b6fafc6861","name":"South Bank","contact":{"twitter":"southbanklondon"},"location":{"address":"Everywhere!","crossStreet":"Southwark","lat":"51.508114762313845","lng":"-0.10956287384033202","distance":"178","postalCode":"SE1 2AA","cc":"GB","city":"London","state":"Greater London","country":"United Kingdom"},"categories":[{"id":"4f2a25ac4b909258e854f55f","name":"Neighborhood","pluralName":"Neighborhoods","shortName":"Neighborhood","icon":{"prefix":"https:\/\/ss1.4sqi.net\/img\/categories_v2\/parks_outdoors\/neighborhood_","suffix":".png"},"primary":"true"}],"verified":"false","restricted":"true","stats":{"checkinsCount":"11156","usersCount":"6515","tipCount":"37"},"url":"http:\/\/www.southbanklondon.com","specials":{"count":"0"},"hereNow":{"count":"1","groups":[{"type":"others","name":"Other people here","count":"1"}]},"referralId":"v-1392478031"},{"id":"4b3e2de8f964a5203c9925e3","name":"Oxo Tower","location":{"address":"South Bank","lat":"51.508368512999866","lng":"-0.10857582092285156","distance":"115","cc":"GB","city":"London","state":"Greater London","country":"United Kingdom"},"categories":[{"id":"4bf58dd8d48988d130941735","name":"Building","pluralName":"Buildings","shortName":"Building","icon":{"prefix":"https:\/\/ss1.4sqi.net\/img\/categories_v2\/building\/default_","suffix":".png"},"primary":"true"}],"verified":"false","restricted":"true","stats":{"checkinsCount":"2377","usersCount":"2044","tipCount":"16"},"specials":{"count":"0"},"hereNow":{"count":"1","groups":[{"type":"others","name":"Other people here","count":"1"}]},"referralId":"v-1392478031"},{"id":"4ac518d5f964a520cda720e3","name":"OXO Tower Brasserie","contact":{"phone":"+442078033888","formattedPhone":"+44 20 7803 3888","twitter":"harveynichols"},"location":{"address":"Barge House St","lat":"51.508405455849164","lng":"-0.10832689376224446","distance":"104","postalCode":"SE1 9PH","cc":"GB","city":"London","state":"Greater London","country":"United Kingdom"},"categories":[{"id":"4bf58dd8d48988d10c941735","name":"French Restaurant","pluralName":"French Restaurants","shortName":"French","icon":{"prefix":"https:\/\/ss1.4sqi.net\/img\/categories_v2\/food\/french_","suffix":".png"},"primary":"true"}],"verified":"true","restricted":"true","stats":{"checkinsCount":"3068","usersCount":"2692","tipCount":"50"},"url":"http:\/\/www.harveynichols.com\/oxo-tower-london-brasserie","specials":{"count":"0"},"hereNow":{"count":"0"},"storeId":"","referralId":"v-1392478031"},{"id":"4ad605f1f964a5208f0421e3","name":"Blackfriars Bridge","location":{"address":"Blackfriars Bridge","lat":"51.509643922676055","lng":"-0.1043701171875","distance":"241","postalCode":"EC4Y","cc":"GB","city":"London","state":"Greater London","country":"United Kingdom"},"categories":[{"id":"4bf58dd8d48988d1df941735","name":"Bridge","pluralName":"Bridges","shortName":"Bridge","icon":{"prefix":"https:\/\/ss1.4sqi.net\/img\/categories_v2\/parks_outdoors\/bridge_","suffix":".png"},"primary":"true"}],"verified":"false","restricted":"true","stats":{"checkinsCount":"5537","usersCount":"2856","tipCount":"9"},"specials":{"count":"0"},"hereNow":{"count":"0"},"referralId":"v-1392478031"},{"id":"52acc4f111d2336a92fe8d18","name":"Oxo Tower Restaurant","location":{"lat":"51.50841102678037","lng":"-0.10808069036490184","distance":"99","cc":"GB","country":"United Kingdom"},"categories":[{"id":"4bf58dd8d48988d1c4941735","name":"Restaurant","pluralName":"Restaurants","shortName":"Restaurant","icon":{"prefix":"https:\/\/ss1.4sqi.net\/img\/categories_v2\/food\/default_","suffix":".png"},"primary":"true"}],"verified":"false","restricted":"true","stats":{"checkinsCount":"55","usersCount":"54","tipCount":"1"},"specials":{"count":"0"},"hereNow":{"count":"0"},"referralId":"v-1392478031"},{"id":"4be56976bcef2d7f00bc03e5","name":"Gallery @ Oxo","location":{"address":"Oxo Tower Wharf","crossStreet":"Bargehouse Street","lat":"51.5083649","lng":"-0.108534","distance":"114","postalCode":"SE1 9PH","cc":"GB","city":"London","state":"Greater London","country":"United Kingdom"},"categories":[{"id":"4bf58dd8d48988d1e2931735","name":"Art Gallery","pluralName":"Art Galleries","shortName":"Art Gallery","icon":{"prefix":"https:\/\/ss1.4sqi.net\/img\/categories_v2\/arts_entertainment\/artgallery_","suffix":".png"},"primary":"true"}],"verified":"false","restricted":"true","stats":{"checkinsCount":"247","usersCount":"220","tipCount":"0"},"specials":{"count":"0"},"hereNow":{"count":"2","groups":[{"type":"others","name":"Other people here","count":"2"}]},"referralId":"v-1392478031"},{"id":"4ad46187f964a520b2e720e3","name":"EAT.","contact":{"phone":"+442076368314","formattedPhone":"+44 20 7636 8314","twitter":"eat_news"},"location":{"address":"Bargehouse St.","lat":"51.50824486666666","lng":"-0.10791599750518799","distance":"116","postalCode":"SE1 9PH","cc":"GB","city":"London","state":"Greater London","country":"United Kingdom"},"categories":[{"id":"4bf58dd8d48988d1c5941735","name":"Sandwich Place","pluralName":"Sandwich Places","shortName":"Sandwiches","icon":{"prefix":"https:\/\/ss1.4sqi.net\/img\/categories_v2\/food\/sandwiches_","suffix":".png"},"primary":"true"}],"verified":"true","restricted":"true","stats":{"checkinsCount":"637","usersCount":"321","tipCount":"13"},"url":"http:\/\/www.eat.co.uk","specials":{"count":"0"},"hereNow":{"count":"0"},"storeId":"EAT - Oxo Tower","referralId":"v-1392478031"},{"id":"4b685ea3f964a52062742be3","name":"HMS President (1918)","contact":{"phone":"+442075831918","formattedPhone":"+44 20 7583 1918"},"location":{"address":"Kings Reach","crossStreet":"Victoria Embankment","lat":"51.51064552828195","lng":"-0.10852217674255371","distance":"159","postalCode":"EC4Y 0HJ","cc":"GB","city":"Temple","state":"Greater London","country":"United Kingdom"},"categories":[{"id":"4bf58dd8d48988d12d941735","name":"Monument \/ Landmark","pluralName":"Monuments \/ Landmarks","shortName":"Landmark","icon":{"prefix":"https:\/\/ss1.4sqi.net\/img\/categories_v2\/building\/government_monument_","suffix":".png"},"primary":"true"}],"verified":"true","restricted":"true","stats":{"checkinsCount":"1496","usersCount":"976","tipCount":"14"},"url":"http:\/\/www.hmspresident.com","specials":{"count":"0"},"hereNow":{"count":"0"},"venuePage":{"id":"41342505"},"storeId":"","referralId":"v-1392478031"},{"id":"4ac518d1f964a520dfa620e3","name":"Gabriel's Wharf","location":{"address":"56 Upper Ground","lat":"51.50790571472677","lng":"-0.11015692486270227","distance":"224","postalCode":"SE1 9PP","cc":"GB","city":"London","state":"Greater London","country":"United Kingdom"},"categories":[{"id":"4bf58dd8d48988d164941735","name":"Plaza","pluralName":"Plazas","shortName":"Plaza","icon":{"prefix":"https:\/\/ss1.4sqi.net\/img\/categories_v2\/parks_outdoors\/plaza_","suffix":".png"},"primary":"true"}],"verified":"false","restricted":"true","stats":{"checkinsCount":"1660","usersCount":"1239","tipCount":"8"},"specials":{"count":"0"},"hereNow":{"count":"0"},"referralId":"v-1392478031"},{"id":"50ec2602e4b0092e1d1be04a","name":"Caff\u00e8 Nero","location":{"address":"Oxo Tower Wharf","lat":"51.50837974461742","lng":"-0.1084420942523352","distance":"110","cc":"GB","city":"London","state":"Greater London","country":"United Kingdom"},"categories":[{"id":"4bf58dd8d48988d16d941735","name":"Caf\u00e9","pluralName":"Caf\u00e9s","shortName":"Caf\u00e9","icon":{"prefix":"https:\/\/ss1.4sqi.net\/img\/categories_v2\/food\/cafe_","suffix":".png"},"primary":"true"}],"verified":"false","restricted":"true","stats":{"checkinsCount":"309","usersCount":"276","tipCount":"3"},"specials":{"count":"0"},"hereNow":{"count":"0"},"referralId":"v-1392478031"},{"id":"503d0e4ce8890057257d91f3","name":"Oxo Tower Bar","contact":{"phone":"+442078033888","formattedPhone":"+44 20 7803 3888","twitter":"harveynichols"},"location":{"address":"OXO Tower Wharf","crossStreet":"Barge House Street, South Bank","lat":"51.508395223516196","lng":"-0.10810375213623047","distance":"101","postalCode":"SE1 9PH","cc":"GB","city":"London","state":"Greater London","country":"United Kingdom"},"categories":[{"id":"4bf58dd8d48988d116941735","name":"Bar","pluralName":"Bars","shortName":"Bar","icon":{"prefix":"https:\/\/ss1.4sqi.net\/img\/categories_v2\/nightlife\/bar_","suffix":".png"},"primary":"true"}],"verified":"true","restricted":"true","stats":{"checkinsCount":"315","usersCount":"297","tipCount":"4"},"specials":{"count":"0"},"hereNow":{"count":"0"},"referralId":"v-1392478031"},{"id":"4c07de0d708c2d7f0da0ca63","name":"Doggett's Coat & Badge","contact":{"phone":"+442076339081","formattedPhone":"+44 20 7633 9081"},"location":{"address":"1 Blackfriars Br","lat":"51.50831509192025","lng":"-0.10509967803955078","distance":"216","postalCode":"SE1 9UD","cc":"GB","city":"London","state":"Greater London","country":"United Kingdom"},"categories":[{"id":"4bf58dd8d48988d11b941735","name":"Pub","pluralName":"Pubs","shortName":"Pub","icon":{"prefix":"https:\/\/ss1.4sqi.net\/img\/categories_v2\/nightlife\/pub_","suffix":".png"},"primary":"true"}],"verified":"false","restricted":"true","stats":{"checkinsCount":"2758","usersCount":"2002","tipCount":"34"},"url":"http:\/\/www.doggettscoatandbadge.co.uk","menu":{"type":"Menu","label":"Menu","anchor":"View Menu","url":"https:\/\/foursquare.com\/v\/doggetts-coat--badge\/4c07de0d708c2d7f0da0ca63\/menu","mobileUrl":"https:\/\/foursquare.com\/v\/4c07de0d708c2d7f0da0ca63\/device_menu"},"specials":{"count":"0"},"hereNow":{"count":"0"},"referralId":"v-1392478031"},{"id":"4c054de273a8c9b6294697e0","name":"Quad Digital","contact":{"phone":"+442073537570","formattedPhone":"+44 20 7353 7570","twitter":"quaddigital","facebook":"194329627277345"},"location":{"address":"HMS President","crossStreet":"Victoria Embankment","lat":"51.51058543256658","lng":"-0.10810375213623047","distance":"145","postalCode":"EC4Y 0HJ","cc":"GB","city":"London","state":"Greater London","country":"United Kingdom"},"categories":[{"id":"4bf58dd8d48988d124941735","name":"Office","pluralName":"Offices","shortName":"Office","icon":{"prefix":"https:\/\/ss1.4sqi.net\/img\/categories_v2\/building\/default_","suffix":".png"},"primary":"true"}],"verified":"true","restricted":"true","stats":{"checkinsCount":"423","usersCount":"39","tipCount":"1"},"url":"http:\/\/www.quaddigital.co.uk","specials":{"count":"0"},"hereNow":{"count":"0"},"venuePage":{"id":"33099536"},"storeId":"","referralId":"v-1392478031"},{"id":"4c21fbbc11de20a13c1084ce","name":"Bernie Spain Gardens","location":{"lat":"51.50807109165663","lng":"-0.10926704694731891","distance":"169","cc":"GB","country":"United Kingdom"},"categories":[{"id":"4bf58dd8d48988d163941735","name":"Park","pluralName":"Parks","shortName":"Park","icon":{"prefix":"https:\/\/ss1.4sqi.net\/img\/categories_v2\/parks_outdoors\/park_","suffix":".png"},"primary":"true"}],"verified":"false","restricted":"true","stats":{"checkinsCount":"472","usersCount":"241","tipCount":"1"},"specials":{"count":"0"},"hereNow":{"count":"0"},"referralId":"v-1392478031"},{"id":"4bee6b07e8c3c928afac9892","name":"The Southbank Observation Point","location":{"address":"58-72 Upper Ground","lat":"51.508259541417665","lng":"-0.1103406016960308","distance":"209","postalCode":"SE1 9LT","cc":"GB","city":"London","state":"Greater London","country":"United Kingdom"},"categories":[{"id":"4bf58dd8d48988d165941735","name":"Scenic Lookout","pluralName":"Scenic Lookouts","shortName":"Scenic Lookout","icon":{"prefix":"https:\/\/ss1.4sqi.net\/img\/categories_v2\/parks_outdoors\/sceniclookout_","suffix":".png"},"primary":"true"}],"verified":"false","restricted":"true","stats":{"checkinsCount":"460","usersCount":"237","tipCount":"1"},"specials":{"count":"0"},"hereNow":{"count":"0"},"referralId":"v-1392478031"},{"id":"4b9e6f8bf964a52091e336e3","name":"Blackfriars Millennium Pier","contact":{"phone":"+443432221234","formattedPhone":"+44 343 222 1234","twitter":"tflofficial","facebook":"212038972186253"},"location":{"address":"The Old Pumphouse, Paul's Walk","lat":"51.51072565577915","lng":"-0.10646224021911621","distance":"184","postalCode":"EC4V 3QR","cc":"GB","city":"London","state":"Greater London","country":"United Kingdom"},"categories":[{"id":"4e74f6cabd41c4836eac4c31","name":"Pier","pluralName":"Pier","shortName":"Pier","icon":{"prefix":"https:\/\/ss1.4sqi.net\/img\/categories_v2\/travel\/ferry_pier_","suffix":".png"},"primary":"true"}],"verified":"true","restricted":"true","stats":{"checkinsCount":"802","usersCount":"514","tipCount":"5"},"url":"http:\/\/www.tfl.gov.uk\/river","specials":{"count":"0"},"hereNow":{"count":"0"},"storeId":"","referralId":"v-1392478031"},{"id":"4bbe1dfc0ec69c74a8da5559","name":"Bargehouse Gallery","location":{"address":"Bargehouse St.","lat":"51.50809049606323","lng":"-0.108327","distance":"138","postalCode":"SE1 9PH","cc":"GB","city":"Southbank","state":"Greater London","country":"United Kingdom"},"categories":[{"id":"4bf58dd8d48988d1e2931735","name":"Art Gallery","pluralName":"Art Galleries","shortName":"Art Gallery","icon":{"prefix":"https:\/\/ss1.4sqi.net\/img\/categories_v2\/arts_entertainment\/artgallery_","suffix":".png"},"primary":"true"}],"verified":"false","restricted":"true","stats":{"checkinsCount":"141","usersCount":"130","tipCount":"0"},"specials":{"count":"0"},"hereNow":{"count":"0"},"referralId":"v-1392478031"},{"id":"4e3a9975814dc81109d6e5c5","name":"OMN London","contact":{"phone":"+442073537570","formattedPhone":"+44 20 7353 7570","twitter":"gusquad"},"location":{"address":"HMS President, King's Reach","crossStreet":"Victoria Embankment","lat":"51.51071897849308","lng":"-0.10741710662841797","distance":"161","postalCode":"EC4Y 0HJ","cc":"GB","city":"London","state":"Greater London","country":"United Kingdom"},"categories":[{"id":"4bf58dd8d48988d171941735","name":"Event Space","pluralName":"Event Spaces","shortName":"Event Space","icon":{"prefix":"https:\/\/ss1.4sqi.net\/img\/categories_v2\/building\/eventspace_","suffix":".png"},"primary":"true"}],"verified":"true","restricted":"true","stats":{"checkinsCount":"50","usersCount":"25","tipCount":"0"},"url":"http:\/\/www.quad-london.co.uk","specials":{"count":"0"},"hereNow":{"count":"0"},"venuePage":{"id":"33099533"},"storeId":"","referralId":"v-1392478031"},{"id":"4ac518e6f964a52019ab20e3","name":"Gourmet Pizza Co.","contact":{"phone":"+442079283188","formattedPhone":"+44 20 7928 3188"},"location":{"address":"59-65 Upper Ground","lat":"51.50813172003565","lng":"-0.11013970709753636","distance":"206","postalCode":"SE1 9PP","cc":"GB","city":"London","state":"Greater London","country":"United Kingdom"},"categories":[{"id":"4bf58dd8d48988d1ca941735","name":"Pizza Place","pluralName":"Pizza Places","shortName":"Pizza","icon":{"prefix":"https:\/\/ss1.4sqi.net\/img\/categories_v2\/food\/pizza_","suffix":".png"},"primary":"true"}],"verified":"false","restricted":"true","stats":{"checkinsCount":"1113","usersCount":"928","tipCount":"23"},"menu":{"type":"Menu","label":"Menu","anchor":"View Menu","url":"https:\/\/foursquare.com\/v\/gourmet-pizza-co\/4ac518e6f964a52019ab20e3\/menu","mobileUrl":"https:\/\/foursquare.com\/v\/4ac518e6f964a52019ab20e3\/device_menu"},"specials":{"count":"0"},"hereNow":{"count":"0"},"referralId":"v-1392478031"},{"id":"4c839fd2d92ea0933e5b5572","name":"The Wharf","contact":{"phone":"+442074017314","formattedPhone":"+44 20 7401 7314"},"location":{"address":"56 Upper Ground","crossStreet":"Gabriel's Wharf","lat":"51.50816765431959","lng":"-0.11023169741322685","distance":"209","postalCode":"SE1 9PP","cc":"GB","city":"London","state":"Greater London","country":"United Kingdom"},"categories":[{"id":"4bf58dd8d48988d10c941735","name":"French Restaurant","pluralName":"French Restaurants","shortName":"French","icon":{"prefix":"https:\/\/ss1.4sqi.net\/img\/categories_v2\/food\/french_","suffix":".png"},"primary":"true"}],"verified":"false","restricted":"true","stats":{"checkinsCount":"642","usersCount":"576","tipCount":"23"},"specials":{"count":"0"},"hereNow":{"count":"0"},"referralId":"v-1392478031"},{"id":"50c0960fe4b0d73f853504aa","name":"Dorset House","location":{"address":"Stamford Street","lat":"51.50712861975948","lng":"-0.10649837584979262","distance":"256","postalCode":"SE1 9PY","cc":"GB","city":"London","state":"Greater London","country":"United Kingdom"},"categories":[{"id":"4bf58dd8d48988d124941735","name":"Office","pluralName":"Offices","shortName":"Office","icon":{"prefix":"https:\/\/ss1.4sqi.net\/img\/categories_v2\/building\/default_","suffix":".png"},"primary":"true"}],"verified":"false","restricted":"true","stats":{"checkinsCount":"287","usersCount":"25","tipCount":"0"},"specials":{"count":"0"},"hereNow":{"count":"0"},"referralId":"v-1392478031"},{"id":"4b9f4d35f964a520a21b37e3","name":"Jam's Sandwich Bar","contact":{"phone":"+442079286450","formattedPhone":"+44 20 7928 6450"},"location":{"address":"Enterprise House","crossStreet":"Hatfields","lat":"51.50751376820967","lng":"-0.10756731033325195","distance":"198","postalCode":"SE1 9PQ","cc":"GB","city":"Southwark","state":"Greater London","country":"United Kingdom"},"categories":[{"id":"4bf58dd8d48988d1c5941735","name":"Sandwich Place","pluralName":"Sandwich Places","shortName":"Sandwiches","icon":{"prefix":"https:\/\/ss1.4sqi.net\/img\/categories_v2\/food\/sandwiches_","suffix":".png"},"primary":"true"}],"verified":"false","restricted":"true","stats":{"checkinsCount":"276","usersCount":"41","tipCount":"2"},"specials":{"count":"0"},"hereNow":{"count":"0"},"referralId":"v-1392478031"},{"id":"4d5e4bb59be02c0f2b1dce74","name":"Dr. Inks","contact":{"phone":"+442079281154","formattedPhone":"+44 20 7928 1154"},"location":{"address":"52 Stamford St","crossStreet":"at Hatfields","lat":"51.50719005955282","lng":"-0.10733551877461543","distance":"235","postalCode":"SE1 9LY","cc":"GB","city":"Southwark","state":"Greater London","country":"United Kingdom"},"categories":[{"id":"4bf58dd8d48988d116941735","name":"Bar","pluralName":"Bars","shortName":"Bar","icon":{"prefix":"https:\/\/ss1.4sqi.net\/img\/categories_v2\/nightlife\/bar_","suffix":".png"},"primary":"true"}],"verified":"false","restricted":"true","stats":{"checkinsCount":"631","usersCount":"281","tipCount":"7"},"specials":{"count":"0"},"hereNow":{"count":"0"},"referralId":"v-1392478031"},{"id":"51890fcf498ea8c4c3a4438a","name":"KPMG Thames Clipper","location":{"lat":"51.50807723219557","lng":"-0.10636125746618703","distance":"167","cc":"GB","country":"United Kingdom"},"categories":[{"id":"4bf58dd8d48988d12d951735","name":"Boat or Ferry","pluralName":"Boats or Ferries","shortName":"Boat \/ Ferry","icon":{"prefix":"https:\/\/ss1.4sqi.net\/img\/categories_v2\/travel\/boat_","suffix":".png"},"primary":"true"}],"verified":"false","restricted":"true","stats":{"checkinsCount":"121","usersCount":"104","tipCount":"2"},"specials":{"count":"0"},"hereNow":{"count":"0"},"referralId":"v-1392478031"},{"id":"4c42f5e4d691c9b6bf0e8f0a","name":"Oxo Tower Wharf Pier","location":{"lat":"51.508614","lng":"-0.108727","distance":"98","cc":"GB","country":"United Kingdom"},"categories":[{"id":"4bf58dd8d48988d165941735","name":"Scenic Lookout","pluralName":"Scenic Lookouts","shortName":"Scenic Lookout","icon":{"prefix":"https:\/\/ss1.4sqi.net\/img\/categories_v2\/parks_outdoors\/sceniclookout_","suffix":".png"},"primary":"true"}],"verified":"false","restricted":"true","stats":{"checkinsCount":"160","usersCount":"140","tipCount":"0"},"specials":{"count":"0"},"hereNow":{"count":"0"},"referralId":"v-1392478031"},{"id":"520375e1498e3cff74f57f29","name":"NIcholson's Freehouse","location":{"address":"1 Blackfriars Bridge","lat":"51.508598552538174","lng":"-0.1049247621002862","distance":"213","cc":"GB","city":"London","state":"Greater London","country":"United Kingdom"},"categories":[{"id":"4bf58dd8d48988d11b941735","name":"Pub","pluralName":"Pubs","shortName":"Pub","icon":{"prefix":"https:\/\/ss1.4sqi.net\/img\/categories_v2\/nightlife\/pub_","suffix":".png"},"primary":"true"}],"verified":"false","restricted":"true","stats":{"checkinsCount":"66","usersCount":"64","tipCount":"2"},"specials":{"count":"0"},"hereNow":{"count":"0"},"referralId":"v-1392478031"},{"id":"52cd618d498e5fa867903c85","name":"Camel Bench","location":{"lat":"51.51096563701433","lng":"-0.1096285858595165","distance":"225","cc":"GB","country":"United Kingdom"},"categories":[{"id":"4bf58dd8d48988d165941735","name":"Scenic Lookout","pluralName":"Scenic Lookouts","shortName":"Scenic Lookout","icon":{"prefix":"https:\/\/ss1.4sqi.net\/img\/categories_v2\/parks_outdoors\/sceniclookout_","suffix":".png"},"primary":"true"}],"verified":"false","restricted":"true","stats":{"checkinsCount":"17","usersCount":"7","tipCount":"0"},"specials":{"count":"0"},"hereNow":{"count":"0"},"referralId":"v-1392478031"},{"id":"4b2a2cfef964a520cca524e3","name":"Pret A Manger","contact":{"phone":"+442079325295","formattedPhone":"+44 20 7932 5295","twitter":"pret","facebook":"162638680417951"},"location":{"address":"58-60 Stamford St.","lat":"51.5071090337","lng":"-0.107730382056","distance":"242","postalCode":"SE1 9LX","cc":"GB","city":"Southwark","state":"Greater London","country":"United Kingdom"},"categories":[{"id":"4bf58dd8d48988d1c5941735","name":"Sandwich Place","pluralName":"Sandwich Places","shortName":"Sandwiches","icon":{"prefix":"https:\/\/ss1.4sqi.net\/img\/categories_v2\/food\/sandwiches_","suffix":".png"},"primary":"true"}],"verified":"true","restricted":"true","stats":{"checkinsCount":"1096","usersCount":"306","tipCount":"5"},"url":"http:\/\/www.pret.com","specials":{"count":"0"},"hereNow":{"count":"0"},"storeId":"95","referralId":"v-1392478031"},{"id":"4ac518bbf964a52058a220e3","name":"Studio Six","contact":{"phone":"+442079286243","formattedPhone":"+44 20 7928 6243"},"location":{"address":"56 Upper Ground","lat":"51.50757754677806","lng":"-0.11004023775294897","distance":"245","postalCode":"SE1 9PP","cc":"GB","city":"London","state":"Greater London","country":"United Kingdom"},"categories":[{"id":"4bf58dd8d48988d1c4941735","name":"Restaurant","pluralName":"Restaurants","shortName":"Restaurant","icon":{"prefix":"https:\/\/ss1.4sqi.net\/img\/categories_v2\/food\/default_","suffix":".png"},"primary":"true"}],"verified":"false","restricted":"true","stats":{"checkinsCount":"951","usersCount":"715","tipCount":"17"},"specials":{"count":"0"},"hereNow":{"count":"0"},"referralId":"v-1392478031"},{"id":"52e26432498e313c8d4479b5","name":"Sotis Studio Ceramics","location":{"address":"Oxo Tower","lat":"51.50890231050655","lng":"-0.10954013080395508","distance":"127","cc":"GB","country":"United Kingdom"},"categories":[{"id":"4bf58dd8d48988d1e2931735","name":"Art Gallery","pluralName":"Art Galleries","shortName":"Art Gallery","icon":{"prefix":"https:\/\/ss1.4sqi.net\/img\/categories_v2\/arts_entertainment\/artgallery_","suffix":".png"},"primary":"true"}],"verified":"false","restricted":"true","stats":{"checkinsCount":"1","usersCount":"1","tipCount":"0"},"specials":{"count":"0"},"hereNow":{"count":"0"},"referralId":"v-1392478031"}],"confident":"true"}}