{"meta":{"code":"200"},"response":{"venues":[{"id":"4ac518cef964a520f8a520e3","name":"Tower Bridge","contact":{"phone":"+442074033761","formattedPhone":"+44 20 7403 3761","twitter":"towerbridge"},"location":{"address":"Tower Bridge Rd","lat":"51.50576416246527","lng":"-0.07525205612182617","distance":"236","postalCode":"SE1 2UP","cc":"GB","city":"London","state":"Greater London","country":"United Kingdom"},"categories":[{"id":"4bf58dd8d48988d1df941735","name":"Bridge","pluralName":"Bridges","shortName":"Bridge","icon":{"prefix":"https:\/\/ss1.4sqi.net\/img\/categories_v2\/parks_outdoors\/bridge_","suffix":".png"},"primary":"true"}],"verified":"false","restricted":"true","stats":{"checkinsCount":"34024","usersCount":"24563","tipCount":"145"},"url":"http:\/\/www.towerbridge.org.uk","specials":{"count":"0"},"hereNow":{"count":"8","groups":[{"type":"others","name":"Other people here","count":"8"}]},"referralId":"v-1392478047"},{"id":"4ac518d2f964a52042a720e3","name":"Design Museum","contact":{"phone":"+442074036933","formattedPhone":"+44 20 7403 6933","twitter":"designmuseum"},"location":{"address":"28 Shad Thames","lat":"51.502652102264484","lng":"-0.07184028625488281","distance":"194","postalCode":"SE1 2YD","cc":"GB","city":"London","state":"Greater London","country":"United Kingdom"},"categories":[{"id":"4bf58dd8d48988d18f941735","name":"Art Museum","pluralName":"Art Museums","shortName":"Art Museum","icon":{"prefix":"https:\/\/ss1.4sqi.net\/img\/categories_v2\/arts_entertainment\/museum_art_","suffix":".png"},"primary":"true"}],"verified":"true","restricted":"true","stats":{"checkinsCount":"5074","usersCount":"4029","tipCount":"69"},"url":"https:\/\/www.facebook.com\/designmuseum","specials":{"count":"0"},"hereNow":{"count":"5","groups":[{"type":"others","name":"Other people here","count":"5"}]},"venuePage":{"id":"52299850"},"storeId":"","referralId":"v-1392478047"},{"id":"4bf67f50bfeac92812639436","name":"All Bar One","contact":{"phone":"+442079409771","formattedPhone":"+44 20 7940 9771"},"location":{"address":"Butlers Wharf","lat":"51.5032898915735","lng":"-0.07255375385284424","distance":"112","postalCode":"SE1 2YG","cc":"GB","city":"Camberwell","state":"Greater London","country":"United Kingdom"},"categories":[{"id":"4bf58dd8d48988d116941735","name":"Bar","pluralName":"Bars","shortName":"Bar","icon":{"prefix":"https:\/\/ss1.4sqi.net\/img\/categories_v2\/nightlife\/bar_","suffix":".png"},"primary":"true"}],"verified":"false","restricted":"true","stats":{"checkinsCount":"1614","usersCount":"1174","tipCount":"19"},"url":"http:\/\/www.allbarone.co.uk","specials":{"count":"0"},"hereNow":{"count":"1","groups":[{"type":"others","name":"Other people here","count":"1"}]},"referralId":"v-1392478047"},{"id":"4ac518dcf964a52029a920e3","name":"Butlers Wharf Chop House","contact":{"phone":"+442074033403","formattedPhone":"+44 20 7403 3403","twitter":"danddlondon"},"location":{"address":"36e Shad Thames","lat":"51.5042955636164","lng":"-0.0741286963844758","distance":"91","postalCode":"SE1 2YE","cc":"GB","city":"London","state":"Greater London","country":"United Kingdom"},"categories":[{"id":"4bf58dd8d48988d1c4941735","name":"Restaurant","pluralName":"Restaurants","shortName":"Restaurant","icon":{"prefix":"https:\/\/ss1.4sqi.net\/img\/categories_v2\/food\/default_","suffix":".png"},"primary":"true"}],"verified":"true","restricted":"true","stats":{"checkinsCount":"733","usersCount":"604","tipCount":"14"},"url":"http:\/\/www.chophouse-restaurant.co.uk","reservations":{"url":"http:\/\/www.toptable.co.uk\/single.aspx?rid=81907&ref=9601"},"menu":{"type":"Menu","label":"Menu","anchor":"View Menu","url":"https:\/\/foursquare.com\/v\/butlers-wharf-chop-house\/4ac518dcf964a52029a920e3\/menu","mobileUrl":"https:\/\/foursquare.com\/v\/4ac518dcf964a52029a920e3\/device_menu"},"specials":{"count":"0"},"hereNow":{"count":"0"},"storeId":"","referralId":"v-1392478047"},{"id":"4cc1a37b1da0a1cd2a539bc6","name":"Butler's Wharf","location":{"address":"Shad Thames","lat":"51.50377407121408","lng":"-0.0743722915649414","distance":"122","postalCode":"SE1 2LZ","cc":"GB","city":"Horsleydown","state":"Greater London","country":"United Kingdom"},"categories":[{"id":"4bf58dd8d48988d1e0941735","name":"Harbor \/ Marina","pluralName":"Harbors \/ Marinas","shortName":"Harbor \/ Marina","icon":{"prefix":"https:\/\/ss1.4sqi.net\/img\/categories_v2\/parks_outdoors\/harbor_","suffix":".png"},"primary":"true"}],"verified":"false","restricted":"true","stats":{"checkinsCount":"1272","usersCount":"491","tipCount":"2"},"specials":{"count":"0"},"hereNow":{"count":"0"},"referralId":"v-1392478047"},{"id":"4acf7f59f964a5201ad420e3","name":"Teapod","contact":{"phone":"+442074070000","formattedPhone":"+44 20 7407 0000","twitter":"teapodse1"},"location":{"address":"31 Shad Thames","crossStreet":"btwn Lafone St. & Curlew St.","lat":"51.503654","lng":"-0.073995","distance":"108","postalCode":"SE1 2YR","cc":"GB","city":"Bermondsey","state":"Greater London","country":"United Kingdom"},"categories":[{"id":"4bf58dd8d48988d1dc931735","name":"Tea Room","pluralName":"Tea Rooms","shortName":"Tea Room","icon":{"prefix":"https:\/\/ss1.4sqi.net\/img\/categories_v2\/food\/tearoom_","suffix":".png"},"primary":"true"}],"verified":"false","restricted":"true","stats":{"checkinsCount":"962","usersCount":"500","tipCount":"29"},"menu":{"type":"Menu","label":"Menu","anchor":"View Menu","url":"https:\/\/foursquare.com\/v\/teapod\/4acf7f59f964a5201ad420e3\/menu","mobileUrl":"https:\/\/foursquare.com\/v\/4acf7f59f964a5201ad420e3\/device_menu"},"specials":{"count":"0"},"hereNow":{"count":"0"},"referralId":"v-1392478047"},{"id":"4ac518cff964a5205ca620e3","name":"Tower Bridge Exhibition","location":{"address":"Tower Bridge","lat":"51.50588337870344","lng":"-0.07534906476635517","distance":"250","postalCode":"SE1 2UP","cc":"GB","city":"London","state":"Greater London","country":"United Kingdom"},"categories":[{"id":"4bf58dd8d48988d181941735","name":"Museum","pluralName":"Museums","shortName":"Museum","icon":{"prefix":"https:\/\/ss1.4sqi.net\/img\/categories_v2\/arts_entertainment\/museum_","suffix":".png"},"primary":"true"}],"verified":"false","restricted":"true","stats":{"checkinsCount":"1061","usersCount":"1013","tipCount":"14"},"specials":{"count":"0"},"hereNow":{"count":"2","groups":[{"type":"others","name":"Other people here","count":"2"}]},"referralId":"v-1392478047"},{"id":"4b5d5774f964a5205a5a29e3","name":"Starbucks","contact":{"twitter":"starbucksuk"},"location":{"address":"49 Shad Thames, Tower Bridge Piazza","crossStreet":"At Tower Bridge Piazza","lat":"51.503907637106174","lng":"-0.0757455825805664","distance":"208","postalCode":"SE1 2NJ","cc":"GB","city":"London","state":"Greater London","country":"United Kingdom"},"categories":[{"id":"4bf58dd8d48988d1e0931735","name":"Coffee Shop","pluralName":"Coffee Shops","shortName":"Coffee Shop","icon":{"prefix":"https:\/\/ss1.4sqi.net\/img\/categories_v2\/food\/coffeeshop_","suffix":".png"},"primary":"true"}],"verified":"true","restricted":"true","stats":{"checkinsCount":"2676","usersCount":"1215","tipCount":"8"},"url":"http:\/\/starbucks.co.uk","specials":{"count":"0"},"hereNow":{"count":"0"},"storeId":"12179","referralId":"v-1392478047"},{"id":"522c54b911d2add47a059516","name":"Themse","location":{"lat":"51.505973648576834","lng":"-0.07285433581301529","distance":"187","cc":"GB","country":"United Kingdom"},"categories":[{"id":"4eb1d4dd4b900d56c88a45fd","name":"River","pluralName":"Rivers","shortName":"River","icon":{"prefix":"https:\/\/ss1.4sqi.net\/img\/categories_v2\/parks_outdoors\/river_","suffix":".png"},"primary":"true"}],"verified":"false","restricted":"true","stats":{"checkinsCount":"15","usersCount":"13","tipCount":"0"},"specials":{"count":"0"},"hereNow":{"count":"0"},"referralId":"v-1392478047"},{"id":"4c9cfa247c096dcb39aec6d1","name":"Shad Thames","location":{"lat":"51.50278567144511","lng":"-0.07128238677978516","distance":"197","postalCode":"SE1","cc":"GB","city":"Bermondsey","state":"Greater London","country":"United Kingdom"},"categories":[{"id":"4bf58dd8d48988d164941735","name":"Plaza","pluralName":"Plazas","shortName":"Plaza","icon":{"prefix":"https:\/\/ss1.4sqi.net\/img\/categories_v2\/parks_outdoors\/plaza_","suffix":".png"},"primary":"true"}],"verified":"false","restricted":"true","stats":{"checkinsCount":"1636","usersCount":"420","tipCount":"6"},"specials":{"count":"0"},"hereNow":{"count":"0"},"referralId":"v-1392478047"},{"id":"4f361287be770642eab9a380","name":"Le Pont de La Tour: Restaurant","contact":{"phone":"+442074038403","formattedPhone":"+44 20 7403 8403","twitter":"danddlondon"},"location":{"address":"36d Shad Thames","crossStreet":"The Butlers Wharf","lat":"51.503480224873485","lng":"-0.07332086563110352","distance":"96","postalCode":"SE1 2YE","cc":"GB","city":"London","state":"Greater London","country":"United Kingdom"},"categories":[{"id":"4bf58dd8d48988d10c941735","name":"French Restaurant","pluralName":"French Restaurants","shortName":"French","icon":{"prefix":"https:\/\/ss1.4sqi.net\/img\/categories_v2\/food\/french_","suffix":".png"},"primary":"true"}],"verified":"true","restricted":"true","stats":{"checkinsCount":"491","usersCount":"403","tipCount":"7"},"url":"http:\/\/www.lepontdelatour.co.uk","reservations":{"url":"http:\/\/www.toptable.co.uk\/single.aspx?rid=80512&ref=9601"},"menu":{"type":"Menu","label":"Menu","anchor":"View Menu","url":"https:\/\/foursquare.com\/v\/le-pont-de-la-tour-restaurant\/4f361287be770642eab9a380\/menu","mobileUrl":"https:\/\/foursquare.com\/v\/4f361287be770642eab9a380\/device_menu"},"specials":{"count":"0"},"hereNow":{"count":"0"},"storeId":"","referralId":"v-1392478047"},{"id":"4be41c9a2457a59378bfa915","name":"Cantina Del Ponte","contact":{"phone":"+442074035403","formattedPhone":"+44 20 7403 5403","twitter":"danddlondon"},"location":{"address":"36c Shad Thames","lat":"51.50365940923086","lng":"-0.07303189910642181","distance":"71","postalCode":"SE1 2YE","cc":"GB","city":"Bermondsey","state":"Greater London","country":"United Kingdom"},"categories":[{"id":"4bf58dd8d48988d110941735","name":"Italian Restaurant","pluralName":"Italian Restaurants","shortName":"Italian","icon":{"prefix":"https:\/\/ss1.4sqi.net\/img\/categories_v2\/food\/italian_","suffix":".png"},"primary":"true"}],"verified":"true","restricted":"true","stats":{"checkinsCount":"410","usersCount":"362","tipCount":"7"},"url":"http:\/\/www.cantinadelponte.co.uk","reservations":{"url":"http:\/\/www.toptable.co.uk\/single.aspx?rid=80524&ref=9601"},"menu":{"type":"Menu","label":"Menu","anchor":"View Menu","url":"https:\/\/foursquare.com\/v\/cantina-del-ponte\/4be41c9a2457a59378bfa915\/menu","mobileUrl":"https:\/\/foursquare.com\/v\/4be41c9a2457a59378bfa915\/device_menu"},"specials":{"count":"0"},"hereNow":{"count":"0"},"storeId":"Cantina","referralId":"v-1392478047"},{"id":"4b3b7379f964a520077425e3","name":"ASK Italian","contact":{"phone":"+441702433974","formattedPhone":"+44 1702 433974","twitter":"askitalian"},"location":{"address":"Shad Thames","lat":"51.503249585796","lng":"-0.07204406081486582","distance":"127","postalCode":"SS1 1TJ","cc":"GB","city":"London","state":"Greater London","country":"United Kingdom"},"categories":[{"id":"4bf58dd8d48988d1ca941735","name":"Pizza Place","pluralName":"Pizza Places","shortName":"Pizza","icon":{"prefix":"https:\/\/ss1.4sqi.net\/img\/categories_v2\/food\/pizza_","suffix":".png"},"primary":"true"}],"verified":"true","restricted":"true","stats":{"checkinsCount":"488","usersCount":"373","tipCount":"13"},"url":"http:\/\/www.askitalian.co.uk","specials":{"count":"0"},"hereNow":{"count":"1","groups":[{"type":"others","name":"Other people here","count":"1"}]},"storeId":"","referralId":"v-1392478047"},{"id":"4b6c1568f964a520f2222ce3","name":"Tower Bridge Piazza","location":{"address":"Shad Thames","crossStreet":"at Horselydown Ln","lat":"51.50369393149093","lng":"-0.07557392120361328","distance":"203","postalCode":"SE1 2LH","cc":"GB","city":"Butler's Wharf","state":"Greater London","country":"United Kingdom"},"categories":[{"id":"4bf58dd8d48988d165941735","name":"Scenic Lookout","pluralName":"Scenic Lookouts","shortName":"Scenic Lookout","icon":{"prefix":"https:\/\/ss1.4sqi.net\/img\/categories_v2\/parks_outdoors\/sceniclookout_","suffix":".png"},"primary":"true"}],"verified":"false","restricted":"true","stats":{"checkinsCount":"2397","usersCount":"531","tipCount":"2"},"specials":{"count":"0"},"hereNow":{"count":"0"},"referralId":"v-1392478047"},{"id":"4b5b0129f964a52058de28e3","name":"PizzaExpress","contact":{"phone":"+442074038484","formattedPhone":"+44 20 7403 8484","twitter":"pizzaexpress"},"location":{"address":"The Cardamom Building","lat":"51.50364844","lng":"-0.074344955","distance":"128","postalCode":"SE1 2YR","cc":"GB","city":"31 Shad Thames","state":"Greater London","country":"United Kingdom"},"categories":[{"id":"4bf58dd8d48988d1ca941735","name":"Pizza Place","pluralName":"Pizza Places","shortName":"Pizza","icon":{"prefix":"https:\/\/ss1.4sqi.net\/img\/categories_v2\/food\/pizza_","suffix":".png"},"primary":"true"}],"verified":"true","restricted":"true","stats":{"checkinsCount":"475","usersCount":"395","tipCount":"5"},"url":"http:\/\/www.pizzaexpress.com","specials":{"count":"0"},"hereNow":{"count":"0"},"storeId":"","referralId":"v-1392478047"},{"id":"4adf8060f964a5202b7b21e3","name":"The Dean Swift","contact":{"phone":"+442073570748","formattedPhone":"+44 20 7357 0748","twitter":"deanswiftse1"},"location":{"address":"10 Gainsford St","crossStreet":"at Lafone St","lat":"51.502801074536045","lng":"-0.07513454866234609","distance":"231","postalCode":"SE1 2NE","cc":"GB","city":"Southwark","state":"Greater London","country":"United Kingdom"},"categories":[{"id":"4bf58dd8d48988d11b941735","name":"Pub","pluralName":"Pubs","shortName":"Pub","icon":{"prefix":"https:\/\/ss1.4sqi.net\/img\/categories_v2\/nightlife\/pub_","suffix":".png"},"primary":"true"}],"verified":"false","restricted":"true","stats":{"checkinsCount":"1591","usersCount":"621","tipCount":"27"},"url":"http:\/\/www.thedeanswift.com","menu":{"type":"Menu","label":"Menu","anchor":"View Menu","url":"https:\/\/foursquare.com\/v\/the-dean-swift\/4adf8060f964a5202b7b21e3\/menu","mobileUrl":"https:\/\/foursquare.com\/v\/4adf8060f964a5202b7b21e3\/device_menu"},"specials":{"count":"0"},"hereNow":{"count":"0"},"referralId":"v-1392478047"},{"id":"528bc29e11d2fbb7d6db016d","name":"Wheat Wharf","location":{"lat":"51.50292592970831","lng":"-0.07258310818936552","distance":"152","cc":"GB","country":"United Kingdom"},"categories":[{"id":"4f2a210c4b9023bd5841ed28","name":"Housing Development","pluralName":"Housing Developments","shortName":"Housing Development","icon":{"prefix":"https:\/\/ss1.4sqi.net\/img\/categories_v2\/building\/housingdevelopment_","suffix":".png"},"primary":"true"}],"verified":"false","restricted":"true","stats":{"checkinsCount":"56","usersCount":"2","tipCount":"0"},"specials":{"count":"0"},"hereNow":{"count":"0"},"referralId":"v-1392478047"},{"id":"4c8b977b9ef0224b9c77657b","name":"St Katharine Pier","location":{"lat":"51.50631738506345","lng":"-0.07364046249985104","distance":"233","cc":"GB","country":"United Kingdom"},"categories":[{"id":"4bf58dd8d48988d12d951735","name":"Boat or Ferry","pluralName":"Boats or Ferries","shortName":"Boat \/ Ferry","icon":{"prefix":"https:\/\/ss1.4sqi.net\/img\/categories_v2\/travel\/boat_","suffix":".png"},"primary":"true"}],"verified":"false","restricted":"true","stats":{"checkinsCount":"532","usersCount":"375","tipCount":"2"},"specials":{"count":"0"},"hereNow":{"count":"0"},"referralId":"v-1392478047"},{"id":"4ac518e3f964a520c3aa20e3","name":"Blueprint Caf\u00e9","contact":{"phone":"+442073787031","formattedPhone":"+44 20 7378 7031","twitter":"danddlondon"},"location":{"address":"28 Shad Thames","lat":"51.50305280863189","lng":"-0.07184028625488281","distance":"152","postalCode":"SE1 2YD","cc":"GB","city":"Bermondsey","state":"Greater London","country":"United Kingdom"},"categories":[{"id":"4bf58dd8d48988d1c4941735","name":"Restaurant","pluralName":"Restaurants","shortName":"Restaurant","icon":{"prefix":"https:\/\/ss1.4sqi.net\/img\/categories_v2\/food\/default_","suffix":".png"},"primary":"true"}],"verified":"true","restricted":"true","stats":{"checkinsCount":"491","usersCount":"418","tipCount":"15"},"url":"http:\/\/www.blueprintcafe.co.uk","reservations":{"url":"http:\/\/www.toptable.co.uk\/single.aspx?rid=80611&ref=9601"},"menu":{"type":"Menu","label":"Menu","anchor":"View Menu","url":"https:\/\/foursquare.com\/v\/blueprint-caf%C3%A9\/4ac518e3f964a520c3aa20e3\/menu","mobileUrl":"https:\/\/foursquare.com\/v\/4ac518e3f964a520c3aa20e3\/device_menu"},"specials":{"count":"0"},"hereNow":{"count":"0"},"storeId":"","referralId":"v-1392478047"},{"id":"4b4f78dbf964a520050827e3","name":"Zizzi","location":{"address":"31 Shad Thames","lat":"51.503283","lng":"-0.073545","distance":"123","postalCode":"SE1","cc":"GB","city":"Bermondsey","state":"Greater London","country":"United Kingdom"},"categories":[{"id":"4bf58dd8d48988d110941735","name":"Italian Restaurant","pluralName":"Italian Restaurants","shortName":"Italian","icon":{"prefix":"https:\/\/ss1.4sqi.net\/img\/categories_v2\/food\/italian_","suffix":".png"},"primary":"true"}],"verified":"true","restricted":"true","stats":{"checkinsCount":"243","usersCount":"192","tipCount":"2"},"url":"http:\/\/www.zizzi.co.uk","menu":{"type":"Menu","label":"Menu","anchor":"View Menu","url":"https:\/\/foursquare.com\/v\/zizzi\/4b4f78dbf964a520050827e3\/menu","mobileUrl":"https:\/\/foursquare.com\/v\/4b4f78dbf964a520050827e3\/device_menu"},"specials":{"count":"0"},"hereNow":{"count":"0"},"referralId":"v-1392478047"},{"id":"4ad46254f964a520b5e720e3","name":"Shades Piazza","location":{"address":"47 Shad Thames","crossStreet":"Lafone Street","lat":"51.50397090185747","lng":"-0.07548100627093789","distance":"188","postalCode":"Se1","cc":"GB","city":"London","state":"Greater London","country":"United Kingdom"},"categories":[{"id":"4bf58dd8d48988d16d941735","name":"Caf\u00e9","pluralName":"Caf\u00e9s","shortName":"Caf\u00e9","icon":{"prefix":"https:\/\/ss1.4sqi.net\/img\/categories_v2\/food\/cafe_","suffix":".png"},"primary":"true"}],"verified":"false","restricted":"true","stats":{"checkinsCount":"667","usersCount":"121","tipCount":"4"},"specials":{"count":"0"},"hereNow":{"count":"0"},"referralId":"v-1392478047"},{"id":"4ac518bff964a5205ba320e3","name":"Browns Restaurant & Bar","location":{"address":"Butlers Wharf","lat":"51.502784","lng":"-0.071245","distance":"199","postalCode":"SE1 2YG","cc":"GB","city":"London","state":"Greater London","country":"United Kingdom"},"categories":[{"id":"4bf58dd8d48988d1c4941735","name":"Restaurant","pluralName":"Restaurants","shortName":"Restaurant","icon":{"prefix":"https:\/\/ss1.4sqi.net\/img\/categories_v2\/food\/default_","suffix":".png"},"primary":"true"}],"verified":"false","restricted":"true","stats":{"checkinsCount":"916","usersCount":"661","tipCount":"19"},"specials":{"count":"0"},"hereNow":{"count":"0"},"referralId":"v-1392478047"},{"id":"4b0981bdf964a520711823e3","name":"Caffe Paradiso","location":{"address":"45 Shad Thames","lat":"51.50376060000001","lng":"-0.075317","distance":"183","postalCode":"SE1 2NJ","cc":"GB","city":"London","state":"Greater London","country":"United Kingdom"},"categories":[{"id":"4bf58dd8d48988d1e0931735","name":"Coffee Shop","pluralName":"Coffee Shops","shortName":"Coffee Shop","icon":{"prefix":"https:\/\/ss1.4sqi.net\/img\/categories_v2\/food\/coffeeshop_","suffix":".png"},"primary":"true"}],"verified":"false","restricted":"true","stats":{"checkinsCount":"335","usersCount":"257","tipCount":"10"},"menu":{"type":"Menu","label":"Menu","anchor":"View Menu","url":"https:\/\/foursquare.com\/v\/caffe-paradiso\/4b0981bdf964a520711823e3\/menu","mobileUrl":"https:\/\/foursquare.com\/v\/4b0981bdf964a520711823e3\/device_menu"},"specials":{"count":"0"},"hereNow":{"count":"0"},"referralId":"v-1392478047"},{"id":"4add6917f964a520f76421e3","name":"NTT Europe","contact":{"phone":"+442079771000","formattedPhone":"+44 20 7977 1000","twitter":"ntt_europe"},"location":{"address":"58-60 St Katharine's Way","lat":"51.50591107850855","lng":"-0.07106781005859375","distance":"216","postalCode":"E1W 1LB","cc":"GB","city":"London","state":"Greater London","country":"United Kingdom"},"categories":[{"id":"4bf58dd8d48988d124941735","name":"Office","pluralName":"Offices","shortName":"Office","icon":{"prefix":"https:\/\/ss1.4sqi.net\/img\/categories_v2\/building\/default_","suffix":".png"},"primary":"true"}],"verified":"false","restricted":"true","stats":{"checkinsCount":"520","usersCount":"39","tipCount":"1"},"url":"http:\/\/www.ntt.eu","specials":{"count":"0"},"hereNow":{"count":"0"},"referralId":"v-1392478047"},{"id":"4f53e13ee4b063296e9a4364","name":"The Vault","contact":{"phone":"+442074078782","formattedPhone":"+44 20 7407 8782"},"location":{"address":"Horace Jones Vault","crossStreet":"at Tower Bridge","lat":"51.504494122028326","lng":"-0.07595989834386344","distance":"219","postalCode":"SE1 2JG","cc":"GB","city":"London","state":"Greater London","country":"United Kingdom"},"categories":[{"id":"4bf58dd8d48988d11e941735","name":"Cocktail Bar","pluralName":"Cocktail Bars","shortName":"Cocktail","icon":{"prefix":"https:\/\/ss1.4sqi.net\/img\/categories_v2\/nightlife\/cocktails_","suffix":".png"},"primary":"true"}],"verified":"false","restricted":"true","stats":{"checkinsCount":"265","usersCount":"248","tipCount":"3"},"url":"http:\/\/www.thevault1894.com","specials":{"count":"0"},"hereNow":{"count":"0"},"referralId":"v-1392478047"},{"id":"4f228193e4b0fd1835c47b7e","name":"Agencyport","location":{"address":"1 St Kartharine's Way","lat":"51.50608137062164","lng":"-0.07406496614273378","distance":"217","cc":"GB","country":"United Kingdom"},"categories":[{"id":"4bf58dd8d48988d124941735","name":"Office","pluralName":"Offices","shortName":"Office","icon":{"prefix":"https:\/\/ss1.4sqi.net\/img\/categories_v2\/building\/default_","suffix":".png"},"primary":"true"}],"verified":"false","restricted":"true","stats":{"checkinsCount":"29","usersCount":"5","tipCount":"0"},"specials":{"count":"0"},"hereNow":{"count":"0"},"referralId":"v-1392478047"},{"id":"4bc9bdd60687ef3b785cdacc","name":"Anchor Tap","contact":{"phone":"+442074034637","formattedPhone":"+44 20 7403 4637"},"location":{"address":"28 Horsleydown Ln.","lat":"51.50358707830748","lng":"-0.07591724395751953","distance":"229","postalCode":"SE1 2LN","cc":"GB","city":"Bermondsey","state":"Greater London","country":"United Kingdom"},"categories":[{"id":"4bf58dd8d48988d11b941735","name":"Pub","pluralName":"Pubs","shortName":"Pub","icon":{"prefix":"https:\/\/ss1.4sqi.net\/img\/categories_v2\/nightlife\/pub_","suffix":".png"},"primary":"true"}],"verified":"false","restricted":"true","stats":{"checkinsCount":"512","usersCount":"289","tipCount":"6"},"specials":{"count":"0"},"hereNow":{"count":"0"},"referralId":"v-1392478047"},{"id":"51b253d6498e7d57a9f48d26","name":"Cardamom Building","location":{"address":"31 Shad Thames","lat":"51.50319226981368","lng":"-0.07323176494142325","distance":"125","postalCode":"SE1 2YR","cc":"GB","city":"London","state":"Greater London","country":"United Kingdom"},"categories":[{"id":"4d954b06a243a5684965b473","name":"Residential Building (Apartment \/ Condo)","pluralName":"Residential Buildings (Apartments \/ Condos)","shortName":"Residential","icon":{"prefix":"https:\/\/ss1.4sqi.net\/img\/categories_v2\/building\/apartment_","suffix":".png"},"primary":"true"}],"verified":"false","restricted":"true","stats":{"checkinsCount":"41","usersCount":"1","tipCount":"0"},"specials":{"count":"0"},"hereNow":{"count":"0"},"referralId":"v-1392478047"},{"id":"4bd5560529eb9c74182993e1","name":"The Brasserie: Guoman Tower","location":{"lat":"51.506367","lng":"-0.073872","distance":"242","cc":"GB","country":"United Kingdom"},"categories":[{"id":"4bf58dd8d48988d1c4941735","name":"Restaurant","pluralName":"Restaurants","shortName":"Restaurant","icon":{"prefix":"https:\/\/ss1.4sqi.net\/img\/categories_v2\/food\/default_","suffix":".png"},"primary":"true"}],"verified":"false","restricted":"true","stats":{"checkinsCount":"171","usersCount":"132","tipCount":"0"},"specials":{"count":"0"},"hereNow":{"count":"0"},"referralId":"v-1392478047"},{"id":"4c10d6fdb93cc9b6284b57e0","name":"Nbbj","location":{"address":"4 maguire st","lat":"51.502283","lng":"-0.072016","distance":"229","postalCode":"SE1 2NQ","cc":"GB","city":"Camberwell","state":"Greater London","country":"United Kingdom"},"categories":[{"id":"4bf58dd8d48988d124941735","name":"Office","pluralName":"Offices","shortName":"Office","icon":{"prefix":"https:\/\/ss1.4sqi.net\/img\/categories_v2\/building\/default_","suffix":".png"},"primary":"true"}],"verified":"false","restricted":"true","stats":{"checkinsCount":"198","usersCount":"5","tipCount":"0"},"specials":{"count":"0"},"hereNow":{"count":"0"},"referralId":"v-1392478047"}],"confident":"true"}}