{"meta":{"code":"200"},"response":{"venues":[{"id":"4b0c1159f964a520633623e3","name":"Stamford Bridge","contact":{"phone":"+448719841955","formattedPhone":"+44 871 984 1955","twitter":"chelseafc"},"location":{"address":"Fulham Rd","lat":"51.48173200760156","lng":"-0.19100815057754517","distance":"310","postalCode":"SW6 1HS","cc":"GB","city":"Fulham","state":"Greater London","country":"United Kingdom"},"categories":[{"id":"4bf58dd8d48988d188941735","name":"Soccer Stadium","pluralName":"Soccer Stadiums","shortName":"Soccer","icon":{"prefix":"https:\/\/ss1.4sqi.net\/img\/categories_v2\/arts_entertainment\/stadium_soccer_","suffix":".png"},"primary":"true"}],"verified":"true","restricted":"true","stats":{"checkinsCount":"19203","usersCount":"10807","tipCount":"140"},"url":"http:\/\/www.chelseafc.com","menu":{"type":"Menu","label":"Menu","anchor":"View Menu","url":"https:\/\/foursquare.com\/v\/stamford-bridge\/4b0c1159f964a520633623e3\/menu","mobileUrl":"https:\/\/foursquare.com\/v\/4b0c1159f964a520633623e3\/device_menu"},"specials":{"count":"1","items":[{"id":"50a6219a395010bf293ab8a8","type":"frequency","message":"Get 20% off your total bill at Frankies Sports Bar and Grill when you check-in at Stamford Bridge. Not available on matchdays, or in conjunction with any other offer.","description":"Unlocked every check-in","icon":"check-in","title":"Check-in Special","provider":"foursquare","redemption":"standard","page":{"id":"37102239","firstName":"Chelsea FC","gender":"none","photo":{"prefix":"https:\/\/irs3.4sqi.net\/img\/user\/","suffix":"\/TY5WCGRKI50UUJUW.png"},"type":"chain","followers":{"count":"33200"},"tips":{"count":"21"},"homeCity":"London","bio":"Official Foursquare account of the European Champions - Chelsea Football Club","contact":{"twitter":"chelseafc"}}}]},"hereNow":{"count":"8","groups":[{"type":"others","name":"Other people here","count":"8"}]},"storeId":"","referralId":"v-1392478087"},{"id":"4c9397c6f7cfa1cd6acaab15","name":"Brompton Cemetery","contact":{"phone":"+442073521201","formattedPhone":"+44 20 7352 1201"},"location":{"address":"Fulham Rd","crossStreet":"at Old Brompton Rd","lat":"51.48621405208561","lng":"-0.19246852950323856","distance":"215","postalCode":"SW10 9UG","cc":"GB","city":"London","state":"Greater London","country":"United Kingdom"},"categories":[{"id":"4bf58dd8d48988d15c941735","name":"Cemetery","pluralName":"Cemeteries","shortName":"Cemetery","icon":{"prefix":"https:\/\/ss1.4sqi.net\/img\/categories_v2\/parks_outdoors\/cemetery_","suffix":".png"},"primary":"true"}],"verified":"false","restricted":"true","stats":{"checkinsCount":"927","usersCount":"525","tipCount":"16"},"url":"http:\/\/www.royalparks.org.uk\/parks\/brompton-cemetery","specials":{"count":"0"},"hereNow":{"count":"0"},"referralId":"v-1392478087"},{"id":"4d7fbf1b3e50b1f766eee2d3","name":"Mathew Harding End","contact":{"phone":"+448719841955","formattedPhone":"+44 871 984 1955"},"location":{"address":"Stamford Bridge","crossStreet":"Fulham Rd.","lat":"51.48223813101211","lng":"-0.19144535064697266","distance":"246","postalCode":"SW6 1HS","cc":"GB","city":"Fulham","country":"United Kingdom"},"categories":[{"id":"4bf58dd8d48988d188941735","name":"Soccer Stadium","pluralName":"Soccer Stadiums","shortName":"Soccer","icon":{"prefix":"https:\/\/ss1.4sqi.net\/img\/categories_v2\/arts_entertainment\/stadium_soccer_","suffix":".png"},"primary":"true"}],"verified":"false","restricted":"true","stats":{"checkinsCount":"702","usersCount":"86","tipCount":"1"},"specials":{"count":"0"},"hereNow":{"count":"0"},"referralId":"v-1392478087"},{"id":"4c0afc2fed2595218c3b1356","name":"The Chelsea Club","contact":{"phone":"+442079152200","formattedPhone":"+44 20 7915 2200","twitter":"chelseafc"},"location":{"address":"Stamford Bridge","crossStreet":"Fulham Road","lat":"51.48095125408746","lng":"-0.1910768407478311","distance":"390","postalCode":"SW6 1HS","cc":"GB","city":"London","state":"Greater London","country":"United Kingdom"},"categories":[{"id":"4bf58dd8d48988d176941735","name":"Gym","pluralName":"Gyms","shortName":"Gym","icon":{"prefix":"https:\/\/ss1.4sqi.net\/img\/categories_v2\/building\/gym_","suffix":".png"},"primary":"true"}],"verified":"true","restricted":"true","stats":{"checkinsCount":"2353","usersCount":"1145","tipCount":"7"},"specials":{"count":"1","items":[{"id":"50a6219a395010bf293ab8a8","type":"frequency","message":"Get 20% off your total bill at Frankies Sports Bar and Grill when you check-in at Stamford Bridge. Not available on matchdays, or in conjunction with any other offer.","description":"Unlocked every check-in","icon":"check-in","title":"Check-in Special","provider":"foursquare","redemption":"standard","page":{"id":"37102239","firstName":"Chelsea FC","gender":"none","photo":{"prefix":"https:\/\/irs3.4sqi.net\/img\/user\/","suffix":"\/TY5WCGRKI50UUJUW.png"},"type":"chain","followers":{"count":"33200"},"tips":{"count":"21"},"homeCity":"London","bio":"Official Foursquare account of the European Champions - Chelsea Football Club","contact":{"twitter":"chelseafc"}}}]},"hereNow":{"count":"0"},"referralId":"v-1392478087"},{"id":"4bd943c911dcc928ee59f933","name":"Fulham Broadway","location":{"address":"Everywhere!","lat":"51.48012674074779","lng":"-0.19693851470947266","distance":"544","cc":"GB","city":"London","state":"Greater London","country":"United Kingdom"},"categories":[{"id":"4f2a25ac4b909258e854f55f","name":"Neighborhood","pluralName":"Neighborhoods","shortName":"Neighborhood","icon":{"prefix":"https:\/\/ss1.4sqi.net\/img\/categories_v2\/parks_outdoors\/neighborhood_","suffix":".png"},"primary":"true"}],"verified":"false","restricted":"true","stats":{"checkinsCount":"3048","usersCount":"1244","tipCount":"3"},"specials":{"count":"0"},"hereNow":{"count":"0"},"referralId":"v-1392478087"},{"id":"4e1868b0b61c8f9ada4acf34","name":"Brompton Hall, Earls Court Exibition Centre","location":{"lat":"51.48838899330382","lng":"-0.19622384184408254","distance":"514","cc":"GB","city":"Kensington","state":"Greater London","country":"United Kingdom"},"categories":[{"id":"4bf58dd8d48988d171941735","name":"Event Space","pluralName":"Event Spaces","shortName":"Event Space","icon":{"prefix":"https:\/\/ss1.4sqi.net\/img\/categories_v2\/building\/eventspace_","suffix":".png"},"primary":"true"}],"verified":"false","restricted":"true","stats":{"checkinsCount":"441","usersCount":"271","tipCount":"0"},"specials":{"count":"0"},"hereNow":{"count":"0"},"referralId":"v-1392478087"},{"id":"4c3f4ef43735be9aa63115a4","name":"Starbucks","contact":{"twitter":"starbucksuk"},"location":{"address":"Unit 4, Fulham Broadway Station","lat":"51.48013483472816","lng":"-0.19446614901570033","distance":"476","postalCode":"SW6 1BY","cc":"GB","city":"London","state":"Greater London","country":"United Kingdom"},"categories":[{"id":"4bf58dd8d48988d1e0931735","name":"Coffee Shop","pluralName":"Coffee Shops","shortName":"Coffee Shop","icon":{"prefix":"https:\/\/ss1.4sqi.net\/img\/categories_v2\/food\/coffeeshop_","suffix":".png"},"primary":"true"}],"verified":"true","restricted":"true","stats":{"checkinsCount":"2007","usersCount":"920","tipCount":"16"},"url":"http:\/\/starbucks.co.uk","specials":{"count":"0"},"hereNow":{"count":"1","groups":[{"type":"others","name":"Other people here","count":"1"}]},"storeId":"12362","referralId":"v-1392478087"},{"id":"4d4c382464faba7a386ff28a","name":"West Brompton Railway Station (WBP)","contact":{"phone":"+448457484950","formattedPhone":"+44 845 748 4950","twitter":"nationalrailenq","facebook":"94740547473"},"location":{"address":"Old Brompton Rd","lat":"51.48720886639676","lng":"-0.1954793930053711","distance":"374","postalCode":"SW5 9JX","cc":"GB","city":"London","state":"Greater London","country":"United Kingdom"},"categories":[{"id":"4bf58dd8d48988d129951735","name":"Train Station","pluralName":"Train Stations","shortName":"Train Station","icon":{"prefix":"https:\/\/ss1.4sqi.net\/img\/categories_v2\/travel\/trainstation_","suffix":".png"},"primary":"true"}],"verified":"true","restricted":"true","stats":{"checkinsCount":"4085","usersCount":"1800","tipCount":"6"},"url":"http:\/\/www.nationalrail.co.uk\/stations\/wbp\/details.html","specials":{"count":"0"},"hereNow":{"count":"0"},"storeId":"WBP","referralId":"v-1392478087"},{"id":"4ac518bbf964a52010a220e3","name":"The Atlas","contact":{"phone":"+442073859129","formattedPhone":"+44 20 7385 9129"},"location":{"address":"16 Seagrave Rd.","lat":"51.486243","lng":"-0.196297","distance":"325","postalCode":"SW6 1RX","cc":"GB","city":"Fulham","state":"Greater London","country":"United Kingdom"},"categories":[{"id":"4bf58dd8d48988d11b941735","name":"Pub","pluralName":"Pubs","shortName":"Pub","icon":{"prefix":"https:\/\/ss1.4sqi.net\/img\/categories_v2\/nightlife\/pub_","suffix":".png"},"primary":"true"}],"verified":"true","restricted":"true","stats":{"checkinsCount":"906","usersCount":"486","tipCount":"15"},"url":"http:\/\/www.theatlaspub.co.uk","reservations":{"url":"http:\/\/www.toptable.co.uk\/single.aspx?rid=90261&ref=9601"},"menu":{"type":"Menu","label":"Menu","anchor":"View Menu","url":"https:\/\/foursquare.com\/v\/the-atlas\/4ac518bbf964a52010a220e3\/menu","mobileUrl":"https:\/\/foursquare.com\/v\/4ac518bbf964a52010a220e3\/device_menu"},"specials":{"count":"0"},"hereNow":{"count":"0"},"venuePage":{"id":"50632997"},"referralId":"v-1392478087"},{"id":"4c54356f06901b8db008694b","name":"David Lloyd","contact":{"phone":"+442073862202","formattedPhone":"+44 20 7386 2202"},"location":{"address":"Unit 24, Fulham Broadway Retail Centre","crossStreet":"Fulham Road","lat":"51.480281062923666","lng":"-0.19441513630199164","distance":"459","postalCode":"SW6 1BW","cc":"GB","city":"Fulham","state":"Greater London","country":"United Kingdom"},"categories":[{"id":"4bf58dd8d48988d176941735","name":"Gym","pluralName":"Gyms","shortName":"Gym","icon":{"prefix":"https:\/\/ss1.4sqi.net\/img\/categories_v2\/building\/gym_","suffix":".png"},"primary":"true"}],"verified":"false","restricted":"true","stats":{"checkinsCount":"2025","usersCount":"215","tipCount":"5"},"specials":{"count":"0"},"hereNow":{"count":"1","groups":[{"type":"others","name":"Other people here","count":"1"}]},"referralId":"v-1392478087"},{"id":"4fb6d46a7b0cd3a6860337bc","name":"Brompton Park Leisure Center","location":{"address":"Brompton park Crescent","lat":"51.48322697638503","lng":"-0.19214272499084473","distance":"126","postalCode":"SW6 1SZ","cc":"GB","city":"London","state":"Greater London","country":"United Kingdom"},"categories":[{"id":"4bf58dd8d48988d175941735","name":"Gym \/ Fitness Center","pluralName":"Gyms or Fitness Centers","shortName":"Gym \/ Fitness","icon":{"prefix":"https:\/\/ss1.4sqi.net\/img\/categories_v2\/building\/gym_","suffix":".png"},"primary":"true"}],"verified":"false","restricted":"true","stats":{"checkinsCount":"55","usersCount":"10","tipCount":"0"},"specials":{"count":"0"},"hereNow":{"count":"0"},"referralId":"v-1392478087"},{"id":"4ad5b9ddf964a5204d0321e3","name":"Oyster Rooms (Wetherspoon)","contact":{"phone":"+442074710310","formattedPhone":"+44 20 7471 0310"},"location":{"address":"470 Fulham Rd.","lat":"51.48011690589717","lng":"-0.19471868508041193","distance":"483","postalCode":"SW6 1AA","cc":"GB","city":"Fulham","state":"Greater London","country":"United Kingdom"},"categories":[{"id":"4bf58dd8d48988d11b941735","name":"Pub","pluralName":"Pubs","shortName":"Pub","icon":{"prefix":"https:\/\/ss1.4sqi.net\/img\/categories_v2\/nightlife\/pub_","suffix":".png"},"primary":"true"}],"verified":"true","restricted":"true","stats":{"checkinsCount":"611","usersCount":"288","tipCount":"2"},"url":"http:\/\/www.jdwetherspoon.co.uk","specials":{"count":"0"},"hereNow":{"count":"0"},"referralId":"v-1392478087"},{"id":"4b3a54aff964a520cc6425e3","name":"Harwood Arms","contact":{"phone":"+442073861847","formattedPhone":"+44 20 7386 1847"},"location":{"address":"Walham Grove","lat":"51.48292045538711","lng":"-0.19639761427361954","distance":"292","postalCode":"SW6 1QP","cc":"GB","city":"London","state":"Greater London","country":"United Kingdom"},"categories":[{"id":"4bf58dd8d48988d155941735","name":"Gastropub","pluralName":"Gastropubs","shortName":"Gastropub","icon":{"prefix":"https:\/\/ss1.4sqi.net\/img\/categories_v2\/food\/gastropub_","suffix":".png"},"primary":"true"}],"verified":"false","restricted":"true","stats":{"checkinsCount":"886","usersCount":"591","tipCount":"26"},"url":"http:\/\/www.harwoodarms.com","reservations":{"url":"http:\/\/www.toptable.co.uk\/single.aspx?rid=37078&ref=9601"},"menu":{"type":"Menu","label":"Menu","anchor":"View Menu","url":"https:\/\/foursquare.com\/v\/harwood-arms\/4b3a54aff964a520cc6425e3\/menu","mobileUrl":"https:\/\/foursquare.com\/v\/4b3a54aff964a520cc6425e3\/device_menu"},"specials":{"count":"0"},"hereNow":{"count":"0"},"referralId":"v-1392478087"},{"id":"4b4f7ed3f964a520e20827e3","name":"Sainsbury's","contact":{"phone":"+442073854712","formattedPhone":"+44 20 7385 4712"},"location":{"address":"Fulham Broadway Retail Centre","crossStreet":"Fulham Broadway","lat":"51.48028710293213","lng":"-0.1947498321533203","distance":"465","postalCode":"SW6 1BW","cc":"GB","city":"London","state":"Greater London","country":"United Kingdom"},"categories":[{"id":"4bf58dd8d48988d118951735","name":"Grocery Store","pluralName":"Grocery Stores","shortName":"Grocery Store","icon":{"prefix":"https:\/\/ss1.4sqi.net\/img\/categories_v2\/shops\/food_grocery_","suffix":".png"},"primary":"true"}],"verified":"false","restricted":"true","stats":{"checkinsCount":"948","usersCount":"312","tipCount":"4"},"specials":{"count":"0"},"hereNow":{"count":"0"},"referralId":"v-1392478087"},{"id":"4ac518eef964a52027ad20e3","name":"North End Road Market","contact":{"phone":"+442087533916","formattedPhone":"+44 20 8753 3916"},"location":{"address":"North End Rd.","crossStreet":"btwn Lillie & Fulham Rds.","lat":"51.484850507081454","lng":"-0.2018415927886963","distance":"629","postalCode":"SW6 1NL","cc":"GB","city":"Fulham","state":"Greater London","country":"United Kingdom"},"categories":[{"id":"4bf58dd8d48988d1fa941735","name":"Farmers Market","pluralName":"Farmers Markets","shortName":"Farmer's Market","icon":{"prefix":"https:\/\/ss1.4sqi.net\/img\/categories_v2\/shops\/food_farmersmarket_","suffix":".png"},"primary":"true"}],"verified":"false","restricted":"true","stats":{"checkinsCount":"515","usersCount":"228","tipCount":"4"},"specials":{"count":"0"},"hereNow":{"count":"0"},"referralId":"v-1392478087"},{"id":"4d7ce700645ea35daefe4df8","name":"Chelsea FC Museum","contact":{"twitter":"chelseafc"},"location":{"address":"Stamford Bridge","crossStreet":"Chelsea Football Club","lat":"51.481625786198656","lng":"-0.19147290036910822","distance":"310","postalCode":"SW6 1HS","cc":"GB","city":"London","state":"Greater London","country":"United Kingdom"},"categories":[{"id":"4bf58dd8d48988d190941735","name":"History Museum","pluralName":"History Museums","shortName":"History Museum","icon":{"prefix":"https:\/\/ss1.4sqi.net\/img\/categories_v2\/arts_entertainment\/museum_history_","suffix":".png"},"primary":"true"}],"verified":"true","restricted":"true","stats":{"checkinsCount":"442","usersCount":"355","tipCount":"0"},"url":"http:\/\/www.chelseafc.com\/stadium-tours","specials":{"count":"1","items":[{"id":"50a6219a395010bf293ab8a8","type":"frequency","message":"Get 20% off your total bill at Frankies Sports Bar and Grill when you check-in at Stamford Bridge. Not available on matchdays, or in conjunction with any other offer.","description":"Unlocked every check-in","icon":"check-in","title":"Check-in Special","provider":"foursquare","redemption":"standard","page":{"id":"37102239","firstName":"Chelsea FC","gender":"none","photo":{"prefix":"https:\/\/irs3.4sqi.net\/img\/user\/","suffix":"\/TY5WCGRKI50UUJUW.png"},"type":"chain","followers":{"count":"33200"},"tips":{"count":"21"},"homeCity":"London","bio":"Official Foursquare account of the European Champions - Chelsea Football Club","contact":{"twitter":"chelseafc"}}}]},"hereNow":{"count":"0"},"referralId":"v-1392478087"},{"id":"4e073029e4cdefcff6da7077","name":"Under the Bridge","contact":{"phone":"+442073863327","formattedPhone":"+44 20 7386 3327","twitter":"utblondon"},"location":{"address":"Stamford Bridge","crossStreet":"Fulham Rd.","lat":"51.48168920424377","lng":"-0.18975731535441762","distance":"358","postalCode":"SW6 1HS","cc":"GB","city":"Fulham","state":"Greater London","country":"United Kingdom"},"categories":[{"id":"4bf58dd8d48988d1e5931735","name":"Music Venue","pluralName":"Music Venues","shortName":"Music Venue","icon":{"prefix":"https:\/\/ss1.4sqi.net\/img\/categories_v2\/arts_entertainment\/musicvenue_","suffix":".png"},"primary":"true"}],"verified":"true","restricted":"true","stats":{"checkinsCount":"739","usersCount":"433","tipCount":"4"},"url":"http:\/\/www.underthebridge.co.uk","menu":{"type":"Menu","label":"Menu","anchor":"View Menu","url":"https:\/\/foursquare.com\/v\/under-the-bridge\/4e073029e4cdefcff6da7077\/menu","mobileUrl":"https:\/\/foursquare.com\/v\/4e073029e4cdefcff6da7077\/device_menu"},"specials":{"count":"0"},"hereNow":{"count":"0"},"venuePage":{"id":"47019346"},"storeId":"","referralId":"v-1392478087"},{"id":"4b5b426bf964a5202cef28e3","name":"Vue Cinema","contact":{"phone":"+448712240240","formattedPhone":"+44 871 224 0240","twitter":"vuecinemas","facebook":"147114011989238"},"location":{"address":"Fulham Broadway Retail Centre","crossStreet":"Fulham Rd","lat":"51.480206921910444","lng":"-0.19496440887451172","distance":"478","postalCode":"SW6 1BW","cc":"GB","city":"London","state":"Greater London","country":"United Kingdom"},"categories":[{"id":"4bf58dd8d48988d17f941735","name":"Movie Theater","pluralName":"Movie Theaters","shortName":"Movie Theater","icon":{"prefix":"https:\/\/ss1.4sqi.net\/img\/categories_v2\/arts_entertainment\/movietheater_","suffix":".png"},"primary":"true"}],"verified":"true","restricted":"true","stats":{"checkinsCount":"2370","usersCount":"1198","tipCount":"13"},"url":"http:\/\/www.myvue.com","specials":{"count":"0"},"events":{"count":"15","summary":"15 movies"},"hereNow":{"count":"1","groups":[{"type":"others","name":"Other people here","count":"1"}]},"storeId":"30","referralId":"v-1392478087"},{"id":"4d80d3204a984eb929fd27e8","name":"Frankie's Sports Bar & Grill","location":{"address":"Stamford Bridge, Fulham Road","lat":"51.48096584664885","lng":"-0.1897916936801941","distance":"424","postalCode":"SW6 1HS","cc":"GB","city":"London","state":"Greater London","country":"United Kingdom"},"categories":[{"id":"4bf58dd8d48988d16c941735","name":"Burger Joint","pluralName":"Burger Joints","shortName":"Burgers","icon":{"prefix":"https:\/\/ss1.4sqi.net\/img\/categories_v2\/food\/burger_","suffix":".png"},"primary":"true"}],"verified":"false","restricted":"true","stats":{"checkinsCount":"707","usersCount":"482","tipCount":"13"},"url":"http:\/\/www.frankies-chelsea.org.","specials":{"count":"0"},"hereNow":{"count":"0"},"referralId":"v-1392478087"},{"id":"4ac518bcf964a520a0a220e3","name":"The Troubadour Cafe","contact":{"phone":"+442073701434","formattedPhone":"+44 20 7370 1434"},"location":{"address":"263-265 Old Brompton Rd","lat":"51.48894608977946","lng":"-0.19176484517693196","distance":"523","postalCode":"SW5 9JA","cc":"GB","city":"Earl's Court","state":"Greater London","country":"United Kingdom"},"categories":[{"id":"4bf58dd8d48988d16d941735","name":"Caf\u00e9","pluralName":"Caf\u00e9s","shortName":"Caf\u00e9","icon":{"prefix":"https:\/\/ss1.4sqi.net\/img\/categories_v2\/food\/cafe_","suffix":".png"},"primary":"true"}],"verified":"false","restricted":"true","stats":{"checkinsCount":"2462","usersCount":"1618","tipCount":"65"},"url":"http:\/\/www.troubadour.co.uk","menu":{"type":"Menu","label":"Menu","anchor":"View Menu","url":"https:\/\/foursquare.com\/v\/the-troubadour-cafe-earls-court-greater-london\/4ac518bcf964a520a0a220e3\/menu","mobileUrl":"https:\/\/foursquare.com\/v\/4ac518bcf964a520a0a220e3\/device_menu"},"specials":{"count":"0"},"hereNow":{"count":"1","groups":[{"type":"others","name":"Other people here","count":"1"}]},"referralId":"v-1392478087"},{"id":"4b53247bf964a520269027e3","name":"Waitrose","contact":{"phone":"+442073854566","formattedPhone":"+44 20 7385 4566","twitter":"waitroseuk"},"location":{"address":"402 North End Rd.","lat":"51.48026037594056","lng":"-0.199127197265625","distance":"627","postalCode":"SW6 1LU","cc":"GB","city":"Fulham","state":"Greater London","country":"United Kingdom"},"categories":[{"id":"4bf58dd8d48988d118951735","name":"Grocery Store","pluralName":"Grocery Stores","shortName":"Grocery Store","icon":{"prefix":"https:\/\/ss1.4sqi.net\/img\/categories_v2\/shops\/food_grocery_","suffix":".png"},"primary":"true"}],"verified":"false","restricted":"true","stats":{"checkinsCount":"1025","usersCount":"317","tipCount":"2"},"url":"http:\/\/www.waitrose.com","specials":{"count":"0"},"hereNow":{"count":"1","groups":[{"type":"others","name":"Other people here","count":"1"}]},"referralId":"v-1392478087"},{"id":"4c415a42af052d7f66517d79","name":"Starbucks","contact":{"phone":"+442073706482","formattedPhone":"+44 20 7370 6482","twitter":"starbucksuk"},"location":{"address":"259 Old Brompton Road,","lat":"51.48895083393861","lng":"-0.19148558378219604","distance":"526","postalCode":"SW5 9HP","cc":"GB","city":"London","state":"Greater London","country":"United Kingdom"},"categories":[{"id":"4bf58dd8d48988d1e0931735","name":"Coffee Shop","pluralName":"Coffee Shops","shortName":"Coffee Shop","icon":{"prefix":"https:\/\/ss1.4sqi.net\/img\/categories_v2\/food\/coffeeshop_","suffix":".png"},"primary":"true"}],"verified":"true","restricted":"true","stats":{"checkinsCount":"1695","usersCount":"559","tipCount":"12"},"url":"http:\/\/starbucks.co.uk","specials":{"count":"0"},"hereNow":{"count":"0"},"storeId":"12063","referralId":"v-1392478087"},{"id":"4b3681a7f964a520fb3625e3","name":"The Malt House","location":{"address":"17 Vanston Place","lat":"51.48121322608189","lng":"-0.1980352239102893","distance":"498","postalCode":"SW6 1AY","cc":"GB","city":"London","state":"Greater London","country":"United Kingdom"},"categories":[{"id":"4bf58dd8d48988d11b941735","name":"Pub","pluralName":"Pubs","shortName":"Pub","icon":{"prefix":"https:\/\/ss1.4sqi.net\/img\/categories_v2\/nightlife\/pub_","suffix":".png"},"primary":"true"}],"verified":"false","restricted":"true","stats":{"checkinsCount":"494","usersCount":"298","tipCount":"9"},"url":"http:\/\/www.malthousefulham.co.uk","reservations":{"url":"http:\/\/www.toptable.co.uk\/single.aspx?rid=94884&ref=9601"},"menu":{"type":"Menu","label":"Menu","anchor":"View Menu","url":"https:\/\/foursquare.com\/v\/the-malt-house\/4b3681a7f964a520fb3625e3\/menu","mobileUrl":"https:\/\/foursquare.com\/v\/4b3681a7f964a520fb3625e3\/device_menu"},"specials":{"count":"0"},"hereNow":{"count":"1","groups":[{"type":"others","name":"Other people here","count":"1"}]},"referralId":"v-1392478087"},{"id":"4bc1e83c2a89ef3b78daf288","name":"Millennium & Copthorne Hotels at Chelsea Football Club","contact":{"phone":"+442075651400","formattedPhone":"+44 20 7565 1400","twitter":"millenniumeu","facebook":"456685494411593"},"location":{"address":"Stamford Bridge","crossStreet":"Fulham Road","lat":"51.480981747743165","lng":"-0.18958922068085396","distance":"430","postalCode":"SW6 1HS","cc":"GB","city":"Chelsea","state":"Greater London","country":"United Kingdom"},"categories":[{"id":"4bf58dd8d48988d1fa931735","name":"Hotel","pluralName":"Hotels","shortName":"Hotel","icon":{"prefix":"https:\/\/ss1.4sqi.net\/img\/categories_v2\/travel\/hotel_","suffix":".png"},"primary":"true"}],"verified":"true","restricted":"true","stats":{"checkinsCount":"1828","usersCount":"969","tipCount":"19"},"url":"http:\/\/www.millenniumhotels.co.uk","specials":{"count":"0"},"hereNow":{"count":"0"},"storeId":"","referralId":"v-1392478087"},{"id":"4fa92c5be4b01db688bcba43","name":"The Chelsea FC Megastore","contact":{"twitter":"chelseafc"},"location":{"address":"Stamford Bridge","lat":"51.480814762339946","lng":"-0.19144939804622568","distance":"397","postalCode":"SW6 1HS","cc":"GB","city":"Chelsea","state":"Greater London","country":"United Kingdom"},"categories":[{"id":"4bf58dd8d48988d1f2941735","name":"Sporting Goods Shop","pluralName":"Sporting Goods Shops","shortName":"Sporting Goods","icon":{"prefix":"https:\/\/ss1.4sqi.net\/img\/categories_v2\/shops\/sports_outdoors_","suffix":".png"},"primary":"true"}],"verified":"true","restricted":"true","stats":{"checkinsCount":"1037","usersCount":"830","tipCount":"5"},"specials":{"count":"1","items":[{"id":"50a6219a395010bf293ab8a8","type":"frequency","message":"Get 20% off your total bill at Frankies Sports Bar and Grill when you check-in at Stamford Bridge. Not available on matchdays, or in conjunction with any other offer.","description":"Unlocked every check-in","icon":"check-in","title":"Check-in Special","provider":"foursquare","redemption":"standard","page":{"id":"37102239","firstName":"Chelsea FC","gender":"none","photo":{"prefix":"https:\/\/irs3.4sqi.net\/img\/user\/","suffix":"\/TY5WCGRKI50UUJUW.png"},"type":"chain","followers":{"count":"33200"},"tips":{"count":"21"},"homeCity":"London","bio":"Official Foursquare account of the European Champions - Chelsea Football Club","contact":{"twitter":"chelseafc"}}}]},"hereNow":{"count":"0"},"referralId":"v-1392478087"},{"id":"4b2692adf964a520bc7d24e3","name":"Nando's","contact":{"phone":"+442073868035","formattedPhone":"+44 20 7386 8035","twitter":"nandosuk"},"location":{"address":"Unit 20 Fulham Broadway Retail Centre Fulham Road","crossStreet":"Fulham Rd.","lat":"51.48015346781766","lng":"-0.1945781707763672","distance":"476","postalCode":"SW6 1BY","cc":"GB","city":"London","state":"Greater London","country":"United Kingdom"},"categories":[{"id":"4def73e84765ae376e57713a","name":"Portuguese Restaurant","pluralName":"Portuguese Restaurants","shortName":"Portuguese","icon":{"prefix":"https:\/\/ss1.4sqi.net\/img\/categories_v2\/food\/default_","suffix":".png"},"primary":"true"}],"verified":"true","restricted":"true","stats":{"checkinsCount":"663","usersCount":"391","tipCount":"11"},"url":"http:\/\/www.nandos.co.uk","specials":{"count":"0"},"hereNow":{"count":"0"},"storeId":"N065","referralId":"v-1392478087"},{"id":"50895e10e4b01b583fec0e72","name":"The Lazy Fox","contact":{"phone":"+442073853169","formattedPhone":"+44 20 7385 3169","twitter":"lazyfoxfulham","facebook":"408050245928809"},"location":{"address":"18 Farm Lane","lat":"51.481934800315265","lng":"-0.19675960874344434","distance":"379","postalCode":"SW6 1PP","cc":"GB","city":"Fulham","state":"Greater London","country":"United Kingdom"},"categories":[{"id":"4bf58dd8d48988d116941735","name":"Bar","pluralName":"Bars","shortName":"Bar","icon":{"prefix":"https:\/\/ss1.4sqi.net\/img\/categories_v2\/nightlife\/bar_","suffix":".png"},"primary":"true"}],"verified":"true","restricted":"true","stats":{"checkinsCount":"284","usersCount":"165","tipCount":"5"},"url":"http:\/\/thelazyfox.rpgpubs.com","menu":{"type":"Menu","label":"Menu","anchor":"View Menu","url":"https:\/\/foursquare.com\/v\/the-lazy-fox\/50895e10e4b01b583fec0e72\/menu","mobileUrl":"https:\/\/foursquare.com\/v\/50895e10e4b01b583fec0e72\/device_menu"},"specials":{"count":"1","items":[{"id":"511a2cc990e75f2c940fc6f9","type":"frequency","message":"Get a Desert for FREE when a Main Course is ordered.","description":"Unlocked every 5 check-ins","finePrint":"Not to be used with another Special.","icon":"frequency","title":"Loyalty Special","provider":"foursquare","redemption":"standard","page":{"id":"40131128","firstName":"The Lazy Fox","gender":"none","photo":{"prefix":"https:\/\/irs0.4sqi.net\/img\/user\/","suffix":"\/40131128-XYI5NWWPIXEMQKY1.png"},"type":"venuePage","venue":{"id":"50895e10e4b01b583fec0e72"},"tips":{"count":"0"},"homeCity":"London","bio":"","contact":{"twitter":"lazyfoxfulham","facebook":"408050245928809"}}}]},"hereNow":{"count":"0"},"venuePage":{"id":"40131128"},"storeId":"","referralId":"v-1392478087"},{"id":"4ace3e99f964a52060cf20e3","name":"Earls Court Two","contact":{"phone":"+442073851200","formattedPhone":"+44 20 7385 1200","twitter":"ecovenues"},"location":{"address":"Warwick Rd.","lat":"51.487582985843034","lng":"-0.19895553588867188","distance":"562","postalCode":"SW5 9TA","cc":"GB","city":"London","state":"Greater London","country":"United Kingdom"},"categories":[{"id":"4bf58dd8d48988d171941735","name":"Event Space","pluralName":"Event Spaces","shortName":"Event Space","icon":{"prefix":"https:\/\/ss1.4sqi.net\/img\/categories_v2\/building\/eventspace_","suffix":".png"},"primary":"true"}],"verified":"true","restricted":"true","stats":{"checkinsCount":"2246","usersCount":"1680","tipCount":"15"},"specials":{"count":"0"},"hereNow":{"count":"0"},"referralId":"v-1392478087"},{"id":"4ac518bcf964a5209ba220e3","name":"Balans","contact":{"phone":"+442072448838","formattedPhone":"+44 20 7244 8838","twitter":"balanslondon"},"location":{"address":"239 Old Brompton Rd.","lat":"51.489426815409615","lng":"-0.1904153823852539","distance":"595","postalCode":"SW5 9HP","cc":"GB","city":"Earls Court","state":"Greater London","country":"United Kingdom"},"categories":[{"id":"4bf58dd8d48988d16d941735","name":"Caf\u00e9","pluralName":"Caf\u00e9s","shortName":"Caf\u00e9"}]}]}}